~Version Information
VERS.                      2.0: CWLS Log ASCII Standard - VERSION 2.0
WRAP.                       NO: One line per depth step
~Well Information Block
STRT.FT                -6.0000: 
STOP.FT              2490.5000: 
STEP.FT                 0.2500: 
NULL.                -999.2500: 
COMP.          Pioneer Natural Resources: COMPANY
WELL.          Aztec Federal 41-15: WELL
FLD.           Purgatorie River: FIELD
LOC.           706' FNL & 1253' FEL--: LOCATION
CNTY.               Las Animas: COUNTY
SRVC.          Superior Well Services: SERVICE COMPANY
DATE.          Wed May 28 14-18-16 2008: LOG DATE
UWI.           05 071 08342 00: UNIQUE WELL ID
STAT.                       CO: STATE
~Curve Information Block
DEPT.FT            0 000 00 00: Depth
GR.GAPI                       : Gamma Ray
CCL.                          : Casing Collar Locator
AMP3FT.mV                     : AMP3FT Amplitude
TT3FT.usec                    : 3FT Travel Time
AMP5FT.mV                     : AMP5FT Amplitude
~Parameter Information Block
~A  Depth        GR         CCL        AMP3FT      TT3FT       AMP5FT   
# ...
   974.0000     85.5316      0.0000     18.5379    336.7789      8.0943
   974.2500     87.1808      0.0000     18.6827    336.8277      8.1587
   974.5000     91.0193      0.0000     18.7816    336.9779      8.2735
   974.7500     96.5497      0.0000     18.8303    337.2044      8.4213
   975.0000    101.8004      0.0000     18.8466    337.4388      8.5526
   975.2500    104.7009      0.0000     18.8667    337.5936      8.6199
   975.5000    105.1513      0.0000     18.9284    337.6133      8.6105
   975.7500    104.9818      0.0000     19.0465    337.5128      8.5440
   976.0000    105.7658      0.0000     19.1973    337.3664      8.4438
   976.2500    107.3086      0.0000     19.3273    337.2547      8.3265
   976.5000    108.2958      0.0000     19.3833    337.2201      8.2186
   976.7500    107.7012      0.0000     19.3331    337.2734      8.1665
   977.0000    105.2950      0.0000     19.1699    337.4215      8.2095
   977.2500    101.3460      0.0000     18.9206    337.6611      8.3419
   977.5000     96.2928      0.0000     18.6626    337.9409      8.5134
   977.7500     90.6975      0.0000     18.5122    338.1585      8.6684
   978.0000     85.3317      0.0000     18.5677    338.2145      8.7785
   978.2500     81.1830      0.0000     18.8470    338.0747      8.8437
   978.5000     79.1663      0.0000     19.2782    337.7874      8.8766
   978.7500     79.5459      0.0000     19.7437    337.4519      8.8940
   979.0000     81.5482      0.0000     20.1308    337.1703      8.9134
   979.2500     83.7935      0.0000     20.3663    337.0102      8.9486
   979.5000     85.2296      0.0000     20.4373    336.9886      8.9991
   979.7500     85.7790      0.0000     20.3865    337.0801      9.0455
   980.0000     86.2991      0.0000     20.2752    337.2384      9.0617
   980.2500     87.8989      0.0000     20.1496    337.4109      9.0443
   980.5000     91.1825      0.0000     20.0490    337.5376      9.0341
   980.7500     96.2165      0.0000     20.0285    337.5532      9.0913
   981.0000    103.0819      0.0000     20.1476    337.4109      9.2388
   981.2500    111.8903      0.0000     20.4335    337.1139      9.4353
   981.5000    121.9584      0.0000     20.8637    336.7196      9.6077
   981.7500    131.3757      0.0000     21.3756    336.3118      9.6922
   982.0000    137.8810      0.0000     21.8776    335.9697      9.6364
   982.2500    140.2467      0.0000     22.2632    335.7510      9.3834
   982.5000    138.7984      0.0000     22.4332    335.6961      8.8920
   982.7500    134.8899      0.0000     22.3032    335.8751      8.1835
   983.0000    130.2165      0.0000     21.7887    336.6711      7.3557
   983.2500    126.3271      0.0000     20.8096    339.4665      6.5425
   983.5000    124.1653      0.0000     19.3488    347.4897      5.8561
   983.7500    123.8288      0.0000     17.5239    365.4656      5.3535
   984.0000    124.8039      0.0000     15.5884    396.0091      5.0337
   984.2500    126.2943      0.0000     13.8301    433.8628      4.8561
   984.5000    127.1226      0.0000     12.4389    465.1416      4.7656
   984.7500    125.5688      0.0000     11.4417    477.1256      4.7130
   985.0000    120.1124      0.0000     10.7346    471.0488      4.6639
   985.2500    110.9658      0.0000     10.1680    463.1129      4.5974
   985.5000    100.7018      0.0000      9.6266    471.3780      4.5024
   985.7500     92.6604      0.0000      9.0664    501.7483      4.3753
   986.0000     88.2492      0.0000      8.5108    545.3032      4.2195
   986.2500     85.9885      0.0000      8.0265    586.9905      4.0444
   986.5000     83.4013      0.0000      7.6984    616.5020      3.8617
   986.7500     79.5606      0.0000      7.6024    632.4681      3.6777
   987.0000     75.6475      0.0000      7.7674    639.1508      3.4930
   987.2500     73.6006      0.0000      8.1404    641.3254      3.3125
   987.5000     74.8195      0.0000      8.5908    641.8752      3.1514
   987.7500     79.8748      0.0000      8.9672    641.9834      3.0266
   988.0000     88.6149      0.0000      9.1683    642.0000      2.9445
   988.2500    100.0135      0.0000      9.1714    641.9835      2.9032
   988.5000    112.1038      0.0000      9.0094    641.8925      2.8994
   988.7500    122.6349      0.0000      8.7304    641.4539      2.9244
   989.0000    130.2263      0.0000      8.3784    639.8401      2.9529
   989.2500    134.8872      0.0000      7.9996    635.3471      2.9560
   989.5000    137.4557      0.0000      7.6413    626.0406      2.9307
   989.7500    138.7815      0.0000      7.3143    612.1838      2.9040
   990.0000    139.2688      0.0000      6.9611    598.6177      2.8986
   990.2500    138.8001      0.0000      6.5092    592.8415      2.9061
   990.5000    137.1601      0.0000      5.9839    598.6177      2.8983
   990.7500    134.5878      0.0000      5.5263    612.1838      2.8546
   991.0000    131.5326      0.0000      5.2679    626.0406      2.7749
   991.2500    128.0085      0.0000      5.2145    635.3471      2.6752
   991.5000    123.8587      0.0000      5.2668    639.8401      2.5786
   991.7500    119.6714      3.3569      5.3210    641.4539      2.5040
   992.0000    116.6998      1.0449      5.3434    641.8925      2.4558
   992.2500    115.8350      0.0000      5.3787    641.9835      2.4268
   992.5000    117.2684      0.0000      5.4976    642.0000      2.4116
   992.7500    120.9656      0.0000      5.7110    642.0000      2.4150
   993.0000    126.6037      0.0000      5.9277    642.0000      2.4454
   993.2500    132.9182      0.0000      6.0221    642.0000      2.5009
   993.5000    137.9135      0.0000      5.9478    642.0000      2.5678
   993.7500    140.1736      0.0000      5.7670    642.0000      2.6294
   994.0000    139.6522      0.0000      5.5679    642.0000      2.6749
   994.2500    137.0853      0.0000      5.3847    642.0000      2.6989
   994.5000    133.3739      0.0000      5.2075    641.9950      2.7003
   994.7500    129.8356      0.0000      5.0392    641.9584      2.6829
   995.0000    128.1787      0.0000      4.9180    641.7761      2.6545
   995.2500    129.2530      0.0000      4.8880    641.0495      2.6226
   995.5000    132.0141      0.0000      4.9620    638.8148      2.5911
   995.7500    134.5531      0.0000      5.1197    633.5660      2.5605
   996.0000    136.2012      0.0000      5.3333    624.3409      2.5335
   996.2500    137.9539      0.0000      5.5840    612.7522      2.5216
   996.5000    140.6454      0.0000      5.8514    603.6868      2.5419
   996.7500    143.3547      0.0000      6.1052    602.3237      2.6029
   997.0000    144.2347      0.0000      6.3205    609.5282      2.6959
   997.2500    142.7595      0.0000      6.4980    620.9047      2.8009
   997.5000    140.6829      0.0000      6.6635    630.6694      2.9017
   997.7500    140.5774      0.0000      6.8436    635.5744      2.9948
   998.0000    143.3021      0.0000      7.0450    635.4302      3.0860
   998.2500    146.7581      0.0000      7.2575    631.8836      3.1816
   998.5000    147.1261      0.0000      7.4704    627.6935      3.2794
   998.7500    141.5046      0.0000      7.6786    625.8344      3.3688
   999.0000    129.6895      0.0000      7.8766    627.6281      3.4411
   999.2500    113.9809      0.0000      8.0594    631.5096      3.5016
   999.5000     97.7050      0.0000      8.2329    633.7687      3.5702
   999.7500     83.6145      0.0000      8.4181    629.6660      3.6684
  1000.0000     72.9125      0.0000      8.6524    613.6517      3.8048
  1000.2500     65.2789      0.0000      8.9874    580.7448      3.9752
  1000.5000     59.6422      0.0000      9.4664    530.8124      4.1700
  1000.7500     55.0213      0.0000     10.0779    472.0166      4.3791
  1001.0000     51.0997      0.0000     10.7359    417.7296      4.5958
  1001.2500     48.4373      0.0000     11.3322    378.2653      4.8256
  1001.5000     48.0850      0.0000     11.8223    355.5558      5.0888
  1001.7500     50.6742      0.0000     12.2549    345.0444      5.3977
