~Version Information
VERS.                      2.0: CWLS Log ASCII Standard - VERSION 2.0
WRAP.                       NO: One line per depth step
~Well Information Block
STRT.FT               387.1000: 
STOP.FT              1748.0000: 
STEP.FT                 0.1000: 
NULL.                -999.2500: 
COMP.          Evergreen Operating Corp.: COMPANY
WELL.          Pachorek 13-31 Tr: WELL
FLD.           Cottontail Pass: FIELD
LOC.           1575' FSL & 900' FWL--API# 05-071-07019-00: LOCATION
PROV.                 Colorado: PROVINCE
CNTY.               Las Animas: COUNTRY
SRVC.          Scientific Data Systems, Inc.: SERVICE COMPANY
DATE.          Tue Aug 08 15:02:37 2000: LOG DATE
UWI.                      05071070190000:UNIQUE WELL IDENTIFICATION
~Curve Information Block
DEPT.FT            0 000 00 00: Depth
DCAL.in                       : CDL Caliper
RHOB.g/cc                     : CDL Bulk Density
RHOC.g/cc                     : CDL Density Correction
DPOR.pu                       : CDL Density Porosity
GR.GAPI                       : Gamma Ray
NPOR.pu                       : Neutron Porosity
~Parameter Information Block
~A  Depth       DCAL        RHOB        RHOC        DPOR         GR         NPOR    
# ...
   838.3000      7.9362      2.5712     -0.0256      4.7731    140.8211     25.9361
   838.4000      7.9362      2.5711     -0.0235      4.7813    141.6555     26.1570
   838.5000      7.9461      2.5715     -0.0207      4.7557    142.6687     26.4118
   838.6000      7.9461      2.5725     -0.0175      4.6998    143.7335     26.6815
   838.7000      7.9461      2.5738     -0.0140      4.6189    144.7530     26.9491
   838.8000      7.9467      2.5754     -0.0104      4.5192    145.6584     27.2004
   838.9000      7.9467      2.5773     -0.0070      4.4077    146.4178     27.4252
   839.0000      7.9395      2.5792     -0.0039      4.2912    147.0338     27.6170
   839.1000      7.9395      2.5811     -0.0013      4.1761    147.5232     27.7734
   839.2000      7.9395      2.5829      0.0006      4.0676    147.9095     27.8940
   839.3000      7.9310      2.5845      0.0017      3.9695    148.2095     27.9806
   839.4000      7.9310      2.5859      0.0020      3.8838    148.4253     28.0363
   839.5000      7.9245      2.5871      0.0014      3.8109    148.5422     28.0653
   839.6000      7.9245      2.5881     -0.0000      3.7493    148.5309     28.0732
   839.7000      7.9245      2.5890     -0.0020      3.6959    148.3653     28.0662
   839.8000      7.9167      2.5898     -0.0045      3.6464    148.0217     28.0519
   839.9000      7.9167      2.5907     -0.0072      3.5960    147.4970     28.0383
   840.0000      7.9093      2.5916     -0.0098      3.5394    146.8077     28.0329
   840.1000      7.9093      2.5927     -0.0121      3.4718    145.9911     28.0421
   840.2000      7.9093      2.5941     -0.0140      3.3892    145.0983     28.0705
   840.3000      7.9075      2.5957     -0.0152      3.2890    144.1879     28.1198
   840.4000      7.9075      2.5977     -0.0157      3.1702    143.3215     28.1893
   840.5000      7.9134      2.5999     -0.0156      3.0341    142.5536     28.2751
   840.6000      7.9134      2.6024     -0.0148      2.8833    141.9297     28.3710
   840.7000      7.9134      2.6051     -0.0136      2.7229    141.4909     28.4692
   840.8000      7.9220      2.6078     -0.0121      2.5588    141.2692     28.5604
   840.9000      7.9220      2.6104     -0.0107      2.3983    141.2910     28.6346
   841.0000      7.9211      2.6129     -0.0095      2.2490    141.5740     28.6822
   841.1000      7.9211      2.6150     -0.0087      2.1187    142.1212     28.6937
   841.2000      7.9211      2.6168     -0.0085      2.0141    142.9225     28.6616
   841.3000      7.9124      2.6180     -0.0089      1.9413    143.9457     28.5805
   841.4000      7.9124      2.6186     -0.0099      1.9049    145.1402     28.4485
   841.5000      7.9072      2.6185     -0.0114      1.9081    146.4415     28.2679
   841.6000      7.9072      2.6178     -0.0130      1.9526    147.7741     28.0449
   841.7000      7.9072      2.6164     -0.0146      2.0393    149.0633     27.7901
   841.8000      7.9102      2.6142     -0.0159      2.1682    150.2446     27.5176
   841.9000      7.9102      2.6114     -0.0169      2.3390    151.2723     27.2428
   842.0000      7.9189      2.6079     -0.0173      2.5518    152.1236     26.9819
   842.1000      7.9189      2.6037     -0.0174      2.8072    152.8012     26.7500
   842.2000      7.9189      2.5987     -0.0171      3.1072    153.3370     26.5594
   842.3000      7.9276      2.5930     -0.0167      3.4548    153.7836     26.4192
   842.4000      7.9276      2.5864     -0.0163      3.8546    154.2075     26.3342
   842.5000      7.9362      2.5788     -0.0162      4.3122    154.6860     26.3051
   842.6000      7.9362      2.5702     -0.0166      4.8342    155.2893     26.3285
   842.7000      7.9362      2.5605     -0.0176      5.4271    156.0759     26.3968
   842.8000      7.9509      2.5494     -0.0192      6.0969    157.0760     26.4990
   842.9000      7.9509      2.5370     -0.0217      6.8479    158.2875     26.6218
   843.0000      7.9720      2.5233     -0.0250      7.6813    159.6702     26.7501
   843.1000      7.9720      2.5082     -0.0292      8.5950    161.1487     26.8691
   843.2000      7.9720      2.4919     -0.0343      9.5818    162.6267     26.9647
   843.3000      7.9884      2.4746     -0.0401     10.6293    163.9999     27.0264
   843.4000      7.9884      2.4566     -0.0463     11.7195    165.1780     27.0473
   843.5000      7.9923      2.4383     -0.0527     12.8291    166.1001     27.0254
   843.6000      7.9923      2.4201     -0.0587     13.9303    166.7515     26.9636
   843.7000      7.9923      2.4026     -0.0637     14.9921    167.1702     26.8692
   843.8000      7.9865      2.3863     -0.0671     15.9819    167.4356     26.7529
   843.9000      7.9865      2.3717     -0.0684     16.8678    167.6591     26.6274
   844.0000      7.9740      2.3593     -0.0670     17.6206    167.9665     26.5062
   844.1000      7.9740      2.3494     -0.0625     18.2155    168.4689     26.4016
   844.2000      7.9740      2.3425     -0.0550     18.6345    169.2493     26.3250
   844.3000      7.9581      2.3387     -0.0445     18.8674    170.3443     26.2852
   844.4000      7.9581      2.3379     -0.0315     18.9126    171.7407     26.2891
   844.5000      7.9440      2.3402     -0.0164     18.7774    173.3742     26.3414
   844.6000      7.9440      2.3451     -0.0001     18.4776    175.1482     26.4448
   844.7000      7.9440      2.3524      0.0168     18.0364    176.9408     26.6001
   844.8000      7.9299      2.3615      0.0335     17.4835    178.6261     26.8053
   844.9000      7.9299      2.3719      0.0490     16.8535    180.0881     27.0559
   845.0000      7.9117      2.3830      0.0629     16.1838    181.2376     27.3442
   845.1000      7.9117      2.3940      0.0745     15.5131    182.0164     27.6590
   845.2000      7.9117      2.4045      0.0833     14.8802    182.4037     27.9859
   845.3000      7.8920      2.4137      0.0891     14.3217    182.4099     28.3079
   845.4000      7.8920      2.4211      0.0919     13.8712    182.0755     28.6074
   845.5000      7.8790      2.4263      0.0915     13.5580    181.4584     28.8671
   845.6000      7.8790      2.4288      0.0882     13.4060    180.6217     29.0725
   845.7000      7.8790      2.4284      0.0822     13.4326    179.6333     29.2130
   845.8000      7.8780      2.4248      0.0740     13.6482    178.5449     29.2835
   845.9000      7.8780      2.4181      0.0638     14.0551    177.3929     29.2841
   846.0000      7.8829      2.4083      0.0522     14.6473    176.1995     29.2206
   846.1000      7.8829      2.3957      0.0395     15.4098    174.9715     29.1025
   846.2000      7.8829      2.3807      0.0261     16.3190    173.7088     28.9425
   846.3000      7.8918      2.3638      0.0123     17.3428    172.4124     28.7545
   846.4000      7.8918      2.3457     -0.0014     18.4417    171.0884     28.5526
   846.5000      7.9070      2.3271     -0.0144     19.5709    169.7606     28.3501
   846.6000      7.9070      2.3088     -0.0262     20.6815    168.4632     28.1586
   846.7000      7.9070      2.2916     -0.0362     21.7238    167.2440     27.9879
   846.8000      7.9265      2.2763     -0.0435     22.6502    166.1563     27.8461
   846.9000      7.9265      2.2636     -0.0474     23.4185    165.2578     27.7392
   847.0000      7.9424      2.2541     -0.0474     23.9942    164.5990     27.6715
   847.1000      7.9424      2.2482     -0.0430     24.3540    164.2241     27.6449
   847.2000      7.9424      2.2460     -0.0342     24.4870    164.1635     27.6595
   847.3000      7.9455      2.2475     -0.0211     24.3959    164.4362     27.7126
   847.4000      7.9455      2.2524     -0.0044     24.0962    165.0461     27.7999
   847.5000      7.9348      2.2603      0.0148     23.6157    165.9831     27.9147
   847.6000      7.9348      2.2706      0.0353     22.9915    167.2177     28.0487
   847.7000      7.9348      2.2826      0.0557     22.2668    168.7125     28.1926
   847.8000      7.9128      2.2955      0.0747     21.4873    170.4120     28.3373
