~Version Information
VERS.                      2.0: CWLS Log ASCII Standard - VERSION 2.0
WRAP.                       NO: One line per depth step
~Well Information Block
STRT.FT               298.0000: 
STOP.FT              1302.0000: 
STEP.FT                 0.1000: 
NULL.                -999.2500: 
COMP.          Pioneer Natural Resources: COMPANY
WELL.          Bouncer 41-27 Tr: WELL
FLD.           Purgatoire River: FIELD
LOC.           292' FNL & 222' FEL: LOCATION
PROV.                 Colorado: PROVINCE
CNTY.               Las Animas: COUNTRY
SRVC.                Patterson: SERVICE COMPANY
DATE.          Mon Feb 07 12:55:19 2005: LOG DATE
UWI.           05 071 08291 00: UNIQUE WELL ID
~Curve Information Block
DEPT.FT            0 000 00 00: Depth
DCAL.in                       : CDL Caliper
RHOB.g/cc                     : CDL Bulk Density
RHOC.g/cc                     : CDL Density Correction
DPOR.pu                       : CDL Density Porosity
GR.GAPI                       : Gamma Ray
NPOR.pu                       : Neutron Porosity
~Parameter Information Block
~A  Depth       DCAL        RHOB        RHOC        DPOR         GR         NPOR    
# ...
   624.4000      7.9472      2.5319      0.1137      7.1569     93.9381     23.3356
   624.5000      7.9478      2.5321      0.0915      7.1451     95.3680     23.5330
   624.6000      7.9478      2.5614      0.1712      5.3718     95.8177     23.4341
   624.7000      7.9478      2.5853      0.1564      3.9219    100.4693     23.1185
   624.8000      7.9487      2.5798      0.1449      4.2572    104.8002     23.0341
   624.9000      7.9487      2.5541      0.1137      5.8091    103.3113     23.2629
   625.0000      7.9606      2.5235      0.0565      7.6670     99.0341     23.4105
   625.1000      7.9606      2.5012      0.0066      9.0205     94.2924     23.5159
   625.2000      7.9606      2.5031      0.0634      8.9048     89.2460     23.7082
   625.3000      7.9522      2.5247      0.0727      7.5966     86.1601     23.7067
   625.4000      7.9522      2.5433      0.0731      6.4692     87.4440     23.6790
   625.5000      7.9584      2.5498      0.0716      6.0757     89.5352     23.9406
   625.6000      7.9584      2.5523      0.0613      5.9182     87.7898     24.1176
   625.7000      7.9584      2.5579      0.0636      5.5844     85.2490     23.8357
   625.8000      7.9909      2.5600      0.0525      5.4528     88.3369     23.4155
   625.9000      7.9909      2.5468      0.0699      6.2557     96.4442     23.3233
   626.0000      7.9920      2.5201      0.0412      7.8704    100.4303     23.5948
   626.1000      7.9920      2.4980      0.0380      9.2122     94.8720     23.8199
   626.2000      7.9920      2.4883      0.0351      9.7974     85.8481     23.7265
   626.3000      7.9759      2.4816      0.0169     10.2047     82.6255     23.8071
   626.4000      7.9759      2.4689      0.0317     10.9766     87.0367     24.3826
   626.5000      8.0065      2.4624     -0.0169     11.3687     92.5029     24.7711
   626.6000      8.0065      2.4782      0.0325     10.4147     94.5803     24.5804
   626.7000      8.0065      2.4981      0.0536      9.2077     96.8010     24.2539
   626.8000      8.0444      2.4972      0.0383      9.2586    101.7702     24.1906
   626.9000      8.0444      2.4862     -0.0112      9.9255    105.5686     24.2169
   627.0000      8.0561      2.4877     -0.0080      9.8354    104.6540     23.8074
   627.1000      8.0561      2.5018      0.0245      8.9795    101.5014     23.2679
   627.2000      8.0561      2.5165      0.0172      8.0912     98.8107     23.4817
   627.3000      8.0614      2.5300      0.0289      7.2718     98.5176     24.4338
   627.4000      8.0614      2.5457      0.0547      6.3206    101.3422     25.3714
   627.5000      8.0811      2.5546      0.1037      5.7803    101.8855     25.6827
   627.6000      8.0811      2.5562      0.0187      5.6876     98.2056     25.0936
   627.7000      8.0811      2.5636      0.0632      5.2358     96.6090     24.1624
   627.8000      8.0582      2.5736      0.0418      4.6287     98.0403     23.7394
   627.9000      8.0582      2.5746      0.0901      4.5696     98.9815     23.9411
   628.0000      7.9929      2.5620      0.0640      5.3358     99.8034     24.4611
   628.1000      7.9929      2.5372      0.0393      6.8338    101.2446     24.6832
   628.2000      7.9929      2.5019      0.0615      8.9770    102.9832     24.2598
   628.3000      7.9868      2.4718     -0.0121     10.8005    104.9370     23.7177
   628.4000      7.9868      2.4767     -0.0099     10.5057    105.6577     23.5333
   628.5000      7.9924      2.5177      0.0236      8.0184    105.7944     23.6504
   628.6000      7.9924      2.5686      0.0983      4.9333    104.5497     23.7754
   628.7000      7.9924      2.6077      0.0967      2.5642     99.8771     23.5655
   628.8000      7.9966      2.6238      0.1558      1.5907     96.0345     23.0466
   628.9000      7.9966      2.6192      0.1156      1.8689     95.7572     22.7515
   629.0000      7.9855      2.6114      0.1460      2.3401     96.4886     22.9616
   629.1000      7.9855      2.6102      0.1511      2.4151     96.3722     23.1894
   629.2000      7.9855      2.6091      0.1031      2.4781     94.8822     22.9448
   629.3000      7.9860      2.5998      0.0725      3.0422     93.8951     22.5960
   629.4000      7.9860      2.5856      0.0564      3.9051     96.3241     22.6569
   629.5000      8.0092      2.5739      0.0637      4.6120    100.7531     22.9634
   629.6000      8.0092      2.5607      0.0923      5.4138    103.9781     23.0867
   629.7000      8.0092      2.5426      0.0614      6.5083    105.4388     22.9636
   629.8000      8.0204      2.5256      0.0878      7.5423    106.5324     22.8316
   629.9000      8.0204      2.5120      0.0521      8.3634    108.2522     22.7985
   630.0000      8.0275      2.5022      0.0385      8.9594    107.7926     22.9741
   630.1000      8.0275      2.4972      0.0499      9.2593    103.0588     23.4551
   630.2000      8.0275      2.4980      0.0672      9.2131     98.2365     23.8237
   630.3000      8.0060      2.5097      0.0131      8.5058     98.9466     23.6474
   630.4000      8.0060      2.5321      0.0870      7.1477    104.6606     23.2111
   630.5000      8.0056      2.5439      0.1215      6.4306    109.2126     23.0131
   630.6000      8.0056      2.5404      0.0554      6.6454    107.3353     23.2029
   630.7000      8.0056      2.5433      0.0874      6.4685     99.8408     23.6269
   630.8000      8.0012      2.5469      0.0924      6.2479     95.6082     23.8675
   630.9000      8.0012      2.5253      0.0648      7.5551     99.2003     23.7560
   631.0000      7.9904      2.4848      0.0287     10.0147    101.6543     23.5776
   631.1000      7.9904      2.4572      0.0305     11.6858     99.0386     23.6719
   631.2000      7.9904      2.4562      0.0148     11.7460     98.8786     24.0157
   631.3000      8.0004      2.4698      0.0278     10.9197    101.7224     23.9862
   631.4000      8.0004      2.4891      0.0559      9.7511    101.6814     23.3736
   631.5000      7.9932      2.5144      0.0586      8.2161    100.9821     22.8660
   631.6000      7.9932      2.5353      0.0726      6.9520    104.1878     22.8065
   631.7000      7.9932      2.5361      0.0727      6.9038    106.0097     22.7890
   631.8000      8.0012      2.5214      0.0447      7.7935    102.5763     22.8383
   631.9000      8.0012      2.4992      0.0582      9.1371    101.2593     23.1879
   632.0000      8.0033      2.4697      0.0339     10.9289    107.0566     23.3991
   632.1000      8.0033      2.4514      0.0163     12.0391    115.0483     23.3259
   632.2000      8.0033      2.4619      0.0172     11.3978    121.2948     23.4709
   632.3000      8.0022      2.4905      0.0498      9.6641    125.5243     23.9182
   632.4000      8.0022      2.5154      0.0643      8.1582    124.5970     24.0826
   632.5000      7.9997      2.5262      0.0621      7.5045    117.2291     23.7766
   632.6000      7.9997      2.5258      0.0575      7.5248    108.0001     23.5231
   632.7000      7.9997      2.5141      0.0606      8.2369    101.0824     23.5854
   632.8000      7.9999      2.4926      0.0003      9.5375     96.6155     23.8316
   632.9000      7.9999      2.4749      0.0484     10.6109     94.1064     23.9275
   633.0000      8.0010      2.4750      0.0100     10.6060     92.2738     23.9138
   633.1000      8.0010      2.5010     -0.0080      9.0328     89.3751     24.2103
   633.2000      8.0010      2.5362      0.1005      6.8945     87.4872     24.5214
   633.3000      7.9852      2.5510      0.0455      6.0016     90.8698     24.2137
   633.4000      7.9852      2.5376      0.0551      6.8100     98.9522     23.4365
   633.5000      7.9754      2.5097      0.0414      8.5019    103.9777     22.9678
   633.6000      7.9754      2.4909      0.0064      9.6436    101.5613     23.3198
   633.7000      7.9754      2.4903     -0.0041      9.6797     98.5726     24.1431
   633.8000      7.9662      2.4901      0.0105      9.6930    101.1261     24.7005
   633.9000      7.9662      2.4852     -0.0004      9.9890    105.7303     24.6873
