~Version Information
VERS.                      2.0: CWLS Log ASCII Standard - VERSION 2.0
WRAP.                       NO: One line per depth step
~Well Information Block
STRT.FT               550.0000: 
STOP.FT              2042.5000: 
STEP.FT                 0.2500: 
NULL.                -999.2500: 
COMP.          Petrogulf Corporation: COMPANY
WELL.          Robinson 15-12V: WELL
FLD.           Purgatorie River: FIELD
LOC.           1788' FNL & 466' FWL: LOCATION
PROV.                 Colorado: PROVINCE
CNTY.               Las Animas: COUNTRY
SRVC.                Patterson: SERVICE COMPANY
DATE.          Mon Sep 12 10:04:59 2005: LOG DATE
UWI.                          : UNIQUE WELL ID
~Curve Information Block
DEPT.FT            0 000 00 00: Depth
SP.mV                         : DIL Spontaneous Potential
RILD.Ohm-m                    : DIL Deep Resistivity
RILM.Ohm-m                    : DIL Medium Resistivity
RLL3.Ohm-m                    : DIL Shallow Resistivity
GR.GAPI                       : Gamma Ray
~Parameter Information Block
~A  Depth        SP         RILD        RILM        RLL3         GR     
# ...
  1138.0000    157.1820     15.6801     17.0622     20.3154     96.9037
  1138.2500    156.7246     16.7395     17.5944     20.3943     94.3951
  1138.5000    157.4959     18.0449     18.4461     21.1265     98.9769
  1138.7500    157.1244     19.1252     20.4062     21.5224     93.5866
  1139.0000    157.6705     19.9732     20.6413     21.9701     80.8256
  1139.2500    157.8882     20.7229     22.7860     22.6866     86.5862
  1139.5000    156.7868     21.2988     25.0103     24.3163     89.3083
  1139.7500    157.1589     22.1148     25.4239     26.4404     93.9066
  1140.0000    157.4562     23.2388     25.8654     28.2171    102.2695
  1140.2500    157.0043     22.6160     27.6392     29.5380    103.1411
  1140.5000    156.5232     23.5536     27.7713     29.7184     90.3866
  1140.7500    156.8313     23.1485     28.0965     31.1028     99.0465
  1141.0000    155.9523     23.7355     30.6984     32.9604    114.6039
  1141.2500    155.2078     24.3090     29.2010     36.9289     96.4022
  1141.5000    155.7037     25.0268     30.5311     39.4246     96.6352
  1141.7500    155.9070     24.7271     32.8813     40.3284     95.9005
  1142.0000    155.1364     25.0870     33.0404     40.4452     97.5013
  1142.2500    154.4510     26.3443     30.5691     40.2867     96.9129
  1142.5000    155.1077     25.5836     31.3564     40.5379    101.6447
  1142.7500    154.3762     26.8118     31.4071     40.6115     99.5513
  1143.0000    153.8182     26.5041     32.4377     39.7795     85.7874
  1143.2500    154.5545     25.7487     33.3243     39.2248     92.4195
  1143.5000    154.3164     26.7841     33.1967     39.9793     83.7424
  1143.7500    153.7525     26.3212     31.9806     40.7000     83.9750
  1144.0000    154.4170     25.1221     33.7045     39.4986     96.7793
  1144.2500    153.8074     24.0499     32.3884     39.6938     99.5701
  1144.5000    153.0659     24.3401     32.0139     39.7942    109.6281
  1144.7500    153.7527     24.5351     30.1626     36.3079    113.4393
  1145.0000    153.9083     23.9698     29.5494     31.2091    116.8080
  1145.2500    153.5597     24.1889     27.8106     27.6198    103.0338
  1145.5000    153.2723     22.2103     26.9416     27.1179     99.9323
  1145.7500    153.8272     21.1552     25.7915     26.7116    106.4490
  1146.0000    153.5597     21.4428     23.1853     23.9453    108.4945
  1146.2500    153.1239     20.7936     23.0556     21.3095    115.8461
  1146.5000    153.0677     20.5624     21.0847     19.1855    128.8694
  1146.7500    153.7356     20.3247     20.5863     17.5743    130.0475
  1147.0000    153.5865     19.4894     20.3178     16.5225    136.5311
  1147.2500    153.6128     18.1085     19.0574     16.3254    136.9513
  1147.5000    154.8806     19.1108     18.8918     16.7093    137.0350
  1147.7500    155.1142     19.1626     19.2055     17.8865    138.1229
  1148.0000    155.1889     18.9739     19.4349     18.7533    134.2824
  1148.2500    155.8059     19.5581     18.6628     18.2073    137.0247
  1148.5000    155.4370     19.2468     18.5663     15.9646    143.1745
  1148.7500    156.0524     19.1803     18.8981     15.0085    139.1489
  1149.0000    155.1356     19.5675     19.3051     18.7998    119.6124
  1149.2500    155.2707     19.6662     20.9202     26.4797    107.4266
  1149.5000    156.0865     19.6643     22.2172     32.4900    101.6210
  1149.7500    155.5983     20.4622     22.2640     30.8856     94.5409
  1150.0000    155.7754     20.3042     22.7407     27.5173     97.1984
  1150.2500    156.9788     20.0623     23.0227     26.2446     91.4033
  1150.5000    156.5470     21.1167     23.6900     25.8691    100.0797
  1150.7500    157.2457     21.9604     24.5220     25.6814     97.0981
  1151.0000    156.9703     22.6957     26.8121     26.2250     93.0161
  1151.2500    156.7476     23.0276     25.7911     26.6298     92.1831
  1151.5000    157.6892     22.9454     25.8847     27.8066     86.9821
  1151.7500    157.0747     22.7755     26.7051     29.3922     85.1771
  1152.0000    157.3570     23.7195     26.4257     29.2977     88.8923
  1152.2500    157.8011     23.8923     26.8291     27.5178     92.6221
  1152.5000    157.2151     24.1915     27.2965     25.3849     93.6533
  1152.7500    157.5933     24.9206     27.0618     24.1413     98.3610
  1153.0000    158.0033     24.4823     27.5191     24.4667     98.3248
  1153.2500    158.6753     23.3667     28.2147     26.2046     89.8498
  1153.5000    158.3971     23.4637     27.4677     28.1257     99.2570
  1153.7500    157.9714     23.8368     29.1058     31.8274     98.4216
  1154.0000    159.0904     23.6137     29.3973     35.1846     87.8274
  1154.2500    158.8559     22.3699     28.6140     32.6548     89.0872
  1154.5000    158.7350     21.7247     28.1011     29.1053     89.1065
  1154.7500    159.3869     22.8074     28.2367     29.2860     89.8353
  1155.0000    159.4789     23.0664     28.0017     31.2394     96.0603
  1155.2500    158.5277     22.9983     27.9218     30.0945    101.6316
  1155.5000    158.5632     21.7606     28.8972     26.7185     90.5438
  1155.7500    158.8387     23.0444     26.4305     25.0128     92.6352
  1156.0000    158.3828     22.8868     26.4720     25.8339    100.3963
  1156.2500    159.2392     22.9492     25.7878     28.4189    105.9141
  1156.5000    158.9197     22.4454     25.1867     27.6133    106.8132
  1156.7500    159.9216     22.3231     25.1300     22.5264    115.0119
  1157.0000    160.7462     22.3102     25.4692     20.9891    112.6422
  1157.2500    160.5313     22.0793     24.7083     21.4347    108.8137
  1157.5000    161.5820     20.8500     25.0581     23.2212    104.4978
  1157.7500    161.2783     21.2027     25.5642     23.6264    104.6219
  1158.0000    160.6918     21.0605     25.4622     21.0826    116.1738
  1158.2500    160.8934     21.7517     26.2566     20.1797    106.8945
  1158.5000    159.9338     21.2992     24.6677     22.2423    106.8868
  1158.7500    159.3235     21.0142     24.8437     25.6449    109.3168
  1159.0000    159.3058     21.3103     25.3297     28.8986    105.6930
  1159.2500    160.0140     20.6371     25.5421     33.1941    108.5271
  1159.5000    160.0221     21.2736     23.1817     30.1061    115.7876
  1159.7500    159.7512     19.4845     22.9391     23.1304    127.7223
  1160.0000    160.7148     20.3647     22.6319     17.2663    136.2216
  1160.2500    161.2592     19.3511     21.9480     16.5268    138.5440
  1160.5000    161.1576     19.6385     21.8217     17.6350    123.6917
  1160.7500    161.3265     19.4630     22.3388     19.7859    125.5102
  1161.0000    161.6536     19.3482     21.9138     20.2604    118.1257
  1161.2500    160.9650     18.9907     23.2697     19.2322    121.5310
  1161.5000    161.3173     18.7330     22.1510     18.9409    119.9246
  1161.7500    161.3702     17.7474     22.5876     20.1203    120.9854
  1162.0000    161.0618     17.1971     21.5713     21.8465    122.3670
  1162.2500    162.2161     16.2630     21.0354     21.9924    132.6739
  1162.5000    161.9954     14.7810     20.5239     19.3992    122.6447
  1162.7500    162.4465     14.6486     18.6664     17.2406    133.2987
  1163.0000    162.9252     13.9176     17.3629     16.3945    149.6839
  1163.2500    162.1795     13.2277     16.0773     16.0227    158.0377
  1163.5000    162.5737     12.9311     15.7315     15.3585    161.5914
  1163.7500    162.3039     12.1030     13.9919     13.8372    164.6113
  1164.0000    161.6163     12.0255     13.0901     12.1095    170.4725
  1164.2500    162.3450     11.4437     11.9722     10.7353    170.6555
  1164.5000    161.5692     11.1054     11.2347      9.7147    185.6290
  1164.7500    161.5635     10.7286     10.5701      9.4876    190.5253
  1165.0000    162.3312     10.4346     10.0372      9.2950    182.7543
  1165.2500    162.5707     10.2409      9.7070      9.2179    191.7222
  1165.5000    163.0108      9.9839      9.4123      9.2622    178.9802
  1165.7500    162.7866     10.0136      9.1655      9.4116    184.1028
