~Version Information
VERS.                      2.0: CWLS Log ASCII Standard - VERSION 2.0
WRAP.                       NO: One line per depth step
~Well Information Block
STRT.FT               860.0000: 
STOP.FT              2733.7500: 
STEP.FT                 0.2500: 
NULL.                -999.2500: 
COMP.          Pioneer Natural Resources: COMPANY
WELL.          Beacon 11-18 Tr: WELL
FLD.           Purgatoire River: FIELD
LOC.           409' FNL & 203' FWL: LOCATION
PROV.                 Colorado: PROVINCE
CNTY.               Las Animas: COUNTRY
SRVC.                Patterson: SERVICE COMPANY
DATE.          Sun Jan 16 19:36:19 2005: LOG DATE
UWI.           05 071 08251 00: UNIQUE WELL ID
~Curve Information Block
DEPT.FT            0 000 00 00: Depth
SN.Ohm-m                      : IEL Short Normal
SP.mV                         : IEL Spontaneous Potential
DIR.Ohm-m                     : IEL Induction Resistivity
GR.GAPI                       : Gamma Ray
~Parameter Information Block
~A  Depth        SN          SP         DIR          GR     
# ...
  1228.5000   2000.0000   2000.0000     26.3778     89.2247
  1228.7500   2000.0000   2000.0000     26.2582     89.2807
  1229.0000   2000.0000   2000.0000     26.1539     86.2231
  1229.2500   2000.0000   2000.0000     26.0572     82.9636
  1229.5000   2000.0000   2000.0000     25.9670     78.5775
  1229.7500   2000.0000   2000.0000     25.8946     77.0035
  1230.0000   2000.0000   2000.0000     25.8583     76.6987
  1230.2500   2000.0000   2000.0000     25.8720     77.0187
  1230.5000   2000.0000   2000.0000     25.9340     76.5405
  1230.7500   2000.0000   2000.0000     26.0240     75.0021
  1231.0000   2000.0000   2000.0000     26.1073     71.0422
  1231.2500   2000.0000   2000.0000     26.1463     67.9711
  1231.5000   2000.0000   2000.0000     26.1056     64.2493
  1231.7500   2000.0000   2000.0000     25.9484     63.1100
  1232.0000   2000.0000   2000.0000     25.6350     64.0540
  1232.2500   2000.0000   2000.0000     25.1415     66.5067
  1232.5000   2000.0000   2000.0000     24.4895     72.8237
  1232.7500   2000.0000   2000.0000     23.7521     78.6727
  1233.0000   2000.0000   2000.0000     23.0238     89.1578
  1233.2500   2000.0000   2000.0000     22.3798     96.2936
  1233.5000   2000.0000   2000.0000     21.8591    104.8616
  1233.7500   2000.0000   2000.0000     21.4760    108.0369
  1234.0000   2000.0000   2000.0000     21.2386    108.5811
  1234.2500   2000.0000   2000.0000     21.1553    106.7727
  1234.5000   2000.0000   2000.0000     21.2259    102.5756
  1234.7500   2000.0000   2000.0000     21.4269     99.7285
  1235.0000   2000.0000   2000.0000     21.7078     96.3074
  1235.2500   2000.0000   2000.0000     22.0043     94.6029
  1235.5000   2000.0000   2000.0000     22.2670     92.1183
  1235.7500   2000.0000   2000.0000     22.4798     89.9045
  1236.0000   2000.0000   2000.0000     22.6516     85.2349
  1236.2500   2000.0000   2000.0000     22.7895     81.3110
  1236.5000   2000.0000   2000.0000     22.8841     74.5934
  1236.7500   2000.0000   2000.0000     22.9269     69.8712
  1237.0000   2000.0000   2000.0000     22.9380     63.3718
  1237.2500   2000.0000   2000.0000     22.9674     60.0766
  1237.5000   2000.0000   2000.0000     23.0602     57.0880
  1237.7500   2000.0000   2000.0000     23.2202     56.0125
  1238.0000   2000.0000   2000.0000     23.4069     54.7305
  1238.2500   2000.0000   2000.0000     23.5651     53.7688
  1238.5000   2000.0000   2000.0000     23.6573     52.3212
  1238.7500   2000.0000   2000.0000     23.6718     51.6384
  1239.0000   2000.0000   2000.0000     23.6136     51.4901
  1239.2500   2000.0000   2000.0000     23.4936     52.2019
  1239.5000   2000.0000   2000.0000     23.3260     54.8456
  1239.7500   2000.0000   2000.0000     23.1216     57.7822
  1240.0000   2000.0000   2000.0000     22.8790     63.8580
  1240.2500   2000.0000   2000.0000     22.5789     68.8367
  1240.5000   2000.0000   2000.0000     22.1954     77.4503
  1240.7500   2000.0000   2000.0000     21.7165     83.9101
  1241.0000   2000.0000   2000.0000     21.1595     94.3724
  1241.2500   2000.0000   2000.0000     20.5657    101.2831
  1241.5000   2000.0000   2000.0000     19.9778    110.0021
  1241.7500   2000.0000   2000.0000     19.4192    113.9780
  1242.0000   2000.0000   2000.0000     18.8873    117.0540
  1242.2500   2000.0000   2000.0000     18.3646    117.7262
  1242.5000   2000.0000   2000.0000     17.8364    117.9862
  1242.7500   2000.0000   2000.0000     17.3033    118.3757
  1243.0000   2000.0000   2000.0000     16.7828    120.1585
  1243.2500   2000.0000   2000.0000     16.3012    122.3046
  1243.5000   2000.0000   2000.0000     15.8833    126.6250
  1243.7500   2000.0000   2000.0000     15.5440    129.8519
  1244.0000   2000.0000   2000.0000     15.2827    134.4407
  1244.2500   2000.0000   2000.0000     15.0818    136.9169
  1244.5000   2000.0000   2000.0000     14.9127    139.6155
  1244.7500   2000.0000   2000.0000     14.7479    141.1828
  1245.0000   2000.0000   2000.0000     14.5728    144.1777
  1245.2500   2000.0000   2000.0000     14.3897    146.6586
  1245.5000   2000.0000   2000.0000     14.2121    150.0518
  1245.7500   2000.0000   2000.0000     14.0556    151.3634
  1246.0000   2000.0000   2000.0000     13.9325    151.5571
  1246.2500   2000.0000   2000.0000     13.8488    150.8706
  1246.5000   2000.0000   2000.0000     13.8029    149.4659
  1246.7500   2000.0000   2000.0000     13.7863    148.5063
  1247.0000   2000.0000   2000.0000     13.7880    146.8332
  1247.2500   2000.0000   2000.0000     13.8009    145.3088
  1247.5000   2000.0000   2000.0000     13.8292    142.1932
  1247.7500   2000.0000   2000.0000     13.8873    139.6636
  1248.0000   2000.0000   2000.0000     13.9916    135.3969
  1248.2500   2000.0000   2000.0000     14.1477    132.1683
  1248.5000   2000.0000   2000.0000     14.3444    126.6320
  1248.7500   2000.0000   2000.0000     14.5598    122.8380
  1249.0000   2000.0000   2000.0000     14.7768    118.3496
  1249.2500   2000.0000   2000.0000     14.9944    116.8386
  1249.5000   2000.0000   2000.0000     15.2233    116.8183
  1249.7500   2000.0000   2000.0000     15.4707    117.6893
  1250.0000   2000.0000   2000.0000     15.7270    119.1527
  1250.2500   2000.0000   2000.0000     15.9670    119.9671
  1250.5000   2000.0000   2000.0000     16.1646    121.1530
  1250.7500   2000.0000   2000.0000     16.3090    121.9823
  1251.0000   2000.0000   2000.0000     16.4113    122.9416
  1251.2500   2000.0000   2000.0000     16.4993    123.2645
  1251.5000   2000.0000   2000.0000     16.6072    123.6940
  1251.7500   2000.0000   2000.0000     16.7655    124.2699
  1252.0000   2000.0000   2000.0000     16.9932    125.3809
  1252.2500   2000.0000   2000.0000     17.2913    125.7046
  1252.5000   2000.0000   2000.0000     17.6369    124.4978
  1252.7500   2000.0000   2000.0000     17.9866    122.3036
  1253.0000   2000.0000   2000.0000     18.2938    117.3169
  1253.2500   2000.0000   2000.0000     18.5345    113.4423
  1253.5000   2000.0000   2000.0000     18.7220    107.8859
  1253.7500   2000.0000   2000.0000     18.8956    104.7798
  1254.0000   2000.0000   2000.0000     19.0938    101.3193
  1254.2500   2000.0000   2000.0000     19.3343     99.8780
  1254.5000   2000.0000   2000.0000     19.6106     99.0741
  1254.7500   2000.0000   2000.0000     19.9001     99.3087
  1255.0000   2000.0000   2000.0000     20.1738    100.2114
  1255.2500   2000.0000   2000.0000     20.4051    100.9267
  1255.5000   2000.0000   2000.0000     20.5783    102.4008
  1255.7500   2000.0000   2000.0000     20.6971    103.8607
  1256.0000   2000.0000   2000.0000     20.7874    106.3727
  1256.2500   2000.0000   2000.0000     20.8891    107.7050
  1256.5000   2000.0000   2000.0000     21.0356    108.5852
  1256.7500   2000.0000   2000.0000     21.2357    108.3435
  1257.0000   2000.0000   2000.0000     21.4681    106.4733
  1257.2500   2000.0000   2000.0000     21.6926    104.0121
  1257.5000   2000.0000   2000.0000     21.8675     98.8019
  1257.7500   2000.0000   2000.0000     21.9618     94.9598
  1258.0000   2000.0000   2000.0000     21.9598     89.6971
  1258.2500   2000.0000   2000.0000     21.8584     86.7981
  1258.5000   2000.0000   2000.0000     21.6625     83.7015
  1258.7500   2000.0000   2000.0000     21.3782     82.8931
  1259.0000   2000.0000   2000.0000     21.0124     84.4357
  1259.2500   2000.0000   2000.0000     20.5783     87.5728
  1259.5000   2000.0000   2000.0000     20.0986     95.1402
  1259.7500   2000.0000   2000.0000     19.6002    101.4281
  1260.0000   2000.0000   2000.0000     19.1023    111.0333
  1260.2500   2000.0000   2000.0000     18.6103    116.6499
  1260.5000   2000.0000   2000.0000     18.1218    123.1154
  1260.7500   2000.0000   2000.0000     17.6363    125.9790
  1261.0000   2000.0000   2000.0000     17.1637    127.7564
  1261.2500   2000.0000   2000.0000     16.7256    127.0516
  1261.5000   2000.0000   2000.0000     16.3525    123.6064
  1261.7500   2000.0000   2000.0000     16.0780    120.5945
