~Version Information
VERS.                      2.0: CWLS Log ASCII Standard - VERSION 2.0
WRAP.                       NO: One line per depth step
~Well Information Block
STRT.FT               840.0000: 
STOP.FT              2268.0000: 
STEP.FT                 0.2500: 
NULL.                -999.2500: 
COMP.          Pioneer Natural Resources: COMPANY
WELL.              Tonto 42-23: WELL
FLD.           Purgatoire River: FIELD
LOC.           2217' FNL & 423' FEL: LOCATION
PROV.                 Colorado: PROVINCE
CNTY.               Las Animas: COUNTRY
SRVC.                Patterson: SERVICE COMPANY
DATE.          Sun Apr 17 01:24:47 2005: LOG DATE
UWI.           05 071 08335 00: UNIQUE WELL ID
~Curve Information Block
DEPT.FT            0 000 00 00: Depth
SN.Ohm-m                      : IEL Short Normal
SP.mV                         : IEL Spontaneous Potential
DIR.Ohm-m                     : IEL Induction Resistivity
GR.GAPI                       : Gamma Ray
~Parameter Information Block
~A  Depth        SN          SP         DIR          GR     
# ...
  1878.5000     22.3386    -20.3404     24.3039     49.4120
  1878.7500     22.4438    -20.2225     24.3075     52.4319
  1879.0000     22.5834    -20.0703     24.3501     56.1539
  1879.2500     22.6998    -19.9185     24.4290     57.3182
  1879.5000     22.7578    -19.7914     24.5360     56.3293
  1879.7500     22.7551    -19.6858     24.6572     54.1545
  1880.0000     22.6993    -19.5706     24.7720     50.1355
  1880.2500     22.6133    -19.4049     24.8561     47.8208
  1880.5000     22.5407    -19.1633     24.8911     45.6409
  1880.7500     22.5017    -18.8521     24.8740     45.0725
  1881.0000     22.4873    -18.5059     24.8183     45.1342
  1881.2500     22.4936    -18.1708     24.7431     45.3842
  1881.5000     22.5132    -17.8864     24.6644     45.4635
  1881.7500     22.5383    -17.6737     24.5943     45.2339
  1882.0000     22.5890    -17.5303     24.5460     44.7219
  1882.2500     22.6466    -17.4357     24.5298     44.3680
  1882.5000     22.5947    -17.3651     24.5435     43.6145
  1882.7500     22.3871    -17.3015     24.5675     42.7734
  1883.0000     22.1705    -17.2368     24.5754     40.9160
  1883.2500     22.0978    -17.1669     24.5505     39.3629
  1883.5000     22.1539    -17.0888     24.4928     36.7950
  1883.7500     22.2258    -17.0025     24.4125     35.1681
  1884.0000     22.2610    -16.9141     24.3205     33.5438
  1884.2500     22.2939    -16.8377     24.2229     33.4328
  1884.5000     22.3203    -16.7943     24.1129     35.1594
  1884.7500     22.2773    -16.8078     23.9604     37.6622
  1885.0000     22.1806    -16.8937     23.7179     43.5099
  1885.2500     22.1049    -17.0505     23.3582     48.7306
  1885.5000     22.0496    -17.2605     22.9183     57.7502
  1885.7500     21.9566    -17.4974     22.4996     63.5733
  1886.0000     21.7862    -17.7319     22.2095     69.9545
  1886.2500     21.5310    -17.9365     22.0963     71.7378
  1886.5000     21.2345    -18.0930     22.1267     70.3476
  1886.7500     21.0020    -18.1998     22.2156     67.1761
  1887.0000     20.9229    -18.2726     22.2823     60.6504
  1887.2500     20.9753    -18.3326     22.2911     56.3288
  1887.5000     21.0284    -18.3866     22.2518     51.9221
  1887.7500     20.9577    -18.4013     22.1892     51.1085
  1888.0000     20.7630    -18.2739     22.1138     53.0088
  1888.2500     20.5414    -17.8196     22.0169     55.6249
  1888.5000     20.3165    -16.8252     21.8876     59.8892
  1888.7500     19.9434    -15.2029     21.7320     62.1636
  1889.0000     19.2334    -13.1474     21.5754     64.1907
  1889.2500     18.3173    -11.1047     21.4438     64.7714
  1889.5000     17.8234     -9.5157     21.3462     64.9792
  1889.7500     18.1833     -8.5579     21.2745     64.7557
  1890.0000     18.9676     -8.1167     21.2204     63.5635
  1890.2500     19.5104     -7.9541     21.1898     62.0236
  1890.5000     19.6929     -7.8782     21.1981     58.8133
  1890.7500     19.7628     -7.7987     21.2559     56.4720
  1891.0000     19.8742     -7.6976     21.3601     53.2876
  1891.2500     20.0266     -7.5855     21.4976     51.5079
  1891.5000     20.2065     -7.4741     21.6552     49.2918
  1891.7500     20.4157     -7.3675     21.8252     48.1356
  1892.0000     20.6384     -7.2653     22.0062     47.0940
  1892.2500     20.8504     -7.1712     22.2023     46.8903
  1892.5000     21.0263     -7.0994     22.4206     46.9442
  1892.7500     21.1601     -7.0691     22.6644     46.9310
  1893.0000     21.2870     -7.0914     22.9256     46.8023
  1893.2500     21.4468     -7.1584     23.1856     46.9086
  1893.5000     21.6420     -7.2437     23.4266     47.7562
  1893.7500     21.8588     -7.3109     23.6425     48.7725
  1894.0000     22.0947     -7.3252     23.8377     50.6727
  1894.2500     22.3403     -7.2667     24.0150     51.9901
  1894.5000     22.5437     -7.1411     24.1675     53.7140
  1894.7500     22.6299     -6.9804     24.2805     54.4946
  1895.0000     22.5911     -6.8281     24.3418     54.9570
  1895.2500     22.5367     -6.7150     24.3469     55.0470
  1895.5000     22.5578     -6.6381     24.2977     56.0270
  1895.7500     22.5798     -6.5618     24.1998     58.0081
  1896.0000     22.4879     -6.4402     24.0605     63.2700
  1896.2500     22.3119     -6.2464     23.8883     67.5772
  1896.5000     22.1597     -5.9869     23.6869     73.2720
  1896.7500     22.0760     -5.6950     23.4438     75.8769
  1897.0000     22.0177     -5.4108     23.1247     78.5190
  1897.2500     21.8832     -5.1640     22.6875     80.4049
  1897.5000     21.6016     -4.9687     22.1133     84.7352
  1897.7500     21.2023     -4.8222     21.4307     88.6311
  1898.0000     20.7457     -4.7054     20.7081     94.8839
  1898.2500     20.2596     -4.5909     20.0226     98.4878
  1898.5000     19.7746     -4.4599     19.4309    101.7213
  1898.7500     19.3547     -4.3146     18.9623    101.6857
  1899.0000     19.0633     -4.1733     18.6296     97.4062
  1899.2500     18.9186     -4.0557     18.4431     91.7614
  1899.5000     18.8972     -3.9703     18.4115     80.4575
  1899.7500     18.9877     -3.9143     18.5282     72.3148
  1900.0000     19.1965     -3.8845     18.7570     61.3002
  1900.2500     19.4746     -3.8888     19.0398     55.5109
  1900.5000     19.7464     -3.9458     19.3264     49.3788
  1900.7500     20.0281     -4.0710     19.6030     46.6643
  1901.0000     20.4160     -4.2593     19.8899     43.8600
  1901.2500     20.9767     -4.4797     20.2153     42.5075
  1901.5000     21.7372     -4.6875     20.5935     41.2955
  1901.7500     22.7000     -4.8445     21.0260     41.4593
  1902.0000     23.7643     -4.9320     21.5141     44.2568
  1902.2500     24.7444     -4.9520     22.0635     48.3188
  1902.5000     25.5515     -4.9202     22.6739     57.6746
  1902.7500     26.2591     -4.8579     23.3220     65.3857
  1903.0000     26.9305     -4.7831     23.9522     77.0277
  1903.2500     27.5091     -4.7043     24.4904     83.4719
  1903.5000     27.9606     -4.6201     24.8812     89.5556
  1903.7500     28.3456     -4.5230     25.1311     91.0337
  1904.0000     28.6910     -4.4049     25.3171     90.3946
  1904.2500     28.9691     -4.2584     25.5462     89.1993
  1904.5000     29.1833     -4.0759     25.8946     88.2043
  1904.7500     29.3509     -3.8540     26.3739     88.6160
  1905.0000     29.4806     -3.6046     26.9417     90.4327
  1905.2500     29.6036     -3.3592     27.5316     91.8464
  1905.5000     29.7356     -3.1544     28.0621     93.5985
  1905.7500     29.8348     -3.0085     28.4180     94.4433
  1906.0000     29.8614     -2.9100     28.4481     95.2268
  1906.2500     29.8321     -2.8272     28.0156     95.2575
  1906.5000     29.7704     -2.7290     27.0705     93.8895
  1906.7500     29.6465     -2.6013     25.6749     91.7254
  1907.0000     29.3916     -2.4497     23.9652     87.1529
  1907.2500     28.8973     -2.2894     22.1016     84.2965
  1907.5000     28.0073     -2.1323     20.2362     82.3369
  1907.7500     26.6133     -1.9832     18.4921     83.0941
  1908.0000     24.7474     -1.8436     16.9490     86.6722
  1908.2500     22.5484     -1.7187     15.6391     89.8766
  1908.5000     20.2142     -1.6202     14.5539     94.8296
  1908.7500     17.9676     -1.5634     13.6572     97.9429
  1909.0000     15.9861     -1.5588     12.8999    102.1607
  1909.2500     14.3820     -1.6029     12.2335    104.6503
  1909.5000     13.2302     -1.6763     11.6217    107.9370
  1909.7500     12.5280     -1.7502     11.0457    109.7393
  1910.0000     12.1460     -1.7973     10.5041    111.3054
  1910.2500     11.9185     -1.8016     10.0074    111.3153
  1910.5000     11.7529     -1.7661      9.5698    110.1280
  1910.7500     11.6166     -1.7122      9.2028    109.1419
  1911.0000     11.4974     -1.6654      8.9116    108.2123
  1911.2500     11.3858     -1.6339      8.6946    108.0556
  1911.5000     11.2845     -1.5993      8.5447    108.2810
  1911.7500     11.2361     -1.5310      8.4521    108.6547
