~Version Information
VERS.                      2.0: CWLS Log ASCII Standard - VERSION 2.0
WRAP.                       NO: One line per depth step
~Well Information Block
STRT.FT               652.0000: 
STOP.FT              1880.0000: 
STEP.FT                 0.1000: 
NULL.                -999.2500: 
COMP.          Pioneer Natural Resources: COMPANY
WELL.          Corkscrew 33-12 Tr: WELL
FLD.           Purgatoire River: FIELD
LOC.           1870' FSL & 1706' FEL: LOCATION
PROV.                 Colorado: PROVINCE
CNTY.               Las Animas: COUNTRY
SRVC.                Patterson: SERVICE COMPANY
DATE.          Tue Mar 29 09:18:51 2005: LOG DATE
UWI.           05 071 08295 00: UNIQUE WELL ID
~Curve Information Block
DEPT.FT            0 000 00 00: Depth
DCAL.in                       : CDL Caliper
RHOB.g/cc                     : CDL Bulk Density
RHOC.g/cc                     : CDL Density Correction
DPOR.pu                       : CDL Density Porosity
GR.GAPI                       : Gamma Ray
NPOR.pu                       : Neutron Porosity
~Parameter Information Block
~A  Depth       DCAL        RHOB        RHOC        DPOR         GR         NPOR    
# ...
  1698.4000      7.7710      2.5648     -0.0009      5.1652    148.5733     27.2056
  1698.5000      7.8073      2.5499      0.0154      6.0678    145.1422     27.5033
  1698.6000      7.8073      2.5441      0.0180      6.4211    142.1566     27.5169
  1698.7000      7.8073      2.5492      0.0214      6.1097    142.7021     27.4117
  1698.8000      7.8140      2.5530      0.0077      5.8810    145.9663     27.5843
  1698.9000      7.8140      2.5457      0.0430      6.3228    148.5276     27.9486
  1699.0000      7.8397      2.5400     -0.0167      6.6687    146.4335     28.2770
  1699.1000      7.8397      2.5531      0.0632      5.8750    143.2513     28.7834
  1699.2000      7.8397      2.5676      0.0375      4.9926    140.8698     29.4410
  1699.3000      7.8272      2.5581      0.0379      5.5676    138.7321     29.9815
  1699.4000      7.8272      2.5271      0.0322      7.4489    137.2971     30.2266
  1699.5000      7.8144      2.4957      0.0024      9.3504    135.5679     30.0580
  1699.6000      7.8144      2.4805      0.0075     10.2701    132.9148     29.5347
  1699.7000      7.8144      2.4777      0.0428     10.4407    128.1685     28.8843
  1699.8000      7.8119      2.4710     -0.0175     10.8498    123.5731     28.4396
  1699.9000      7.8119      2.4522      0.0136     11.9872    122.5754     28.3435
  1700.0000      7.8385      2.4297     -0.0219     13.3531    119.0857     28.4312
  1700.1000      7.8385      2.4216     -0.0043     13.8420    115.0643     28.4101
  1700.2000      7.8385      2.4346      0.0220     13.0562    120.4466     28.3015
  1700.3000      7.8461      2.4532      0.0878     11.9266    130.4946     28.4318
  1700.4000      7.8461      2.4661      0.0775     11.1458    135.9271     28.8136
  1700.5000      7.8569      2.4861      0.0388      9.9333    133.8776     29.2313
  1700.6000      7.8569      2.5192      0.0969      7.9246    124.8680     29.4367
  1700.7000      7.8569      2.5446      0.0858      6.3873    116.4538     29.3533
  1700.8000      7.8512      2.5513      0.0459      5.9807    116.7547     29.3075
  1700.9000      7.8512      2.5519      0.0234      5.9437    124.3109     29.5927
  1701.0000      7.8790      2.5534      0.0533      5.8574    130.8661     29.8671
  1701.1000      7.8790      2.5517      0.0732      5.9596    131.0456     29.5937
  1701.2000      7.8790      2.5470      0.0580      6.2431    127.5718     29.0393
  1701.3000      7.8623      2.5404      0.0511      6.6421    124.9738     28.9073
  1701.4000      7.8623      2.5270      0.0850      7.4551    122.1370     29.1853
  1701.5000      7.7805      2.5091      0.0531      8.5389    116.9875     29.4015
  1701.6000      7.7805      2.5004      0.0445      9.0648    111.3087     29.4318
  1701.7000      7.7805      2.5043      0.0278      8.8276    107.2652     29.4893
  1701.8000      7.7659      2.5150      0.0436      8.1845    107.9774     29.3579
  1701.9000      7.7659      2.5364      0.0293      6.8859    114.7103     29.0107
  1702.0000      7.7785      2.5725      0.0589      4.6978    121.8929     28.8311
  1702.1000      7.7785      2.6041      0.1263      2.7825    126.4256     28.5166
  1702.2000      7.7785      2.6116      0.1111      2.3270    131.2035     27.8033
  1702.3000      7.8522      2.6021      0.0869      2.9026    135.7701     27.0474
  1702.4000      7.8522      2.5916      0.1153      3.5369    134.0387     26.6360
  1702.5000      7.8633      2.5816      0.0623      4.1447    124.0073     26.9846
  1702.6000      7.8633      2.5680      0.0095      4.9670    113.4844     28.3581
  1702.7000      7.8633      2.5526      0.0352      5.9012    109.5812     30.3407
  1702.8000      7.8632      2.5410     -0.0049      6.6076    110.0257     31.7987
  1702.9000      7.8632      2.5367      0.0214      6.8671    110.3918     32.1641
  1703.0000      7.8435      2.5323      0.0078      7.1342    111.6886     31.8075
  1703.1000      7.8435      2.5205     -0.0282      7.8460    116.6020     30.9363
  1703.2000      7.8435      2.5044     -0.0045      8.8238    124.2619     29.6815
  1703.3000      7.8386      2.4887     -0.0307      9.7781    129.4833     28.5350
  1703.4000      7.8386      2.4742      0.0134     10.6528    127.2054     27.9190
  1703.5000      7.8430      2.4669     -0.0871     11.0975    118.1533     27.6388
  1703.6000      7.8430      2.4760      0.0143     10.5447    108.8519     27.4708
  1703.7000      7.8430      2.4901      0.0425      9.6929    108.9022     27.5866
  1703.8000      7.8409      2.4987     -0.0321      9.1704    117.7141     27.7548
  1703.9000      7.8409      2.5082      0.0284      8.5941    123.8192     27.8714
  1704.0000      7.8493      2.5160      0.0480      8.1237    124.8408     28.1045
  1704.1000      7.8493      2.5168      0.0378      8.0712    125.9143     28.4359
  1704.2000      7.8493      2.5155      0.0731      8.1508    125.6291     28.9828
  1704.3000      7.8633      2.5157      0.0972      8.1397    124.2163     29.5897
  1704.4000      7.8633      2.5155      0.1158      8.1516    125.1358     30.1011
  1704.5000      7.8615      2.5202      0.0326      7.8664    125.9723     30.5129
  1704.6000      7.8615      2.5363      0.0545      6.8885    124.1544     30.5985
  1704.7000      7.8615      2.5485      0.0905      6.1534    119.8988     29.7981
  1704.8000      7.8325      2.5422      0.0336      6.5349    115.4094     28.3810
  1704.9000      7.8325      2.5262      0.0270      7.5037    113.8244     27.5400
  1705.0000      7.8350      2.5071      0.0476      8.6627    113.3644     27.6416
  1705.1000      7.8350      2.4943     -0.0206      9.4389    110.7676     28.2399
  1705.2000      7.8350      2.5001      0.0353      9.0833    106.0912     28.6535
  1705.3000      7.8450      2.4991      0.0787      9.1465    102.5316     28.6368
  1705.4000      7.8450      2.4605     -0.0053     11.4828    102.9333     28.9227
  1705.5000      7.8515      2.4023     -0.0209     15.0105    106.2249     29.8073
  1705.6000      7.8515      2.3556     -0.0302     17.8420    108.6536     30.3022
  1705.7000      7.8515      2.3374     -0.0658     18.9461    109.1755     29.6319
  1705.8000      7.8834      2.3556     -0.0534     17.8450    110.2434     28.3513
  1705.9000      7.8834      2.4002      0.0084     15.1419    111.5310     27.5263
  1706.0000      7.9230      2.4361      0.0816     12.9607    112.2436     27.3004
  1706.1000      7.9230      2.4146      0.0892     14.2697    113.3468     27.2640
  1706.2000      7.9230      2.3126      0.0945     20.4476    112.8539     27.3601
  1706.3000      7.9900      2.1622      0.0550     29.5608    106.3940     27.5722
  1706.4000      7.9900      2.0150      0.0661     38.4854     95.8042     28.2040
  1706.5000      8.0244      1.8899     -0.0113     46.0639     87.6177     29.5022
  1706.6000      8.0244      1.7711     -0.0265     53.2674     84.2578     30.6956
  1706.7000      8.0244      1.6479     -0.1064     60.7351     83.1459     31.3594
  1706.8000      7.9735      1.5487     -0.1557     66.7446     81.0733     31.9429
  1706.9000      7.9735      1.5155     -0.1330     68.7555     77.5661     32.7473
  1707.0000      7.9717      1.5561     -0.0434     66.2949     74.6399     33.5343
  1707.1000      7.9717      1.6525     -0.0214     60.4525     76.4100     34.1034
  1707.2000      7.9717      1.7875      0.0434     52.2728     84.6718     34.1809
  1707.3000      7.9572      1.9319      0.1668     43.5215     95.3796     33.6533
  1707.4000      7.9572      2.0531      0.1747     36.1775    105.3921     33.3484
  1707.5000      8.0038      2.1525      0.2114     30.1498    109.9423     33.7636
  1707.6000      8.0038      2.2511      0.2177     24.1765    104.7069     33.9433
  1707.7000      8.0038      2.3376      0.2453     18.9335     97.6945     33.2110
  1707.8000      8.0991      2.3765      0.1357     16.5770     99.9003     32.2039
  1707.9000      8.0991      2.3724      0.0007     16.8247    113.2913     31.7868
