~Version Information
VERS.                      2.0: CWLS Log ASCII Standard - VERSION 2.0
WRAP.                       NO: One line per depth step
~Well Information Block
STRT.FT               454.0000: 
STOP.FT              1392.0000: 
STEP.FT                 0.2500: 
NULL.                -999.2500: 
COMP.          Pioneer Natural Resources: COMPANY
WELL.          Lorencito 6-3-34-66: WELL
FLD.           Purgatoire River: FIELD
LOC.           2545' FNL & 1914' FWL: LOCATION
STAT.                 Colorado: State
CNTY.               Las Animas: COUNTY
CTRY. USA : Country
SECT. 3 : Section
TOWN. 34S : Township
RANG. 66W : Range
SRVC.                Patterson: SERVICE COMPANY
DATE.          Fri Sep 09 22:07:39 2005: LOG DATE
API.           05 071 08369 00: UNIQUE WELL ID
~Curve Information Block
DEPT.FT            0 000 00 00: Depth
SN.Ohm-m                      : IEL Short Normal
SP.mV                         : IEL Spontaneous Potential
DIR.Ohm-m                     : IEL Induction Resistivity
GR.GAPI                       : Gamma Ray
~Parameter Information Block
~A  Depth        SN          SP         DIR          GR     
   454.0000   2000.0000   2000.0000      5.7180    100.8730
   454.2500   2000.0000   2000.0000      5.7384    100.6082
   454.5000   2000.0000   2000.0000      5.7565     98.4915
   454.7500   2000.0000   2000.0000      5.7714     96.3880
   455.0000   2000.0000   2000.0000      5.7834     93.5897
   455.2500   2000.0000   2000.0000      5.7937     92.5039
   455.5000   2000.0000   2000.0000      5.8046     92.1068
   455.7500   2000.0000   2000.0000      5.8180     92.3770
   456.0000   2000.0000   2000.0000      5.8351     93.2036
   456.2500   2000.0000   2000.0000      5.8561     94.1905
   456.5000   2000.0000   2000.0000      5.8800     97.2523
   456.7500   2000.0000   2000.0000      5.9048    100.8801
   457.0000   2000.0000   2000.0000      5.9284    108.5975
   457.2500   2000.0000   2000.0000      5.9491    114.5427
   457.5000   2000.0000   2000.0000      5.9654    123.1705
   457.7500   2000.0000   2000.0000      5.9768    128.0223
   458.0000   2000.0000   2000.0000      5.9835    132.9031
   458.2500   2000.0000   2000.0000      5.9858    134.0361
   458.5000   2000.0000   2000.0000      5.9843    132.2594
   458.7500   2000.0000   2000.0000      5.9797    129.1359
   459.0000   2000.0000   2000.0000      5.9728    123.1681
   459.2500   2000.0000   2000.0000      5.9650    119.6619
   459.5000   2000.0000   2000.0000      5.9574    116.9545
   459.7500   2000.0000   2000.0000      5.9517    116.9451
   460.0000   2000.0000   2000.0000      5.9493    118.0513
   460.2500   2000.0000   2000.0000      5.9516    118.4831
   460.5000   2000.0000   2000.0000      5.9597    118.0390
   460.7500   2000.0000   2000.0000      5.9750    117.2110
   461.0000   2000.0000   2000.0000      5.9987    115.6778
   461.2500   2000.0000   2000.0000      6.0321    114.8161
   461.5000   2000.0000   2000.0000      6.0761    114.6781
   461.7500   2000.0000   2000.0000      6.1303    115.9531
   462.0000   2000.0000   2000.0000      6.1923    120.3878
   462.2500   2000.0000   2000.0000      6.2578    124.5400
   462.5000   2000.0000   2000.0000      6.3202    130.5103
   462.7500   2000.0000   2000.0000      6.3721    133.3381
   463.0000   2000.0000   2000.0000      6.4071    136.2397
   463.2500   2000.0000   2000.0000      6.4215    138.2798
   463.5000   2000.0000   2000.0000      6.4153    142.1771
   463.7500   2000.0000   2000.0000      6.3927    144.6696
   464.0000   2000.0000   2000.0000      6.3606    146.5094
   464.2500   2000.0000   2000.0000      6.3266    145.8253
   464.5000   2000.0000   2000.0000      6.2968    142.0183
   464.7500   2000.0000   2000.0000      6.2751    138.4481
   465.0000   2000.0000   2000.0000      6.2616    133.7551
   465.2500   2000.0000   2000.0000      6.2532    132.1284
   465.5000   2000.0000   2000.0000      6.2449    132.3390
   465.7500   2000.0000   2000.0000      6.2310    133.5889
   466.0000   2000.0000   2000.0000      6.2067    134.7292
   466.2500   2000.0000   2000.0000      6.1699    133.1484
   466.5000   2000.0000   2000.0000      6.1215    124.8064
   466.7500   2000.0000   2000.0000      6.0651    115.3397
   467.0000   2000.0000   2000.0000      6.0060     98.6051
   467.2500   2000.0000   2000.0000      5.9500     88.5697
   467.5000   2000.0000   2000.0000      5.9032     78.8018
   467.7500   2000.0000   2000.0000      5.8714     76.4894
   468.0000   2000.0000   2000.0000      5.8601     78.4110
   468.2500   2000.0000   2000.0000      5.8746     82.0773
   468.5000   2000.0000   2000.0000      5.9193     88.8597
   468.7500   2000.0000   2000.0000      5.9966     93.2591
   469.0000   2000.0000   2000.0000      6.1056     98.9507
   469.2500   2000.0000   2000.0000      6.2414    101.9885
   469.5000   2000.0000   2000.0000      6.3965    105.1261
   469.7500   2000.0000   2000.0000      6.5630    106.3139
   470.0000   2000.0000   2000.0000      6.7388    107.6908
   470.2500   2000.0000   2000.0000      6.9337    109.1467
   470.5000   2000.0000   2000.0000      7.1752    112.8548
   470.7500   2000.0000   2000.0000      7.5138    116.1016
   471.0000   2000.0000   2000.0000      8.0282    121.1354
   471.2500   2000.0000   2000.0000      8.8398    124.1840
   471.5000   2000.0000   2000.0000     10.1473    128.1703
   471.7500   2000.0000   2000.0000     12.3140    130.3838
   472.0000   2000.0000   2000.0000     16.1037    132.3834
   472.2500   2000.0000   2000.0000     23.4739    132.2630
   472.5000   2000.0000   2000.0000     41.4537    129.4848
   472.7500   2000.0000   2000.0000    129.3146    126.3515
   473.0000   2000.0000   2000.0000 100000.0000    121.5850
   473.2500   2000.0000   2000.0000 100000.0000    119.6328
   473.5000   2000.0000   2000.0000 100000.0000    120.1401
   473.7500   2000.0000   2000.0000 100000.0000    123.0265
   474.0000   2000.0000   2000.0000 100000.0000    130.2605
   474.2500   2000.0000   2000.0000 100000.0000    135.8437
   474.5000   2000.0000   2000.0000 100000.0000    143.0458
   474.7500   2000.0000   2000.0000 100000.0000    146.0234
   475.0000   2000.0000   2000.0000 100000.0000    146.9032
   475.2500   2000.0000   2000.0000 100000.0000    145.0213
   475.5000   2000.0000   2000.0000 100000.0000    138.8763
   475.7500   2000.0000   2000.0000     35.7525    133.3323
   476.0000   2000.0000   2000.0000     15.8815    125.5345
   476.2500   2000.0000   2000.0000     10.4214    122.5112
   476.5000   2000.0000   2000.0000      8.2113    122.7058
   476.7500   2000.0000   2000.0000      7.3147    125.2038
   477.0000   2000.0000   2000.0000      7.1782    129.1703
   477.2500   2000.0000   2000.0000      7.6570    129.9993
   477.5000   2000.0000   2000.0000      8.8110    127.1020
   477.7500   2000.0000   2000.0000     10.8858    123.1316
   478.0000   2000.0000   2000.0000     14.3744    117.1157
   478.2500   2000.0000   2000.0000     20.0940    114.8155
   478.5000   2000.0000   2000.0000     28.9595    115.3505
   478.7500   2000.0000   2000.0000     40.3537    118.1128
   479.0000   2000.0000   2000.0000     48.9581    124.4466
   479.2500   2000.0000   2000.0000     48.4581    129.2260
   479.5000   2000.0000   2000.0000     41.3998    135.7522
   479.7500   2000.0000   2000.0000     33.8174    138.9358
   480.0000   2000.0000   2000.0000     28.0934    141.6308
   480.2500   2000.0000   2000.0000     24.2432    142.6500
   480.5000   2000.0000   2000.0000     21.7656    144.6966
   480.7500   2000.0000   2000.0000     20.2302    147.0758
   481.0000   2000.0000   2000.0000     19.3561    152.3652
   481.2500   2000.0000   2000.0000     18.9778    156.8356
   481.5000   2000.0000   2000.0000     19.0107    164.2325
   481.7500   2000.0000   2000.0000     19.4250    168.6648
   482.0000   2000.0000   2000.0000     20.2166    171.7001
   482.2500   2000.0000   2000.0000     21.3823    169.5382
   482.5000   2000.0000   2000.0000     22.8871    159.0127
   482.7500   2000.0000   2000.0000     24.6292    143.5557
   483.0000   2000.0000   2000.0000     26.4182    127.6869
   483.2500   2000.0000   2000.0000     27.9853    119.0445
   483.5000   2000.0000   2000.0000     29.0523    110.6586
   483.7500   2000.0000   2000.0000     29.4568     96.6027
   484.0000   2000.0000   2000.0000     29.2277     94.8219
   484.2500   2000.0000   2000.0000     28.5558     94.2654
   484.5000   2000.0000   2000.0000     27.6895     93.7772
   484.7500   2000.0000   2000.0000     26.8471     83.0883
   485.0000   2000.0000   2000.0000     26.1730     84.8975
   485.2500   2000.0000   2000.0000     25.7394     87.6550
   485.5000   2000.0000   2000.0000     25.5545     94.0594
   485.7500   2000.0000   2000.0000     25.5811     86.3912
   486.0000   2000.0000   2000.0000     25.7421     93.6473
   486.2500   2000.0000   2000.0000     25.9314     98.0959
   486.5000   2000.0000   2000.0000     26.0269    102.9982
   486.7500   2000.0000   2000.0000     25.9170    104.4785
   487.0000   2000.0000   2000.0000     25.5243    103.6889
   487.2500   2000.0000   2000.0000     24.8252    101.5472
