~Version Information
 VERS.                                  2.0 : CWLS LAS VERSION
 WRAP.                                   NO : WRAPING MODE
 SWARE .                 MController 2.5.0J : SOFTWARE VERSION
~Well Information
 WELL.                  Lorencito 6-3-34-66 : WELL
 COMP.    Pioneer Natural Resources USA Inc : COMPANY
 FLD.                      Purgatoire River : FIELD
 LOC.                  SE/NW SEC3 T34S R66W : LOCATION
 DATE.                             09/09/05 : DATE(S) LOGGED
 SRVC.       Blanco Geological Services LLC : SERVICE COMPANY
 STAT.                             Colorado : STATE
 CNTY.                           Las Animas : COUNTY
 CTRY.                                  USA : COUNTRY
 API.                       05-071-08369-00 : API NUMBER
 STRT.FT                             394.00 : START DEPTH
 STOP.FT                            1390.00 : STOP DEPTH
 STEP.FT                               1.00 : DEPTH INCREMENT
 NULL.                                -9999 : NULL VALUE
~Curve information
 DEPTH.FT                                   :
 ROP.MIN/FT                                 :
 GAS.UNITS                                  :
~ASCII Log data
# ...
      1194.0         0.40        695.3 
      1195.0         0.23        695.9 
      1196.0         3.38       1821.3 
      1197.0         0.47       1158.4 
      1198.0         0.43        859.3 
      1199.0         0.40        920.5 
      1200.0         0.42        873.8 
      1201.0         0.43        804.9 
      1202.0         0.40        752.6 
      1203.0         0.17        740.4 
      1204.0         0.10        734.6 
      1205.0         0.10        730.4 
      1206.0         0.07        727.8 
      1207.0         0.10        722.7 
      1208.0         0.17        719.5 
      1209.0         0.33        737.5 
      1210.0         0.33        737.8 
      1211.0         0.33        792.0 
      1212.0         0.33        868.0 
      1213.0         0.28        863.2 
      1214.0         0.13        845.1 
      1215.0         0.27        812.6 
      1216.0         0.30        789.4 
      1217.0         0.30        772.9 
      1218.0         0.30        768.4 
      1219.0         0.17        778.4 
      1220.0         0.10        777.5 
      1221.0         0.27        774.2 
      1222.0         0.20        764.6 
      1223.0         0.10        755.9 
      1224.0         0.17        749.7 
      1225.0         0.33        736.2 
      1226.0         4.43       3174.1 
      1227.0         0.53       1548.6 
      1228.0         0.47        904.8 
      1229.0         0.43        950.8 
      1230.0         0.37        898.6 
      1231.0         0.37        840.3 
      1232.0         0.27        793.6 
      1233.0         0.27        767.1 
      1234.0         0.25        750.1 
      1235.0         0.20        733.6 
      1236.0         0.23        725.9 
      1237.0         0.37        709.1 
      1238.0         0.37        782.6 
      1239.0         0.30        883.2 
      1240.0         0.17        895.7 
      1241.0         0.27        878.0 
      1242.0         0.30        844.2 
      1243.0         0.27        823.9 
      1244.0         0.27        793.6 
      1245.0         0.23        792.6 
      1246.0         0.27        793.6 
      1247.0         0.25        798.4 
      1248.0         0.27        793.6 
      1249.0         0.27        782.9 
      1250.0         0.23        771.0 
      1251.0         0.27        758.1 
      1252.0         0.23        748.5 
      1253.0         0.27        742.3 
      1254.0         0.27        740.7 
      1255.0         0.27        739.8 
      1256.0         4.25       1828.0 
      1257.0         0.62       1696.2 
      1258.0         0.47        972.4 
      1259.0         0.37        971.8 
      1260.0         0.33        929.6 
      1261.0         0.37        855.4 
      1262.0         0.37        799.7 
      1263.0         0.37        776.2 
      1264.0         0.33        777.8 
      1265.0         0.28        763.0 
      1266.0         0.23        742.3 
      1267.0         0.30        720.1 
      1268.0         0.27        708.2 
      1269.0         0.27        714.0 
      1270.0         0.23        719.5 
      1271.0         0.23        721.4 
      1272.0         0.23        716.6 
      1273.0         0.27        713.0 
      1274.0         0.23        711.7 
      1275.0         0.23        711.4 
      1276.0         0.23        707.5 
      1277.0         0.27        701.7 
      1278.0         0.23        702.0 
      1279.0         0.28        707.2 
      1280.0         0.27        708.8 
      1281.0         0.27        710.1 
      1282.0         0.30        708.5 
      1283.0         0.27        708.5 
      1284.0         0.37        705.3 
      1285.0         0.40        703.3 
      1286.0         4.45       1804.5 
      1287.0         0.75       2071.0 
      1288.0         0.53        938.3 
      1289.0         0.50        909.9 
      1290.0         0.43        826.4 
      1291.0         0.37        755.5 
      1292.0         0.33        707.8 
      1293.0         0.30        703.0 
      1294.0         0.28        708.2 
      1295.0         0.30        724.6 
      1296.0         0.33        731.7 
      1297.0         0.27        738.8 
      1298.0         0.30        737.2 
      1299.0         0.27        726.5 
      1300.0         0.27        716.9 
      1301.0         0.30        708.2 
      1302.0         0.30        702.4 
      1303.0         0.30        698.5 
      1304.0         0.30        695.0 
      1305.0         0.33        692.4 
      1306.0         0.28        692.1 
      1307.0         0.30        683.7 
      1308.0         0.30        678.5 
      1309.0         0.30        675.6 
      1310.0         0.30        673.0 
      1311.0         0.30        670.1 
      1312.0         0.33        669.2 
      1313.0         0.30        666.6 
      1314.0         0.30        665.6 
      1315.0         0.33        663.1 
      1316.0         3.87       1271.5 
      1317.0         0.50       2423.6 
      1318.0         0.47       1258.6 
      1319.0         0.47        886.7 
      1320.0         0.47        878.7 
      1321.0         0.40        795.2 
      1322.0         0.43        720.1 
      1323.0         0.40        666.3 
      1324.0         0.45        649.2 
      1325.0         0.50        670.5 
      1326.0         0.53        686.6 
      1327.0         0.53        670.1 
      1328.0         0.53        655.0 
      1329.0         0.60        640.5 
      1330.0         0.62        630.5 
      1331.0         0.57        620.2 
      1332.0         0.60        617.3 
      1333.0         0.30        618.9 
      1334.0         0.33        624.4 
      1335.0         0.33        620.5 
      1336.0         0.37        637.3 
      1337.0         0.33        661.1 
      1338.0         0.35        659.8 
      1339.0         0.33        648.6 
      1340.0         0.27        638.9 
      1341.0         0.30        630.2 
      1342.0         0.30        623.7 
      1343.0         0.30        619.2 
      1344.0         0.43        611.5 
      1345.0         0.40        604.7 
      1346.0         4.63       1930.5 
      1347.0         0.57        810.3 
      1348.0         0.50        759.1 
      1349.0         0.50        793.3 
      1350.0         0.70        663.7 
      1351.0         0.33        610.2 
      1352.0         0.27        591.2 
      1353.0         0.38        617.3 
      1354.0         0.53        624.1 
      1355.0         0.43        632.4 
      1356.0         0.43        779.7 
      1357.0         0.37        782.9 
      1358.0         0.27        659.5 
      1359.0         0.30        596.3 
      1360.0         0.27        572.8 
      1361.0         0.37        732.7 
      1362.0         0.35       1272.1 
      1363.0         0.30       1234.4 
      1364.0         0.33       1053.6 
      1365.0         0.30        912.2 
      1366.0         0.27        825.8 
      1367.0         0.30        747.8 
      1368.0         0.40        675.3 
      1369.0         0.33        652.7 
      1370.0         0.43        651.1 
      1371.0         0.38        627.3 
      1372.0         0.33        612.8 
      1373.0         0.33        604.7 
      1374.0         0.30        598.6 
      1375.0         0.47        590.5 
      1376.0         3.65       1278.9 
      1377.0         0.53       2713.6 
      1378.0         0.57       1211.2 
      1379.0         0.58        830.0 
      1380.0         0.57        790.3 
      1381.0         0.50        768.8 
      1382.0         0.43        721.4 
      1383.0         0.40        652.1 
      1384.0         0.40        597.0 
      1385.0         0.47        570.6 
      1386.0         0.43        548.0 
      1387.0         0.38        543.8 
      1388.0         0.27        553.5 
      1389.0         0.57        544.8 
      1390.0         0.37        560.3 
