~Version Information
VERS.                      2.0: CWLS Log ASCII Standard - VERSION 2.0
WRAP.                       NO: One line per depth step
~Well Information Block
STRT.FT               420.0000: 
STOP.FT              1528.5000: 
STEP.FT                 0.2500: 
NULL.                -999.2500: 
COMP.          Evergreen Operating Corporation: COMPANY
WELL.              Chase 21-10: WELL
FLD.           Purgatoire River: FIELD
LOC.           1122' FNL & 1544' FWL: LOCATION
PROV.                       CO: PROVINCE
CNTY.               Las Animas: COUNTRY
SRVC.                         : SERVICE COMPANY
DATE.          Sun May 23 21:20:45 2004: LOG DATE
UWI.           05 071 08006 00: UNIQUE WELL ID
~Curve Information Block
DEPT.FT            0 000 00 00: Depth
SN.Ohm-m                      : IEL Short Normal
SP.mV                         : IEL Spontaneous Potential
DIR.Ohm-m                     : IEL Induction Resistivity
GR.GAPI                       : Gamma Ray
~Parameter Information Block
~A  Depth        SN          SP         DIR          GR     
# ...
   989.5000     71.5220    117.0836     48.0814     69.7922
   989.7500     70.8244    117.1995     48.1710     62.9904
   990.0000     69.9399    117.3440     48.0372     55.0336
   990.2500     68.9769    117.5121     47.8147     51.0874
   990.5000     68.0185    117.6975     47.5144     47.2494
   990.7500     67.1234    117.8927     47.0406     46.1776
   991.0000     66.3207    118.0898     46.2602     46.4340
   991.2500     65.6049    118.2811     45.0784     47.3721
   991.5000     64.9338    118.4595     43.4662     49.2216
   991.7500     64.2329    118.6195     41.4345     50.4465
   992.0000     63.4011    118.7572     39.0067     51.5180
   992.2500     62.3130    118.8709     36.2313     51.1662
   992.5000     60.8195    118.9617     33.2182     48.8374
   992.7500     58.7528    119.0326     30.1461     46.8345
   993.0000     55.9495    119.0885     27.2205     45.2420
   993.2500     52.2982    119.1352     24.6128     45.9321
   993.5000     47.8061    119.1784     22.4215     49.5522
   993.7500     42.6527    119.2226     20.6688     53.2024
   994.0000     37.1931    119.2707     19.3204     60.0584
   994.2500     31.8857    119.3236     18.3112     65.6774
   994.5000     27.1687    119.3804     17.5694     75.9612
   994.7500     23.3444    119.4386     17.0302     83.8686
   995.0000     20.5268    119.4955     16.6411     96.4385
   995.2500     18.6648    119.5482     16.3599    104.7136
   995.5000     17.6097    119.5946     16.1525    115.8701
   995.7500     17.1828    119.6336     15.9949    121.7045
   996.0000     17.2179    119.6651     15.8791    127.1886
   996.2500     17.5781    119.6897     15.8162    128.8920
   996.5000     18.1562    119.7091     15.8316    129.7005
   996.7500     18.8701    119.7257     15.9523    129.4438
   997.0000     19.6568    119.7426     16.1929    127.4072
   997.2500     20.4668    119.7638     16.5469    124.5500
   997.5000     21.2598    119.7940     16.9821    118.0550
   997.7500     21.9988    119.8382     17.4389    112.7555
   998.0000     22.6430    119.9012     17.8322    104.8001
   998.2500     23.1375    119.9871     18.0585    100.5978
   998.5000     23.4066    120.0989     18.0187     97.7992
   998.7500     23.3578    120.2376     17.6523     98.8477
   999.0000     22.9035    120.4020     16.9666    104.3017
   999.2500     21.9981    120.5887     16.0372    109.4604
   999.5000     20.6718    120.7921     14.9763    116.9653
   999.7500     19.0387    121.0047     13.8910    120.3641
  1000.0000     17.2682    121.2177     12.8571    121.6137
  1000.2500     15.5312    121.4214     11.9139    120.2497
  1000.5000     13.9527    121.6069     11.0732    117.6821
  1000.7500     12.5934    121.7661     10.3301    117.5592
  1001.0000     11.4632    121.8934      9.6707    121.1473
  1001.2500     10.5466    121.9857      9.0791    125.1216
  1001.5000      9.8212    122.0433      8.5417    130.2883
  1001.7500      9.2627    122.0693      8.0516    132.0084
  1002.0000      8.8418    122.0695      7.6096    132.7510
  1002.2500      8.5230    122.0516      7.2207    133.3695
  1002.5000      8.2671    122.0238      6.8901    135.5687
  1002.7500      8.0401    121.9940      6.6198    137.2327
  1003.0000      7.8212    121.9689      6.4085    138.2405
  1003.2500      7.6074    121.9533      6.2523    137.5223
  1003.5000      7.4113    121.9496      6.1462    135.0554
  1003.7500      7.2523    121.9584      6.0848    133.1336
  1004.0000      7.1467    121.9785      6.0614    130.4955
  1004.2500      7.0993    122.0073      6.0675    128.9921
  1004.5000      7.0992    122.0418      6.0925    127.0833
  1004.7500      7.1188    122.0786      6.1253    125.9544
  1005.0000      7.1180    122.1149      6.1567    124.1746
  1005.2500      7.0558    122.1485      6.1814    122.7224
  1005.5000      6.9100    122.1784      6.1988    119.9238
  1005.7500      6.6946    122.2049      6.2117    117.6780
  1006.0000      6.4656    122.2298      6.2246    114.2951
  1006.2500      6.3026    122.2560      6.2414    112.8058
  1006.5000      6.2740    122.2873      6.2654    113.5073
  1006.7500      6.4012    122.3276      6.2994    116.4919
  1007.0000      6.6457    122.3804      6.3442    123.7417
  1007.2500      6.9256    122.4483      6.3984    129.0322
  1007.5000      7.1539    122.5322      6.4568    135.4812
  1007.7500      7.2755    122.6316      6.5104    138.0952
  1008.0000      7.2823    122.7446      6.5495    139.1824
  1008.2500      7.2058    122.8680      6.5667    138.1465
  1008.5000      7.0965    122.9981      6.5600    134.1865
  1008.7500      7.0039    123.1301      6.5334    130.0130
  1009.0000      6.9627    123.2596      6.4940    122.2001
  1009.2500      6.9861    123.3817      6.4499    117.1429
  1009.5000      7.0657    123.4920      6.4074    112.3222
  1009.7500      7.1765    123.5865      6.3710    111.7939
  1010.0000      7.2867    123.6624      6.3429    114.5928
  1010.2500      7.3679    123.7179      6.3225    117.9781
  1010.5000      7.4026    123.7529      6.3057    124.0641
  1010.7500      7.3858    123.7687      6.2860    128.3437
  1011.0000      7.3228    123.7682      6.2570    134.1653
  1011.2500      7.2241    123.7552      6.2149    136.8334
  1011.5000      7.1009    123.7340      6.1608    138.0599
  1011.7500      6.9627    123.7086      6.0997    137.3837
  1012.0000      6.8168    123.6824      6.0373    136.3405
  1012.2500      6.6697    123.6580      5.9776    137.0511
  1012.5000      6.5287    123.6369      5.9221    141.1117
  1012.7500      6.4012    123.6199      5.8707    145.0624
  1013.0000      6.2937    123.6070      5.8229    150.3975
  1013.2500      6.2091    123.5977      5.7786    152.3800
  1013.5000      6.1467    123.5912      5.7376    152.4034
  1013.7500      6.1026    123.5866      5.6998    150.8699
  1014.0000      6.0725    123.5827      5.6640    147.6612
  1014.2500      6.0535    123.5788      5.6290    145.7296
  1014.5000      6.0455    123.5747      5.5939    143.7650
  1014.7500      6.0509    123.5713      5.5594    142.8737
  1015.0000      6.0718    123.5707      5.5281    141.2531
  1015.2500      6.1075    123.5763      5.5033    139.3756
  1015.5000      6.1526    123.5924      5.4884    134.6852
  1015.7500      6.1982    123.6240      5.4856    130.5457
  1016.0000      6.2355    123.6754      5.4956    124.5550
  1016.2500      6.2583    123.7499      5.5182    121.9298
  1016.5000      6.2646    123.8486      5.5523    120.9294
  1016.7500      6.2579    123.9705      5.5967    121.7285
  1017.0000      6.2457    124.1124      5.6492    123.4778
  1017.2500      6.2372    124.2687      5.7072    124.3355
  1017.5000      6.2392    124.4326      5.7667    125.1120
  1017.7500      6.2549    124.5962      5.8233    125.6643
  1018.0000      6.2867    124.7514      5.8730    126.9646
  1018.2500      6.3396    124.8903      5.9136    127.9022
  1018.5000      6.4215    125.0062      5.9459    128.3130
  1018.7500      6.5390    125.0938      5.9739    127.4488
  1019.0000      6.6898    125.1499      6.0035    124.8556
  1019.2500      6.8581    125.1735      6.0419    123.0704
  1019.5000      7.0153    125.1661      6.0955    121.6357
  1019.7500      7.1291    125.1316      6.1696    121.8903
  1020.0000      7.1767    125.0755      6.2674    123.9643
  1020.2500      7.1568    125.0048      6.3894    126.0222
  1020.5000      7.0946    124.9268      6.5329    129.0556
  1020.7500      7.0359    124.8484      6.6912    130.4782
  1021.0000      7.0304    124.7760      6.8531    131.1482
  1021.2500      7.1116    124.7145      7.0030    130.7325
  1021.5000      7.2799    124.6673      7.1240    129.8432
  1021.7500      7.4996    124.6368      7.2031    129.6565
  1022.0000      7.7093    124.6237      7.2367    129.7658
  1022.2500      7.8437    124.6277      7.2328    129.3481
  1022.5000      7.8564    124.6474      7.2086    127.0196
  1022.7500      7.7374    124.6804      7.1842    124.4125
