~Version Information
VERS.                      2.0: CWLS Log ASCII Standard - VERSION 2.0
WRAP.                       NO: One line per depth step
~Well Information Block
STRT.FT               555.6000: 
STOP.FT              2132.0000: 
STEP.FT                 0.1000: 
NULL.                -999.2500: 
COMP.          Petrogulf Corporation: COMPANY
WELL.           Montoya 12-41R: WELL
FLD.           Purgatorie River: FIELD
LOC.           1086' FNL & 610' FEL: LOCATION
CNTY.               Las Animas: COUNTY
SRVC.                         : SERVICE COMPANY
DATE.          Thu Nov 18 08:45:51 2004: LOG DATE
UWI.           05 071 08241 00: UNIQUE WELL ID
STAT.                 Colorado: STATE
~Curve Information Block
DEPT.FT            0 000 00 00: Depth
DCAL.in                       : CDL Caliper
RHOB.g/cc                     : CDL Bulk Density
RHOC.g/cc                     : CDL Density Correction
DPOR.pu                       : CDL Density Porosity
GR.GAPI                       : Gamma Ray
NPOR.pu                       : Neutron Porosity
~Parameter Information Block
~A  Depth       DCAL        RHOB        RHOC        DPOR         GR         NPOR    
# ...
  1294.8000      8.1283      2.4581      0.0636     11.6300     41.8444     18.5212
  1294.9000      8.1283      2.4672      0.0431     11.0816     37.7669     17.6947
  1295.0000      8.1272      2.4885      0.0851      9.7900     38.4614     17.7920
  1295.1000      8.1272      2.5086      0.1253      8.5688     37.9884     18.5186
  1295.2000      8.1272      2.5084      0.1207      8.5818     34.4167     18.9011
  1295.3000      8.1296      2.4929      0.0788      9.5207     33.7158     18.6980
  1295.4000      8.1296      2.4779      0.0611     10.4317     38.8380     18.4917
  1295.5000      8.1315      2.4684      0.0522     11.0080     45.7730     18.4175
  1295.6000      8.1315      2.4611      0.0719     11.4474     49.1463     18.3967
  1295.7000      8.1315      2.4546      0.0402     11.8439     47.9436     18.1886
  1295.8000      8.1336      2.4577      0.0161     11.6546     45.8288     17.2149
  1295.9000      8.1336      2.4733      0.0679     10.7081     45.0655     15.9886
  1296.0000      8.1382      2.4874      0.0691      9.8569     44.8230     15.5812
  1296.1000      8.1382      2.4928      0.0911      9.5250     45.1692     16.1030
  1296.2000      8.1382      2.4971      0.0711      9.2691     46.6028     16.8964
  1296.3000      8.1438      2.5029      0.0897      8.9154     49.4135     17.0896
  1296.4000      8.1438      2.5030      0.0855      8.9093     53.5421     16.1274
  1296.5000      8.1397      2.4959      0.1042      9.3364     55.7186     14.5414
  1296.6000      8.1397      2.4912      0.0648      9.6232     54.5974     13.5743
  1296.7000      8.1397      2.4899      0.0969      9.7011     52.7671     13.8253
  1296.8000      8.1323      2.4797      0.1027     10.3186     51.6068     14.7327
  1296.9000      8.1323      2.4649      0.0338     11.2176     52.0846     15.5389
  1297.0000      8.1307      2.4647      0.0492     11.2297     53.5174     15.7386
  1297.1000      8.1307      2.4771      0.0692     10.4771     52.0751     15.5072
  1297.2000      8.1307      2.4866      0.0763      9.9017     46.8860     15.5799
  1297.3000      8.1313      2.4881      0.0433      9.8106     41.7536     16.2200
  1297.4000      8.1313      2.4786      0.0555     10.3891     40.1787     16.9271
  1297.5000      8.1333      2.4559      0.0852     11.7619     41.7083     17.1680
  1297.6000      8.1333      2.4362      0.0231     12.9553     44.0089     16.8468
  1297.7000      8.1333      2.4396      0.0393     12.7544     45.7220     16.1373
  1297.8000      8.1357      2.4581      0.0686     11.6282     47.4056     15.6075
  1297.9000      8.1357      2.4685      0.0570     10.9991     49.9433     15.3827
  1298.0000      8.1330      2.4644      0.0653     11.2504     52.7926     15.0471
  1298.1000      8.1330      2.4557      0.0525     11.7763     54.1395     14.9886
  1298.2000      8.1330      2.4536      0.0563     11.9005     52.8434     15.8352
  1298.3000      8.1276      2.4637      0.0332     11.2932     49.8592     17.0348
  1298.4000      8.1276      2.4797      0.0805     10.3222     47.9340     17.4518
  1298.5000      8.1266      2.4887      0.0707      9.7760     49.9590     16.9862
  1298.6000      8.1266      2.4864      0.0727      9.9148     53.9489     16.5600
  1298.7000      8.1266      2.4810      0.0308     10.2398     55.1491     16.6158
  1298.8000      8.1284      2.4800      0.0532     10.3008     52.4055     16.8976
  1298.9000      8.1284      2.4822      0.0692     10.1687     47.5388     17.1808
  1299.0000      8.1314      2.4868      0.0853      9.8906     42.7452     17.5479
  1299.1000      8.1314      2.4950      0.0565      9.3960     40.6163     18.1469
  1299.2000      8.1314      2.5060      0.0721      8.7273     41.6511     19.1665
  1299.3000      8.1341      2.5156      0.0815      8.1426     43.4045     20.0734
  1299.4000      8.1341      2.5186      0.0770      7.9613     44.1054     19.7263
  1299.5000      8.1385      2.5126      0.1044      8.3248     43.6024     18.5839
  1299.6000      8.1385      2.5023      0.0290      8.9532     44.0989     17.9063
  1299.7000      8.1385      2.4980      0.0359      9.2128     46.3690     17.6178
  1299.8000      8.1406      2.4959      0.0843      9.3420     47.6825     17.3111
  1299.9000      8.1406      2.4835      0.0490     10.0931     46.8113     16.8464
  1300.0000      8.1385      2.4697      0.0409     10.9297     45.5011     16.1524
  1300.1000      8.1385      2.4734      0.0322     10.7042     45.9066     15.7458
  1300.2000      8.1385      2.4929      0.0644      9.5240     48.4612     15.9023
  1300.3000      8.1379      2.5036      0.0804      8.8712     51.5303     15.9956
  1300.4000      8.1379      2.4932      0.0375      9.5013     52.0104     15.3973
  1300.5000      8.1370      2.4748      0.0648     10.6168     48.3622     14.6149
  1300.6000      8.1370      2.4633      0.0517     11.3128     43.5974     15.1432
  1300.7000      8.1370      2.4667      0.0359     11.1113     41.7179     17.4183
  1300.8000      8.1354      2.4834      0.0351     10.0940     43.3140     19.6369
  1300.9000      8.1354      2.5009      0.0814      9.0379     47.1635     20.0668
  1301.0000      8.1370      2.5109      0.0759      8.4276     50.1597     19.1253
  1301.1000      8.1370      2.5164      0.0998      8.0986     49.7431     17.9706
  1301.2000      8.1370      2.5168      0.0895      8.0751     48.4005     17.5929
  1301.3000      8.1346      2.5126      0.0872      8.3298     47.9748     17.9901
  1301.4000      8.1346      2.5091      0.0779      8.5365     46.8695     17.9794
  1301.5000      8.1286      2.5127      0.0957      8.3212     45.8922     17.2416
  1301.6000      8.1286      2.5191      0.0989      7.9309     47.0273     16.6157
  1301.7000      8.1286      2.5123      0.0850      8.3439     49.3692     16.4137
  1301.8000      8.1297      2.4904      0.0365      9.6701     51.4516     16.4220
  1301.9000      8.1297      2.4742      0.0054     10.6563     53.4400     16.5419
  1302.0000      8.1371      2.4761      0.0456     10.5364     54.6977     16.5790
  1302.1000      8.1371      2.4914      0.0477      9.6151     53.2911     16.5193
  1302.2000      8.1371      2.5123      0.0627      8.3465     49.6297     16.7977
  1302.3000      8.1423      2.5238      0.1041      7.6476     46.6258     17.4242
  1302.4000      8.1423      2.5149      0.0358      8.1850     45.3797     18.1448
  1302.5000      8.1415      2.4962      0.0705      9.3237     45.9779     19.0448
  1302.6000      8.1415      2.4813      0.0219     10.2224     49.4180     19.8884
  1302.7000      8.1415      2.4796      0.0444     10.3258     54.1614     20.0325
  1302.8000      8.1385      2.4884      0.0586      9.7922     57.1533     19.2551
  1302.9000      8.1385      2.4978      0.0436      9.2227     58.9679     18.2002
  1303.0000      8.1332      2.5065      0.0465      8.6955     61.4279     17.7474
  1303.1000      8.1332      2.5112      0.0570      8.4150     61.9893     18.1657
  1303.2000      8.1332      2.5086      0.0537      8.5689     58.9624     18.8572
  1303.3000      8.1377      2.5105      0.0395      8.4565     56.5714     18.9528
  1303.4000      8.1377      2.5175      0.0908      8.0323     58.2646     18.3671
  1303.5000      8.1455      2.5161      0.0538      8.1175     61.7445     17.5375
  1303.6000      8.1455      2.5081      0.0106      8.6017     62.9124     16.8044
  1303.7000      8.1455      2.4970      0.0736      9.2736     62.3269     16.4407
  1303.8000      8.1446      2.4774      0.0300     10.4604     62.6397     16.3538
  1303.9000      8.1446      2.4582      0.0369     11.6246     61.5523     16.5789
  1304.0000      8.1375      2.4544      0.0241     11.8560     57.2244     17.1888
  1304.1000      8.1375      2.4674     -0.0052     11.0641     54.6516     17.3706
  1304.2000      8.1375      2.4837      0.0833     10.0791     55.7598     16.5949
  1304.3000      8.1293      2.4896      0.0355      9.7189     55.9509     15.9375
