~Version Information
VERS.                      2.0: CWLS Log ASCII Standard - VERSION 2.0
WRAP.                       NO: One line per depth step
~Well Information Block
STRT.FT               -13.0000: 
STOP.FT              1411.2500: 
STEP.FT                 0.2500: 
NULL.                -999.2500: 
COMP.                         : COMPANY
WELL.                         : WELL
FLD.                          : FIELD
LOC.                          : LOCATION
CNTY.                         : COUNTY
SRVC.                         : SERVICE COMPANY
DATE.          Sat Jan 17 07:25:27 2004: LOG DATE
UWI.                          : UNIQUE WELL ID
STAT.                         : STATE
~Curve Information Block
DEPT.FT            0 000 00 00: Depth
CCL.                          : Casing Collar Locator
TT3.usec                      : CBL 3' Travel Time
AMP3.mV                       : CBL 3' Amplitude
GR.GAPI                       : Gamma Ray
~Parameter Information Block
~A  Depth       CCL         TT3         AMP3         GR     
# ...
   355.5000      0.0000    756.4110      7.9573     73.9473
   355.7500      0.0000    753.7322      7.7109     76.5762
   356.0000      0.0000    753.0114      7.5282     78.5193
   356.2500      0.0000    754.2175      7.3619     79.7365
   356.5000      0.0000    756.3126      7.1698     80.7588
   356.7500      0.0000    758.5694      6.9349     81.9150
   357.0000      0.0000    760.9589      6.6742     83.3700
   357.2500      0.0000    763.4653      6.4271     85.1849
   357.5000      0.0000    765.7627      6.2210     86.8878
   357.7500      0.0000    767.6785      6.0483     87.4738
   358.0000      0.0000    769.5150      5.8830     86.2011
   358.2500      0.0000    771.5873      5.7102     83.1358
   358.5000      0.0000    773.4431      5.5312     78.9398
   358.7500      0.0000    773.7864      5.3595     74.5138
   359.0000      0.0000    771.5447      5.2339     70.7639
   359.2500      0.0000    767.1037      5.2259     68.3105
   359.5000      0.0000    762.3964      5.4040     67.3546
   359.7500      0.0000    759.6425      5.7793     67.9591
   360.0000      0.0000    759.9181      6.2887     70.2043
   360.2500      0.0000    762.8271      6.8213     73.7494
   360.5000      0.0000    767.6238      7.2647     77.5109
   360.7500      0.0000    774.5966      7.5490     80.2284
   361.0000      0.0000    785.0660      7.6559     81.2729
   361.2500      0.0000    799.6438      7.5895     80.7546
   361.5000      0.0000    816.5021      7.3654     79.1484
   361.7500      0.0000    831.8785      7.0473     77.0184
   362.0000      0.0000    842.4450      6.7676     74.7340
   362.2500      0.0000    847.3015      6.6610     72.3501
   362.5000      0.0000    848.3260      6.7572     70.1720
   362.7500      0.0000    848.1546      6.9458     69.3796
   363.0000      0.0000    846.3594      7.0584     71.4129
   363.2500      0.0000    838.4584      6.9967     76.4502
   363.5000      0.0000    821.2986      6.7898     82.7082
   363.7500      0.0000    798.9147      6.5489     87.4219
   364.0000      0.0000    780.0185      6.3868     88.6716
   364.2500      0.0000    769.6512      6.3774     86.5015
   364.5000      0.0000    765.9470      6.5631     82.5565
   364.7500      0.0000    764.6923      6.9697     78.8727
   365.0000      0.0000    764.1141      7.6045     76.7977
   365.2500      0.0000    764.3831      8.4443     76.5539
   365.5000      0.0000    763.9314      9.4397     77.6127
   365.7500      0.0000    757.0017     10.5590     79.4326
   366.0000      0.0000    734.3611     11.8545     81.7238
   366.2500      0.0000    687.2262     13.4977     84.2165
   366.5000      0.0000    613.6427     15.7379     86.5711
   366.7500      0.0000    523.4228     18.7936     88.5415
   367.0000      0.0000    435.1980     22.7487     89.9649
   367.2500      0.0000    365.4950     27.4884     90.5872
   367.5000      0.0000    319.7722     32.6533     90.1391
   367.7500      0.0000    293.5943     37.6151     88.7417
   368.0000      0.0000    280.1273     41.5602     87.1911
   368.2500      0.0000    274.9102     43.8122     86.5556
   368.5000      0.0000    275.2339     44.3135     87.2519
   368.7500      0.0000    278.1609     43.7963     88.5125
   369.0000      0.0000    280.6131     43.2472     88.8832
   369.2500      0.0000    280.7443     43.1416     87.3908
   369.5000      0.0000    278.4559     43.3325     84.3593
   369.7500      0.0000    274.7717     43.5496     81.2615
   370.0000      0.0000    271.0075     43.7317     79.7647
   370.2500     -4.0000    268.1729     43.9307     80.4321
   370.5000      4.0000    266.6807     44.1501     81.9601
   370.7500      4.0000    266.5169     44.3281     82.1084
   371.0000      0.0000    267.5405     44.4553     79.9419
   371.2500      0.0000    269.3504     44.7578     76.8288
   371.5000      0.0000    270.8987     45.7268     74.8130
   371.7500      0.0000    270.7865     47.7679     74.4888
   372.0000      0.0000    268.4165     50.7567     75.0567
   372.2500      0.0000    264.6686     54.0630     76.0213
   372.5000      0.0000    261.1297     56.9572     78.0086
   372.7500      0.0000    258.8111     58.8818     81.8899
   373.0000      0.0000    257.7899     59.5146     87.7200
   373.2500      0.0000    257.7663     58.8279     94.5543
   373.5000      0.0000    258.6668     57.0611    100.7583
   373.7500      0.0000    260.7738     54.5472    104.6553
   374.0000      0.0000    264.4053     51.5982    105.7066
   374.2500      0.0000    269.4858     48.5425    105.0959
   374.5000      0.0000    275.4611     45.7372    104.4009
   374.7500      0.0000    281.6155     43.4243    103.8160
   375.0000      0.0000    287.2998     41.5843    102.4032
   375.2500      0.0000    291.9299     39.9561     99.7780
   375.5000      0.0000    295.1160     38.2304     96.8442
   375.7500      0.0000    296.9039     36.2513     95.0421
   376.0000      0.0000    297.7257     34.0786     95.1873
   376.2500      0.0000    298.0752     31.8980     96.7644
   376.5000      0.0000    298.2716     29.8834     98.1989
   376.7500      0.0000    298.4483     28.1296     98.0806
   377.0000      0.0000    298.6421     26.6719     96.2242
   377.2500      0.0000    298.8471     25.5173     93.5247
   377.5000      0.0000    299.0390     24.6203     91.0092
   377.7500      0.0000    299.1975     23.8581     89.1982
   378.0000      0.0000    299.3417     23.0914     88.1820
   378.2500      0.0000    299.5239     22.2819     87.8958
   378.5000      0.0000    299.7685     21.5420     88.1277
   378.7500      0.0000    300.0288     21.0527     88.5664
   379.0000      0.0000    300.2248     20.9194     89.1034
   379.2500      0.0000    300.3174     21.0976     89.8612
   379.5000      0.0000    300.3259     21.4475     90.7406
   379.7500      0.0000    300.2886     21.8495     91.1665
   380.0000      0.0000    300.2360     22.2654     90.5196
   380.2500      0.0000    300.1958     22.7094     88.7672
   380.5000      0.0000    300.1862     23.1857     86.5549
   380.7500      0.0000    300.1952     23.6598     84.7203
   381.0000      0.0000    300.1836     24.0767     83.7171
   381.2500      0.0000    300.1227     24.3909     83.4763
   381.5000      0.0000    300.0297     24.5699     83.9079
   381.7500      0.0000    299.9624     24.5880     85.3813
   382.0000      0.0000    299.9765     24.4467     88.3969
   382.2500      0.0000    300.0784     24.1976     92.9089
   382.5000      0.0000    300.2213     23.9047     98.1326
   382.7500      0.0000    300.3501     23.5807    102.7574
   383.0000      0.0000    300.4478     23.1945    105.3670
   383.2500      0.0000    300.5299     22.7538    105.1467
   383.5000      0.0000    300.5913     22.3574    102.3999
   383.7500      0.0000    300.5806     22.1589     98.2405
   384.0000      0.0000    300.4482     22.2857     93.8561
   384.2500      0.0000    300.2128     22.7850     89.9612
   384.5000      0.0000    299.9505     23.6129     86.4438
   384.7500      0.0000    299.7211     24.6677     82.4211
   385.0000      0.0000    299.5289     25.8602     77.1590
   385.2500      0.0000    299.3528     27.1731     71.2398
   385.5000      0.0000    299.1447     28.6560     66.7038
   385.7500      0.0000    298.7177     30.3808     65.8874
   386.0000      0.0000    297.5672     32.4136     69.8278
   386.2500      0.0000    294.8452     34.7969     77.3024
   386.5000      0.0000    289.7708     37.5099     85.3831
   386.7500      0.0000    282.4081     40.4417     91.3746
   387.0000      0.0000    274.0834     43.4397     94.4517
   387.2500      0.0000    266.7543     46.3934     95.4428
   387.5000      0.0000    261.8630     49.2287     95.3642
   387.7500      0.0000    259.9329     51.7409     94.5052
   388.0000      0.0000    261.2457     53.3734     92.7021
   388.2500      0.0000    266.4079     53.2792     89.9885
   388.5000      0.0000    275.5338     50.9394     86.8004
   388.7500      0.0000    286.5506     46.9493     83.6957
