~Version Information
VERS.                      2.0: CWLS Log ASCII Standard - VERSION 2.0
WRAP.                       NO: One line per depth step
~Well Information Block
STRT.FT                -8.7500: 
STOP.FT              1126.7500: 
STEP.FT                 0.2500: 
NULL.                -999.2500: 
COMP.          Evergreen Operating Corp.: COMPANY
WELL.             Bernice 21-3: WELL
FLD.           Purgatorie River: FIELD
LOC.           201' FNL & 2575' FWL--: LOCATION
PROV.                       CO: PROVINCE
CNTY.               Las Animas: COUNTRY
SRVC.          Patterson Wireline: SERVICE COMPANY
DATE.          Mon Feb 02 12:04:59 2004: LOG DATE
UWI.              05 071 07912: UNIQUE WELL ID
~Curve Information Block
DEPT.FT            0 000 00 00: Depth
CCL.                          : Casing Collar Locator
TT3.usec                      : CBL 3' Travel Time
AMP3.mV                       : CBL 3' Amplitude
GR.GAPI                       : Gamma Ray
~Parameter Information Block
~A  Depth       CCL         TT3         AMP3         GR     
# ...
   661.2500      0.0000    814.7557      6.6405    121.1008
   661.5000      0.0000    814.5733      6.5321    123.0867
   661.7500      0.0000    814.4731      6.4470    123.4811
   662.0000      0.0000    814.4003      6.4011    123.3220
   662.2500      0.0000    814.3523      6.3896    123.3916
   662.5000      0.0000    814.3670      6.3834    123.7277
   662.7500      0.0000    814.4417      6.3526    123.7677
   663.0000      0.0000    814.4950      6.2911    123.0910
   663.2500      0.0000    814.4270      6.2240    121.7627
   663.5000      0.0000    814.2078      6.1900    119.8880
   663.7500      0.0000    813.8614      6.2073    117.4688
   664.0000      0.0000    813.3217      6.2534    115.1071
   664.2500      0.0000    812.2599      6.2817    114.1123
   664.5000      0.0000    810.1135      6.2595    114.9692
   664.7500      0.0000    806.4608      6.1897    116.0445
   665.0000      0.0000    801.5192      6.0968    114.8740
   665.2500      0.0000    796.2792      6.0037    110.8844
   665.5000      0.0000    792.1315      5.9283    106.2503
   665.7500      0.0000    790.2438      5.8871    103.9460
   666.0000      0.0000    790.9276      5.8873    105.3807
   666.2500      0.0000    793.4067      5.9125    109.8148
   666.5000      0.0000    796.5114      5.9308    115.3524
   666.7500      0.0000    799.6650      5.9213    120.1442
   667.0000      0.0000    802.8301      5.8932    123.0398
   667.2500      0.0000    805.6868      5.8754    123.7676
   667.5000      0.0000    807.4434      5.8844    122.7058
   667.7500      0.0000    807.4777      5.8985    120.3039
   668.0000      0.0000    805.9339      5.8756    116.7701
   668.2500      0.0000    803.7267      5.8050    112.5260
   668.5000      0.0000    801.8774      5.7312    108.6941
   668.7500      0.0000    800.5629      5.7083    106.3819
   669.0000      0.0000    799.0543      5.7377    105.3146
   669.2500      0.0000    797.0131      5.7693    104.0517
   669.5000      0.0000    795.5188      5.7631    101.9886
   669.7500      0.0000    796.1426      5.7290    100.3401
   670.0000      0.0000    799.0652      5.7028    100.6336
   670.2500      0.0000    802.5585      5.6977    102.8124
   670.5000      0.0000    804.1478      5.6921    105.2620
   670.7500      0.0000    801.9388      5.6669    106.2857
   671.0000      0.0000    795.5159      5.6425    105.3401
   671.2500      0.0000    786.7233      5.6701    103.3005
   671.5000      0.0000    779.2803      5.7813    101.7037
   671.7500      0.0000    776.1791      5.9493    101.4930
   672.0000      0.0000    777.0898      6.1054    102.3954
   672.2500      0.0000    779.1424      6.2021    103.5454
   672.5000      0.0000    780.0427      6.2620    104.3870
   672.7500      0.0000    779.5273      6.3576    104.6362
   673.0000      0.0000    778.4675      6.5400    103.6514
   673.2500      0.0000    777.8132      6.7872    100.6184
   673.5000      0.0000    778.0460      7.0210     95.8011
   673.7500      0.0000    778.6927      7.1811     91.2728
   674.0000      0.0000    778.5087      7.2731     89.6418
   674.2500      0.0000    776.6234      7.3308     91.7346
   674.5000      0.0000    773.2369      7.3397     95.7500
   674.7500      0.0000    768.8851      7.2228     98.7648
   675.0000      0.0000    763.4457      6.9163     98.9232
   675.2500      0.0000    756.7664      6.4649     96.4486
   675.5000      0.0000    750.5500      6.0277     93.0949
   675.7500      0.0000    748.8732      5.7506     90.7164
   676.0000      0.0000    755.6152      5.6322     89.9978
   676.2500      0.0000    771.0849      5.5528     90.3663
   676.5000      0.0000    791.5502      5.4260     91.1149
   676.7500      0.0000    811.6655      5.2722     92.4753
   677.0000      0.0000    827.0963      5.1590     95.3850
   677.2500     -4.0000    836.0089      5.1215    100.2248
   677.5000     -4.0000    839.2664      5.1449    105.9968
   677.7500      0.0000    838.9528      5.2097    110.7747
   678.0000      0.0000    836.2039      5.3478    112.8412
   678.2500      0.0000    830.7471      5.6315    111.6475
   678.5000      0.0000    822.6346      6.0711    108.1696
   678.7500      0.0000    813.6014      6.5426    104.4582
   679.0000      0.0000    806.1281      6.8690    102.4060
   679.2500      0.0000    801.7914      6.9732    102.5085
   679.5000      0.0000    800.8367      6.9217    103.7030
   679.7500      0.0000    802.5593      6.8355    104.4979
   680.0000      0.0000    805.6050      6.7977    104.3774
   680.2500      0.0000    808.4969      6.8317    104.2464
   680.5000      0.0000    810.3668      6.9191    105.4116
   680.7500      0.0000    811.1609      7.0076    108.0280
   681.0000      0.0000    811.2807      7.0261    110.7795
   681.2500      0.0000    811.1638      6.9383    112.3205
   681.5000      0.0000    811.0721      6.7875    112.7783
   681.7500      0.0000    811.0429      6.6649    113.4166
   682.0000      0.0000    810.9897      6.6220    114.7514
   682.2500      0.0000    810.8617      6.6316    115.5176
   682.5000      0.0000    810.7015      6.6359    114.0859
   682.7500      0.0000    810.5850      6.6153    110.7080
   683.0000      0.0000    810.5545      6.5971    107.6501
   683.2500      0.0000    810.6204      6.6108    107.1026
   683.5000      0.0000    810.7703      6.6516    109.4971
   683.7500      0.0000    810.9461      6.6884    113.6888
   684.0000      0.0000    811.0150      6.6958    117.9683
   684.2500      0.0000    810.7335      6.6707    120.7925
   684.5000      0.0000    809.6542      6.6248    121.3327
   684.7500      0.0000    807.1301      6.5691    120.0501
   685.0000      0.0000    802.8474      6.5076    118.6621
   685.2500      0.0000    797.8209      6.4421    119.0585
   685.5000      0.0000    794.6172      6.3816    121.7982
   685.7500      0.0000    795.7610      6.3401    125.4727
   686.0000      0.0000    801.5280      6.3247    127.6105
   686.2500      0.0000    809.5292      6.3283    126.4915
   686.5000      0.0000    816.4919      6.3292    122.4015
   686.7500      0.0000    820.4070      6.2954    117.2705
   687.0000      0.0000    821.4931      6.1998    113.0386
   687.2500      0.0000    821.5554      6.0485    110.3698
   687.5000      0.0000    822.2039      5.8947    108.8091
   687.7500      0.0000    823.4041      5.8121    107.7848
   688.0000      0.0000    823.8163      5.8476    107.3160
   688.2500      0.0000    822.4730      5.9939    108.0599
   688.5000      0.0000    819.8062      6.2013    110.8095
   688.7500      0.0000    817.0565      6.4108    115.6470
   689.0000      0.0000    815.1345      6.5777    121.4422
   689.2500      0.0000    814.2064      6.6720    126.4473
   689.5000      0.0000    813.9796      6.6741    129.5452
   689.7500      0.0000    814.1057      6.5854    130.9166
   690.0000      0.0000    814.4333      6.4378    131.5500
   690.2500      0.0000    815.1368      6.2826    132.1253
   690.5000      0.0000    816.5827      6.1677    132.3049
   690.7500      0.0000    818.8090      6.1221    131.0443
   691.0000      0.0000    821.0302      6.1544    127.5839
   691.2500      0.0000    821.9645      6.2538    122.3720
   691.5000      0.0000    820.9741      6.3923    117.1799
   691.7500      0.0000    818.7190      6.5293    113.9002
   692.0000      0.0000    816.4877      6.6262    112.8839
   692.2500      0.0000    815.1157      6.6601    112.7923
   692.5000      0.0000    814.6722      6.6262    112.2434
   692.7500      0.0000    814.8585      6.5310    111.0337
   693.0000      0.0000    815.4456      6.3930    109.7608
   693.2500      0.0000    816.4775      6.2502    109.1039
   693.5000      0.0000    818.2227      6.1511    109.5854
   693.7500      0.0000    820.8063      6.1257    111.2421
   694.0000      0.0000    823.7891      6.1621    113.2423
   694.2500      0.0000    826.2871      6.2136    114.1530
   694.5000      0.0000    827.6241      6.2327    112.6911
