~Version Information
 VERS.                      2.0: CWLS Log ASCII Standard - VERSION 2.0
 WRAP.                       NO: One line per depth step
 ~Well Information Block
 STRT.FT               886.1000: 
 STOP.FT              2599.0000: 
 STEP.FT                 0.1000: 
 NULL.                -999.2500: 
 COMP.          Petrogulf Corporation: COMPANY
 WELL.               YWAM 7-23V: WELL
 FLD.           Purgatorie River: FIELD
 LOC.           230' FSL & 225' FWL: LOCATION
 CNTY.               Las Animas: COUNTY
 SRVC.                         : SERVICE COMPANY
 DATE.          Sat Oct 30 10:42:52 2004: LOG DATE
 UWI.           05 071 08227 00: UNIQUE WELL ID
 STAT.                 Colorado: STATE
 PROV.                         :Province
 ~Curve Information Block
 DEPT.FT            0 000 00 00: Depth
 DCAL.in                       : CDL Caliper
 RHOB.g/cc                     : CDL Bulk Density
 RHOC.g/cc                     : CDL Density Correction
 DPOR.pu                       : CDL Density Porosity
 GR.GAPI                       : Gamma Ray
 NPOR.pu                       : Neutron Porosity
 ~Parameter Information Block
 ~A  Depth       DCAL        RHOB        RHOC        DPOR         GR         NPOR    
# ...
  2028.5000      8.1757      2.4278      0.0826     13.4649    116.6721     28.1238
  2028.6000      8.1757      2.3210     -0.0383     19.9403    113.1604     28.3478
  2028.7000      8.1757      2.2273     -0.0790     25.6212    111.5813     28.2045
  2028.8000      8.1962      2.1750     -0.0646     28.7905    115.4984     27.8221
  2028.9000      8.1962      2.1586     -0.0750     29.7800    124.1820     27.7249
  2029.0000      8.2101      2.1704     -0.0371     29.0646    133.8232     27.9477
  2029.1000      8.2101      2.2110     -0.0045     26.6085    145.6752     28.4588
  2029.2000      8.2101      2.2878      0.0854     21.9487    155.8283     29.0594
  2029.3000      8.2229      2.3989      0.2620     15.2201    153.0278     29.3690
  2029.4000      8.2229      2.5100      0.4369      8.4833    141.2441     29.2608
  2029.5000      8.2746      2.5871      0.4570      3.8133    134.2096     28.7791
  2029.6000      8.2746      2.6281      0.4376      1.3248    134.7669     27.8723
  2029.7000      8.2746      2.6441      0.4099      0.3554    135.8854     27.1146
  2029.8000      8.4236      2.6429      0.3148      0.4273    130.2206     27.3584
  2029.9000      8.4236      2.6301      0.2695      1.2090    120.7191     27.6819
  2030.0000      8.3457      2.6075      0.2484      2.5776    115.3701     26.8352
  2030.1000      8.3457      2.5815      0.1613      4.1516    112.6147     25.2444
  2030.2000      8.3457      2.5669      0.0946      5.0346    108.4711     24.0933
  2030.3000      7.9995      2.5690      0.1000      4.9062    105.6598     23.7917
  2030.4000      7.9995      2.5819      0.0780      4.1278    104.7739     23.4192
  2030.5000      7.9446      2.6012      0.1388      2.9572    102.0968     22.4024
  2030.6000      7.9446      2.6152      0.1140      2.1073     99.3154     21.5998
  2030.7000      7.9446      2.6161      0.1350      2.0545    100.9196     21.7905
  2030.8000      7.9421      2.6072      0.1300      2.5921    103.8595     22.8107
  2030.9000      7.9421      2.5969      0.0719      3.2171    102.6240     23.9828
  2031.0000      7.9372      2.5913      0.1082      3.5582     98.6043     24.6927
  2031.1000      7.9372      2.5811      0.0872      4.1732     95.7701     24.6705
  2031.2000      7.9372      2.5669      0.0224      5.0379     93.9126     23.7315
  2031.3000      7.9397      2.5697      0.0312      4.8645     92.4683     22.4959
  2031.4000      7.9397      2.5923      0.0793      3.4999     92.1224     22.1872
  2031.5000      7.9391      2.6110      0.0713      2.3658     91.7596     22.5013
  2031.6000      7.9391      2.6074      0.0689      2.5797     91.5746     22.1642
  2031.7000      7.9391      2.5849      0.0478      3.9451     93.4786     21.4164
  2031.8000      7.9390      2.5613      0.0590      5.3766     94.6306     21.2487
  2031.9000      7.9390      2.5469      0.0748      6.2497     92.2515     21.3514
  2032.0000      7.9469      2.5358      0.0497      6.9189     89.6714     20.5236
  2032.1000      7.9469      2.5216      0.0373      7.7848     87.0371     18.8517
  2032.2000      7.9469      2.5151      0.0212      8.1768     83.7988     17.9102
  2032.3000      7.9485      2.5323      0.0154      7.1334     84.5101     18.2647
  2032.4000      7.9485      2.5662      0.0722      5.0763     88.0532     18.8189
  2032.5000      7.9325      2.5928      0.0725      3.4674     88.9392     19.1490
  2032.6000      7.9325      2.6080      0.0976      2.5446     88.3466     19.9669
  2032.7000      7.9325      2.6253      0.0954      1.4972     89.2555     20.9033
  2032.8000      7.9050      2.6343      0.2039      0.9485     91.5320     20.7612
  2032.9000      7.9050      2.6148      0.1231      2.1357     92.2266     19.7896
  2033.0000      7.8992      2.5863      0.0594      3.8617     87.8882     19.3298
  2033.1000      7.8992      2.5773      0.0636      4.4058     84.4375     19.4273
  2033.2000      7.8992      2.5762      0.1028      4.4727     90.2310     19.3388
  2033.3000      7.8993      2.5651      0.0610      5.1433    102.2178     19.0508
  2033.4000      7.8993      2.5521      0.0460      5.9307    109.8243     18.9037
  2033.5000      7.8999      2.5486      0.0274      6.1454    108.6733     19.0308
  2033.6000      7.8999      2.5471      0.0841      6.2384    105.4136     18.9674
  2033.7000      7.8999      2.5321      0.0944      7.1449    103.1769     18.4985
  2033.8000      7.9050      2.5144     -0.0069      8.2188     99.9249     18.2003
  2033.9000      7.9050      2.5187      0.0090      7.9568     98.5171     18.3270
  2034.0000      7.8860      2.5467      0.0430      6.2589    100.7864     18.7345
  2034.1000      7.8860      2.5828      0.0823      4.0698    104.1326     19.0598
  2034.2000      7.8860      2.6119      0.1270      2.3067    107.0847     18.7727
  2034.3000      7.8741      2.6248      0.1234      1.5284    108.4516     18.2578
  2034.4000      7.8741      2.6196      0.1435      1.8422    107.8940     18.4579
  2034.5000      7.8744      2.6037      0.0695      2.8070    107.4399     18.5876
  2034.6000      7.8744      2.5937      0.0777      3.4114    108.3697     17.5677
  2034.7000      7.8744      2.6040      0.0404      2.7891    110.3567     16.7815
  2034.8000      7.8725      2.6280      0.1282      1.3313    111.9837     17.0502
  2034.9000      7.8725      2.6391      0.1061      0.6584    112.6447     17.1243
  2035.0000      7.8733      2.6293      0.0734      1.2553    110.9971     16.8558
  2035.1000      7.8733      2.6140      0.1075      2.1847    104.6240     16.7167
  2035.2000      7.8733      2.5975      0.0730      3.1837     98.4153     16.6345
  2035.3000      7.8721      2.5706      0.1108      4.8139     96.5085     16.6810
  2035.4000      7.8721      2.5386      0.0235      6.7512     92.9709     16.7894
  2035.5000      7.8761      2.5268      0.0413      7.4694     84.4765     16.7867
  2035.6000      7.8761      2.5436      0.0403      6.4462     79.4025     16.8190
  2035.7000      7.8761      2.5653      0.1126      5.1330     84.6033     17.1955
  2035.8000      7.8785      2.5607      0.1044      5.4106     96.4745     17.8029
  2035.9000      7.8785      2.5347      0.0321      6.9851    107.3908     18.3280
  2036.0000      7.8699      2.5231      0.0191      7.6918    113.0728     18.4215
  2036.1000      7.8699      2.5359      0.0942      6.9167    112.2731     18.0495
  2036.2000      7.8699      2.5481      0.1019      6.1728    107.4554     17.9167
  2036.3000      7.8542      2.5509      0.0953      6.0063    105.2026     18.4480
  2036.4000      7.8542      2.5556      0.1177      5.7194    109.8045     19.3932
  2036.5000      7.8391      2.5629      0.1235      5.2817    115.8763     20.1361
  2036.6000      7.8391      2.5662      0.1293      5.0811    115.8125     20.1678
  2036.7000      7.8391      2.5672      0.1117      5.0195    112.3948     19.8328
  2036.8000      7.8382      2.5676      0.0883      4.9962    111.0311     19.6017
  2036.9000      7.8382      2.5581      0.0894      5.5693    109.7564     19.4261
  2037.0000      7.8375      2.5392      0.1086      6.7136    108.4215     19.4016
  2037.1000      7.8375      2.5322      0.0299      7.1423    109.8354     19.6305
  2037.2000      7.8375      2.5362      0.1072      6.8995    111.8485     20.3080
  2037.3000      7.8209      2.5296      0.0730      7.2973    111.6667     21.4841
  2037.4000      7.8209      2.5187      0.0674      7.9550    108.8950     22.3045
  2037.5000      7.7058      2.5245      0.0601      7.6045    104.4163     21.7928
  2037.6000      7.7058      2.5533      0.0992      5.8580     98.9549     20.2458
  2037.7000      7.7058      2.6087      0.0949      2.5025     92.3510     18.9295
  2037.8000      7.6417      2.6932      0.1259     -2.6167     84.4897     18.7974
  2037.9000      7.6417      2.7865      0.1902     -8.2757     77.0477     19.8880
  2038.0000      7.6474      2.8605      0.1585    -12.7587     71.8599     21.1946
