~Version Information
VERS.                      2.0: CWLS Log ASCII Standard - VERSION 2.0
WRAP.                       NO: One line per depth step
~Well Information Block
STRT.FT               965.2500: 
STOP.FT              2602.5000: 
STEP.FT                 0.2500: 
NULL.                -999.2500: 
COMP.          Petrogulf Corporation: COMPANY
WELL.             Valejo 8-12V: WELL
FLD.           Purgatorie River: FIELD
LOC.           1510' FNL & 1460' FWL: LOCATION
CNTY.               Las Animas: COUNTY
SRVC.                         : SERVICE COMPANY
DATE.          Fri Nov 14 05:32:33 2003: LOG DATE
UWI.                          : UNIQUE WELL ID
STAT.                 Colorado: STATE
~Curve Information Block
DEPT.FT            0 000 00 00: Depth
RILD.Ohm-m                    : DIL Deep Resistivity
RILM.Ohm-m                    : DIL Medium Resistivity
RLL3.Ohm-m                    : DIL Shallow Resistivity
SP.mV                         : DIL Spontaneous Potential
GR.GAPI                       : Gamma Ray
~Parameter Information Block
~A  Depth       RILD        RILM        RLL3         SP          GR     
# ...
  1273.2500     30.8323     53.1719     38.3530    -51.4405     86.4693
  1273.5000     29.7176     55.6553     38.6442    -51.4106     90.5118
  1273.7500     28.1366     55.5073     42.2704    -51.4207     93.1308
  1274.0000     26.2315     52.2988     48.7877    -51.5064     95.9786
  1274.2500     24.1835     46.9569     56.8325    -51.6784     96.3308
  1274.5000     22.1681     40.7483     63.9641    -51.9153     93.4384
  1274.7500     20.3283     34.6040     67.1898    -52.1776     89.4599
  1275.0000     18.7581     29.0857     64.4157    -52.4302     82.7868
  1275.2500     17.4906     24.4716     55.8894    -52.6557     79.8280
  1275.5000     16.5009     20.8154     44.2519    -52.8489     80.1357
  1275.7500     15.7248     18.0272     32.9711    -53.0080     83.8506
  1276.0000     15.0890     15.9599     24.4585    -53.1335     93.3005
  1276.2500     14.5371     14.4650     19.2912    -53.2355    100.6270
  1276.5000     14.0392     13.4146     16.7224    -53.3343    110.5557
  1276.7500     13.5858     12.7040     15.6569    -53.4491    115.7096
  1277.0000     13.1768     12.2493     15.3096    -53.5792    121.2753
  1277.2500     12.8164     11.9852     15.3399    -53.6926    123.7218
  1277.5000     12.5111     11.8648     15.6626    -53.7362    125.5595
  1277.7500     12.2691     11.8570     16.2305    -53.6673    125.8469
  1278.0000     12.0982     11.9412     16.9542    -53.4779    126.1405
  1278.2500     12.0049     12.1003     17.7310    -53.1921    126.9111
  1278.5000     11.9948     12.3186     18.4730    -52.8442    128.8670
  1278.7500     12.0748     12.5843     19.1129    -52.4648    130.0652
  1279.0000     12.2553     12.8945     19.6279    -52.0791    130.6953
  1279.2500     12.5496     13.2568     20.0692    -51.7063    130.2065
  1279.5000     12.9727     13.6856     20.5504    -51.3619    128.4322
  1279.7500     13.5367     14.1951     21.1803    -51.0625    126.6359
  1280.0000     14.2432     14.7929     21.9795    -50.8235    122.7772
  1280.2500     15.0741     15.4789     22.8356    -50.6444    119.4916
  1280.5000     15.9872     16.2480     23.5439    -50.5011    114.6052
  1280.7500     16.9280     17.0989     23.9374    -50.3599    112.2367
  1281.0000     17.8597     18.0464     24.0494    -50.2000    110.4811
  1281.2500     18.7872     19.1346     24.2174    -50.0256    109.9689
  1281.5000     19.7536     20.4435     25.0560    -49.8588    108.7762
  1281.7500     20.8112     22.0822     27.2776    -49.7248    107.1499
  1282.0000     21.9959     24.1661     31.4116    -49.6410    103.1370
  1282.2500     23.3183     26.7817     37.5552    -49.6176     99.3702
  1282.5000     24.7663     29.9441     45.3381    -49.6646     92.1927
  1282.7500     26.3130     33.5696     54.1413    -49.7952     86.7018
  1283.0000     27.9250     37.5041     63.3174    -50.0220     78.2265
  1283.2500     29.5671     41.6309     72.1436    -50.3473     72.7711
  1283.5000     31.1966     45.9928     79.7039    -50.7567     65.1012
  1283.7500     32.7518     50.7982     85.1657    -51.2189     60.4591
  1284.0000     34.1444     56.2665     88.3738    -51.6923     54.6785
  1284.2500     35.2705     62.3875     90.0876    -52.1333     51.8831
  1284.5000     36.0306     68.6951     91.5059    -52.5046     49.4595
  1284.7500     36.3479     74.1333     93.5073    -52.7822     49.0264
  1285.0000     36.1787     77.1628     96.2247    -52.9621     50.0224
  1285.2500     35.5145     76.3493     99.0619    -53.0649     51.4946
  1285.5000     34.3916     71.3560    100.8033    -53.1334     54.0093
  1285.7500     32.9063     63.4002     99.6857    -53.2208     55.4527
  1286.0000     31.2111     54.4722     93.8845    -53.3690     57.5101
  1286.2500     29.4727     46.1772     82.7085    -53.5871     59.5720
  1286.5000     27.8134     39.2854     67.6660    -53.8436     65.1569
  1286.7500     26.2808     33.9223     52.0733    -54.0798     70.9174
  1287.0000     24.8596     29.8945     39.2018    -54.2374     82.2199
  1287.2500     23.5077     26.9103     30.5860    -54.2836     90.8291
  1287.5000     22.1927     24.6894     25.8262    -54.2183    103.3588
  1287.7500     20.9125     23.0055     23.5877    -54.0653    109.9087
  1288.0000     19.6952     21.6898     22.6424    -53.8554    115.0113
  1288.2500     18.5853     20.6148     22.2819    -53.6174    115.4264
  1288.5000     17.6210     19.6776     22.1971    -53.3793    114.2746
  1288.7500     16.8183     18.8007     22.2214    -53.1681    114.0954
  1289.0000     16.1684     17.9453     22.2087    -53.0006    115.7146
  1289.2500     15.6499     17.1173     22.0647    -52.8719    117.5067
  1289.5000     15.2448     16.3525     21.7893    -52.7589    120.3902
  1289.7500     14.9475     15.6901     21.4283    -52.6375    122.6408
  1290.0000     14.7623     15.1539     20.9894    -52.5029    127.2277
  1290.2500     14.6921     14.7492     20.4233    -52.3716    130.9736
  1290.5000     14.7265     14.4742     19.6834    -52.2655    136.3646
  1290.7500     14.8350     14.3368     18.8145    -52.1963    139.0601
  1291.0000     14.9685     14.3643     18.0568    -52.1653    141.2293
  1291.2500     15.0696     14.5992     17.9807    -52.1726    141.4218
  1291.5000     15.0883     15.0803     19.5916    -52.2186    139.8014
  1291.7500     14.9939     15.8111     24.1492    -52.2998    137.3841
  1292.0000     14.7798     16.7194     32.3950    -52.4098    131.8224
  1292.2500     14.4592     17.6189     43.3719    -52.5458    127.0519
  1292.5000     14.0562     18.2229     53.8873    -52.7097    118.9798
  1292.7500     13.5997     18.2652     59.7454    -52.9013    113.6166
  1293.0000     13.1246     17.6760     58.3403    -53.1076    107.3952
  1293.2500     12.6742     16.6292     50.4637    -53.3003    105.7974
  1293.5000     12.2935     15.4037     39.6333    -53.4463    108.6257
  1293.7500     12.0117     14.2222     29.6559    -53.5240    113.4743
  1294.0000     11.8252     13.1960     22.6295    -53.5335    122.0600
  1294.2500     11.6939     12.3487     18.6494    -53.4928    126.5143
  1294.5000     11.5587     11.6593     16.7249    -53.4287    129.2574
  1294.7500     11.3731     11.0937     15.7847    -53.3683    128.7605
  1295.0000     11.1284     10.6235     15.1696    -53.3322    126.7571
  1295.2500     10.8541     10.2341     14.6493    -53.3254    125.8829
  1295.5000     10.5963      9.9254     14.2334    -53.3326    126.2816
  1295.7500     10.3930      9.7089     13.9901    -53.3234    127.5921
  1296.0000     10.2624      9.5998     13.9642    -53.2674    130.2249
  1296.2500     10.2050      9.6093     14.1771    -53.1474    131.6461
  1296.5000     10.2134      9.7387     14.6402    -52.9639    132.1200
  1296.7500     10.2809      9.9775     15.3376    -52.7287    131.1848
  1297.0000     10.4044     10.3074     16.2083    -52.4570    128.6182
  1297.2500     10.5824     10.7077     17.1684    -52.1629    126.7204
  1297.5000     10.8103     11.1580     18.1470    -51.8582    124.2130
  1297.7500     11.0798     11.6373     19.0908    -51.5520    122.7964
  1298.0000     11.3816     12.1199     19.9512    -51.2510    120.7290
  1298.2500     11.7096     12.5770     20.6879    -50.9566    119.1974
  1298.5000     12.0630     12.9841     21.2775    -50.6602    116.6341
  1298.7500     12.4442     13.3296     21.6987    -50.3443    114.8683
  1299.0000     12.8530     13.6159     21.9175    -49.9943    112.2938
  1299.2500     13.2832     13.8529     21.9053    -49.6121    110.5622
  1299.5000     13.7229     14.0530     21.6776    -49.2137    107.7135
  1299.7500     14.1598     14.2302     21.2951    -48.8145    105.7458
  1300.0000     14.5889     14.4037     20.8308    -48.4175    103.4652
  1300.2500     15.0179     14.6012     20.3698    -48.0203    102.8266
  1300.5000     15.4685     14.8602     20.0562    -47.6347    103.1071
  1300.7500     15.9695     15.2277     20.1177    -47.2959    103.6254
  1301.0000     16.5446     15.7541     20.8536    -47.0481    104.0451
