~Version Information
VERS.                      2.0: CWLS Log ASCII Standard - VERSION 2.0
WRAP.                       NO: One line per depth step
~Well Information Block
STRT.FT               236.5000: 
STOP.FT              2818.2500: 
STEP.FT                 0.2500: 
NULL.                -999.2500: 
COMP.          Pioneer Natural Resources: COMPANY
WELL.            Sebring 42-29: WELL
FLD.           Purgatorie River: FIELD
LOC.           1751' FNL & 584' FEL--: LOCATION
PROV.                       CO: PROVINCE
CNTY.               Las Animas: COUNTRY
SRVC.          Patterson Wireline: SERVICE COMPANY
DATE.          Fri Aug 26 09:14:13 2005: LOG DATE
UWI.           05 071 08293 00: UNIQUE WELL ID
~Curve Information Block
DEPT.FT            0 000 00 00: Depth
CCL.                          : Casing Collar Locator
TT3.usec                      : CBL 3' Travel Time
AMP3.mV                       : CBL 3' Amplitude
GR.GAPI                       : Gamma Ray
~Parameter Information Block
~A  Depth       CCL         TT3         AMP3         GR     
# ...
  1945.0000      0.0000    648.8486      7.1103    133.8145
  1945.2500      0.0000    654.4246      7.1085    141.7635
  1945.5000      0.0000    659.7477      7.1218    144.5750
  1945.7500      0.0000    662.3346      7.1389    142.0323
  1946.0000      0.0000    663.7056      7.1496    136.1945
  1946.2500      0.0000    666.3817      7.1512    130.2932
  1946.5000      0.0000    670.0878      7.1489    127.1124
  1946.7500      0.0000    672.2380      7.1496    127.6719
  1947.0000      0.0000    671.3075      7.1557    130.7734
  1947.2500      0.0000    668.1396      7.1646    134.3815
  1947.5000      0.0000    664.0364      7.1728    137.8781
  1947.7500      0.0000    658.4243      7.1779    142.2961
  1948.0000      0.0000    648.6086      7.1777    148.3334
  1948.2500      0.0000    632.0907      7.1680    155.3311
  1948.5000      0.0000    610.3214      7.1451    162.3331
  1948.7500      0.0000    590.5544      7.1116    168.8436
  1949.0000      0.0000    582.2617      7.0777    174.1492
  1949.2500      0.0000    589.8520      7.0550    176.8876
  1949.5000      0.0000    608.8188      7.0487    175.9111
  1949.7500      0.0000    629.7462      7.0570    171.4408
  1950.0000      0.0000    645.9837      7.0726    165.1480
  1950.2500      0.0000    657.2021      7.0861    159.0845
  1950.5000      0.0000    666.2172      7.0887    154.5767
  1950.7500      0.0000    673.3657      7.0776    151.9204
  1951.0000      0.0000    674.1224      7.0564    150.6129
  1951.2500      0.0000    661.8201      7.0321    149.7983
  1951.5000      0.0000    633.2386      7.0124    148.9706
  1951.7500      0.0000    592.8928      7.0023    148.5473
  1952.0000      0.0000    552.4959      6.9996    149.6714
  1952.2500      0.0000    524.8781      6.9951    153.1983
  1952.5000      0.0000    516.5957      6.9808    158.6345
  1952.7500      0.0000    524.9186      6.9582    164.3005
  1953.0000      0.0000    541.0228      6.9387    168.7726
  1953.2500      0.0000    555.7642      6.9337    171.5729
  1953.5000      0.0000    563.0386      6.9443    172.2684
  1953.7500      0.0000    560.0458      6.9595    170.1667
  1954.0000      0.0000    547.6815      6.9661    165.6129
  1954.2500      0.0000    532.1236      6.9575    160.4164
  1954.5000      0.0000    523.9672      6.9366    155.9913
  1954.7500      0.0000    532.3365      6.9125    151.7322
  1955.0000      0.0000    557.7070      6.8943    146.0578
  1955.2500      0.0000    590.5997      6.8873    138.8489
  1955.5000      0.0000    618.5947      6.8932    132.2359
  1955.7500      0.0000    635.3528      6.9129    128.6466
  1956.0000      0.0000    643.1063      6.9489    128.1529
  1956.2500      0.0000    647.6381      7.0005    128.1078
  1956.5000      0.0000    652.6537      7.0596    125.6737
  1956.7500      0.0000    658.5372      7.1150    120.4811
  1957.0000      0.0000    664.0085      7.1637    114.6235
  1957.2500      0.0000    667.0931      7.2149    110.6338
  1957.5000      0.0000    664.9464      7.2764    109.9871
  1957.7500      0.0000    654.3507      7.3390    112.8633
  1958.0000      0.0000    633.8511      7.3803    118.4360
  1958.2500      0.0000    606.8014      7.3861    125.5522
  1958.5000      0.0000    582.5587      7.3637    133.3326
  1958.7500      0.0000    572.7832      7.3327    140.7647
  1959.0000      0.0000    584.0900      7.3053    146.2192
  1959.2500      0.0000    613.4970      7.2806    148.4951
  1959.5000      0.0000    650.8839      7.2525    148.2935
  1959.7500      0.0000    685.3939      7.2163    147.7773
  1960.0000      0.0000    710.2582      7.1682    148.6286
  1960.2500      0.0000    723.9330      7.1039    151.1053
  1960.5000      0.0000    728.7557      7.0235    154.8280
  1960.7500      0.0000    728.7312      6.9375    159.5656
  1961.0000      0.0000    727.2228      6.8666    164.8668
  1961.2500      0.0000    725.1347      6.8300    169.4579
  1961.5000      0.0000    720.9942      6.8349    171.6716
  1961.7500      0.0000    713.6379      6.8760    170.5576
  1962.0000      0.0000    705.0451      6.9414    166.2330
  1962.2500      0.0000    699.9648      7.0157    159.1617
  1962.5000      0.0000    702.2805      7.0811    149.6680
  1962.7500      0.0000    711.3251      7.1234    138.4798
  1963.0000      0.0000    721.1349      7.1390    127.2575
  1963.2500      0.0000    723.2440      7.1321    117.9381
  1963.5000      0.0000    711.4295      7.1085    111.6690
  1963.7500      0.0000    686.1805      7.0753    108.6743
  1964.0000      0.0000    656.7099      7.0484    108.7495
  1964.2500      0.0000    637.7819      7.0485    111.2412
  1964.5000      0.0000    640.7393      7.0870    114.5558
  1964.7500      0.0000    664.7616      7.1553    116.2904
  1965.0000      0.0000    697.1912      7.2312    114.5430
  1965.2500      0.0000    723.0697      7.2932    109.5507
  1965.5000      0.0000    733.9955      7.3281    103.9665
  1965.7500      0.0000    729.3063      7.3234    100.9125
  1966.0000      0.0000    712.6776      7.2563    101.3168
  1966.2500      0.0000    689.4705      7.0990    103.4632
  1966.5000      0.0000    664.5579      6.8412    105.4659
  1966.7500      0.0000    639.3416      6.5099    107.6428
  1967.0000      0.0000    611.2950      6.1725    111.9444
  1967.2500      0.0000    578.4834      5.9108    119.4863
  1967.5000      0.0000    544.3365      5.7732    129.2076
  1967.7500     -2.0000    516.7839      5.7500    138.5874
  1968.0000      0.0000    503.5038      5.7985    145.0679
  1968.2500      0.0000    508.8394      5.8872    147.0243
  1968.5000      0.0000    532.5666      6.0273    144.3158
  1968.7500      0.0000    567.9724      6.2711    138.3792
  1969.0000      0.0000    602.2591      6.6595    131.4582
  1969.2500      0.0000    623.8880      7.1399    125.2839
  1969.5000      0.0000    631.5884      7.5565    120.2127
  1969.7500      0.0000    634.3281      7.7711    115.4281
  1970.0000      0.0000    641.7397      7.7806    110.0962
  1970.2500      0.0000    655.3980      7.6871    104.6625
  1970.5000      0.0000    668.4456      7.5802    100.9879
  1970.7500      0.0000    672.1332      7.4861    100.7239
  1971.0000      0.0000    662.9886      7.3988    103.3769
  1971.2500      0.0000    645.1593      7.3172    106.3789
  1971.5000      0.0000    626.9818      7.2495    107.2582
  1971.7500      0.0000    614.9683      7.2031    105.5748
  1972.0000      0.0000    609.6394      7.1812    102.8475
  1972.2500      0.0000    606.4186      7.1815    101.0426
  1972.5000      0.0000    601.0788      7.1945    101.2233
  1972.7500      0.0000    594.3846      7.2035    103.2964
  1973.0000      0.0000    590.6956      7.1919    106.4273
  1973.2500      0.0000    592.6487      7.1524    109.1719
  1973.5000      0.0000    598.6728      7.0896    109.6581
  1973.7500      0.0000    605.0709      7.0162    106.6901
  1974.0000      0.0000    608.5123      6.9473    100.9257
  1974.2500      0.0000    606.8073      6.8966     94.4688
  1974.5000      0.0000    600.2081      6.8726     89.1572
  1974.7500      0.0000    593.2701      6.8775     85.3472
  1975.0000      0.0000    593.0482      6.9073     82.1747
  1975.2500      0.0000    603.0322      6.9539     78.7880
  1975.5000      0.0000    619.6902      7.0091     75.3949
  1975.7500      0.0000    636.4130      7.0660     73.2398
  1976.0000      0.0000    649.9390      7.1185     73.6014
  1976.2500      0.0000    662.0992      7.1588     76.7970
  1976.5000      0.0000    676.5552      7.1784     81.8910
  1976.7500      0.0000    694.6083      7.1720     87.1253
  1977.0000      0.0000    713.0485      7.1410     90.7315
  1977.2500      0.0000    725.5152      7.0952     91.7459
  1977.5000      0.0000    726.9698      7.0487     90.3194
  1977.7500      0.0000    717.8897      7.0118     87.2562
  1978.0000      0.0000    704.2678      6.9850     83.3559
  1978.2500      0.0000    693.0171      6.9611     79.3281
