~Version Information
VERS.                      2.0: CWLS Log ASCII Standard - VERSION 2.0
WRAP.                       NO: One line per depth step
~Well Information Block
STRT.FT               451.7500: 
STOP.FT              1387.0000: 
STEP.FT                 0.2500: 
NULL.                -999.2500: 
COMP.          Petrogulf Corporation: COMPANY
WELL.          Great Plains 22-22R: WELL
FLD.           Purgatoire River: FIELD
LOC.           2042' FNL & 1657' FWL--: LOCATION
PROV.                 Colorado: PROVINCE
CNTY.               Las Animas: COUNTRY
SRVC.                Patterson: SERVICE COMPANY
DATE.          Fri Sep 09 10:42:01 2005: LOG DATE
UWI.           05 071 08028 00: UNIQUE WELL ID
~Curve Information Block
DEPT.FT            0 000 00 00: Depth
SP.mV                         : DIL Spontaneous Potential
RILD.Ohm-m                    : DIL Deep Resistivity
RILM.Ohm-m                    : DIL Medium Resistivity
RLL3.Ohm-m                    : DIL Shallow Resistivity
GR.GAPI                       : Gamma Ray
~Parameter Information Block
~A  Depth        SP         RILD        RILM        RLL3         GR     
   451.7500   1892.0000   -999.2500   -999.2500   -999.2500   -999.2500
   452.0000   1892.0000   -999.2500   -999.2500   -999.2500   -999.2500
   452.2500   1892.0000   -999.2500   -999.2500   -999.2500   -999.2500
   452.5000   1892.0000   -999.2500   -999.2500   -999.2500   -999.2500
   452.7500   1892.0000   -999.2500   -999.2500   -999.2500   -999.2500
   453.0000   1892.0000   -999.2500   -999.2500   -999.2500   -999.2500
   453.2500   1892.0000   -999.2500   -999.2500   -999.2500   -999.2500
   453.5000   1892.0000   -999.2500   -999.2500   -999.2500   -999.2500
   453.7500   1892.0000   -999.2500   -999.2500   -999.2500   -999.2500
   454.0000   1892.0000   -999.2500   -999.2500   -999.2500   -999.2500
   454.2500   1892.0000   -999.2500   -999.2500   -999.2500   -999.2500
   454.5000   1892.0000   -999.2500   -999.2500   -999.2500   -999.2500
   454.7500   1892.0000   -999.2500   -999.2500   -999.2500   -999.2500
   455.0000   1892.0000   -999.2500   -999.2500   -999.2500     89.7449
   455.2500   1892.0000   -999.2500   -999.2500   -999.2500     90.6148
   455.5000   1892.0000   -999.2500   -999.2500   -999.2500     92.7029
   455.7500   1892.0000   -999.2500   -999.2500   -999.2500     94.1133
   456.0000   1892.0000   -999.2500   -999.2500   -999.2500     95.1987
   456.2500   1892.0000   -999.2500   -999.2500   -999.2500     94.7734
   456.5000   1892.0000   -999.2500   -999.2500   -999.2500     92.3513
   456.7500   1892.0000   -999.2500   -999.2500   -999.2500     90.0339
   457.0000   1892.0000   -999.2500   -999.2500   -999.2500     86.9401
   457.2500   1892.0000   -999.2500   -999.2500   -999.2500     85.8786
   457.5000   1892.0000   -999.2500   -999.2500   -999.2500     86.1079
   457.7500   1892.0000   -999.2500   -999.2500   -999.2500     87.0907
   458.0000   1892.0000   -999.2500   -999.2500   -999.2500     88.9342
   458.2500   1892.0000   -999.2500   -999.2500   -999.2500     90.1506
   458.5000   1892.0000   -999.2500   -999.2500   -999.2500     91.9344
   458.7500   1892.0000      5.4980   -999.2500   -999.2500     93.1107
   459.0000   1892.0000      5.5176   -999.2500   -999.2500     94.7901
   459.2500   1892.0000      5.5356   -999.2500   -999.2500     95.7692
   459.5000   1892.0000      5.5494   -999.2500   -999.2500     96.5232
   459.7500   1892.0000      5.5564   -999.2500   -999.2500     95.9226
   460.0000   1892.0000      5.5544   -999.2500   -999.2500     92.5170
   460.2500   1892.0000      5.5419   -999.2500   -999.2500     88.9902
   460.5000   1892.0000      5.5185   -999.2500   -999.2500     84.1585
   460.7500   1892.0000      5.4860   -999.2500   2000.0000     82.4912
   461.0000   1892.0000      5.4490   -999.2500   2000.0000     82.4214
   461.2500   1892.0000      5.4141   -999.2500   2000.0000     83.1313
   461.5000   1892.0000      5.3886   -999.2500   2000.0000     84.1583
   461.7500   1892.0000      5.3774   -999.2500   2000.0000     84.7480
   462.0000   1892.0000      5.3816   -999.2500   2000.0000     85.6193
   462.2500   1892.0000      5.3971   -999.2500   2000.0000     86.0214
   462.5000   1892.0000      5.4167   -999.2500   2000.0000     86.0199
   462.7500   1892.0000      5.4333   -999.2500   2000.0000     85.6614
   463.0000   1892.0000      5.4424   -999.2500   2000.0000     84.7636
   463.2500   1892.0000      5.4440   -999.2500   2000.0000     83.7939
   463.5000   1892.0000      5.4408 100000.0000   2000.0000     81.3018
   463.7500   1892.0000      5.4364 100000.0000   2000.0000     78.8637
   464.0000   1892.0000      5.4328 100000.0000   2000.0000     74.6011
   464.2500   1892.0000      5.4304 100000.0000   2000.0000     71.9165
   464.5000   1892.0000      5.4280 100000.0000   2000.0000     68.7970
   464.7500   1892.0000      5.4246 100000.0000   2000.0000     67.3934
   465.0000   1892.0000      5.4202 100000.0000   2000.0000     66.3413
   465.2500   1892.0000      5.4160 100000.0000   2000.0000     66.5607
   465.5000   1892.0000      5.4138 100000.0000   2000.0000     68.6182
   465.7500   1892.0000      5.4152 100000.0000   2000.0000     70.9006
   466.0000   1892.0000      5.4210 100000.0000   2000.0000     74.3777
   466.2500   1892.0000      5.4303 100000.0000   2000.0000     75.8645
   466.5000   1892.0000      5.4417 100000.0000   2000.0000     76.1563
   466.7500   1892.0000      5.4527 100000.0000   2000.0000     75.2736
   467.0000   1892.0000      5.4616 100000.0000   2000.0000     73.2021
   467.2500   1892.0000      5.4671 100000.0000   2000.0000     71.7070
   467.5000   1892.0000      5.4686 100000.0000   2000.0000     69.4682
   467.7500   1892.0000      5.4654 100000.0000   2000.0000     67.9619
   468.0000   1892.0000      5.4570 100000.0000   2000.0000     65.7773
   468.2500   1892.0000      5.4433 100000.0000   2000.0000     64.4660
   468.5000   1892.0000      5.4253 100000.0000   2000.0000     62.7355
   468.7500   1892.0000      5.4056 100000.0000   2000.0000     61.7070
   469.0000   1892.0000      5.3874 100000.0000   2000.0000     60.4341
   469.2500   1892.0000      5.3739 100000.0000   2000.0000     59.8684
   469.5000   1892.0000      5.3672 100000.0000   2000.0000     59.4633
   469.7500   1892.0000      5.3677 100000.0000   2000.0000     59.3751
   470.0000   1892.0000      5.3748 100000.0000   2000.0000     59.2747
   470.2500   1892.0000      5.3864 100000.0000   2000.0000     59.1158
   470.5000   1892.0000      5.3993 100000.0000   2000.0000     58.5534
   470.7500   1892.0000      5.4091 100000.0000   2000.0000     57.8866
   471.0000   1892.0000      5.4115 100000.0000   2000.0000     56.5396
   471.2500   1892.0000      5.4042 100000.0000   2000.0000     55.5688
   471.5000   1892.0000      5.3880 100000.0000   2000.0000     54.0993
   471.7500   1892.0000      5.3665 100000.0000   2000.0000     52.9345
   472.0000   1892.0000      5.3450 100000.0000   2000.0000     50.5347
   472.2500   1892.0000      5.3285 100000.0000   2000.0000     48.5628
   472.5000   1892.0000      5.3206 100000.0000   2000.0000     45.7620
   472.7500   1892.0000      5.3226 100000.0000   2000.0000     44.4576
   473.0000   1892.0000      5.3340 100000.0000   2000.0000     43.6187
   473.2500   1892.0000      5.3524 100000.0000   2000.0000     43.6434
   473.5000   1892.0000      5.3739 100000.0000   2000.0000     44.0000
   473.7500   1892.0000      5.3945 100000.0000   2000.0000     44.1299
   474.0000   1892.0000      5.4095 100000.0000   2000.0000     43.9966
   474.2500   1892.0000      5.4145 100000.0000   2000.0000     43.9155
   474.5000   1892.0000      5.4066 100000.0000   2000.0000     44.2326
   474.7500   1892.0000      5.3868 100000.0000   2000.0000     44.6048
   475.0000   1892.0000      5.3625 100000.0000   2000.0000     44.6289
   475.2500   1892.0000      5.3471 100000.0000   2000.0000     44.0105
   475.5000   1892.0000      5.3542 100000.0000   2000.0000     42.4589
   475.7500   1892.0000      5.3898 100000.0000   2000.0000     41.4507
   476.0000   1892.0000      5.4451 100000.0000   2000.0000     40.4635
   476.2500   1892.0000      5.4977 100000.0000   2000.0000     40.1012
   476.5000   1892.0000      5.5229 100000.0000   2000.0000     39.5538
   476.7500   1892.0000      5.5115 100000.0000   2000.0000     39.0204
   477.0000   1892.0000      5.4787 100000.0000   2000.0000     38.1422
   477.2500   1892.0000      5.4549 100000.0000   2000.0000     37.6931
   477.5000   1892.0000      5.4661 100000.0000   2000.0000     37.1930
   477.7500   1892.0000      5.5173 100000.0000   2000.0000     36.7462
   478.0000   1892.0000      5.5899 100000.0000   2000.0000     35.5776
   478.2500   1892.0000      5.6519 100000.0000   2000.0000     34.5014
   478.5000   1892.0000      5.6765 100000.0000   2000.0000     32.9059
   478.7500   1892.0000      5.6570 100000.0000   2000.0000     32.2363
   479.0000   1892.0000      5.6094 100000.0000   2000.0000     32.2878
   479.2500   1892.0000      5.5652 100000.0000   2000.0000     33.0024
   479.5000   1892.0000      5.5600 100000.0000   2000.0000     34.6138
