~Version Information
VERS.                      2.0: CWLS Log ASCII Standard - VERSION 2.0
WRAP.                       NO: One line per depth step
~Well Information Block
STRT.FT               480.0000: 
STOP.FT              1629.0000: 
STEP.FT                 0.2500: 
NULL.                -999.2500: 
COMP.          Pioneer Natural Resources: COMPANY
WELL.          Dude Canyon 22-32 Tr: WELL
FLD.           Purgatoire River: FIELD
LOC.           1741' FNL & 2331' FWL: LOCATION
PROV.                 Colorado: PROVINCE
CNTY.               Las Animas: COUNTRY
SRVC.                Patterson: SERVICE COMPANY
DATE.          Sat Jul 09 01:36:28 2005: LOG DATE
UWI.           05 071 08421 00: UNIQUE WELL ID
~Curve Information Block
DEPT.FT            0 000 00 00: Depth
SN.Ohm-m                      : IEL Short Normal
SP.mV                         : IEL Spontaneous Potential
DIR.Ohm-m                     : IEL Induction Resistivity
GR.GAPI                       : Gamma Ray
~Parameter Information Block
~A  Depth        SN          SP         DIR          GR     
# ...
  1284.0000     36.1068     -2.5821     35.6384     88.8077
  1284.2500     36.2755     -2.7990     35.8883     91.2449
  1284.5000     36.4241     -2.9827     36.1950     93.7705
  1284.7500     36.5857     -3.1142     36.5022     93.6491
  1285.0000     36.8692     -3.1869     36.7828     90.3011
  1285.2500     37.2449     -3.2190     37.0252     86.4911
  1285.5000     37.5827     -3.2523     37.1954     79.6389
  1285.7500     37.9141     -3.3279     37.2278     74.8201
  1286.0000     38.4565     -3.4574     37.0577     67.9824
  1286.2500     39.3172     -3.6164     36.6557     64.3097
  1286.5000     40.3154     -3.7628     36.0379     61.4090
  1286.7500     41.0878     -3.8597     35.2591     61.8523
  1287.0000     41.2867     -3.8815     34.4010     66.5694
  1287.2500     40.7708     -3.8140     33.5428     72.1504
  1287.5000     39.6191     -3.6650     32.7180     82.6798
  1287.7500     37.9093     -3.4822     31.8998     89.9108
  1288.0000     35.6566     -3.3524     31.0372     99.3968
  1288.2500     33.0480     -3.3669     30.1152    104.5518
  1288.5000     30.5188     -3.5777     29.1824    111.0695
  1288.7500     28.4885     -3.9779     28.3187    114.8134
  1289.0000     27.1043     -4.5143     27.5761    118.9191
  1289.2500     26.2325     -5.1153     26.9404    120.1094
  1289.5000     25.6765     -5.7159     26.3373    119.6759
  1289.7500     25.3887     -6.2723     25.6799    118.6898
  1290.0000     25.3787     -6.7674     24.9248    117.3442
  1290.2500     25.5243     -7.2105     24.0979    116.3376
  1290.5000     25.5707     -7.6327     23.2729    113.4284
  1290.7500     25.2832     -8.0791     22.5284    110.5007
  1291.0000     24.6294     -8.5964     21.9168    106.5216
  1291.2500     23.7954     -9.2180     21.4563    105.4719
  1291.5000     23.0204     -9.9543     21.1370    106.9901
  1291.7500     22.4586    -10.7943     20.9341    109.5213
  1292.0000     22.1216    -11.7232     20.8211    114.1175
  1292.2500     21.8754    -12.7413     20.7749    116.8824
  1292.5000     21.5590    -13.8670     20.7726    119.5297
  1292.7500     21.1403    -15.1233     20.7858    120.1842
  1293.0000     20.7168    -16.5214     20.7858    120.2876
  1293.2500     20.4085    -18.0582     20.7579    120.4152
  1293.5000     20.3137    -19.7217     20.7151    121.2569
  1293.7500     20.4831    -21.4918     20.6998    122.1566
  1294.0000     20.8390    -23.3246     20.7720    123.5557
  1294.2500     21.2230    -25.1232     20.9888    124.2700
  1294.5000     21.6041    -26.7072     21.3834    124.4754
  1294.7500     22.1060    -27.8091     21.9499    123.5904
  1295.0000     22.8211    -28.1351     22.6424    120.1962
  1295.2500     23.7639    -27.4935     23.3914    116.7121
  1295.5000     24.9285    -25.9202     24.1370    110.7860
  1295.7500     26.2323    -23.7058     24.8597    107.2106
  1296.0000     27.4855    -21.2996     25.5854    103.3042
  1296.2500     28.5370    -19.1502     26.3596    101.6959
  1296.5000     29.3909    -17.5668     27.2127    100.5308
  1296.7500     30.1040    -16.6536     28.1447    100.5598
  1297.0000     30.6600    -16.3254     29.1322    101.6123
  1297.2500     31.0366    -16.3634     30.1463    102.5257
  1297.5000     31.3222    -16.4739     31.1690    103.2757
  1297.7500     31.6590    -16.3535     32.2056    103.2004
  1298.0000     32.1084    -15.7720     33.2833    102.7873
  1298.2500     32.6768    -14.6348     34.4208    102.7854
  1298.5000     33.4134    -12.9720     35.5862    103.4640
  1298.7500     34.3546    -10.8623     36.6893    104.0176
  1299.0000     35.4210     -8.3577     37.6427    103.7652
  1299.2500     36.4819     -5.4627     38.4430    102.1853
  1299.5000     37.4691     -2.1663     39.1843     97.3217
  1299.7500     38.3813      1.5100     39.9873     92.8342
  1300.0000     39.2766      5.4773     40.9125     85.7431
  1300.2500     40.2576      9.5642     41.9223     81.7483
  1300.5000     41.3708     13.5103     42.9043     78.0356
  1300.7500     42.5263     16.9852     43.7397     77.2865
  1301.0000     43.5542     19.6678     44.3772     78.2683
  1301.2500     44.3184     21.3726     44.8582     79.7262
  1301.5000     44.7673     22.1314     45.2779     82.1065
  1301.7500     44.9526     22.1508     45.7126     83.4449
  1302.0000     45.0274     21.6872     46.1755     84.7105
  1302.2500     45.1825     20.9498     46.6257     84.8931
  1302.5000     45.5999     20.0896     47.0191     84.0764
  1302.7500     46.3764     19.2393     47.3663     82.9685
  1303.0000     47.4094     18.5364     47.7426     80.7892
  1303.2500     48.4391     18.0959     48.2157     78.8901
  1303.5000     49.2214     17.9507     48.7472     74.8278
  1303.7500     49.6829     18.0211     49.1509     71.2825
  1304.0000     49.9790     18.1594     49.1703     65.6744
  1304.2500     50.3637     18.2387     48.6430     62.5213
  1304.5000     50.9402     18.2088     47.6452     59.3218
  1304.7500     51.5888     18.0854     46.4907     58.1251
  1305.0000     52.1289     17.9140     45.5798     57.5354
  1305.2500     52.4383     17.7530     45.2098     57.9945
  1305.5000     52.4424     17.6649     45.4592     59.8971
  1305.7500     52.1026     17.6909     46.1927     61.7117
  1306.0000     51.4592     17.8158     47.1687     64.7098
  1306.2500     50.6843     17.9705     48.1864     66.5924
  1306.5000     50.0177     18.0860     49.1658     68.5643
  1306.7500     49.5885     18.1496     50.1057     68.8849
  1307.0000     49.2917     18.2066     50.9861     67.6132
  1307.2500     48.9256     18.3163     51.6975     65.8991
  1307.5000     48.4340     18.5155     52.0439     63.1504
  1307.7500     47.8789     18.8149     51.8286     61.8478
  1308.0000     47.2715     19.2162     50.9881     61.0189
  1308.2500     46.5162     19.7301     49.6583     60.9120
  1308.5000     45.4629     20.3787     48.0970     60.9172
  1308.7500     44.0154     21.1746     46.5253     61.2727
  1309.0000     42.1828     22.0858     45.0340     63.6423
  1309.2500     40.0933     23.0195     43.5933     67.2092
  1309.5000     38.0016     23.8538     42.1233     75.8437
  1309.7500     36.1672     24.5025     40.5644     83.1726
  1310.0000     34.6881     24.9577     38.9135     94.4715
  1310.2500     33.5059     25.2757     37.2214    100.9500
  1310.5000     32.4998     25.5285     35.5687    107.8606
  1310.7500     31.5174     25.7654     34.0372    110.6018
  1311.0000     30.4866     26.0052     32.6894    112.6520
  1311.2500     29.5530     26.2471     31.5557    113.1604
  1311.5000     28.9119     26.4830     30.6238    113.3543
  1311.7500     28.5462     26.7053     29.8341    113.3168
  1312.0000     28.2905     26.9119     29.0990    112.9009
  1312.2500     28.0462     27.1073     28.3428    112.1276
  1312.5000     27.8249     27.3035     27.5388    109.9660
  1312.7500     27.6542     27.5170     26.7084    108.0341
  1313.0000     27.5259     27.7625     25.8878    105.0135
  1313.2500     27.4165     28.0426     25.0995    103.1121
  1313.5000     27.2698     28.3396     24.3524    100.5088
  1313.7500     26.9994     28.6201     23.6569     99.2358
  1314.0000     26.5872     28.8490     23.0318     99.1926
  1314.2500     26.1141     29.0042     22.4974    101.0992
  1314.5000     25.6510     29.0782     22.0712    107.2870
  1314.7500     25.1835     29.0698     21.7680    113.2434
  1315.0000     24.6836     28.9800     21.6036    123.1023
  1315.2500     24.2111     28.8152     21.5919    128.7661
  1315.5000     23.8568     28.5948     21.7329    133.5947
  1315.7500     23.6170     28.3536     21.9986    133.7225
  1316.0000     23.4219     28.1325     22.3317    129.0398
  1316.2500     23.2698     27.9613     22.6656    122.5872
  1316.5000     23.2965     27.8450     22.9557    108.2949
  1316.7500     23.7060     27.7695     23.1934     97.0236
  1317.0000     24.6574     27.7247     23.3940     81.8151
  1317.2500     26.2036     27.7248     23.5792     75.2380
