~Version Information
 VERS.                                  2.0 : CWLS LAS VERSION
 WRAP.                                   NO : WRAPING MODE
 SWARE .                 MController 2.5.0J : SOFTWARE VERSION
~Well Information
 WELL.                         State 16-24R : WELL
 COMP.                Petrogulf Corporation : COMPANY
 FLD.                      Purgatoire River : FIELD
 LOC.                SE/SW Sec 16 T33S R67W : LOCATION
 DATE.                            8/9-11/05 : DATE(S) LOGGED
 SRVC.       BLANCO Geological Services LLC : SERVICE COMPANY
 STAT.                                   CO : STATE
 CNTY.                           Las Animas : COUNTY
 CTRY.                                  USA : COUNTRY
 API.                       05-071-08312-00 : API NUMBER
 STRT.FT                              27.00 : START DEPTH
 STOP.FT                            1870.00 : STOP DEPTH
 STEP.FT                               1.00 : DEPTH INCREMENT
 NULL.                                -9999 : NULL VALUE
~Curve information
 DEPTH.FT                                   :
 ROP.MIN/FT                                 :
 GAS.UNITS                                  :
~ASCII Log data
# ...
      1627.0         1.03        149.7 
      1628.0         0.63         88.9 
      1629.0         0.73         69.6 
      1630.0         0.78         50.7 
      1631.0         0.80         48.4 
      1632.0         0.80         47.2 
      1633.0         0.87         44.8 
      1634.0         0.95         43.4 
      1635.0         0.73         42.1 
      1636.0         0.83         41.0 
      1637.0         0.93         40.7 
      1638.0         0.88         41.0 
      1639.0         0.77         41.1 
      1640.0         0.73         41.4 
      1641.0         0.75         41.8 
      1642.0         0.77         42.0 
      1643.0         0.83         41.7 
      1644.0         0.87         41.5 
      1645.0         0.88         41.6 
      1646.0         0.70         43.2 
      1647.0         0.67         44.6 
      1648.0         0.67         44.7 
      1649.0         0.72         36.7 
      1650.0         4.48        208.9 
      1651.0         0.83        142.6 
      1652.0         0.83        121.6 
      1653.0         0.78         96.5 
      1654.0         0.63         81.4 
      1655.0         0.60         81.8 
      1656.0         0.60         85.7 
      1657.0         0.53         86.1 
      1658.0         0.55         83.0 
      1659.0         0.77         77.7 
      1660.0         0.43         71.1 
      1661.0         0.50         69.0 
      1662.0         0.60         70.1 
      1663.0         0.78         69.8 
      1664.0         0.40         72.8 
      1665.0         0.23         73.7 
      1666.0         0.53         73.8 
      1667.0         1.03         71.4 
      1668.0         0.83         67.7 
      1669.0         0.65         66.0 
      1670.0         0.37         74.4 
      1671.0         0.53         90.2 
      1672.0         1.92         90.4 
      1673.0         1.23         57.3 
      1674.0         0.27         49.4 
      1675.0         0.30         48.0 
      1676.0         0.53         48.3 
      1677.0         0.60         53.9 
      1678.0         0.58         54.2 
      1679.0         0.67         41.3 
      1680.0         5.12        291.2 
      1681.0         0.52        170.2 
      1682.0         0.43        157.6 
      1683.0         0.57        144.3 
      1684.0         0.37        130.2 
      1685.0         0.37        121.3 
      1686.0         0.47        114.4 
      1687.0         0.47        106.2 
      1688.0         0.62         99.8 
      1689.0         1.67         96.6 
      1690.0         0.67         97.0 
      1691.0         0.43        100.8 
      1692.0         0.45        102.7 
      1693.0         0.47        102.8 
      1694.0         0.50        102.0 
      1695.0         0.43        102.6 
      1696.0         0.57        101.7 
      1697.0         0.57         98.1 
      1698.0         0.40         96.4 
      1699.0         0.35         96.4 
      1700.0         0.43         95.4 
      1701.0         0.53         93.7 
      1702.0         0.43         91.9 
      1703.0         0.43         91.3 
      1704.0         0.57         91.3 
      1705.0         0.82         90.1 
      1706.0         0.70         88.3 
      1707.0         0.93         87.9 
      1708.0         0.75         84.2 
      1709.0         0.73         80.7 
      1710.0         4.68        277.5 
      1711.0         0.55        183.7 
      1712.0         0.50        174.8 
      1713.0         0.43        157.8 
      1714.0         0.43        146.2 
      1715.0         0.37        136.1 
      1716.0         0.40        129.2 
      1717.0         0.40        121.8 
      1718.0         0.35        115.7 
      1719.0         0.37        115.5 
      1720.0         0.50        117.4 
      1721.0         0.80        117.5 
      1722.0         0.50        115.5 
      1723.0         0.93        113.3 
      1724.0         1.12        106.9 
      1725.0         1.23        100.2 
      1726.0         1.02         91.2 
      1727.0         0.57         83.3 
      1728.0         0.43         79.0 
      1729.0         0.50         77.7 
      1730.0         0.40         75.1 
      1731.0         0.48         72.7 
      1732.0         0.37         74.1 
      1733.0         0.30         74.6 
      1734.0         0.47         74.3 
      1735.0         0.63         73.2 
      1736.0         0.53         68.7 
      1737.0         0.48         61.0 
      1738.0         0.53         55.7 
      1739.0         0.33         48.6 
      1740.0         4.87        246.6 
      1741.0         0.57        165.4 
      1742.0         0.53        157.8 
      1743.0         0.60        140.5 
      1744.0         1.03        110.3 
      1745.0         1.52         98.5 
      1746.0         0.80         98.4 
      1747.0         0.70         93.4 
      1748.0         0.63         84.9 
      1749.0         0.65         85.1 
      1750.0         0.60         90.9 
      1751.0         0.73         91.9 
      1752.0         0.83         90.6 
      1753.0         0.88         85.8 
      1754.0         0.93         81.1 
      1755.0         1.03         80.2 
      1756.0         1.18         74.7 
      1757.0         1.27         66.3 
      1758.0         1.08         58.5 
      1759.0         1.10         49.1 
      1760.0         1.33         48.5 
      1761.0         0.78         44.8 
      1762.0         0.83         56.0 
      1763.0         0.67         60.0 
      1764.0         0.57         62.6 
      1765.0         1.08         62.7 
      1766.0         1.77         57.2 
      1767.0         1.02         47.8 
      1768.0         0.87         46.9 
      1769.0         0.70         46.2 
      1770.0         5.40        255.6 
      1771.0         0.77        204.1 
      1772.0         0.63        173.4 
      1773.0         0.55        149.2 
      1774.0         0.63        132.3 
      1775.0         0.60        118.9 
      1776.0         0.70        107.6 
      1777.0         0.67        115.4 
      1778.0         0.48        116.0 
      1779.0         0.53        114.7 
      1780.0         0.63        112.8 
      1781.0         0.67        111.1 
      1782.0         0.60        109.3 
      1783.0         0.68        108.0 
      1784.0         0.63        107.1 
      1785.0         0.67        107.1 
      1786.0         0.70        105.2 
      1787.0         0.33        101.9 
      1788.0         0.43        101.0 
      1789.0         0.42         98.7 
      1790.0         0.37         98.4 
      1791.0         0.57         98.9 
      1792.0         0.57         99.8 
      1793.0         0.90        100.0 
      1794.0         0.92         98.8 
      1795.0         1.20        101.3 
      1796.0         1.15        100.8 
      1797.0         0.93         95.1 
      1798.0         0.80         90.6 
      1799.0         0.50         48.9 
      1800.0         4.60        286.2 
      1801.0         0.67        206.2 
      1802.0         0.57        179.8 
      1803.0         0.50        163.8 
      1804.0         0.78        156.4 
      1805.0         2.43        152.5 
      1806.0         0.68        118.9 
      1807.0         0.70        110.0 
      1808.0         0.67        104.2 
      1809.0         0.67        100.4 
      1810.0         0.63         99.3 
      1811.0         0.68         99.1 
      1812.0         0.60         98.9 
      1813.0         0.67         99.2 
      1814.0         0.80         98.4 
      1815.0         0.73         95.3 
      1816.0         0.75         96.5 
      1817.0         0.83         96.4 
      1818.0         0.93         97.6 
      1819.0         0.92         96.6 
      1820.0         0.67         92.9 
      1821.0         0.83         87.1 
      1822.0         0.80         77.4 
      1823.0         0.95         76.5 
      1824.0         1.07         76.4 
      1825.0         1.33         71.1 
      1826.0         1.58         66.0 
