~Version Information
VERS.                      2.0: CWLS Log ASCII Standard - VERSION 2.0
WRAP.                       NO: One line per depth step
~Well Information Block
STRT.FT               418.4000: 
STOP.FT              1170.0000: 
STEP.FT                 0.1000: 
NULL.                -999.2500: 
COMP.          Evergreen Operating Corporation: COMPANY
WELL.             Bernice 21-3: WELL
FLD.           Purgatoire River: FIELD
LOC.           201' FNL & 2575' FWL: LOCATION
PROV.                 Colorado: PROVINCE
CNTY.               Las Animas: COUNTRY
SRVC.                Patterson: SERVICE COMPANY
DATE.          Mon Jan 26 14:55:16 2004: LOG DATE
UWI.             05 071 07912 : UNIQUE WELL ID
~Curve Information Block
DEPT.FT            0 000 00 00: Depth
DCAL.in                       : CDL Caliper
RHOB.g/cc                     : CDL Bulk Density
RHOC.g/cc                     : CDL Density Correction
DPOR.pu                       : CDL Density Porosity
NPOR.pu                       : Neutron Porosity
GR.GAPI                       : Gamma Ray
~Parameter Information Block
~A  Depth       DCAL        RHOB        RHOC        DPOR        NPOR         GR     
# ...
  1138.4000      7.9492      2.4850     -0.0026     10.0007     21.2088   -999.2500
  1138.5000      7.9458      2.5127      0.0432      8.3192     21.6579   -999.2500
  1138.6000      7.9458      2.5431      0.0494      6.4774     22.0171   -999.2500
  1138.7000      7.9458      2.5564      0.0600      5.6713     22.2972   -999.2500
  1138.8000      7.9463      2.5482      0.0559      6.1685     22.7612   -999.2500
  1138.9000      7.9463      2.5305      0.0510      7.2401     23.2522   -999.2500
  1139.0000      7.9489      2.5147      0.0391      8.2026     23.1813   -999.2500
  1139.1000      7.9489      2.5071      0.0156      8.6592     22.6194   -999.2500
  1139.2000      7.9489      2.5140      0.0279      8.2420     22.2194   -999.2500
  1139.3000      7.9472      2.5304      0.0150      7.2501     22.0846   -999.2500
  1139.4000      7.9472      2.5446      0.0392      6.3861     21.8557   -999.2500
  1139.5000      7.9208      2.5593      0.0107      5.4944     21.5851   -999.2500
  1139.6000      7.9208      2.5790      0.0609      4.3018     21.3976   -999.2500
  1139.7000      7.9208      2.5904      0.0489      3.6138     21.1969   -999.2500
  1139.8000      7.9468      2.5884      0.0368      3.7312     21.1695   -999.2500
  1139.9000      7.9468      2.5831      0.0303      4.0516     21.4645   -999.2500
  1140.0000      7.9516      2.5781      0.0454      4.3549     21.8328   -999.2500
  1140.1000      7.9516      2.5689      0.0390      4.9169     21.9687   -999.2500
  1140.2000      7.9516      2.5542      0.0072      5.8056     21.8879   -999.2500
  1140.3000      7.9513      2.5394      0.0205      6.7009     22.0443   -999.2500
  1140.4000      7.9513      2.5230     -0.0045      7.6957     22.6274   -999.2500
  1140.5000      7.9496      2.5015      0.0095      9.0026     23.2292   -999.2500
  1140.6000      7.9496      2.4901     -0.0300      9.6906     23.4842   -999.2500
  1140.7000      7.9496      2.5077      0.0058      8.6229     23.2792   -999.2500
  1140.8000      7.9574      2.5409      0.0348      6.6124     22.7218   -999.2500
  1140.9000      7.9574      2.5604      0.0579      5.4300     22.0270   -999.2500
  1141.0000      7.9486      2.5608      0.0449      5.4075     21.4239   -999.2500
  1141.1000      7.9486      2.5580      0.0094      5.5741     21.5041   -999.2500
  1141.2000      7.9486      2.5554      0.0587      5.7307     23.9121   -999.2500
  1141.3000      7.9482      2.5431      0.0255      6.4766     29.9106   -999.2500
  1141.4000      7.9482      2.5277      0.0049      7.4150     37.3936   -999.2500
  1141.5000      7.9455      2.5234     -0.0065      7.6732     42.8326   -999.2500
  1141.6000      7.9455      2.5249      0.0373      7.5815     45.0116   -999.2500
  1141.7000      7.9455      2.5132     -0.0058      8.2925     45.4610   -999.2500
  1141.8000      7.9531      2.4875     -0.0154      9.8511     45.5090   -999.2500
  1141.9000      7.9531      2.4666     -0.0125     11.1138     45.5117   -999.2500
  1142.0000      7.9674      2.4624     -0.0113     11.3686   -999.2500   -999.2500
  1142.1000      7.9674      2.4691     -0.0129     10.9611   -999.2500   -999.2500
  1142.2000      7.9674      2.4764     -0.0193     10.5235   -999.2500   -999.2500
  1142.3000      7.9465      2.4741      0.0408     10.6610   -999.2500   -999.2500
  1142.4000      7.9465      2.4538      0.0232     11.8896   -999.2500   -999.2500
  1142.5000      7.9160      2.4257     -0.0286     13.5947   -999.2500   -999.2500
  1142.6000      7.9160      2.4078     -0.0082     14.6809   -999.2500   -999.2500
  1142.7000      7.9160      2.4017     -0.0151     15.0505   -999.2500   -999.2500
  1142.8000      7.9283      2.4011      0.0054     15.0828   -999.2500   -999.2500
  1142.9000      7.9283      2.4003      0.0136     15.1310   -999.2500   -999.2500
  1143.0000      7.9311      2.3985      0.0217     15.2429   -999.2500   -999.2500
  1143.1000      7.9311      2.4048      0.0181     14.8633   -999.2500   -999.2500
  1143.2000      7.9311      2.4300      0.0040     13.3333   -999.2500   -999.2500
  1143.3000      7.9258      2.4687      0.0582     10.9900   -999.2500   -999.2500
  1143.4000      7.9258      2.4959      0.0702      9.3390   -999.2500   -999.2500
  1143.5000      7.9273      2.5000      0.0445      9.0879   -999.2500   -999.2500
  1143.6000      7.9273      2.4939      0.0177      9.4598   -999.2500   -999.2500
  1143.7000      7.9273      2.4882      0.0348      9.8084   -999.2500   -999.2500
  1143.8000      7.9282      2.4798      0.0213     10.3149   -999.2500   -999.2500
  1143.9000      7.9282      2.4649      0.0027     11.2160   -999.2500   -999.2500
  1144.0000      7.9279      2.4442     -0.0036     12.4736   -999.2500   -999.2500
  1144.1000      7.9279      2.4210     -0.0144     13.8793   -999.2500   -999.2500
  1144.2000      7.9279      2.4031     -0.0064     14.9649   -999.2500   -999.2500
  1144.3000      7.9307      2.3969     -0.0066     15.3388   -999.2500   -999.2500
  1144.4000      7.9307      2.4005      0.0029     15.1213   -999.2500   -999.2500
  1144.5000      7.9304      2.4064      0.0211     14.7636   -999.2500   -999.2500
  1144.6000      7.9304      2.4119      0.0210     14.4287   -999.2500   -999.2500
  1144.7000      7.9304      2.4212      0.0275     13.8680   -999.2500   -999.2500
  1144.8000      7.9313      2.4302      0.0643     13.3240   -999.2500   -999.2500
  1144.9000      7.9313      2.4252      0.0509     13.6224   -999.2500   -999.2500
  1145.0000      7.9320      2.4123      0.0077     14.4090   -999.2500   -999.2500
  1145.1000      7.9320      2.4146     -0.0038     14.2654   -999.2500   -999.2500
  1145.2000      7.9320      2.4350      0.0137     13.0288   -999.2500   -999.2500
  1145.3000      7.9261      2.4543      0.0683     11.8601   -999.2500   -999.2500
  1145.4000      7.9261      2.4620      0.0451     11.3948   -999.2500   -999.2500
  1145.5000      7.9293      2.4641      0.0325     11.2658   -999.2500   -999.2500
  1145.6000      7.9293      2.4641      0.0285     11.2671   -999.2500   -999.2500
  1145.7000      7.9293      2.4599      0.0243     11.5222   -999.2500   -999.2500
  1145.8000      7.9272      2.4553      0.0196     11.8008   -999.2500   -999.2500
  1145.9000      7.9272      2.4503      0.0272     12.1005   -999.2500   -999.2500
  1146.0000      7.9288      2.4369      0.0250     12.9140   -999.2500   -999.2500
  1146.1000      7.9288      2.4191      0.0216     13.9952   -999.2500   -999.2500
  1146.2000      7.9288      2.4122     -0.0156     14.4101   -999.2500   -999.2500
  1146.3000      7.9275      2.4184      0.0255     14.0360   -999.2500   -999.2500
  1146.4000      7.9275      2.4253      0.0048     13.6154   -999.2500   -999.2500
  1146.5000      7.9261      2.4270      0.0166     13.5122   -999.2500   -999.2500
  1146.6000      7.9261      2.4238      0.0073     13.7109   -999.2500   -999.2500
  1146.7000      7.9261      2.4163      0.0461     14.1638   -999.2500   -999.2500
  1146.8000      7.9283      2.4075      0.0116     14.6983   -999.2500   -999.2500
  1146.9000      7.9283      2.4008      0.0065     15.1025   -999.2500   -999.2500
  1147.0000      7.9289      2.3919      0.0224     15.6448   -999.2500   -999.2500
  1147.1000      7.9289      2.3755     -0.0179     16.6370   -999.2500   -999.2500
  1147.2000      7.9289      2.3595     -0.0047     17.6064   -999.2500   -999.2500
  1147.3000      7.9192      2.3559     -0.0235     17.8227   -999.2500   -999.2500
  1147.4000      7.9192      2.3663      0.0149     17.1943   -999.2500   -999.2500
  1147.5000      7.9095      2.3851      0.0008     16.0532   -999.2500   -999.2500
  1147.6000      7.9095      2.4063      0.0331     14.7686   -999.2500   -999.2500
  1147.7000      7.9095      2.4232      0.0139     13.7467   -999.2500   -999.2500
  1147.8000      7.9058      2.4373      0.0279     12.8893   -999.2500   -999.2500
  1147.9000      7.9058      2.4477      0.0283     12.2582   -999.2500   -999.2500
