~Version Information
VERS.                      2.0: CWLS Log ASCII Standard - VERSION 2.0
WRAP.                       NO: One line per depth step
~Well Information Block
STRT.FT               846.5000: 
STOP.FT              2610.0000: 
STEP.FT                 0.2500: 
NULL.                -999.2500: 
COMP.          Petrogulf Corporation: COMPANY
WELL.            Lavedure 7-44: WELL
FLD.           Purgatoire River: FIELD
LOC.           969' FSL & 501' FEL: LOCATION
PROV.                 Colorado: PROVINCE
CNTY.               Las Animas: COUNTRY
SRVC.                Patterson: SERVICE COMPANY
DATE.          Sun Dec 07 15:26:03 2003: LOG DATE
UWI.                          : UNIQUE WELL ID
~Curve Information Block
DEPT.FT            0 000 00 00: Depth
SP.mV                         : DIL Spontaneous Potential
RILD.Ohm-m                    : DIL Deep Resistivity
RILM.Ohm-m                    : DIL Medium Resistivity
RLL3.Ohm-m                    : DIL Shallow Resistivity
GR.GAPI                       : Gamma Ray
~Parameter Information Block
~A  Depth        SP         RILD        RILM        RLL3         GR     
# ...
  2358.5000   -225.0412     11.5756     11.4866     11.0485    105.9593
  2358.7500   -226.7955     11.5995     11.8331     12.0068    103.7702
  2359.0000   -228.7108     11.6104     12.2230     13.1646     99.9149
  2359.2500   -230.7802     11.6246     12.6254     14.2701     97.3059
  2359.5000   -232.9966     11.6617     13.0129     15.1241     93.4303
  2359.7500   -235.3493     11.7407     13.3670     15.6147     90.9520
  2360.0000   -237.8038     11.8735     13.6823     15.7353     87.9450
  2360.2500   -240.2806     12.0620     13.9663     15.5591     86.8721
  2360.5000   -242.6551     12.2969     14.2320     15.1976     87.2216
  2360.7500   -244.7953     12.5596     14.4883     14.7899     88.7816
  2361.0000   -246.6208     12.8266     14.7336     14.4980     92.3971
  2361.2500   -248.1456     13.0749     14.9558     14.4560     94.8009
  2361.5000   -249.4827     13.2882     15.1387     14.6904     96.8475
  2361.7500   -250.8096     13.4590     15.2709     15.0922     96.7913
  2362.0000   -252.3087     13.5879     15.3552     15.4835     95.1244
  2362.2500   -254.1038     13.6787     15.4094     15.7293     93.6094
  2362.5000   -256.2200     13.7335     15.4574     15.8074     91.7087
  2362.7500   -258.5867     13.7504     15.5132     15.8078     91.0246
  2363.0000   -261.0817     13.7274     15.5736     15.8787     90.8131
  2363.2500   -263.5841     13.6699     15.6257     16.1348     90.8113
  2363.5000   -265.9950     13.5963     15.6643     16.5665     90.4096
  2363.7500   -268.2229     13.5354     15.7012     17.0327     89.9882
  2364.0000   -270.1719     13.5143     15.7564     17.3600     89.8432
  2364.2500   -271.7612     13.5449     15.8433     17.4539     90.2551
  2364.5000   -272.9543     13.6184     15.9604     17.3286     91.1818
  2364.7500   -273.7712     13.7127     16.0973     17.0658     91.5739
  2365.0000   -274.2798     13.8060     16.2458     16.7649     91.4513
  2365.2500   -274.5879     13.8841     16.4033     16.5091     91.0231
  2365.5000   -274.8354     13.9395     16.5660     16.3518     90.3868
  2365.7500   -275.1659     13.9677     16.7185     16.3164     90.1703
  2366.0000   -275.6743     13.9676     16.8296     16.4004     90.1499
  2366.2500   -276.3609     13.9438     16.8615     16.5783     90.2667
  2366.5000   -277.1297     13.9059     16.7879     16.7967     90.5849
  2366.7500   -277.8320     13.8643     16.6087     16.9638     90.8454
  2367.0000   -278.3259     13.8274     16.3501     16.9628     90.9971
  2367.2500   -278.5247     13.8029     16.0524     16.7188     90.6282
  2367.5000   -278.4244     13.7983     15.7560     16.2721     89.0736
  2367.7500   -278.1048     13.8197     15.4952     15.7570     87.6644
  2368.0000   -277.6966     13.8680     15.2959     15.2920     86.1953
  2368.2500   -277.3300     13.9374     15.1751     14.9177     86.1610
  2368.5000   -277.0869     14.0169     15.1408     14.6595     87.0953
  2368.7500   -276.9719     14.0965     15.1941     14.6059     87.4698
  2369.0000   -276.9045     14.1734     15.3321     14.8607     86.1033
  2369.2500   -276.7473     14.2537     15.5499     15.4087     83.5405
  2369.5000   -276.3710     14.3496     15.8399     16.0775     77.8306
  2369.7500   -275.7240     14.4713     16.1910     16.6585     73.6187
  2370.0000   -274.8587     14.6234     16.5898     17.0629     68.0515
  2370.2500   -273.9009     14.8044     17.0218     17.3640     65.2507
  2370.5000   -272.9838     15.0100     17.4688     17.7043     62.4652
  2370.7500   -272.1937     15.2348     17.9030     18.1653     61.3025
  2371.0000   -271.5552     15.4718     18.2853     18.7024     59.9680
  2371.2500   -271.0490     15.7105     18.5759     19.1735     59.1435
  2371.5000   -270.6389     15.9353     18.7519     19.4168     58.2409
  2371.7500   -270.2936     16.1278     18.8186     19.3428     58.0873
  2372.0000   -269.9953     16.2708     18.8029     19.0149     58.3809
  2372.2500   -269.7350     16.3548     18.7367     18.6461     58.5810
  2372.5000   -269.5022     16.3809     18.6412     18.4598     58.6221
  2372.7500   -269.2862     16.3585     18.5214     18.5100     58.7023
  2373.0000   -269.0931     16.3004     18.3710     18.6345     59.3504
  2373.2500   -268.9653     16.2173     18.1848     18.5849     60.0413
  2373.5000   -268.9696     16.1165     17.9718     18.2124     60.8170
  2373.7500   -269.1545     16.0031     17.7597     17.5593     60.8835
  2374.0000   -269.5179     15.8825     17.5870     16.8239     60.4424
  2374.2500   -270.0200     15.7626     17.4878     16.2615     60.1261
  2374.5000   -270.6191     15.6534     17.4789     16.0923     60.2039
  2374.7500   -271.2862     15.5653     17.5539     16.4378     60.7446
  2375.0000   -271.9886     15.5055     17.6835     17.2878     61.8984
  2375.2500   -272.6720     15.4770     17.8231     18.4878     62.4548
  2375.5000   -273.2690     15.4805     17.9252     19.7487     62.4921
  2375.7500   -273.7269     15.5166     17.9553     20.7306     62.0259
  2376.0000   -274.0272     15.5871     17.9064     21.1944     60.8314
  2376.2500   -274.1884     15.6938     17.8031     21.1057     59.7880
  2376.5000   -274.2581     15.8347     17.6949     20.6042     58.1323
  2376.7500   -274.2996     16.0000     17.6376     19.9084     57.2549
  2377.0000   -274.3711     16.1733     17.6739     19.2491     56.6099
  2377.2500   -274.4986     16.3374     17.8177     18.8255     56.6501
  2377.5000   -274.6579     16.4825     18.0499     18.7402     57.5219
  2377.7500   -274.7781     16.6092     18.3233     18.9534     58.7616
  2378.0000   -274.7693     16.7241     18.5784     19.3254     61.1811
  2378.2500   -274.5609     16.8337     18.7664     19.7204     62.2744
  2378.5000   -274.1369     16.9449     18.8676     20.0676     61.3494
  2378.7500   -273.5513     17.0684     18.8956     20.3420     58.7665
  2379.0000   -272.9142     17.2245     18.8837     20.5162     53.6489
  2379.2500   -272.3488     17.4420     18.8698     20.5406     51.0427
  2379.5000   -271.9403     17.7504     18.8897     20.3683     50.1457
  2379.7500   -271.7051     18.1654     18.9823     20.0154     51.3772
  2380.0000   -271.5951     18.6760     19.1931     19.6206     54.2252
  2380.2500   -271.5271     19.2430     19.5719     19.4630     55.8416
  2380.5000   -271.4225     19.8174     20.1635     19.9188     57.1946
  2380.7500   -271.2312     20.3674     20.9966     21.3641     57.2956
  2381.0000   -270.9326     20.8875     22.0706     24.0386     55.9202
  2381.2500   -270.5211     21.3805     23.3390     27.9161     53.8180
  2381.5000   -269.9968     21.8304     24.6907     32.6222     49.2749
  2381.7500   -269.3656     22.1963     25.9466     37.4302     45.9996
  2382.0000   -268.6402     22.4257     26.9042     41.4040     42.2887
  2382.2500   -267.8404     22.4748     27.4216     43.7421     41.4532
  2382.5000   -266.9972     22.3181     27.4724     44.1698     43.1318
  2382.7500   -266.1606     21.9482     27.1104     43.0538     45.6591
  2383.0000   -265.3976     21.3745     26.3908     41.0783     49.9295
  2383.2500   -264.7668     20.6268     25.3405     38.7205     52.4961
  2383.5000   -264.2779     19.7595     23.9930     35.9881     56.0602
  2383.7500   -263.8731     18.8446     22.4319     32.6622     58.6962
  2384.0000   -263.4569     17.9547     20.7893     28.7726     63.7373
  2384.2500   -262.9573     17.1411     19.2051     24.7693     68.0386
  2384.5000   -262.3740     16.4251     17.7874     21.2309     75.9228
  2384.7500   -261.7834     15.8032     16.5982     18.4993     81.9090
  2385.0000   -261.2944     15.2608     15.6590     16.6138     91.0426
  2385.2500   -260.9842     14.7841     14.9615     15.4720     96.4100
  2385.5000   -260.8582     14.3646     14.4765     14.9480    102.2072
  2385.7500   -260.8593     13.9968     14.1604     14.8914    104.4693
  2386.0000   -260.9011     13.6729     13.9613     15.1099    106.1813
  2386.2500   -260.8977     13.3830     13.8300     15.4092    106.6635
