~Version Information
VERS.                      2.0: CWLS Log ASCII Standard - VERSION 2.0
WRAP.                       NO: One line per depth step
~Well Information Block
STRT.FT                -7.7500: 
STOP.FT               973.7500: 
STEP.FT                 0.2500: 
NULL.                -999.2500: 
COMP.          Pioneer Natural Resources: COMPANY
WELL.              Dylan 42-25: WELL
FLD.           Purgatorie River: FIELD
LOC.           2160' FNL & 855' FEL: LOCATION
PROV.                 Colorado: PROVINCE
CNTY.               Las Animas: COUNTRY
SRVC.          Patterson Wireline: SERVICE COMPANY
DATE.          Fri Apr 29 16:36:17 2005: LOG DATE
UWI.           05-071-08229-00: UNIQUE WELL ID
~Curve Information Block
DEPT.FT            0 000 00 00: Depth
CCL.                          : Casing Collar Locator
TT3.usec                      : CBL 3' Travel Time
AMP3.mV                       : CBL 3' Amplitude
GR.GAPI                       : Gamma Ray
~Parameter Information Block
~A  Depth       CCL         TT3         AMP3         GR     
# ...
   930.2500      0.0000    725.1887      5.2531    103.9713
   930.5000      0.0000    725.8004      5.2788     99.8910
   930.7500      0.0000    728.8726      5.3121     94.9084
   931.0000      0.0000    734.6519      5.3381     90.0526
   931.2500      0.0000    741.6392      5.3530     85.8809
   931.5000      0.0000    747.8179      5.3592     83.0065
   931.7500      0.0000    752.2667      5.3563     82.2374
   932.0000      0.0000    755.0071      5.3395     84.0702
   932.2500      0.0000    755.6792      5.3027     88.1605
   932.5000      0.0000    753.2321      5.2423     93.4016
   932.7500      0.0000    747.1403      5.1574     98.6246
   933.0000      0.0000    738.9025      5.0541    103.1425
   933.2500      0.0000    732.4830      4.9434    106.4254
   933.5000      0.0000    732.7652      4.8260    107.5330
   933.7500      0.0000    742.0958      4.6830    105.4989
   934.0000      0.0000    757.4189      4.5037    100.4610
   934.2500      0.0000    771.4130      4.3312     94.1101
   934.5000      0.0000    777.8094      4.2483     88.8055
   934.7500      0.0000    776.4388      4.2974     86.1541
   935.0000      0.0000    773.1203      4.4292     86.2600
   935.2500      5.0000    774.2782      4.5463     88.1594
   935.5000      5.0000    781.6262      4.5828     90.8999
   935.7500      0.0000    791.6713      4.5425     94.1925
   936.0000      0.0000    798.6067      4.4825     98.0366
   936.2500      0.0000    796.9962      4.4704    101.9336
   936.5000      0.0000    784.3593      4.5358    104.7490
   936.7500      0.0000    763.7592      4.6555    105.4439
   937.0000      0.0000    742.8318      4.8058    103.9782
   937.2500      0.0000    728.3683      5.0120    101.6511
   937.5000      0.0000    721.9195      5.3058    100.4350
   937.7500      0.0000    720.8022      5.6482    101.4158
   938.0000      0.0000    721.9188      5.9361    103.5633
   938.2500      0.0000    723.6335      6.0852    104.5098
   938.5000      0.0000    725.2573      6.0876    103.0483
   938.7500      0.0000    726.4715      6.0001    100.3723
   939.0000      0.0000    727.4869      5.8963     98.1241
   939.2500      0.0000    728.9373      5.8325     95.9601
   939.5000      0.0000    731.1121      5.8351     92.3560
   939.7500      0.0000    733.3337      5.9034     87.3447
   940.0000      0.0000    734.3702      6.0155     82.9315
   940.2500      0.0000    733.6088      6.1362     80.8651
   940.5000      0.0000    731.6620      6.2305     81.0422
   940.7500      0.0000    729.7114      6.2785     82.1213
   941.0000      0.0000    728.4837      6.2807     82.9900
   941.2500      0.0000    727.9930      6.2499     83.4388
   941.5000      0.0000    727.9641      6.2009     83.7161
   941.7500      0.0000    728.1824      6.1506     83.8440
   942.0000      0.0000    728.4750      6.1172     83.5071
   942.2500      0.0000    728.6099      6.1121     82.3329
   942.5000      0.0000    728.3890      6.1308     80.0250
   942.7500      0.0000    727.8724      6.1559     76.4645
   943.0000      0.0000    727.4746      6.1674     71.9925
   943.2500      0.0000    727.7863      6.1506     67.6395
   943.5000      0.0000    729.2190      6.0966     65.0387
   943.7500      0.0000    731.6125      6.0051     65.9162
   944.0000      0.0000    734.0756      5.8931     71.1127
   944.2500      0.0000    735.4767      5.7962     79.7502
   944.5000      0.0000    735.5270      5.7457     89.4129
   944.7500      0.0000    735.3066      5.7352     97.3134
   945.0000      0.0000    736.3655      5.7228    101.6358
   945.2500      0.0000    739.3574      5.6758    102.4816
   945.5000      0.0000    743.7337      5.6042    101.8293
   945.7500      0.0000    748.4343      5.5447    101.9831
   946.0000      0.0000    752.3650      5.5248    103.5527
   946.2500      0.0000    754.4412      5.5467    105.0943
   946.5000      0.0000    753.9208      5.5900    104.7930
   946.7500      0.0000    750.9965      5.6215    102.0971
   947.0000      0.0000    746.8119      5.6185     97.8016
   947.2500      0.0000    742.8381      5.5899     93.3069
   947.5000      0.0000    740.3302      5.5697     90.0934
   947.7500      0.0000    739.9547      5.5871     89.2517
   948.0000      0.0000    741.2156      5.6453     90.8353
   948.2500      0.0000    742.3383      5.7220     93.6785
   948.5000      0.0000    741.5223      5.7910     96.1539
   948.7500      0.0000    738.5653      5.8453     97.1747
   949.0000      0.0000    734.9185      5.8992     96.4641
   949.2500      0.0000    732.1829      5.9671     94.2926
   949.5000      0.0000    730.9014      6.0460     91.3514
   949.7500      0.0000    730.6863      6.1202     88.5771
   950.0000      0.0000    731.0275      6.1783     86.5957
   950.2500      0.0000    731.9061      6.2243     85.3452
   950.5000      0.0000    733.8921      6.2745     84.4369
   950.7500      0.0000    737.7134      6.3448     83.6679
   951.0000      0.0000    743.5150      6.4380     83.0339
   951.2500      0.0000    750.5027      6.5437     82.4412
   951.5000      0.0000    757.6038      6.6469     81.6735
   951.7500      0.0000    764.6113      6.7350     80.7612
   952.0000      0.0000    772.4213      6.8027     80.3608
   952.2500      0.0000    781.9670      6.8552     81.4790
   952.5000      0.0000    793.1429      6.9044     84.4704
   952.7500      0.0000    804.8403      6.9564     88.3834
   953.0000      0.0000    815.6155      7.0062     91.6299
   953.2500      0.0000    824.1724      7.0468     93.2488
   953.5000      0.0000    829.6814      7.0742     93.3129
   953.7500      0.0000    831.9854      7.0821     92.4750
   954.0000      0.0000    831.1994      7.0587     91.5600
   954.2500      0.0000    827.2203      6.9976     91.2989
   954.5000      0.0000    820.1062      6.9078     91.8591
   954.7500      0.0000    810.9406      6.8113     92.6913
   955.0000      0.0000    801.9324      6.7258     93.4029
   955.2500      0.0000    795.4865      6.6528     94.7077
   955.5000      0.0000    793.0471      6.5819     97.8875
   955.7500      0.0000    794.4124      6.5020    103.1276
   956.0000      0.0000    797.8993      6.4084    108.8469
   956.2500      0.0000    801.3687      6.3048    112.9292
   956.5000      0.0000    803.2542      6.2025    114.3738
   956.7500      0.0000    802.6465      6.1149    113.6938
   957.0000      0.0000    798.8923      6.0492    112.1346
   957.2500      0.0000    791.9969      6.0045    110.7317
   957.5000      0.0000    783.8206      5.9765    109.8187
   957.7500      0.0000    778.1798      5.9627    109.0793
   958.0000      0.0000    778.3814      5.9607    108.0680
   958.2500      0.0000    784.1914      5.9662    106.8360
   958.5000      0.0000    791.6722      5.9721    105.8553
   958.7500      0.0000    796.0579      5.9679    104.9812
   959.0000      0.0000    794.5053      5.9407    102.7609
   959.2500      0.0000    786.8703      5.8812     97.1725
   959.5000      0.0000    775.1952      5.7935     86.9039
   959.7500      0.0000    762.8010      5.6980     71.9183
   960.0000      0.0000    753.1288      5.6198     53.6348
   960.2500      0.0000    748.4709      5.5688     34.9665
   960.5000      0.0000    749.0790      5.5346     19.3504
   960.7500      0.0000    753.3310      5.5014      8.8709
   961.0000      0.0000    758.9834      5.4673      3.3072
   961.2500      0.0000    764.3354      5.4458      0.9893
   961.5000      0.0000    768.3062      5.4577      0.2351
   961.7500      0.0000    770.1329      5.5184      0.0436
   962.0000      0.0000    769.7039      5.6251      0.0059
   962.2500      0.0000    767.9182      5.7492      0.0000
   962.5000      0.0000    766.1038      5.8485   -999.2500
   962.7500      0.0000    765.0917      5.8894   -999.2500
   963.0000      0.0000    765.1631      5.8629   -999.2500
   963.2500      0.0000    766.8564      5.7886   -999.2500
   963.5000      0.0000    771.8192      5.7069   -999.2500
