~Version Information
VERS.                      2.0: CWLS Log ASCII Standard - VERSION 2.0
WRAP.                       NO: One line per depth step
~Well Information Block
STRT.FT               533.0000: 
STOP.FT              1578.0000: 
STEP.FT                 0.2500: 
NULL.                -999.2500: 
COMP.          Pioneer Natural Resources: COMPANY
WELL.           Telna 24-22 Tr: WELL
FLD.           Purgatoire River: FIELD
LOC.           748' FSL & 1931' FWL: LOCATION
PROV.                 Colorado: PROVINCE
CNTY.               Las Animas: COUNTRY
SRVC.                Patterson: SERVICE COMPANY
DATE.          Sun May 01 14:14:42 2005: LOG DATE
UWI.           05 071 08304 00: UNIQUE WELL ID
~Curve Information Block
DEPT.FT            0 000 00 00: Depth
SN.Ohm-m                      : IEL Short Normal
SP.mV                         : IEL Spontaneous Potential
DIR.Ohm-m                     : IEL Induction Resistivity
GR.GAPI                       : Gamma Ray
~Parameter Information Block
~A  Depth        SN          SP         DIR          GR     
# ...
  1538.0000      6.3537     31.2328      6.6093    159.8009
  1538.2500      6.2636     31.4117      6.6537    159.8579
  1538.5000      6.2351     31.5617      6.6925    158.8748
  1538.7500      6.2406     31.7019      6.6994    158.2461
  1539.0000      6.2626     31.8461      6.6578    158.2570
  1539.2500      6.2908     31.9982      6.5629    159.0317
  1539.5000      6.3106     32.1489      6.4197    160.9026
  1539.7500      6.3157     32.2775      6.2438    162.0569
  1540.0000      6.3181     32.3624      6.0608    162.4787
  1540.2500      6.3427     32.3900      5.9013    161.3972
  1540.5000      6.4077     32.3536      5.7895    157.6942
  1540.7500      6.5049     32.2466      5.7357    154.3097
  1541.0000      6.6024     32.0607      5.7369    149.1849
  1541.2500      6.6694     31.7888      5.7802    146.5112
  1541.5000      6.7021     31.4308      5.8489    144.3982
  1541.7500      6.7170     30.9939      5.9259    144.2625
  1542.0000      6.7194     30.4901      5.9957    145.4168
  1542.2500      6.6986     29.9321      6.0451    146.6049
  1542.5000      6.6429     29.3316      6.0666    148.1172
  1542.7500      6.5414     28.7007      6.0634    148.6270
  1543.0000      6.3947     28.0534      6.0513    148.9423
  1543.2500      6.2353     27.4062      6.0509    149.3896
  1543.5000      6.1053     26.7767      6.0725    150.9336
  1543.7500      6.0143     26.1822      6.1062    152.2760
  1544.0000      5.9388     25.6368      6.1253    153.7471
  1544.2500      5.8624     25.1479      6.1066    153.8701
  1544.5000      5.7995     24.7133      6.0504    152.5044
  1544.7500      5.7799     24.3263      5.9856    150.7967
  1545.0000      5.8206     23.9847      5.9518    147.8908
  1545.2500      5.9156     23.6959      5.9777    146.1881
  1545.5000      6.0440     23.4713      6.0682    144.3768
  1545.7500      6.1845     23.3126      6.2058    143.7420
  1546.0000      6.3227     23.2045      6.3598    143.7157
  1546.2500      6.4489     23.1199      6.4996    144.2563
  1546.5000      6.5561     23.0351      6.6052    145.6105
  1546.7500      6.6459     22.9430      6.6732    146.6741
  1547.0000      6.7273     22.8516      6.7150    148.1352
  1547.2500      6.8010     22.7695      6.7495    148.7662
  1547.5000      6.8409     22.6922      6.7920    148.9978
  1547.7500      6.8000     22.6064      6.8482    148.8392
  1548.0000      6.6717     22.5042      6.9140    148.6943
  1548.2500      6.5110     22.3925      6.9815    148.9076
  1548.5000      6.3639     22.2874      7.0461    149.7419
  1548.7500      6.2457     22.2025      7.1090    150.4495
  1549.0000      6.1798     22.1432      7.1751    151.1082
  1549.2500      6.1910     22.1068      7.2485    150.8152
  1549.5000      6.2793     22.0866      7.3280    148.6025
  1549.7500      6.4248     22.0746      7.4067    145.8349
  1550.0000      6.6049     22.0608      7.4759    140.3134
  1550.2500      6.7962     22.0334      7.5325    136.4275
  1550.5000      6.9770     21.9826      7.5834    131.6114
  1550.7500      7.1433     21.9043      7.6444    129.5663
  1551.0000      7.3078     21.7989      7.7333    128.3242
  1551.2500      7.4701     21.6682      7.8630    128.4379
  1551.5000      7.6051     21.5133      8.0379    129.3603
  1551.7500      7.6983     21.3315      8.2542    130.0457
  1552.0000      7.7786     21.1167      8.5012    130.2771
  1552.2500      7.9085     20.8713      8.7606    129.2641
  1552.5000      8.1516     20.6152      9.0044    124.9380
  1552.7500      8.5465     20.3753      9.1964    119.8364
  1553.0000      9.0900     20.1676      9.3035    109.2020
  1553.2500      9.7413     19.9933      9.3176    100.9519
  1553.5000     10.4816     19.8520      9.2702     89.1112
  1553.7500     11.3668     19.7535      9.2262     83.1256
  1554.0000     12.4322     19.7146      9.2547     79.2598
  1554.2500     13.5469     19.7433      9.4008     80.6731
  1554.5000     14.4771     19.8280      9.6688     87.8489
  1554.7500     15.1113     19.9421     10.0144     94.3781
  1555.0000     15.5466     20.0580     10.3443    103.2769
  1555.2500     15.9263     20.1584     10.5359    107.0655
  1555.5000     16.2722     20.2408     10.4950    108.7968
  1555.7500     16.4944     20.3136     10.2208    107.8404
  1556.0000     16.5111     20.3880      9.8087    104.7419
  1556.2500     16.3771     20.4693      9.3809    102.4447
  1556.5000     16.2472     20.5565      9.0200    100.1076
  1556.7500     16.1599     20.6476      8.7521    100.0410
  1557.0000     15.9944     20.7475      8.5645    102.6949
  1557.2500     15.6460     20.8683      8.4322    105.8661
  1557.5000     15.1174     21.0182      8.3390    110.7429
  1557.7500     14.4763     21.1919      8.2877    112.3499
  1558.0000     13.7928     21.3715      8.2962    108.6205
  1558.2500     13.1036     21.5367      8.3827    100.0332
  1558.5000     12.4232     21.6726      8.5490     77.3631
  1558.7500     11.7768     21.7741      8.7716     58.1915
  1559.0000     11.2066     21.8469      9.0024     30.9168
  1559.2500     10.7443     21.9029      9.1779     17.4108
  1559.5000     10.3807     21.9473      9.2325      5.7383
  1559.7500     10.0703     21.9699      9.1229      2.3001
  1560.0000      9.7725     21.9534      8.8579      0.4439
  1560.2500      9.4805     21.8989      8.5072      0.1216
  1560.5000      9.2089     21.8386      8.1701      0.0113
  1560.7500      8.9612     21.8158      7.9277      0.0000
  1561.0000      8.7240     21.8483      7.8140   -999.2500
  1561.2500      8.4875     21.9162      7.8168   -999.2500
  1561.5000      8.2560     21.9845      7.8944   -999.2500
  1561.7500      8.0385     22.0314      8.0000   -999.2500
  1562.0000      7.8401     22.0546      8.1014   -999.2500
  1562.2500      7.6690     22.0584      8.1870   -999.2500
  1562.5000      7.5395     22.0431      8.2573   -999.2500
  1562.7500      7.4616     22.0050      8.3134   -999.2500
  1563.0000      7.4310     21.9402      8.3527   -999.2500
  1563.2500      7.4341     21.8438      8.3728   -999.2500
  1563.5000      7.4605     21.7097      8.3788   -999.2500
  1563.7500      7.5022     21.5391      8.3830   -999.2500
  1564.0000      7.5459     21.3513      8.3982   -999.2500
  1564.2500      7.5755     21.1812      8.4308   -999.2500
  1564.5000      7.5839     21.0567      8.4792   -999.2500
  1564.7500      7.5859     20.9786      8.5397   -999.2500
  1565.0000      7.6073     20.9266      8.5896   -999.2500
  1565.2500      7.6534     20.8829      8.6755   -999.2500
  1565.5000      7.7089     20.8439      8.7772   -999.2500
  1565.7500      7.7650     20.8095      8.8905   -999.2500
  1566.0000      7.8220     20.7716      9.0087   -999.2500
  1566.2500      7.8802     20.7178      9.1297   -999.2500
  1566.5000      7.9481     20.6476      9.2601   -999.2500
  1566.7500      8.0399     20.5799      9.4100   -999.2500
  1567.0000      8.1599     20.5459      9.5868   -999.2500
  1567.2500      8.2928     20.5733      9.7975   -999.2500
  1567.5000      8.4056     20.6742     10.0672   -999.2500
  1567.7500      8.4797     20.8427     10.4667   -999.2500
  1568.0000      8.5379     21.0572     11.1360   -999.2500
  1568.2500      8.6124     21.2852     12.3086   -999.2500
  1568.5000      8.7071     21.4909     14.4323   -999.2500
  1568.7500      8.8147     21.6438     18.0370   -999.2500
  1569.0000      8.9418     21.7261     24.3104   -999.2500
  1569.2500      9.0945     21.7372     35.2162   -999.2500
  1569.5000      9.2510     21.6940     53.6734   -999.2500
  1569.7500      9.3731     21.6232     82.1103   -999.2500
  1570.0000      9.4529     21.5461    117.8175   -999.2500
  1570.2500      9.5404     21.4690    150.7034   -999.2500
  1570.5000      9.6904     21.3851    173.1235   -999.2500
  1570.7500      9.8550     21.2853    187.6984   -999.2500
  1571.0000      9.9279     21.1635    201.8379   -999.2500
  1571.2500      9.9064     21.0125    222.8627   -999.2500
