~Version Information
VERS.                      2.0: CWLS Log ASCII Standard - VERSION 2.0
WRAP.                       NO: One line per depth step
~Well Information Block
STRT.FT                 5.5000: 
STOP.FT              1635.7500: 
STEP.FT                 0.2500: 
NULL.                -999.2500: 
COMP.          Pioneer Natural Resources: COMPANY
WELL.                Mead 11-9: WELL
FLD.           Purgatoire River: FIELD
LOC.           1127' FNL & 668' FWL: LOCATION
PROV.                 Colorado: PROVINCE
CNTY.               Las Animas: COUNTRY
SRVC.                Patterson: SERVICE COMPANY
DATE.          Wed Mar 02 13:48:38 2005: LOG DATE
UWI.           05 071 08160 00: UNIQUE WELL ID
~Curve Information Block
DEPT.FT            0 000 00 00: Depth
CCL.                          : Casing Collar Locator
TT3.usec                      : CBL 3' Travel Time
AMP3.mV                       : CBL 3' Amplitude
GR.GAPI                       : Gamma Ray
~Parameter Information Block
~A  Depth       CCL         TT3         AMP3         GR     
# ...
  1412.5000      0.0000    750.5319      4.6773     68.4367
  1412.7500      0.0000    717.2969      4.6958     68.4572
  1413.0000      0.0000    679.5986      4.7219     69.9150
  1413.2500      0.0000    643.9897      4.7373     71.8453
  1413.5000      0.0000    611.0176      4.7283     72.9308
  1413.7500      0.0000    579.9072      4.6899     72.1440
  1414.0000      0.0000    556.4042      4.6265     69.5195
  1414.2500      0.0000    550.6283      4.5509     66.3301
  1414.5000      0.0000    567.6242      4.4815     64.2588
  1414.7500      0.0000    602.3533      4.4378     64.3764
  1415.0000      0.0000    641.8873      4.4361     66.8956
  1415.2500      0.0000    671.0505      4.4850     71.5133
  1415.5000      0.0000    679.2855      4.5809     77.6037
  1415.7500      0.0000    666.5024      4.7031     84.2383
  1416.0000      0.0000    644.3879      4.8151     90.4791
  1416.2500      0.0000    630.7873      4.8793     95.8574
  1416.5000      0.0000    638.3578      4.8809    100.5083
  1416.7500      0.0000    665.6918      4.8326    104.8401
  1417.0000      0.0000    700.2513      4.7557    109.0835
  1417.2500      0.0000    729.8128      4.6627    112.8811
  1417.5000      0.0000    749.4735      4.5599    115.1785
  1417.7500      0.0000    759.2122      4.4569    114.9059
  1418.0000      0.0000    759.4578      4.3656    112.1741
  1418.2500      0.0000    751.0515      4.2926    108.5882
  1418.5000      0.0000    737.3345      4.2360    105.9914
  1418.7500      0.0000    723.6099      4.1890    104.9834
  1419.0000      0.0000    714.2629      4.1455    104.8523
  1419.2500      0.0000    711.2342      4.1022    104.7042
  1419.5000      0.0000    714.8276      4.0579    104.2672
  1419.7500      0.0000    724.6185      4.0144    103.4970
  1420.0000      0.0000    739.0721      3.9797    101.7924
  1420.2500      0.0000    755.3563      3.9667     98.2485
  1420.5000      0.0000    770.3757      3.9843     92.7982
  1420.7500      0.0000    781.9495      4.0271     86.6463
  1421.0000      0.0000    788.9666      4.0747     81.4524
  1421.2500      0.0000    791.1512      4.0982     78.3495
  1421.5000      0.0000    789.0774      4.0652     77.5697
  1421.7500      0.0000    784.4597      3.9523     78.6431
  1422.0000      0.0000    779.5989      3.7703     80.9279
  1422.2500      0.0000    775.1846      3.5767     84.0231
  1422.5000      0.0000    768.8420      3.4360     87.6484
  1422.7500      0.0000    757.9323      3.3598     91.3340
  1423.0000      0.0000    744.0315      3.3107     94.3949
  1423.2500      0.0000    732.1114      3.2704     95.8971
  1423.5000      0.0000    724.1170      3.2730     94.5403
  1423.7500      0.0000    715.2940      3.3565     89.3361
  1424.0000      0.0000    698.3901      3.5089     81.0303
  1424.2500      2.2028    672.3235      3.6752     72.3254
  1424.5000     -3.0000    647.4374      3.7988     66.0721
  1424.7500      0.0000    640.3461      3.8572     63.4707
  1425.0000      0.0000    659.4860      3.8811     64.0670
  1425.2500      0.0000    695.6740      3.9352     66.7738
  1425.5000      0.0000    730.4938      4.0537     70.4608
  1425.7500      0.0000    753.3978      4.2042     74.1293
  1426.0000      0.0000    767.2880      4.3491     77.2087
  1426.2500      0.0000    779.7254      4.5203     79.8548
  1426.5000      0.0000    793.5425      4.7837     82.7530
  1426.7500      0.0000    806.0062      5.1418     86.4573
  1427.0000      0.0000    813.6501      5.5156     90.9367
  1427.2500      0.0000    816.0561      5.8143     95.7824
  1427.5000      0.0000    815.7870      5.9885    100.5601
  1427.7500      0.0000    816.1809      6.0262    104.5888
  1428.0000      0.0000    819.2748      5.9319    106.5909
  1428.2500      0.0000    824.9232      5.7246    105.2587
  1428.5000      0.0000    831.4963      5.4419    100.5005
  1428.7500      0.0000    838.2034      5.1293     93.8148
  1429.0000      0.0000    847.8289      4.8237     87.1397
  1429.2500      0.0000    867.8867      4.5464     81.4563
  1429.5000      0.0000    907.6499      4.3064     76.5211
  1429.7500      0.0000    969.3610      4.1061     71.5522
  1430.0000      0.0000   1039.1589      3.9469     65.8299
  1430.2500      0.0000   1091.5935      3.8319     58.9401
  1430.5000      0.0000   1111.0723      3.7657     51.1253
  1430.7500      0.0000   1107.3051      3.7562     43.6497
  1431.0000      0.0000   1101.8672      3.8163     38.3282
  1431.2500      0.0000   1102.5115      3.9561     36.1684
  1431.5000      0.0000   1100.2278      4.1704     36.5713
  1431.7500      0.0000   1087.9612      4.4391     38.0789
  1432.0000      0.0000   1069.8627      4.7399     39.7256
  1432.2500      0.0000   1051.6023      5.0549     41.4400
  1432.5000      0.0000   1030.9147      5.3622     43.5430
  1432.7500      0.0000   1001.0064      5.6279     46.3971
  1433.0000      0.0000    959.8982      5.8160     50.4870
  1433.2500      0.0000    914.3328      5.9126     56.4039
  1433.5000      0.0000    874.9136      5.9390     64.5089
  1433.7500      0.0000    847.9948      5.9409     74.5432
  1434.0000      0.0000    831.9707      5.9604     85.4186
  1434.2500      0.0000    820.3864      6.0136     95.2329
  1434.5000      0.0000    808.1247      6.0910    101.7898
  1434.7500      0.0000    795.3435      6.1748    103.7797
  1435.0000      0.0000    786.1475      6.2561    101.8400
  1435.2500      0.0000    783.9593      6.3346     98.3241
  1435.5000      0.0000    788.6282      6.4056     95.7529
  1435.7500      0.0000    797.5760      6.4558     95.2055
  1436.0000      0.0000    808.1177      6.4711     95.8747
  1436.2500      0.0000    818.0690      6.4457     96.0377
  1436.5000      0.0000    825.2609      6.3831     94.6699
  1436.7500      0.0000    827.3326      6.2906     92.2167
  1437.0000      0.0000    821.9376      6.1721     89.7675
  1437.2500      0.0000    807.6570      6.0233     87.8570
  1437.5000      0.0000    786.0140      5.8353     86.4747
  1437.7500      0.0000    762.9888      5.6061     85.8319
  1438.0000      0.0000    747.3548      5.3503     86.2978
  1438.2500      0.0000    746.5045      5.0998     87.6254
  1438.5000      0.0000    763.4023      4.8931     88.9169
  1438.7500      0.0000    797.3891      4.7596     89.2864
  1439.0000      0.0000    846.7945      4.7069     88.0069
  1439.2500      0.0000    908.6544      4.7227     84.4475
  1439.5000      0.0000    974.8943      4.7862     78.6489
  1439.7500      0.0000   1031.8423      4.8723     71.6356
  1440.0000      0.0000   1066.6541      4.9509     64.6112
  1440.2500      0.0000   1073.2032      4.9912     58.2813
  1440.5000      0.0000   1051.7505      4.9731     53.3383
  1440.7500      0.0000   1008.4261      4.8928     50.8960
  1441.0000      0.0000    956.7833      4.7580     51.7596
  1441.2500      0.0000    912.8458      4.5829     55.5889
  1441.5000      0.0000    883.0565      4.3898     61.2250
  1441.7500      0.0000    859.3142      4.2091     67.6672
  1442.0000      0.0000    828.5742      4.0746     74.4428
  1442.2500      0.0000    785.7464      4.0143     81.1844
  1442.5000      0.0000    736.9614      4.0401     87.1043
  1442.7500      0.0000    693.7730      4.1414     91.0292
  1443.0000      0.0000    665.1936      4.2889     92.0977
  1443.2500      0.0000    653.8369      4.4492     90.5449
  1443.5000      0.0000    658.3095      4.5997     87.7166
  1443.7500      0.0000    676.0474      4.7318     85.2126
  1444.0000      0.0000    701.3438      4.8474     83.9132
  1444.2500      0.0000    724.0801      4.9528     83.7003
  1444.5000      0.0000    733.5134      5.0542     83.9832
  1444.7500      0.0000    721.7944      5.1534     84.2524
  1445.0000      0.0000    684.4412      5.2486     84.1225
  1445.2500      0.0000    623.1394      5.3384     83.3411
  1445.5000      0.0000    549.8521      5.4262     82.1591
  1445.7500      0.0000    483.0263      5.5169     81.3611
