~Version Information
VERS.                      2.0: CWLS Log ASCII Standard - VERSION 2.0
WRAP.                       NO: One line per depth step
~Well Information Block
STRT.FT               770.0000: 
STOP.FT              1997.7000: 
STEP.FT                 0.1000: 
NULL.                -999.2500: 
COMP.          Pioneer Natural Resources: COMPANY
WELL.          Titan Federal 34-17: WELL
FLD.           Purgatoire River: FIELD
LOC.           321' FSL & 1911' FEL--: LOCATION
STAT.                 Colorado: State
CNTY.               Las Animas: COUNTY
CTRY. USA : Country
SECT. 17 : Section
TOWN. 32S : Township
RANG. 65W : Range
SRVC.                Patterson: SERVICE COMPANY
DATE.          Thu Oct 06 15:09:27 2005: LOG DATE
API.           05 071 08272 00: UNIQUE WELL ID
~Curve Information Block
DEPT.FT            0 000 00 00: Depth
DCAL.in                       : CDL Caliper
RHOB.g/cc                     : CDL Bulk Density
RHOC.g/cc                     : CDL Density Correction
DPOR.pu                       : CDL Density Porosity
NPOR.pu                       : Neutron Porosity
GR.GAPI                       : Gamma Ray
~Parameter Information Block
~A  Depth       DCAL        RHOB        RHOC        DPOR        NPOR         GR     
# ...
  1173.2000      8.0188      2.5337      0.0692      7.0509     18.3935    107.4084
  1173.3000      8.0143      2.5423      0.0154      6.5252     18.7468    103.3517
  1173.4000      8.0143      2.5497      0.0867      6.0815     19.3589    101.0668
  1173.5000      8.0125      2.5460      0.0608      6.3045     19.9246     99.3269
  1173.6000      8.0125      2.5283      0.0473      7.3757     20.0982     97.8788
  1173.7000      8.0125      2.5093      0.0148      8.5262     19.7200     98.6807
  1173.8000      8.0140      2.5002      0.0573      9.0770     19.2361    101.9143
  1173.9000      8.0140      2.5003      0.0137      9.0711     19.0843    102.0262
  1174.0000      8.0147      2.5122      0.0223      8.3503     19.0175     99.6904
  1174.1000      8.0147      2.5341      0.0642      7.0226     18.6880     99.1921
  1174.2000      8.0147      2.5502      0.0713      6.0458     18.3812     99.6313
  1174.3000      8.0125      2.5521      0.0500      5.9326     18.3237    100.4555
  1174.4000      8.0125      2.5455      0.0525      6.3317     18.2607    100.6745
  1174.5000      8.0107      2.5367      0.0637      6.8675     18.0998     99.2432
  1174.6000      8.0107      2.5267      0.0186      7.4706     18.1034     96.8754
  1174.7000      8.0107      2.5180      0.0287      7.9970     18.4981     93.6866
  1174.8000      8.0121      2.5135      0.0376      8.2749     19.1557     93.6617
  1174.9000      8.0121      2.5134      0.0288      8.2795     19.7828    100.0956
  1175.0000      8.0173      2.5127      0.0257      8.3183     20.3471    104.2931
  1175.1000      8.0173      2.5053     -0.0010      8.7720     20.6215    100.4337
  1175.2000      8.0173      2.4959      0.0252      9.3421     20.2534     95.9873
  1175.3000      8.0225      2.4977     -0.0062      9.2278     19.7020     96.1248
  1175.4000      8.0225      2.5142      0.0491      8.2300     19.6218     97.9144
  1175.5000      8.0247      2.5322      0.0411      7.1399     19.7830     99.5826
  1175.6000      8.0247      2.5404      0.0423      6.6433     19.7227    100.6798
  1175.7000      8.0247      2.5390      0.0484      6.7274     19.7568    100.6231
  1175.8000      8.0278      2.5363      0.0358      6.8936     20.1274    102.6846
  1175.9000      8.0278      2.5381      0.0429      6.7814     20.3881    106.2387
  1176.0000      8.0313      2.5396      0.0484      6.6900     20.5055    105.6732
  1176.1000      8.0313      2.5343      0.0207      7.0126     20.8175    100.2451
  1176.2000      8.0313      2.5214      0.0079      7.7954     21.3199     97.0208
  1176.3000      8.0327      2.5017      0.0384      8.9854     21.6333    100.8954
  1176.4000      8.0327      2.4893     -0.0141      9.7407     21.3227    105.1590
  1176.5000      8.0315      2.5041      0.0065      8.8413     20.6147    102.5290
  1176.6000      8.0315      2.5336      0.0757      7.0576     20.1022     96.1006
  1176.7000      8.0315      2.5427      0.0955      6.5034     19.8686     91.0021
  1176.8000      8.0293      2.5224      0.0490      7.7348     19.6854     88.9719
  1176.9000      8.0293      2.4980      0.0331      9.2095     19.3610     89.0391
  1177.0000      8.0264      2.4881      0.0448      9.8116     19.0110     90.7152
  1177.1000      8.0264      2.4894      0.0314      9.7326     18.7841     94.3261
  1177.2000      8.0264      2.4995      0.0233      9.1216     18.6577     98.7702
  1177.3000      8.0235      2.5082      0.0705      8.5941     18.7401    102.4502
  1177.4000      8.0235      2.5026      0.0351      8.9328     19.0039    104.9095
  1177.5000      8.0212      2.4953     -0.0094      9.3781     19.2688    106.4313
  1177.6000      8.0212      2.5039      0.0205      8.8539     19.7068    104.7120
  1177.7000      8.0212      2.5212      0.0317      7.8070     20.3414    100.3989
  1177.8000      8.0196      2.5299      0.0173      7.2792     20.7565     98.2645
  1177.9000      8.0196      2.5235      0.0376      7.6690     20.7682     98.5970
  1178.0000      8.0205      2.5057      0.0239      8.7475     20.5832     99.8766
  1178.1000      8.0205      2.4870      0.0059      9.8779     20.3945    101.2223
  1178.2000      8.0205      2.4815     -0.0017     10.2124     20.1989    101.1868
  1178.3000      8.0246      2.4941      0.0100      9.4460     20.0202     99.8394
  1178.4000      8.0246      2.5094      0.0374      8.5214     19.8877     98.8342
  1178.5000      8.0284      2.5115      0.0108      8.3921     19.8407    100.2807
  1178.6000      8.0284      2.5064      0.0332      8.7034     19.8407    102.5184
  1178.7000      8.0284      2.5025      0.0411      8.9406     19.6273    101.7296
  1178.8000      8.0304      2.4975      0.0223      9.2442     19.1648     98.5257
  1178.9000      8.0304      2.4890      0.0022      9.7600     18.8228     96.9038
  1179.0000      8.0291      2.4800      0.0222     10.3024     18.9143     98.1225
  1179.1000      8.0291      2.4770     -0.0044     10.4830     19.4088     97.6328
  1179.2000      8.0291      2.4793      0.0224     10.3461     20.0855     95.1400
  1179.3000      8.0244      2.4737      0.0402     10.6834     20.6036     96.5150
  1179.4000      8.0244      2.4560      0.0126     11.7601     20.5538     98.9924
  1179.5000      8.0202      2.4431     -0.0106     12.5387     19.9989     95.8865
  1179.6000      8.0202      2.4558     -0.0262     11.7711     19.5997     89.1248
  1179.7000      8.0202      2.4909      0.0317      9.6403     19.7057     83.9087
  1179.8000      8.0208      2.5203      0.0552      7.8615     19.7730     84.8610
  1179.9000      8.0208      2.5233      0.0844      7.6781     19.4091     92.1997
  1180.0000      8.0261      2.5086      0.0248      8.5691     19.0295     98.9314
  1180.1000      8.0261      2.4962      0.0164      9.3204     18.6602     99.3838
  1180.2000      8.0261      2.4918      0.0458      9.5878     18.0054     96.9088
  1180.3000      8.0296      2.4910      0.0488      9.6354     17.4205     96.5831
  1180.4000      8.0296      2.4872      0.0598      9.8659     17.2542     96.1319
  1180.5000      8.0296      2.4784      0.0139     10.4011     17.1740     92.6256
  1180.6000      8.0296      2.4734      0.0474     10.7025     16.9280     88.6350
  1180.7000      8.0296      2.4813      0.0426     10.2261     16.7024     85.4522
  1180.8000      8.0267      2.5055      0.0842      8.7557     16.5345     80.5674
  1180.9000      8.0267      2.5367      0.1216      6.8667     16.2209     74.3719
  1181.0000      8.0242      2.5606      0.0887      5.4189     15.6378     71.5899
  1181.1000      8.0242      2.5731      0.1168      4.6579     15.0607     73.3346
  1181.2000      8.0242      2.5761      0.0960      4.4772     14.9897     74.6703
  1181.3000      8.0254      2.5733      0.0956      4.6497     15.5150     72.6936
  1181.4000      8.0254      2.5712      0.0505      4.7783     16.4547     70.9891
  1181.5000      8.0264      2.5765      0.0376      4.4536     17.6700     71.3198
  1181.6000      8.0264      2.5813      0.1094      4.1661     18.7842     71.7991
  1181.7000      8.0264      2.5699      0.0774      4.8575     19.4123     72.3084
  1181.8000      8.0259      2.5504      0.0180      6.0376     19.5413     73.2361
  1181.9000      8.0259      2.5434      0.0080      6.4615     19.3134     73.6061
  1182.0000      8.0264      2.5504      0.0503      6.0367     19.1948     74.2842
  1182.1000      8.0264      2.5596      0.0465      5.4763     19.5632     76.8905
  1182.2000      8.0264      2.5624      0.0455      5.3100     20.0427     80.3846
  1182.3000      8.0276      2.5558      0.0643      5.7074     20.1380     82.4163
  1182.4000      8.0276      2.5456      0.0779      6.3301     19.9203     83.9022
  1182.5000      8.0288      2.5415      0.0415      6.5766     19.9168     85.6977
  1182.6000      8.0288      2.5474      0.0602      6.2162     20.3148     86.8151
  1182.7000      8.0288      2.5589      0.0468      5.5236     20.6739     86.9218
