~Version Information
VERS.                      2.0: CWLS Log ASCII Standard - VERSION 2.0
WRAP.                       NO: One line per depth step
~Well Information Block
STRT.FT               350.0000: 
STOP.FT              2531.5000: 
STEP.FT                 0.1000: 
NULL.                -999.2500: 
COMP.          Pioneer Natural Resources: COMPANY
WELL.          Cock-a-doodle-doo: WELL
FLD.           Purgatoire River: FIELD
LOC.           163' FSL & 54' FEL: LOCATION
PROV.                 Colorado: PROVINCE
CNTY.               Las Animas: COUNTRY
SRVC.                Patterson: SERVICE COMPANY
DATE.          Fri Jul 01 09:34:59 2005: LOG DATE
UWI.           05 071 08429 00: UNIQUE WELL ID
~Curve Information Block
DEPT.FT            0 000 00 00: Depth
DCAL.in                       : CDL Caliper
RHOB.g/cc                     : CDL Bulk Density
RHOC.g/cc                     : CDL Density Correction
DPOR.pu                       : CDL Density Porosity
GR.GAPI                       : Gamma Ray
NPOR.pu                       : Neutron Porosity
~Parameter Information Block
~A  Depth       DCAL        RHOB        RHOC        DPOR         GR         NPOR    
# ...
   782.0000      7.9725      2.4774      0.1327     10.4633     94.9381     23.0482
   782.1000      7.9725      2.5122      0.1795      8.3510     98.5919     21.9647
   782.2000      7.9725      2.5539      0.2543      5.8226    101.4349     20.9328
   782.3000      8.0195      2.5829      0.2953      4.0638    104.2868     20.5897
   782.4000      8.0195      2.5712      0.3066      4.7778    106.6060     20.9403
   782.5000      7.9649      2.5162      0.2201      8.1078    109.9959     21.4790
   782.6000      7.9649      2.4573      0.1528     11.6770    114.3759     21.6592
   782.7000      7.9649      2.4329      0.1961     13.1567    117.7988     21.4497
   782.8000      7.9418      2.4516      0.1866     12.0228    121.9909     21.0793
   782.9000      7.9418      2.5034      0.2016      8.8830    127.9574     20.5576
   783.0000      7.9072      2.5718      0.2113      4.7392    134.2495     20.0012
   783.1000      7.9072      2.6381      0.2625      0.7205    140.2876     19.8873
   783.2000      7.9072      2.6740      0.3556     -1.4553    147.3537     20.3837
   783.3000      7.9588      2.6574      0.3164     -0.4504    155.3475     21.0407
   783.4000      7.9588      2.6064      0.2072      2.6434    160.7619     21.5296
   783.5000      7.9902      2.5584      0.2375      5.5524    162.6136     21.7606
   783.6000      7.9902      2.5251      0.2289      7.5716    162.9823     21.7452
   783.7000      7.9902      2.5095      0.1042      8.5173    160.4202     21.9539
   783.8000      8.0809      2.5205      0.1285      7.8485    152.5145     22.5620
   783.9000      8.0809      2.5465      0.1649      6.2712    143.3462     23.2095
   784.0000      8.1364      2.5672      0.1833      5.0196    140.2788     23.8876
   784.1000      8.1364      2.5786      0.2582      4.3272    143.7096     24.6033
   784.2000      8.1364      2.5701      0.3243      4.8449    148.0059     25.0775
   784.3000      8.1368      2.5249      0.2366      7.5791    146.9205     25.3321
   784.4000      8.1368      2.4620      0.1837     11.3932    140.4354     25.4661
   784.5000      8.0563      2.4142      0.1389     14.2903    136.6031     25.2339
   784.6000      8.0563      2.3891      0.1563     15.8126    140.0642     24.7305
   784.7000      8.0563      2.3903      0.1268     15.7403    146.3944     24.5410
   784.8000      8.0283      2.4333      0.1628     13.1350    148.1814     24.9368
   784.9000      8.0283      2.5131      0.3194      8.2947    148.4526     25.5443
   785.0000      8.0124      2.6015      0.4019      2.9367    156.4969     25.9353
   785.1000      8.0124      2.6781      0.4170     -1.7055    165.2624     26.1460
   785.2000      8.0124      2.7290      0.4144     -4.7872    162.3253     26.4655
   785.3000      8.0825      2.7439      0.3777     -5.6931    153.7960     26.8709
   785.4000      8.0825      2.7306      0.3435     -4.8839    149.5724     27.0760
   785.5000      8.1279      2.7024      0.3258     -3.1752    148.6501     27.1492
   785.6000      8.1279      2.6678      0.2932     -1.0786    146.7549     27.4341
   785.7000      8.1279      2.6376      0.2222      0.7498    143.8904     27.9878
   785.8000      8.1842      2.6125      0.2301      2.2721    141.0639     28.6139
   785.9000      8.1842      2.5793      0.1823      4.2834    135.8739     29.1677
   786.0000      8.1550      2.5432      0.0652      6.4744    129.9111     29.4611
   786.1000      8.1550      2.5256      0.0175      7.5420    129.6383     29.2855
   786.2000      8.1550      2.5319      0.0231      7.1555    133.2160     28.7019
   786.3000      8.1821      2.5495      0.0650      6.0934    133.0094     28.0746
   786.4000      8.1821      2.5635      0.0803      5.2428    129.7669     27.6122
   786.5000      8.1434      2.5646      0.1198      5.1765    126.6544     27.2566
   786.6000      8.1434      2.5548      0.0809      5.7694    120.2816     27.0833
   786.7000      8.1434      2.5497      0.1469      6.0796    112.4427     27.2594
   786.8000      8.1259      2.5538      0.1174      5.8295    112.4759     27.5322
   786.9000      8.1259      2.5553      0.1522      5.7408    120.1314     27.7124
   787.0000      8.1310      2.5481      0.0217      6.1750    126.9503     28.1231
   787.1000      8.1310      2.5378      0.1113      6.8029    128.4298     28.8020
   787.2000      8.1310      2.5306      0.0806      7.2387    124.9750     29.2144
   787.3000      8.1541      2.5380      0.0576      6.7894    120.1272     29.0359
   787.4000      8.1541      2.5592      0.0696      5.5010    113.7650     28.5690
   787.5000      8.1346      2.5703      0.0765      4.8275    106.1486     28.2345
   787.6000      8.1346      2.5608      0.0339      5.4047    102.3347     28.2026
   787.7000      8.1346      2.5453      0.0541      6.3453    100.8930     28.3620
   787.8000      8.1358      2.5316      0.0526      7.1750     97.6503     28.4379
   787.9000      8.1358      2.5185      0.0710      7.9689     94.0998     28.5540
   788.0000      8.1174      2.5145      0.0226      8.2101     91.6993     28.9335
   788.1000      8.1174      2.5248      0.0534      7.5905     90.5839     29.0289
   788.2000      8.1174      2.5406      0.0446      6.6304     91.6104     28.4568
   788.3000      8.1073      2.5567      0.0922      5.6552     94.7537     27.7878
   788.4000      8.1073      2.5681      0.1108      4.9655     99.5919     27.5754
   788.5000      8.0477      2.5704      0.1493      4.8234    103.7927     27.6831
   788.6000      8.0477      2.5673      0.1603      5.0097    103.1636     27.6497
   788.7000      8.0477      2.5620      0.1606      5.3312     98.2178     27.4509
   788.8000      7.9868      2.5537      0.1258      5.8354     93.4079     27.2398
   788.9000      7.9868      2.5419      0.1380      6.5500     89.6852     26.9325
   789.0000      7.9870      2.5280      0.0770      7.3916     87.5476     26.4827
   789.1000      7.9870      2.5274      0.0878      7.4289     90.5898     25.7544
   789.2000      7.9870      2.5578      0.1445      5.5888     96.5027     25.0117
   789.3000      7.9943      2.6126      0.2214      2.2684     96.1022     24.8571
   789.4000      7.9943      2.6707      0.2581     -1.2524     87.5623     25.0132
   789.5000      8.0232      2.7114      0.3594     -3.7221     79.4034     24.8418
   789.6000      8.0232      2.7213      0.3023     -4.3191     77.4489     24.3360
   789.7000      8.0232      2.7078      0.2382     -3.5007     79.5241     23.9001
   789.8000      7.9425      2.6904      0.2192     -2.4487     80.2584     24.0196
   789.9000      7.9425      2.6761      0.2231     -1.5796     76.1184     24.7458
   790.0000      7.9312      2.6588      0.1927     -0.5354     70.4391     25.6338
   790.1000      7.9312      2.6440      0.1184      0.3663     69.2350     26.1562
   790.2000      7.9312      2.6448      0.1273      0.3174     70.2761     26.0340
   790.3000      7.9817      2.6528      0.1766     -0.1718     68.0258     25.6014
   790.4000      7.9817      2.6503      0.1495     -0.0173     64.3564     25.4620
   790.5000      8.0216      2.6404      0.1261      0.5841     62.9957     25.5637
   790.6000      8.0216      2.6374      0.0510      0.7639     66.4418     25.6239
   790.7000      8.0216      2.6409      0.0814      0.5509     73.9529     25.6781
   790.8000      8.0353      2.6435      0.0608      0.3944     77.3912     25.6938
   790.9000      8.0353      2.6465      0.0716      0.2118     72.3693     25.5905
   791.0000      8.0383      2.6472      0.0616      0.1675     66.2702     25.5610
   791.1000      8.0383      2.6428      0.0195      0.4390     64.3049     25.7309
   791.2000      8.0383      2.6399      0.0351      0.6099     62.8604     25.9460
   791.3000      8.0309      2.6427      0.0393      0.4448     58.4515     25.9673
   791.4000      8.0309      2.6482      0.0623      0.1092     54.1896     25.5724
   791.5000      8.0246      2.6577      0.0570     -0.4661     56.1311     24.9896
