~Version Information
VERS.                      2.0: CWLS Log ASCII Standard - VERSION 2.0
WRAP.                       NO: One line per depth step
~Well Information Block
STRT.FT               720.0000: 
STOP.FT              2265.7000: 
STEP.FT                 0.1000: 
NULL.                -999.2500: 
COMP.          Pioneer Natural Resources: COMPANY
WELL.          Casablanca 11-28 Tr: WELL
FLD.           Purgatoire River: FIELD
LOC.           422' FNL & 215' FWL----: LOCATION
PROV.                 Colorado: PROVINCE
CNTY.               Las Animas: COUNTRY
SRVC.                Patterson: SERVICE COMPANY
DATE.          Mon Mar 07 07:16:34 2005: LOG DATE
UWI.           05 071 08314 00: UNIQUE WELL ID
~Curve Information Block
DEPT.FT            0 000 00 00: Depth
DCAL.in                       : CDL Caliper
RHOB.g/cc                     : CDL Bulk Density
RHOC.g/cc                     : CDL Density Correction
DPOR.pu                       : CDL Density Porosity
NPOR.pu                       : Neutron Porosity
GR.GAPI                       : Gamma Ray
~Parameter Information Block
~A  Depth       DCAL        RHOB        RHOC        DPOR        NPOR         GR     
# ...
  1632.0000      8.1025      2.4459      0.0368     12.3720     23.8323    134.5260
  1632.1000      8.1025      2.4495      0.0774     12.1493     23.4294    136.2206
  1632.2000      8.1025      2.4812      0.0896     10.2323     23.3292    133.8146
  1632.3000      8.1125      2.5299      0.1857      7.2762     23.7248    131.4621
  1632.4000      8.1125      2.5694      0.2450      4.8866     24.5081    130.0967
  1632.5000      8.1009      2.5886      0.1683      3.7187     25.0313    128.9781
  1632.6000      8.1009      2.6019      0.1936      2.9133     25.2179    127.8852
  1632.7000      8.1009      2.6153      0.1520      2.1052     25.6913    127.2691
  1632.8000      8.0775      2.6133      0.1903      2.2253     26.8220    127.4333
  1632.9000      8.0775      2.5789      0.1104      4.3089     28.3043    128.6481
  1633.0000      8.0654      2.5170      0.0666      8.0577     29.6395    131.8091
  1633.1000      8.0654      2.4421     -0.0129     12.6022     30.4074    134.9148
  1633.2000      8.0654      2.3577     -0.0067     17.7182     30.4056    135.2698
  1633.3000      8.0634      2.2568     -0.0206     23.8300     29.8230    136.1729
  1633.4000      8.0634      2.1442     -0.0864     30.6541     28.9245    142.4359
  1633.5000      8.0664      2.0383     -0.1205     37.0713     27.5787    150.8656
  1633.6000      8.0664      1.9454     -0.1553     42.7041     25.1702    155.6348
  1633.7000      8.0664      1.8591     -0.1632     47.9323     21.5467    157.3514
  1633.8000      8.0744      1.7664     -0.1491     53.5524     17.6539    156.1651
  1633.9000      8.0744      1.6294     -0.1125     61.8561     14.1875    150.0243
  1634.0000      8.1013      1.4155     -0.1122     74.8173     11.3762    140.2423
  1634.1000      8.1013      1.1953     -0.2548     88.1623      9.4683    133.4290
  1634.2000      8.1013      1.1215     -0.1599     92.6359      8.6327    134.1591
  1634.3000      8.2140      1.2386      0.2400     85.5416      8.9411    137.5398
  1634.4000      8.2140      1.4382      0.4141     73.4431     10.1488    139.7010
  1634.5000      8.4678      1.6209      0.4797     62.3714     11.8811    140.8581
  1634.6000      8.4678      1.7660      0.5407     53.5787     14.1874    137.5370
  1634.7000      8.4678      1.8805      0.5753     46.6381     17.1446    130.3208
  1634.8000      8.7256      1.9737      0.5656     40.9893     20.2653    125.8314
  1634.9000      8.7256      2.0666      0.5087     35.3561     22.9143    126.4006
  1635.0000      8.7389      2.1785      0.5037     28.5743     24.6105    131.1350
  1635.1000      8.7389      2.2944      0.5162     21.5531     24.8907    136.1194
  1635.2000      8.7389      2.3747      0.5282     16.6841     23.8759    134.2697
  1635.3000      8.4639      2.3953      0.5301     15.4349     22.3590    127.8973
  1635.4000      8.4639      2.3641      0.4196     17.3259     21.1416    125.4573
  1635.5000      8.1485      2.3073      0.3317     20.7700     20.3892    129.4713
  1635.6000      8.1485      2.2410      0.2874     24.7876     19.6746    137.2726
  1635.7000      8.1485      2.1684      0.1675     29.1909     18.6745    143.9904
  1635.8000      7.9903      2.0865      0.1342     34.1534     17.3301    143.6494
  1635.9000      7.9903      1.9881      0.0884     40.1172     15.9605    139.3566
  1636.0000      7.9524      1.8913      0.0276     45.9802     15.2107    137.5999
  1636.1000      7.9524      1.8470     -0.0214     48.6675     15.2640    135.7257
  1636.2000      7.9524      1.8899      0.1169     46.0670     15.8720    133.5377
  1636.3000      8.0299      2.0134      0.2290     38.5809     16.6602    134.4943
  1636.4000      8.0299      2.1808      0.3810     28.4346     17.4447    136.2332
  1636.5000      8.2859      2.3252      0.5831     19.6825     18.2325    136.5713
  1636.6000      8.2859      2.3847      0.5734     16.0768     18.8610    135.9051
  1636.7000      8.2859      2.3542      0.4938     17.9288     19.1370    134.6910
  1636.8000      8.6022      2.2651      0.4235     23.3248     19.2910    134.9225
  1636.9000      8.6022      2.1647      0.2546     29.4119     19.6073    137.0291
  1637.0000      8.7640      2.1210      0.1479     32.0620     19.9541    138.4525
  1637.1000      8.7640      2.1636      0.2796     29.4760     20.1179    139.7690
  1637.2000      8.7640      2.2326      0.4107     25.2976     20.0044    139.6609
  1637.3000      8.7232      2.2536      0.4012     24.0241     19.5317    134.5855
  1637.4000      8.7232      2.2343      0.2963     25.1954     18.7770    129.8484
  1637.5000      8.6099      2.2330      0.2987     25.2740     18.0734    131.6096
  1637.6000      8.6099      2.2664      0.3646     23.2470     17.6511    136.2693
  1637.7000      8.6099      2.3003      0.3927     21.1917     17.4686    137.8557
  1637.8000      8.5435      2.3132      0.3241     20.4131     17.4080    136.1348
  1637.9000      8.5435      2.3221      0.2811     19.8727     17.4596    133.1206
  1638.0000      8.4941      2.3491      0.2920     18.2375     17.4654    129.5921
  1638.1000      8.4941      2.3955      0.3373     15.4240     17.3987    128.7984
  1638.2000      8.4941      2.4482      0.3986     12.2321     17.6178    133.0109
  1638.3000      8.3690      2.4887      0.4074      9.7742     18.0650    137.1480
  1638.4000      8.3690      2.4988      0.3794      9.1637     18.5216    137.6723
  1638.5000      8.1925      2.4763      0.3094     10.5268     18.9940    136.1261
  1638.6000      8.1925      2.4579      0.1822     11.6449     19.5458    132.2997
  1638.7000      8.1925      2.4891      0.2574      9.7494     20.4662    128.6182
  1638.8000      8.0807      2.5627      0.3985      5.2932     21.6463    130.4512
  1638.9000      8.0807      2.6309      0.4159      1.1593     22.7165    135.0461
  1639.0000      8.0427      2.6655      0.3785     -0.9398     23.6742    136.4182
  1639.1000      8.0427      2.6684      0.3067     -1.1136     24.4746    133.8225
  1639.2000      8.0427      2.6487      0.2611      0.0780     25.0521    131.6251
  1639.3000      8.0281      2.6138      0.1984      2.1959     25.5228    135.6390
  1639.4000      8.0281      2.5741      0.0920      4.6002     25.6913    139.9405
  1639.5000      8.0166      2.5470      0.0332      6.2434     25.4009    135.6190
  1639.6000      8.0166      2.5419      0.0957      6.5492     25.1736    128.8648
  1639.7000      8.0166      2.5493      0.0806      6.1018     25.0134    128.3040
  1639.8000      8.0086      2.5550      0.0742      5.7603     24.2970    130.7324
  1639.9000      8.0086      2.5499      0.0532      6.0696     23.3105    128.9764
  1640.0000      8.0046      2.5343      0.0385      7.0111     22.8053    124.1002
  1640.1000      8.0046      2.5216      0.0300      7.7795     22.7547    121.0190
  1640.2000      8.0046      2.5202      0.0557      7.8646     22.7056    120.1116
  1640.3000      8.0051      2.5165      0.0335      8.0916     22.5176    119.9350
  1640.4000      8.0051      2.5010      0.0057      9.0296     22.2652    119.9408
  1640.5000      8.0069      2.4880      0.0390      9.8206     22.0631    118.8864
  1640.6000      8.0069      2.4879      0.0222      9.8243     22.0598    117.7566
  1640.7000      8.0069      2.4913      0.0408      9.6209     22.1848    118.1882
  1640.8000      8.0057      2.4919      0.0044      9.5792     22.2610    117.4885
  1640.9000      8.0057      2.5000      0.0007      9.0906     22.0635    115.5209
  1641.0000      8.0053      2.5143      0.0636      8.2232     21.3765    115.9356
  1641.1000      8.0053      2.5198      0.0556      7.8937     20.5114    118.4099
  1641.2000      8.0053      2.5126      0.0322      8.3260     20.2687    121.1756
  1641.3000      8.0078      2.4992      0.0469      9.1394     20.8735    121.6393
  1641.4000      8.0078      2.4912     -0.0378      9.6217     21.6213    116.1001
  1641.5000      8.0091      2.4965     -0.0050      9.3008     22.0046    106.7681
