~Version Information
VERS.                      2.0: CWLS Log ASCII Standard - VERSION 2.0
WRAP.                       NO: One line per depth step
~Well Information Block
STRT.FT               430.0000: 
STOP.FT              2417.0000: 
STEP.FT                 0.2500: 
NULL.                -999.2500: 
COMP.          Evergreen Operating Corporation: COMPANY
WELL.          McCullough 34-32: WELL
FLD.           Purgatorie River: FIELD
LOC.           261' FSL & 2098' FEL: LOCATION
PROV.                 Colorado: PROVINCE
CNTY.               Las Animas: COUNTRY
SRVC.                Patterson: SERVICE COMPANY
DATE.          Sun May 16 02:33:07 2004: LOG DATE
UWI.           05 071 07953 00: UNIQUE WELL ID
~Curve Information Block
DEPT.FT            0 000 00 00: Depth
SN.Ohm-m                      : IEL Short Normal
SP.mV                         : IEL Spontaneous Potential
DIR.Ohm-m                     : IEL Induction Resistivity
GR.GAPI                       : Gamma Ray
~Parameter Information Block
~A  Depth        SN          SP         DIR          GR     
# ...
  1870.5000     12.6164    137.4890      9.9903    136.5813
  1870.7500     12.1843    137.6611      9.4633    138.1933
  1871.0000     11.7642    137.8287      9.0228    137.4978
  1871.2500     11.4242    137.9987      8.6589    135.4456
  1871.5000     11.2179    138.1679      8.3612    131.5448
  1871.7500     11.0718    138.3250      8.1198    129.3795
  1872.0000     10.8931    138.4585      7.9259    127.6305
  1872.2500     10.6617    138.5639      7.7725    127.3633
  1872.5000     10.4006    138.6448      7.6547    127.8240
  1872.7500     10.1461    138.7093      7.5677    128.5193
  1873.0000      9.9227    138.7664      7.5054    129.8542
  1873.2500      9.7300    138.8234      7.4598    130.6261
  1873.5000      9.5719    138.8839      7.4225    130.8983
  1873.7500      9.4835    138.9470      7.3878    130.1988
  1874.0000      9.5264    139.0089      7.3534    128.0034
  1874.2500      9.7397    139.0642      7.3198    126.2693
  1874.5000     10.0658    139.1077      7.2887    124.0615
  1874.7500     10.3425    139.1353      7.2620    122.9657
  1875.0000     10.4239    139.1414      7.2422    121.8503
  1875.2500     10.2932    139.1167      7.2316    121.7058
  1875.5000      9.9930    139.0523      7.2318    123.1850
  1875.7500      9.5472    138.9492      7.2418    125.5400
  1876.0000      8.9982    138.8259      7.2587    130.6272
  1876.2500      8.4166    138.7196      7.2770    134.3127
  1876.5000      7.8752    138.6780      7.2896    138.7760
  1876.7500      7.4683    138.7396      7.2880    140.4383
  1877.0000      7.3060    138.9111      7.2646    140.8569
  1877.2500      7.4238    139.1567      7.2155    140.1156
  1877.5000      7.7285    139.4123      7.1420    138.2162
  1877.7500      8.0953    139.6167      7.0503    136.7067
  1878.0000      8.4687    139.7437      6.9487    134.2838
  1878.2500      8.7897    139.8117      6.8450    132.5886
  1878.5000      8.9489    139.8650      6.7447    129.9133
  1878.7500      8.9238    139.9435      6.6517    128.1403
  1879.0000      8.8283    140.0646      6.5684    126.2740
  1879.2500      8.7808    140.2254      6.4968    126.2427
  1879.5000      8.8199    140.4126      6.4384    128.3758
  1879.7500      8.9214    140.6082      6.3942    130.5417
  1880.0000      9.0225    140.7928      6.3644    133.1132
  1880.2500      9.0499    140.9494      6.3490    133.9054
  1880.5000      8.9790    141.0691      6.3476    134.0958
  1880.7500      8.8675    141.1506      6.3594    133.8252
  1881.0000      8.7974    141.1938      6.3831    132.8008
  1881.2500      8.7965    141.1947      6.4176    131.8023
  1881.5000      8.8399    141.1450      6.4623    130.6641
  1881.7500      8.8991    141.0356      6.5187    130.5950
  1882.0000      8.9518    140.8624      6.5911    131.2014
  1882.2500      8.9437    140.6315      6.6858    131.3534
  1882.5000      8.7981    140.3597      6.8084    130.4093
  1882.7500      8.5080    140.0693      6.9619    129.2717
  1883.0000      8.1872    139.7810      7.1458    127.6287
  1883.2500      7.9768    139.5066      7.3595    126.4391
  1883.5000      7.9430    139.2434      7.6055    123.2707
  1883.7500      8.1164    138.9727      7.8904    119.8465
  1884.0000      8.5434    138.6691      8.2196    113.8559
  1884.2500      9.2431    138.3171      8.5916    110.6016
  1884.5000     10.1836    137.9298      8.9946    108.3525
  1884.7500     11.3280    137.5507      9.4128    108.4335
  1885.0000     12.6422    137.2295      9.8373    109.3272
  1885.2500     14.0324    136.9865     10.2753    109.5767
  1885.5000     15.3254    136.8001     10.7466    109.1034
  1885.7500     16.3706    136.6262     11.2723    108.6299
  1886.0000     17.1641    136.4265     11.8646    108.4681
  1886.2500     17.8387    136.1821     12.5253    108.7186
  1886.5000     18.5390    135.8925     13.2510    108.6647
  1886.7500     19.3400    135.5687     14.0407    107.6691
  1887.0000     20.2642    135.2328     14.9005    104.5132
  1887.2500     21.3225    134.9199     15.8443    101.8969
  1887.5000     22.5399    134.6741     16.8922     98.6706
  1887.7500     23.9684    134.5357     18.0664     97.3652
  1888.0000     25.6900    134.5258     19.3853     96.0191
  1888.2500     27.7693    134.6373     20.8583     94.9171
  1888.5000     30.1821    134.8309     22.4804     92.6917
  1888.7500     32.7973    135.0412     24.2282     91.0685
  1889.0000     35.4446    135.1995     26.0567     88.4913
  1889.2500     38.0732    135.2680     27.8975     86.3366
  1889.5000     40.8509    135.2535     29.6618     82.0233
  1889.7500     44.0248    135.1813     31.2540     78.6373
  1890.0000     47.6216    135.0634     32.5973     73.4730
  1890.2500     51.3207    134.9034     33.6620     70.1747
  1890.5000     54.6550    134.7272     34.4748     65.6867
  1890.7500     57.3011    134.5884     35.0983     63.3952
  1891.0000     59.1377    134.5327     35.5964     61.7381
  1891.2500     60.0218    134.5620     36.0028     61.8842
  1891.5000     59.6309    134.6384     36.3074     63.7376
  1891.7500     57.6764    134.7192     36.4597     66.1321
  1892.0000     54.2997    134.7884     36.3904     71.7803
  1892.2500     50.1841    134.8596     36.0450     76.7081
  1892.5000     46.1546    134.9556     35.4104     84.4652
  1892.7500     42.6865    135.0855     34.5167     88.8371
  1893.0000     39.8574    135.2338     33.4162     92.9774
  1893.2500     37.5758    135.3654     32.1631     94.0706
  1893.5000     35.7126    135.4398     30.8054     94.0919
  1893.7500     34.1523    135.4283     29.3900     93.6944
  1894.0000     32.8278    135.3273     27.9659     93.1452
  1894.2500     31.6896    135.1659     26.5824     92.9120
  1894.5000     30.6559    135.0034     25.2797     92.9344
  1894.7500     29.6233    134.9110     24.0808     93.3435
  1895.0000     28.5241    134.9373     22.9884     94.3870
  1895.2500     27.3686    135.0791     21.9906     95.0005
  1895.5000     26.2173    135.2860     21.0703     95.5146
  1895.7500     25.0877    135.4954     20.2111     95.9021
  1896.0000     23.9319    135.6674     19.3999     97.2399
  1896.2500     22.7333    135.7916     18.6249     98.6546
  1896.5000     21.5479    135.8704     17.8734    101.1721
  1896.7500     20.4402    135.9020     17.1332    103.1268
  1897.0000     19.4433    135.8772     16.3969    107.0322
  1897.2500     18.5594    135.7896     15.6667    110.5020
  1897.5000     17.7748    135.6462     14.9553    116.4900
  1897.7500     17.0822    135.4699     14.2819    120.2414
  1898.0000     16.4738    135.2917     13.6649    124.1367
  1898.2500     15.9146    135.1369     13.1154    125.1576
  1898.5000     15.3557    135.0142     12.6339    124.6594
  1898.7500     14.8070    134.9126     12.2120    123.6919
  1899.0000     14.3614    134.8084     11.8362    122.8238
  1899.2500     14.0664    134.6792     11.4938    123.3161
  1899.5000     13.8393    134.5182     11.1777    125.8585
  1899.7500     13.5910    134.3436     10.8883    128.2573
  1900.0000     13.3462    134.1969     10.6327    131.7437
  1900.2500     13.1901    134.1276     10.4203    133.6875
  1900.5000     13.1365    134.1649     10.2590    136.4485
  1900.7500     13.0846    134.2904     10.1525    138.6557
  1901.0000     12.9160    134.4422     10.0987    142.9919
  1901.2500     12.6307    134.5604     10.0913    146.4376
  1901.5000     12.3643    134.6320     10.1219    151.5172
  1901.7500     12.2535    134.6872     10.1845    154.0638
  1902.0000     12.3350    134.7578     10.2784    155.1906
  1902.2500     12.5720    134.8473     10.4075    153.4883
  1902.5000     12.9116    134.9330     10.5787    147.2120
  1902.7500     13.3155    134.9853     10.7994    141.4028
  1903.0000     13.7717    134.9870     11.0760    132.3297
  1903.2500     14.2873    134.9491     11.4102    126.8033
  1903.5000     14.8716    134.9077     11.7948    119.6764
  1903.7500     15.5366    134.8994     12.2116    115.9587
