~Version Information
VERS.                      2.0: CWLS Log ASCII Standard - VERSION 2.0
WRAP.                       NO: One line per depth step
~Well Information Block
STRT.FT               770.0000: 
STOP.FT              1997.7000: 
STEP.FT                 0.1000: 
NULL.                -999.2500: 
COMP.          Pioneer Natural Resources: COMPANY
WELL.          Titan Federal 34-17: WELL
FLD.           Purgatoire River: FIELD
LOC.           321' FSL & 1911' FEL--: LOCATION
STAT.                 Colorado: State
CNTY.               Las Animas: COUNTY
CTRY. USA : Country
SECT. 17 : Section
TOWN. 32S : Township
RANG. 65W : Range
SRVC.                Patterson: SERVICE COMPANY
DATE.          Thu Oct 06 15:09:27 2005: LOG DATE
API.           05 071 08272 00: UNIQUE WELL ID
~Curve Information Block
DEPT.FT            0 000 00 00: Depth
DCAL.in                       : CDL Caliper
RHOB.g/cc                     : CDL Bulk Density
RHOC.g/cc                     : CDL Density Correction
DPOR.pu                       : CDL Density Porosity
NPOR.pu                       : Neutron Porosity
GR.GAPI                       : Gamma Ray
~Parameter Information Block
~A  Depth       DCAL        RHOB        RHOC        DPOR        NPOR         GR     
# ...
  1566.8000      8.1195      2.6103      0.0249      2.4076     23.0930    112.2359
  1566.9000      8.1195      2.6013      0.0259      2.9530     23.1323    110.5025
  1567.0000      8.1190      2.5981      0.0300      3.1429     23.3706    111.8549
  1567.1000      8.1190      2.5966      0.0175      3.2373     23.4852    115.5041
  1567.2000      8.1190      2.5955      0.0418      3.3036     23.3521    117.1477
  1567.3000      8.1193      2.5915      0.0393      3.5451     23.3370    117.1842
  1567.4000      8.1193      2.5854     -0.0021      3.9171     23.5926    115.2004
  1567.5000      8.1187      2.5859      0.0023      3.8853     23.6651    110.9760
  1567.6000      8.1187      2.5939      0.0443      3.3974     23.2711    109.5038
  1567.7000      8.1187      2.6015      0.0098      2.9395     22.8283    113.3370
  1567.8000      8.1178      2.6037      0.0216      2.8068     22.6135    120.2307
  1567.9000      8.1178      2.5993      0.0344      3.0699     22.3649    126.3658
  1568.0000      8.1181      2.5935      0.0426      3.4268     22.2500    127.6540
  1568.1000      8.1181      2.5907      0.0158      3.5939     22.4314    125.2256
  1568.2000      8.1181      2.5812      0.0728      4.1709     22.4950    122.6330
  1568.3000      8.1169      2.5619     -0.0161      5.3367     22.5392    118.0560
  1568.4000      8.1169      2.5580      0.0041      5.5763     23.0020    113.4104
  1568.5000      8.1144      2.5734      0.0529      4.6410     23.4788    113.6402
  1568.6000      8.1144      2.5798      0.0383      4.2551     23.3464    114.8911
  1568.7000      8.1144      2.5674      0.0167      5.0085     22.7801    113.2913
  1568.8000      8.1151      2.5494      0.0103      6.0993     22.3629    112.7781
  1568.9000      8.1151      2.5365     -0.0173      6.8812     22.3900    115.5034
  1569.0000      8.1180      2.5375     -0.0015      6.8210     22.7469    118.5209
  1569.1000      8.1180      2.5549      0.0026      5.7646     22.9145    118.5453
  1569.2000      8.1180      2.5777      0.0188      4.3842     22.6272    114.7414
  1569.3000      8.1191      2.5947      0.0356      3.3537     22.5377    112.1391
  1569.4000      8.1191      2.6036      0.0224      2.8145     23.0398    112.7808
  1569.5000      8.1189      2.6062      0.0376      2.6566     23.7967    111.4649
  1569.6000      8.1189      2.6043      0.0474      2.7693     24.3722    105.9203
  1569.7000      8.1189      2.5939      0.0376      3.4020     24.2129    100.0233
  1569.8000      8.1191      2.5735      0.0032      4.6361     23.2767     97.6554
  1569.9000      8.1191      2.5517      0.0128      5.9596     22.5165    100.6010
  1570.0000      8.1208      2.5343     -0.0185      7.0136     22.6594    106.6528
  1570.1000      8.1208      2.5186     -0.0122      7.9623     23.3750    110.7625
  1570.2000      8.1208      2.5009      0.0046      9.0373     23.9596    110.6447
  1570.3000      8.1232      2.4922     -0.0790      9.5642     23.9576    108.2569
  1570.4000      8.1232      2.5058      0.0077      8.7411     23.4566    105.3420
  1570.5000      8.1275      2.5306      0.0175      7.2361     23.1196    101.8120
  1570.6000      8.1275      2.5447      0.0315      6.3826     23.3207    100.9250
  1570.7000      8.1275      2.5393      0.0014      6.7108     23.9237    104.4245
  1570.8000      8.1336      2.5246      0.0041      7.5985     24.7107    106.9752
  1570.9000      8.1336      2.5188      0.0104      7.9528     25.2443    104.4233
  1571.0000      8.1354      2.5308      0.0394      7.2248     25.2929    101.3372
  1571.1000      8.1354      2.5531      0.0636      5.8712     25.2378    104.9665
  1571.2000      8.1354      2.5638      0.0962      5.2213     25.1784    111.3199
  1571.3000      8.1335      2.5377      0.0656      6.8052     24.5930    112.3831
  1571.4000      8.1335      2.4665      0.0407     11.1194     23.3770    108.9424
  1571.5000      8.1328      2.3625     -0.0065     17.4235     22.0795    107.9345
  1571.6000      8.1328      2.2519     -0.0669     24.1293     20.9589    111.3521
  1571.7000      8.1328      2.1630     -0.0950     29.5170     19.9557    111.6502
  1571.8000      8.1333      2.0976     -0.0587     33.4795     18.9303    106.4941
  1571.9000      8.1333      2.0349     -0.0755     37.2762     17.5291    103.3022
  1572.0000      8.1454      1.9797     -0.1275     40.6264     15.8070    104.6610
  1572.1000      8.1454      1.9642     -0.0879     41.5632     14.2900    106.8331
  1572.2000      8.1454      1.9963      0.0143     39.6209     13.1884    106.1887
  1572.3000      8.1776      2.0516      0.0859     36.2663     12.4291    101.2884
  1572.4000      8.1776      2.1144      0.1191     32.4631     12.1254     96.3623
  1572.5000      8.2008      2.1784      0.2144     28.5831     12.1965     97.3980
  1572.6000      8.2008      2.2294      0.2364     25.4907     12.2747    102.1302
  1572.7000      8.2008      2.2649      0.1139     23.3410     12.4576    104.6975
  1572.8000      8.1890      2.2947      0.1198     21.5350     13.0819    105.6964
  1572.9000      8.1890      2.3185      0.0799     20.0930     13.9771    108.7770
  1573.0000      8.1778      2.3395      0.0263     18.8169     14.6278    112.6762
  1573.1000      8.1778      2.3640      0.0632     17.3340     14.7736    113.8723
  1573.2000      8.1778      2.3802      0.1005     16.3493     14.8439    115.9839
  1573.3000      8.1827      2.3798      0.0264     16.3731     15.2438    123.9465
  1573.4000      8.1827      2.3726      0.0344     16.8148     15.6672    131.1220
  1573.5000      8.1902      2.3645      0.0565     17.3044     15.7807    129.1418
  1573.6000      8.1902      2.3585      0.0406     17.6651     15.7835    122.8758
  1573.7000      8.1902      2.3598      0.0655     17.5857     15.6892    121.5590
  1573.8000      8.1936      2.3615      0.1143     17.4825     15.2663    125.2761
  1573.9000      8.1936      2.3530      0.0731     17.9970     14.7816    129.2986
  1574.0000      8.1941      2.3494      0.0110     18.2209     14.6973    130.5511
  1574.1000      8.1941      2.3812      0.0065     16.2880     15.0528    127.1738
  1574.2000      8.1941      2.4477      0.1469     12.2586     15.5353    121.9063
  1574.3000      8.2003      2.5110      0.1663      8.4246     15.9132    119.9128
  1574.4000      8.2003      2.5508      0.1483      6.0148     16.4493    121.1827
  1574.5000      8.2187      2.5793      0.1811      4.2872     17.6360    123.3170
  1574.6000      8.2187      2.6052      0.2143      2.7135     19.4912    125.3971
  1574.7000      8.2187      2.6243      0.2128      1.5592     21.4035    126.7106
  1574.8000      8.2167      2.6301      0.2159      1.2047     22.8470    127.1184
  1574.9000      8.2167      2.6224      0.1812      1.6737     23.6901    126.1826
  1575.0000      8.1597      2.6074      0.1157      2.5845     24.0903    122.9022
  1575.1000      8.1597      2.5875      0.0977      3.7869     24.3067    118.0785
  1575.2000      8.1597      2.5658      0.0498      5.1019     24.3128    113.4188
  1575.3000      8.0970      2.5512      0.0791      5.9896     23.9523    109.7974
  1575.4000      8.0970      2.5439      0.0384      6.4295     23.6123    108.7335
  1575.5000      8.0699      2.5336      0.0529      7.0517     24.0280    110.2255
  1575.6000      8.0699      2.5233      0.0006      7.6771     25.0625    113.9590
  1575.7000      8.0699      2.5319      0.0148      7.1577     25.7872    118.8030
  1575.8000      8.0630      2.5478      0.0824      6.1955     25.6324    121.8428
  1575.9000      8.0630      2.5435      0.0360      6.4567     24.8409    123.2661
  1576.0000      8.0604      2.5286     -0.0006      7.3570     24.3030    123.9089
  1576.1000      8.0604      2.5197      0.0434      7.8969     24.4379    124.3471
  1576.2000      8.0604      2.5180      0.0002      7.9984     24.7774    124.6091
  1576.3000      8.0602      2.5231      0.0396      7.6886     24.8457    123.1071
