~Version Information
VERS.                      2.0: CWLS Log ASCII Standard - VERSION 2.0
WRAP.                       NO: One line per depth step
~Well Information Block
STRT.FT               450.0000: 
STOP.FT              2756.0000: 
STEP.FT                 0.2500: 
NULL.                -999.2500: 
COMP.          Pioneer Natural Resources: COMPANY
WELL.             Squeal 11-26: WELL
FLD.           Purgatoire River: FIELD
LOC.           1186' FNL & 152' FWL: LOCATION
PROV.                 Colorado: PROVINCE
CNTY.               Las Animas: COUNTRY
SRVC.                Patterson: SERVICE COMPANY
DATE.          Wed Jun 15 02:22:08 2005: LOG DATE
UWI.           05 071 08404 00: UNIQUE WELL ID
~Curve Information Block
DEPT.FT            0 000 00 00: Depth
SN.Ohm-m                      : IEL Short Normal
SP.mV                         : IEL Spontaneous Potential
DIR.Ohm-m                     : IEL Induction Resistivity
GR.GAPI                       : Gamma Ray
~Parameter Information Block
~A  Depth        SN          SP         DIR          GR     
# ...
  1354.5000     18.1312    -94.4240     16.2960    107.9856
  1354.7500     17.6492    -94.3233     16.0733    112.6342
  1355.0000     17.2554    -94.2735     15.9486    121.4015
  1355.2500     17.0072    -94.2450     15.9075    126.5983
  1355.5000     17.0499    -94.2140     15.9204    131.8089
  1355.7500     17.3966    -94.1652     15.9512    133.7968
  1356.0000     17.7841    -94.0981     15.9648    135.8364
  1356.2500     17.9480    -94.0294     15.9342    136.9197
  1356.5000     17.9142    -93.9855     15.8494    137.5818
  1356.7500     17.8534    -93.9871     15.7248    136.9889
  1357.0000     17.8303    -94.0415     15.5952    134.9004
  1357.2500     17.8258    -94.1467     15.5014    133.4366
  1357.5000     17.8254    -94.2962     15.4750    132.3276
  1357.7500     17.8177    -94.4765     15.5316    132.6288
  1358.0000     17.7883    -94.6650     15.6728    134.2627
  1358.2500     17.7363    -94.8328     15.8931    135.3197
  1358.5000     17.7047    -94.9539     16.1867    134.9167
  1358.7500     17.7816    -95.0157     16.5510    132.5554
  1359.0000     18.0470    -95.0279     16.9855    126.1057
  1359.2500     18.5148    -95.0191     17.4877    120.7052
  1359.5000     19.1180    -95.0217     18.0533    112.5719
  1359.7500     19.8095    -95.0547     18.6791    107.8144
  1360.0000     20.6480    -95.1197     19.3589    102.3087
  1360.2500     21.6320    -95.2102     20.0683     99.8869
  1360.5000     22.5843    -95.3234     20.7508     98.2819
  1360.7500     23.3396    -95.4624     21.3274     98.5610
  1361.0000     23.8549    -95.6262     21.7307    100.5238
  1361.2500     24.1567    -95.7976     21.9365    102.2884
  1361.5000     24.3400    -95.9392     21.9597    104.5658
  1361.7500     24.5221    -96.0069     21.8291    105.3950
  1362.0000     24.7196    -95.9747     21.5743    105.0280
  1362.2500     24.8278    -95.8546     21.2354    103.4142
  1362.5000     24.7697    -95.6968     20.8727     99.1477
  1362.7500     24.5780    -95.5666     20.5574     96.1316
  1363.0000     24.2986    -95.5158     20.3459     94.4624
  1363.2500     23.9440    -95.5630     20.2581     96.7365
  1363.5000     23.5322    -95.6904     20.2738    105.2239
  1363.7500     23.1081    -95.8549     20.3431    112.7456
  1364.0000     22.7070    -96.0075     20.4046    123.3338
  1364.2500     22.2484    -96.1129     20.4060    128.3548
  1364.5000     21.5646    -96.1653     20.3228    131.6304
  1364.7500     20.5928    -96.1890     20.1679    131.0375
  1365.0000     19.5116    -96.2235     19.9859    126.9428
  1365.2500     18.7268    -96.3006     19.8327    122.9222
  1365.5000     18.6450    -96.4307     19.7498    116.4789
  1365.7500     19.3707    -96.6042     19.7468    112.5670
  1366.0000     20.6722    -96.8002     19.7987    107.6805
  1366.2500     22.2120    -96.9946     19.8605    104.9606
  1366.5000     23.6610    -97.1644     19.8912    101.4880
  1366.7500     24.6841    -97.2925     19.8729     99.7444
  1367.0000     25.1080    -97.3775     19.8093     98.7677
  1367.2500     25.0313    -97.4396     19.7096     99.7262
  1367.5000     24.6175    -97.5145     19.5724    104.0097
  1367.7500     23.9280    -97.6363     19.3855    108.4536
  1368.0000     23.0367    -97.8259     19.1385    115.9422
  1368.2500     22.1040    -98.0949     18.8375    120.4041
  1368.5000     21.1983    -98.4535     18.5078    125.3168
  1368.7500     20.2601    -98.9074     18.1815    127.5786
  1369.0000     19.3130    -99.4452     17.8806    130.3823
  1369.2500     18.5005   -100.0309     17.6089    132.1397
  1369.5000     17.9239   -100.6153     17.3577    134.0262
  1369.7500     17.5600   -101.1547     17.1178    134.1641
  1370.0000     17.3034   -101.6248     16.8913    132.3265
  1370.2500     17.0643   -102.0229     16.6937    130.1266
  1370.5000     16.8724   -102.3619     16.5482    126.3712
  1370.7500     16.8616   -102.6633     16.4761    124.0574
  1371.0000     17.1124   -102.9497     16.4917    121.6671
  1371.2500     17.5399   -103.2381     16.6030    121.1598
  1371.5000     17.9765   -103.5340     16.8157    121.6686
  1371.7500     18.3256   -103.8329     17.1330    121.9081
  1372.0000     18.6152   -104.1308     17.5518    120.4220
  1372.2500     18.9281   -104.4338     18.0579    117.9849
  1372.5000     19.3145   -104.7506     18.6254    113.1698
  1372.7500     19.8143   -105.0763     19.2231    109.9482
  1373.0000     20.5085   -105.3867     19.8253    105.8739
  1373.2500     21.4547   -105.6512     20.4193    103.7992
  1373.5000     22.5969   -105.8510     21.0055    101.4942
  1373.7500     23.8298   -105.9863     21.5931    100.1889
  1374.0000     25.1238   -106.0698     22.1963     97.9444
  1374.2500     26.4638   -106.1166     22.8371     96.0539
  1374.5000     27.7416   -106.1395     23.5459     92.6460
  1374.7500     28.8170   -106.1473     24.3489     90.1234
  1375.0000     29.6755   -106.1419     25.2440     86.4091
  1375.2500     30.4800   -106.1143     26.1844     84.3353
  1375.5000     31.4310   -106.0461     27.0861     82.0346
  1375.7500     32.6329   -105.9191     27.8643     80.6424
  1376.0000     34.0341   -105.7292     28.4721     77.6196
  1376.2500     35.4292   -105.4927     28.9108     74.6065
  1376.5000     36.6259   -105.2426     29.2010     69.0470
  1376.7500     37.5805   -105.0176     29.3384     65.3938
  1377.0000     38.2970   -104.8514     29.2752     61.2350
  1377.2500     38.7428   -104.7602     28.9472     59.6167
  1377.5000     38.8751   -104.7331     28.3258     58.5373
  1377.7500     38.6182   -104.7349     27.4485     58.4215
  1378.0000     37.8931   -104.7244     26.4015     59.3434
  1378.2500     36.6903   -104.6770     25.2811     61.2109
  1378.5000     35.0653   -104.5918     24.1695     66.8332
  1378.7500     33.1073   -104.4798     23.1322     72.6867
  1379.0000     30.9338   -104.3530     22.2185     84.0872
  1379.2500     28.6834   -104.2271     21.4540     92.5820
  1379.5000     26.4625   -104.1233     20.8298    104.7142
  1379.7500     24.3007   -104.0519     20.3041    111.3357
  1380.0000     22.2013   -103.9916     19.8216    117.8919
  1380.2500     20.2438   -103.8910     19.3386    119.8121
  1380.5000     18.6016   -103.6968     18.8387    119.4539
  1380.7500     17.4094   -103.3888     18.3283    117.6380
  1381.0000     16.6348   -102.9983     17.8251    113.5898
  1381.2500     16.0874   -102.5968     17.3517    110.2759
  1381.5000     15.5896   -102.2608     16.9356    104.1994
  1381.7500     15.2293   -102.0390     16.6059     99.4438
  1382.0000     15.3586   -101.9401     16.3861     92.3220
  1382.2500     16.2531   -101.9422     16.2902     88.4678
  1382.5000     17.7671   -102.0100     16.3256     84.7674
  1382.7500     19.3653   -102.1096     16.4957     83.4542
  1383.0000     20.5936   -102.2180     16.7938     82.2695
  1383.2500     21.4007   -102.3248     17.1915     81.5456
  1383.5000     21.9238   -102.4295     17.6329     80.2899
  1383.7500     22.2524   -102.5343     18.0450     79.4546
  1384.0000     22.4491   -102.6352     18.3618     78.5978
  1384.2500     22.5638   -102.7154     18.5478     78.4528
  1384.5000     22.6261   -102.7505     18.6047     78.7727
  1384.7500     22.6692   -102.7232     18.5612     79.0704
  1385.0000     22.7121   -102.6380     18.4536     79.2060
  1385.2500     22.7774   -102.5218     18.3087     79.1159
  1385.5000     22.9205   -102.4097     18.1376     79.4074
  1385.7500     23.1176   -102.3260     17.9403     80.5261
  1386.0000     23.2102   -102.2746     17.7171     84.5137
  1386.2500     23.1044   -102.2448     17.4739     88.8633
  1386.5000     22.8842   -102.2231     17.2216     97.3489
  1386.7500     22.6053   -102.2007     16.9708    103.6469
  1387.0000     22.1458   -102.1726     16.7302    112.9653
  1387.2500     21.4073   -102.1336     16.5076    118.7976
  1387.5000     20.5008   -102.0774     16.3082    127.0937
  1387.7500     19.6219   -101.9990     16.1314    132.4268
