~Version Information
VERS.                      2.0: CWLS Log ASCII Standard - VERSION 2.0
WRAP.                       NO: One line per depth step
~Well Information Block
STRT.FT                -7.5000: 
STOP.FT              1545.0000: 
STEP.FT                 0.2500: 
NULL.                -999.2500: 
COMP.          Pioneer Natural Resources: COMPANY
WELL.          Kristin 22-23 Tr: WELL
FLD.           Purgatorie River: FIELD
LOC.           2273' FNL & 2029' FWL--: LOCATION
PROV.                       CO: PROVINCE
CNTY.               Las Animas: COUNTRY
SRVC.                         : SERVICE COMPANY
DATE.          Tue Jan 25 11:16:36 2005: LOG DATE
UWI.           071-08259      : UNIQUE WELL ID
~Curve Information Block
DEPT.FT            0 000 00 00: Depth
CCL.                          : Casing Collar Locator
TT3.usec                      : CBL 3' Travel Time
AMP3.mV                       : CBL 3' Amplitude
GR.GAPI                       : Gamma Ray
~Parameter Information Block
~A  Depth       CCL         TT3         AMP3         GR     
# ...
   193.5000      0.0000    769.2763      4.8955     95.0425
   193.7500      0.0000    769.7053      4.9941     93.3496
   194.0000      0.0000    766.8629      5.0983     93.0112
   194.2500      0.0000    762.1287      5.2035     93.3836
   194.5000      0.0000    756.8506      5.3156     94.4901
   194.7500      0.0000    752.1335      5.4479     97.2052
   195.0000      0.0000    748.7614      5.6073    101.6776
   195.2500      0.0000    746.9384      5.7864    106.4064
   195.5000      0.0000    746.3085      5.9672    109.3400
   195.7500      0.0000    746.4090      6.1297    109.4665
   196.0000      0.0000    747.1238      6.2553    107.3352
   196.2500      0.0000    748.6714      6.3313    104.5563
   196.5000      0.0000    751.0401      6.3572    102.7490
   196.7500      0.0000    753.4066      6.3468    102.5405
   197.0000      0.0000    754.4138      6.3216    103.5178
   197.2500      0.0000    753.3469      6.2989    105.0033
   197.5000      0.0000    750.8614      6.2857    106.4181
   197.7500      0.0000    748.3136      6.2796    106.8767
   198.0000      0.0000    746.5889      6.2770    105.2189
   198.2500      0.0000    745.7460      6.2798    101.0612
   198.5000      0.0000    745.4617      6.2952     95.4639
   198.7500      0.0000    745.4701      6.3306     90.0209
   199.0000      0.0000    745.6469      6.3906     85.6193
   199.2500      0.0000    745.9146      6.4748     82.5626
   199.5000      0.0000    746.1625      6.5744     81.3184
   199.7500      0.0000    746.2325      6.6720     82.2647
   200.0000      0.0000    745.9987      6.7469     84.8749
   200.2500      0.0000    745.4769      6.7867     87.8798
   200.5000      0.0000    744.8365      6.7943     90.3241
   200.7500      0.0000    744.2864      6.7856     92.0179
   201.0000      0.0000    743.9648      6.7816     92.9076
   201.2500      0.0000    743.9172      6.8002     92.6580
   201.5000      0.0000    744.1100      6.8480     91.1962
   201.7500      0.0000    744.4412      6.9182     89.1166
   202.0000      0.0000    744.7734      6.9961     87.2210
   202.2500      0.0000    744.9965      7.0661     85.9603
   202.5000      0.0000    745.0660      7.1168     85.3110
   202.7500      0.0000    744.9861      7.1450     84.9227
   203.0000      0.0000    744.7814      7.1569     84.5635
   203.2500      0.0000    744.4982      7.1653     84.6595
   203.5000      0.0000    744.1841      7.1825     86.1385
   203.7500      0.0000    743.7953      7.2153     89.4799
   204.0000      0.0000    743.0858      7.2639     93.8583
   204.2500      0.0000    741.7053      7.3221     97.1836
   204.5000      0.0000    739.6366      7.3796     97.2060
   204.7500      0.0000    737.5930      7.4238     93.1561
   205.0000      0.0000    736.6901      7.4414     86.6895
   205.2500      0.0000    737.4651      7.4254     81.0839
   205.5000      0.0000    739.3637      7.3795     79.0094
   205.7500      0.0000    741.3783      7.3095     80.6807
   206.0000      0.0000    743.0042      7.2075     84.0831
   206.2500      0.0000    744.4751      7.0592     87.0483
   206.5000      0.0000    746.2602      6.8756     89.1569
   206.7500      0.0000    748.4293      6.7036     91.5092
   207.0000      0.0000    750.5711      6.5820     94.8741
   207.2500      0.0000    752.5453      6.4996     98.6756
   207.5000      0.0000    755.1602      6.4194    101.8370
   207.7500      0.0000    759.4457      6.3278    103.8068
   208.0000      0.0000    765.1063      6.2344    104.4606
   208.2500      0.0000    770.2330      6.1390    103.7507
   208.5000     -2.0000    772.7449      6.0280    101.9083
   208.7500     -2.0000    772.0451      5.9000     99.5516
   209.0000      0.0000    769.2690      5.7902     97.2974
   209.2500      0.0000    765.7757      5.7696     95.5313
   209.5000      0.0000    761.6626      5.8978     94.5654
   209.7500      0.0000    756.4309      6.1528     94.5499
   210.0000      0.0000    750.7443      6.4278     95.1731
   210.2500      0.0000    746.4907      6.6283     95.8765
   210.5000      0.0000    745.2091      6.7522     96.4218
   210.7500      0.0000    747.2104      6.8506     96.8361
   211.0000      0.0000    751.8146      6.9498     96.8272
   211.2500      0.0000    757.4533      7.0415     95.6396
   211.5000      0.0000    761.7440      7.1209     92.6126
   211.7500      0.0000    762.5460      7.1992     87.7381
   212.0000      0.0000    759.2952      7.2862     81.5734
   212.2500      0.0000    752.8847      7.3779     74.6649
   212.5000      0.0000    744.3964      7.4646     67.2294
   212.7500      0.0000    734.6846      7.5430     59.5222
   213.0000      0.0000    725.1036      7.6144     52.5063
   213.2500      0.0000    717.7139      7.6708     47.9700
   213.5000      0.0000    714.2676      7.6926     47.6165
   213.7500      0.0000    715.1449      7.6658     51.8672
   214.0000      0.0000    719.3124      7.5942     59.6765
   214.2500      0.0000    725.1306      7.4933     69.4378
   214.5000      0.0000    731.1865      7.3793     79.7291
   214.7500      0.0000    736.5504      7.2637     89.1391
   215.0000      0.0000    740.6308      7.1532     95.9202
   215.2500      0.0000    743.1871      7.0526     98.5786
   215.5000      0.0000    744.4641      6.9679     97.1172
   215.7500      0.0000    745.0521      6.9048     93.3958
   216.0000      0.0000    745.5047      6.8601     89.9686
   216.2500      0.0000    746.0726      6.8234     88.5768
   216.5000      0.0000    746.7103      6.7889     89.4515
   216.7500      0.0000    747.2588      6.7644     91.4065
   217.0000      0.0000    747.6119      6.7660     92.5284
   217.2500      0.0000    747.7664      6.8064     91.4772
   217.5000      0.0000    747.7812      6.8844     88.6808
   217.7500      0.0000    747.7433      6.9834     86.2049
   218.0000      0.0000    747.7346      7.0792     86.2602
   218.2500      0.0000    747.7802      7.1506     89.7248
   218.5000      0.0000    747.8270      7.1878     95.6763
   218.7500      0.0000    747.8044      7.1959    101.8616
   219.0000      0.0000    747.7007      7.1911    105.8548
   219.2500      0.0000    747.5505      7.1854    106.5322
   219.5000      0.0000    747.3788      7.1752    104.6057
   219.7500      0.0000    747.2125      7.1428    101.4332
   220.0000      0.0000    747.1221      7.0745     97.5688
   220.2500      0.0000    747.1779      6.9756     92.8906
   220.5000      0.0000    747.3577      6.8665     87.7579
   220.7500      0.0000    747.5301      6.7638     83.3775
   221.0000      0.0000    747.5407      6.6700     81.1537
   221.2500      0.0000    747.3514      6.5815     82.0069
   221.5000      0.0000    747.1432      6.5035     86.0992
   221.7500      0.0000    747.2238      6.4533     92.7231
   222.0000      0.0000    747.7194      6.4470    100.4737
   222.2500      0.0000    748.3666      6.4825    107.8974
   222.5000      0.0000    748.6992      6.5397    114.0534
   222.7500      0.0000    748.4488      6.5970    118.3171
   223.0000      0.0000    747.7672      6.6401    119.8529
   223.2500      0.0000    747.1981      6.6555    117.7817
   223.5000      0.0000    747.6302      6.6286    112.1389
   223.7500      0.0000    750.2156      6.5539    104.4898
   224.0000      0.0000    755.8906      6.4440     97.2879
   224.2500      0.0000    764.4685      6.3280     92.6297
   224.5000      0.0000    774.1187      6.2391     91.6632
   224.7500      0.0000    782.0811      6.1973     94.6203
   225.0000      0.0000    786.1331      6.1982    100.7823
   225.2500      0.0000    785.4465      6.2203    108.4509
   225.5000      0.0000    780.4462      6.2443    115.4794
   225.7500      0.0000    772.4653      6.2623    120.2306
   226.0000      0.0000    763.5703      6.2700    122.2806
   226.2500      0.0000    756.0438      6.2606    122.2813
   226.5000      0.0000    751.5029      6.2326    121.1784
   226.7500      0.0000    750.3541      6.1981    119.5573
