~Version Information
VERS.                      2.0: CWLS Log ASCII Standard - VERSION 2.0
WRAP.                       NO: One line per depth step
~Well Information Block
STRT.FT               450.0000: 
STOP.FT              2756.0000: 
STEP.FT                 0.2500: 
NULL.                -999.2500: 
COMP.          Pioneer Natural Resources: COMPANY
WELL.             Squeal 11-26: WELL
FLD.           Purgatoire River: FIELD
LOC.           1186' FNL & 152' FWL: LOCATION
PROV.                 Colorado: PROVINCE
CNTY.               Las Animas: COUNTRY
SRVC.                Patterson: SERVICE COMPANY
DATE.          Wed Jun 15 02:22:08 2005: LOG DATE
UWI.           05 071 08404 00: UNIQUE WELL ID
~Curve Information Block
DEPT.FT            0 000 00 00: Depth
SN.Ohm-m                      : IEL Short Normal
SP.mV                         : IEL Spontaneous Potential
DIR.Ohm-m                     : IEL Induction Resistivity
GR.GAPI                       : Gamma Ray
~Parameter Information Block
~A  Depth        SN          SP         DIR          GR     
# ...
  1823.5000     13.7095    -55.1072     13.2118    163.4996
  1823.7500     12.1399    -55.3955     12.4704    163.9808
  1824.0000     11.0653    -55.7359     11.7914    162.5748
  1824.2500     10.5522    -56.0878     11.1922    161.4383
  1824.5000     10.5037    -56.4021     10.6788    160.9963
  1824.7500     10.8041    -56.6422     10.2520    162.1875
  1825.0000     11.3231    -56.8005      9.9134    166.4658
  1825.2500     11.8316    -56.8980      9.6656    170.3670
  1825.5000     12.1070    -56.9669      9.5069    175.9581
  1825.7500     12.0927    -57.0273      9.4263    178.6072
  1826.0000     11.8769    -57.0724      9.4027    180.1807
  1826.2500     11.5899    -57.0740      9.4105    179.5204
  1826.5000     11.3045    -57.0022      9.4280    176.3192
  1826.7500     10.9518    -56.8476      9.4450    173.1875
  1827.0000     10.4573    -56.6271      9.4664    167.5666
  1827.2500      9.9239    -56.3740      9.5089    163.1149
  1827.5000      9.5683    -56.1196      9.5947    155.4082
  1827.7500      9.6174    -55.8814      9.7420    150.4444
  1828.0000     10.2416    -55.6609      9.9592    145.7399
  1828.2500     11.4123    -55.4492     10.2428    145.2940
  1828.5000     12.8863    -55.2352     10.5792    147.8046
  1828.7500     14.3551    -55.0110     10.9494    150.1391
  1829.0000     15.5011    -54.7699     11.3324    152.0871
  1829.2500     16.0683    -54.5039     11.7084    151.3620
  1829.5000     16.0066    -54.2084     12.0612    146.5967
  1829.7500     15.4858    -53.8922     12.3796    141.2035
  1830.0000     14.7989    -53.5752     12.6587    131.2764
  1830.2500     14.2601    -53.2712     12.9021    124.7887
  1830.5000     14.1482    -52.9792     13.1234    117.4810
  1830.7500     14.6075    -52.6953     13.3430    114.8319
  1831.0000     15.4975    -52.4307     13.5795    113.6746
  1831.2500     16.4485    -52.2110     13.8422    114.0210
  1831.5000     17.1609    -52.0558     14.1305    115.2303
  1831.7500     17.6211    -51.9602     14.4386    116.2932
  1832.0000     17.9913    -51.8947     14.7596    118.1269
  1832.2500     18.3818    -51.8216     15.0854    119.2721
  1832.5000     18.7801    -51.7137     15.4055    120.1096
  1832.7500     19.1209    -51.5672     15.7090    119.6006
  1833.0000     19.3682    -51.4024     15.9898    116.9545
  1833.2500     19.5439    -51.2524     16.2499    114.3761
  1833.5000     19.7379    -51.1455     16.4976    110.9224
  1833.7500     20.1082    -51.0917     16.7439    109.8008
  1834.0000     20.7658    -51.0809     16.9989    110.3433
  1834.2500     21.6179    -51.0886     17.2669    111.7518
  1834.5000     22.4221    -51.0845     17.5377    114.0881
  1834.7500     22.9847    -51.0420     17.7816    115.0361
  1835.0000     23.2286    -50.9457     17.9599    114.9766
  1835.2500     23.1530    -50.7978     18.0474    114.2926
  1835.5000     22.8118    -50.6185     18.0481    113.6955
  1835.7500     22.3017    -50.4405     17.9904    114.2917
  1836.0000     21.7533    -50.2973     17.9064    117.0483
  1836.2500     21.2807    -50.2118     17.8153    120.0140
  1836.5000     20.8973    -50.1932     17.7213    125.8018
  1836.7500     20.5325    -50.2438     17.6204    130.0875
  1837.0000     20.1244    -50.3644     17.5062    135.6901
  1837.2500     19.6572    -50.5467     17.3668    138.0896
  1837.5000     19.1557    -50.7622     17.1812    139.4503
  1837.7500     18.6853    -50.9668     16.9231    139.1726
  1838.0000     18.2921    -51.1255     16.5758    137.1725
  1838.2500     17.9012    -51.2339     16.1466    134.7860
  1838.5000     17.3445    -51.3178     15.6682    130.6240
  1838.7500     16.5701    -51.4115     15.1819    128.6452
  1839.0000     15.7499    -51.5361     14.7196    128.3670
  1839.2500     15.1220    -51.6911     14.2928    129.8634
  1839.5000     14.7774    -51.8633     13.8972    133.2072
  1839.7500     14.5748    -52.0412     13.5245    135.3815
  1840.0000     14.2554    -52.2229     13.1743    138.3599
  1840.2500     13.7079    -52.4123     12.8552    140.6589
  1840.5000     13.0746    -52.6091     12.5756    145.3186
  1840.7500     12.5840    -52.8027     12.3325    149.0483
  1841.0000     12.3407    -52.9752     12.1091    154.5565
  1841.2500     12.2593    -53.1125     11.8851    157.6752
  1841.5000     12.2058    -53.2137     11.6506    161.0365
  1841.7500     12.1043    -53.2958     11.4117    162.1843
  1842.0000     11.8802    -53.3869     11.1861    162.1049
  1842.2500     11.5550    -53.5116     10.9909    160.9691
  1842.5000     11.2937    -53.6754     10.8342    158.1297
  1842.7500     11.1813    -53.8600     10.7133    155.8610
  1843.0000     11.1714    -54.0336     10.6186    152.6536
  1843.2500     11.2214    -54.1693     10.5414    151.0862
  1843.5000     11.3032    -54.2557     10.4780    150.1586
  1843.7500     11.3692    -54.2973     10.4295    150.5432
  1844.0000     11.3379    -54.3117     10.3976    152.1178
  1844.2500     11.1418    -54.3270     10.3813    153.4713
  1844.5000     10.8336    -54.3773     10.3781    155.8836
  1844.7500     10.5459    -54.4912     10.3881    157.8873
  1845.0000     10.3620    -54.6776     10.4153    161.0659
  1845.2500     10.3056    -54.9199     10.4650    162.5128
  1845.5000     10.3275    -55.1811     10.5392    162.4080
  1845.7500     10.3289    -55.4167     10.6335    160.7631
  1846.0000     10.3431    -55.5874     10.7391    156.9116
  1846.2500     10.5008    -55.6695     10.8476    154.0054
  1846.5000     10.7802    -55.6575     10.9568    149.5201
  1846.7500     11.0254    -55.5596     11.0723    146.5771
  1847.0000     11.1746    -55.3908     11.2041    142.8269
  1847.2500     11.3432    -55.1699     11.3595    141.0987
  1847.5000     11.6941    -54.9195     11.5380    139.5014
  1847.7500     12.2353    -54.6635     11.7327    138.6766
  1848.0000     12.7744    -54.4174     11.9353    137.3015
  1848.2500     13.1380    -54.1835     12.1401    136.3474
  1848.5000     13.2944    -53.9547     12.3451    135.3468
  1848.7500     13.1996    -53.7255     12.5536    135.3188
  1849.0000     12.8424    -53.4986     12.7773    136.6863
  1849.2500     12.4591    -53.2840     13.0377    138.5824
  1849.5000     12.4151    -53.0951     13.3583    142.5223
  1849.7500     12.9011    -52.9445     13.7522    145.5124
  1850.0000     13.8204    -52.8411     14.2134    149.9361
  1850.2500     14.8920    -52.7874     14.7176    152.4740
  1850.5000     15.8606    -52.7785     15.2322    154.6506
  1850.7500     16.6410    -52.8028     15.7291    154.1748
  1851.0000     17.2543    -52.8435     16.1964    149.3506
  1851.2500     17.7330    -52.8819     16.6405    143.2748
  1851.5000     18.1428    -52.9062     17.0740    130.9806
  1851.7500     18.5836    -52.9164     17.4986    121.9461
  1852.0000     19.1722    -52.9216     17.8988    109.8109
  1852.2500     20.0323    -52.9309     18.2554    103.8811
  1852.5000     21.1802    -52.9506     18.5721     98.5221
  1852.7500     22.4441    -52.9857     18.8844     96.3931
  1853.0000     23.5459    -53.0423     19.2426     93.2843
  1853.2500     24.2791    -53.1282     19.6788     90.5186
  1853.5000     24.6361    -53.2525     20.1859     85.1903
  1853.7500     24.7330    -53.4210     20.7238     81.1766
  1854.0000     24.7066    -53.6292     21.2451     75.2144
  1854.2500     24.7039    -53.8618     21.7164     71.6946
  1854.5000     24.7448    -54.1004     22.1157     67.6418
  1854.7500     24.7011    -54.3309     22.4163     65.9193
  1855.0000     24.5523    -54.5429     22.5857     64.7905
  1855.2500     24.4033    -54.7276     22.6053     64.8811
  1855.5000     24.2763    -54.8788     22.4898     65.8932
  1855.7500     24.1072    -54.9949     22.2799     66.8206
  1856.0000     23.8534    -55.0783     22.0207     68.0335
  1856.2500     23.5439    -55.1347     21.7475     68.6031
  1856.5000     23.2633    -55.1718     21.4875     69.3580
  1856.7500     23.0578    -55.1968     21.2637     70.0084
