~Version Information
VERS.                      2.0: CWLS Log ASCII Standard - VERSION 2.0
WRAP.                       NO: One line per depth step
~Well Information Block
STRT.FT                 0.6000: 
STOP.FT              2735.2000: 
STEP.FT                 0.1000: 
NULL.                -999.2500: 
COMP.          Pioneer Natural Resources: COMPANY
WELL.              Cluck 21-25: WELL
FLD.           Purgatoire River: FIELD
LOC.           91' FNL & 1834' FWL--: LOCATION
PROV.                 Colorado: PROVINCE
CNTY.               Las Animas: COUNTRY
SRVC.                Patterson: SERVICE COMPANY
DATE.          Mon Jun 06 19:08:34 2005: LOG DATE
UWI.           05 071 08397 00: UNIQUE WELL ID
~Curve Information Block
DEPT.FT            0 000 00 00: Depth
SN.Ohm-m                      : IEL Short Normal
SP.mV                         : IEL Spontaneous Potential
DIR.Ohm-m                     : IEL Induction Resistivity
GR.GAPI                       : Gamma Ray
~Parameter Information Block
~A  Depth        SN          SP         DIR          GR     
# ...
   389.2000   2000.0000   1981.0000      0.8646     81.0959
   389.3000   2000.0000   1981.0000      0.8682     80.1667
   389.4000   2000.0000   1981.0000      0.8682     79.2044
   389.5000   2000.0000   1981.0000      0.8691     78.2371
   389.6000   2000.0000   1981.0000      0.8691     77.3001
   389.7000   2000.0000   1981.0000      0.8691     76.4428
   389.8000   2000.0000   1981.0000      0.8689     75.7171
   389.9000   2000.0000   1981.0000      0.8689     75.1833
   390.0000   2000.0000   1981.0000      0.8694     74.9021
   390.1000   2000.0000   1981.0000      0.8694     74.9272
   390.2000   2000.0000   1981.0000      0.8694     75.2988
   390.3000   2000.0000   1981.0000      0.8713     76.0367
   390.4000   2000.0000   1981.0000      0.8713     77.1348
   390.5000   2000.0000   1981.0000      0.8746     78.5627
   390.6000   2000.0000   1981.0000      0.8746     80.2613
   390.7000   2000.0000   1981.0000      0.8746     82.1558
   390.8000   2000.0000   1981.0000      0.8794     84.1616
   390.9000   2000.0000   1981.0000      0.8794     86.1942
   391.0000   2000.0000   1981.0000      0.8856     88.1801
   391.1000   2000.0000   1981.0000      0.8856     90.0701
   391.2000   2000.0000   1981.0000      0.8856     91.8373
   391.3000   2000.0000   1981.0000      0.8926     93.4843
   391.4000   2000.0000   1981.0000      0.8926     95.0392
   391.5000   2000.0000   1981.0000      0.8984     96.5484
   391.6000   2000.0000   1981.0000      0.8984     98.0695
   391.7000   2000.0000   1981.0000      0.8984     99.6602
   391.8000   2000.0000   1981.0000      0.9009    101.3669
   391.9000   2000.0000   1981.0000      0.9009    103.2154
   392.0000   2000.0000   1981.0000      0.8982    105.2050
   392.1000   2000.0000   1981.0000      0.8982    107.3002
   392.2000   2000.0000   1981.0000      0.8982    109.4351
   392.3000   2000.0000   1981.0000      0.8895    111.5149
   392.4000   2000.0000   1981.0000      0.8895    113.4256
   392.5000   2000.0000   1981.0000      0.8744    115.0465
   392.6000   2000.0000   1981.0000      0.8744    116.2633
   392.7000   2000.0000   1981.0000      0.8744    116.9826
   392.8000   2000.0000   1981.0000      0.8533    117.1400
   392.9000   2000.0000   1981.0000      0.8533    116.7056
   393.0000   2000.0000   1981.0000      0.8277    115.6857
   393.1000   2000.0000   1981.0000      0.8277    114.1161
   393.2000   2000.0000   1981.0000      0.8277    112.0570
   393.3000   2000.0000   1981.0000      0.7995    109.5816
   393.4000   2000.0000   1981.0000      0.7995    106.7700
   393.5000   2000.0000   1981.0000      0.7710    103.7007
   393.6000   2000.0000   1981.0000      0.7710    100.4494
   393.7000   2000.0000   1981.0000      0.7710     97.0857
   393.8000   2000.0000   1981.0000      0.7437     93.6699
   393.9000   2000.0000   1981.0000      0.7437     90.2609
   394.0000   2000.0000   1981.0000      0.7191     86.9091
   394.1000   2000.0000   1981.0000      0.7191     83.6576
   394.2000   2000.0000   1981.0000      0.7191     80.5463
   394.3000   2000.0000   1981.0000      0.6992     77.6054
   394.4000   2000.0000   1981.0000      0.6992     74.8614
   394.5000   2000.0000   1981.0000      0.6859     72.3338
   394.6000   2000.0000   1981.0000      0.6859     70.0384
   394.7000   2000.0000   1981.0000      0.6859     67.9890
   394.8000   2000.0000   1981.0000      0.6807     66.1943
   394.9000   2000.0000   1981.0000      0.6807     64.6613
   395.0000   2000.0000   1981.0000      0.6834     63.3933
   395.1000   2000.0000   1981.0000      0.6834     62.3863
   395.2000   2000.0000   1981.0000      0.6834     61.6264
   395.3000   2000.0000   1981.0000      0.6928     61.0928
   395.4000   2000.0000   1981.0000      0.6928     60.7542
   395.5000   2000.0000   1981.0000      0.7071     60.5751
   395.6000   2000.0000   1981.0000      0.7071     60.5191
   395.7000   2000.0000   1981.0000      0.7071     60.5541
   395.8000   2000.0000   1981.0000      0.7245     60.6593
   395.9000   2000.0000   1981.0000      0.7245     60.8246
   396.0000   2000.0000   1981.0000      0.7431     61.0496
   396.1000   2000.0000   1981.0000      0.7431     61.3397
   396.2000   2000.0000   1981.0000      0.7431     61.7017
   396.3000   2000.0000   1981.0000      0.7611     62.1340
   396.4000   2000.0000   1981.0000      0.7611     62.6247
   396.5000   2000.0000   1981.0000      0.7774     63.1498
   396.6000   2000.0000   1981.0000      0.7774     63.6732
   396.7000   2000.0000   1981.0000      0.7774     64.1539
   396.8000   2000.0000   1981.0000      0.7916     64.5503
   396.9000   2000.0000   1981.0000      0.7916     64.8322
   397.0000   2000.0000   1981.0000      0.8041     64.9797
   397.1000   2000.0000   1981.0000      0.8041     64.9908
   397.2000   2000.0000   1981.0000      0.8041     64.8783
   397.3000   2000.0000   1981.0000      0.8154     64.6675
   397.4000   2000.0000   1981.0000      0.8154     64.3918
   397.5000   2000.0000   1981.0000      0.8255     64.0876
   397.6000   2000.0000   1981.0000      0.8255     63.7888
   397.7000   2000.0000   1981.0000      0.8255     63.5235
   397.8000   2000.0000   1981.0000      0.8344     63.3109
   397.9000   2000.0000   1981.0000      0.8344     63.1628
   398.0000   2000.0000   1981.0000      0.8421     63.0790
   398.1000   2000.0000   1981.0000      0.8421     63.0506
   398.2000   2000.0000   1981.0000      0.8421     63.0620
   398.3000   2000.0000   1981.0000      0.8487     63.0881
   398.4000   2000.0000   1981.0000      0.8487     63.1007
   398.5000   2000.0000   1981.0000      0.8539     63.0701
   398.6000   2000.0000   1981.0000      0.8539     62.9721
   398.7000   2000.0000   1981.0000      0.8539     62.7894
   398.8000   2000.0000   1981.0000      0.8577     62.5192
   398.9000   2000.0000   1981.0000      0.8577     62.1755
   399.0000   2000.0000   1981.0000      0.8605     61.7864
   399.1000   2000.0000   1981.0000      0.8605     40.9297
   399.2000   2000.0000   1981.0000      0.8605     40.6993
   399.3000   2000.0000   1981.0000      0.8637     40.5320
   399.4000   2000.0000   1981.0000      0.8637     40.4554
   399.5000   2000.0000   1981.0000      0.8686     40.4855
   399.6000   2000.0000   1981.0000      0.8686     40.6269
   399.7000   2000.0000   1981.0000      0.8686     40.8698
   399.8000   2000.0000   1981.0000      0.8758     41.1935
   399.9000   2000.0000   1981.0000      0.8758     41.5687
   400.0000   2000.0000   1981.0000      0.8848     41.9637
   400.1000   2000.0000   1981.0000      0.8848     42.3496
   400.2000   2000.0000   1981.0000      0.8848     42.7043
   400.3000   2000.0000   1981.0000      0.8945     43.0161
   400.4000   2000.0000   1981.0000      0.8945     43.2844
   400.5000   2000.0000   1981.0000      0.9044     43.5176
   400.6000   2000.0000   1981.0000      0.9044     43.7306
   400.7000   2000.0000   1981.0000      0.9044     43.9399
   400.8000   2000.0000   1981.0000      0.9137     44.1588
   400.9000   2000.0000   1981.0000      0.9137     44.3952
   401.0000   2000.0000   1981.0000      0.9212     44.6490
   401.1000   2000.0000   1981.0000      0.9212     44.9163
   401.2000   2000.0000   1981.0000      0.9212     45.1880
   401.3000   2000.0000   1981.0000      0.9257     45.4558
   401.4000   2000.0000   1981.0000      0.9257     45.7136
   401.5000   2000.0000   1981.0000      0.9268     45.9594
   401.6000   2000.0000   1981.0000      0.9268     46.1937
   401.7000   2000.0000   1981.0000      0.9268     46.4194
   401.8000   2000.0000   1981.0000      0.9250     46.6382
   401.9000   2000.0000   1981.0000      0.9250     46.8489
   402.0000   2000.0000   1981.0000      0.9226     47.0452
   402.1000   2000.0000   1981.0000      0.9226     47.2170
   402.2000   2000.0000   1981.0000      0.9226     47.3518
   402.3000   2000.0000   1981.0000      0.9213     47.4358
   402.4000   2000.0000   1981.0000      0.9213     47.4591
   402.5000   2000.0000   1981.0000      0.9222     47.4164
