~Version Information
VERS.                      2.0: CWLS Log ASCII Standard - VERSION 2.0
WRAP.                       NO: One line per depth step
~Well Information Block
STRT.FT              1684.7500: 
STOP.FT              2367.7500: 
STEP.FT                 0.2500: 
NULL.                -999.2500: 
COMP.          Petrogulf Corporation: COMPANY
WELL.             Norton 9-14V: WELL
FLD.           Purgatorie River: FIELD
LOC.           250' FSL & 225' FWL--: LOCATION
CNTY.               Las Animas: COUNTY
SRVC.                         : SERVICE COMPANY
DATE.          Mon Jan 10 10:00:10 2005: LOG DATE
UWI.                          : UNIQUE WELL ID
STAT.                       CO: STATE
~Curve Information Block
DEPT.FT            0 000 00 00: Depth
CCL.                          : Casing Collar Locator
TT3.usec                      : CBL 3' Travel Time
AMP3.mV                       : CBL 3' Amplitude
GR.GAPI                       : Gamma Ray
~Parameter Information Block
~A  Depth       CCL         TT3         AMP3         GR     
# ...
  2019.7500      0.0000    697.0922      2.3379     74.5387
  2020.0000      0.0000    710.7206      2.2634     70.0186
  2020.2500      0.0000    721.1712      2.2428     66.9951
  2020.5000      0.0000    726.8336      2.2629     66.0569
  2020.7500      0.0000    727.7112      2.3042     67.3087
  2021.0000      0.0000    724.2138      2.3589     70.1885
  2021.2500      0.0000    716.5933      2.4141     73.5771
  2021.5000      0.0000    705.5059      2.4426     76.6530
  2021.7500      0.0000    692.6826      2.4241     79.6571
  2022.0000      0.0000    680.6714      2.3667     83.3162
  2022.2500      0.0000    671.6885      2.2996     87.6579
  2022.5000      0.0000    666.5378      2.2583     91.9831
  2022.7500      0.0000    664.5302      2.2802     95.6780
  2023.0000      0.0000    664.3370      2.3908     98.3163
  2023.2500      0.0000    664.8917      2.5777     99.4185
  2023.5000      0.0000    665.6940      2.7930     99.1097
  2023.7500      0.0000    666.6085      2.9937     98.8091
  2024.0000      0.0000    667.5751      3.1748    100.1810
  2024.2500      0.0000    668.4914      3.3598    103.1769
  2024.5000      0.0000    669.2603      3.5702    105.7735
  2024.7500      0.0000    669.8777      3.8132    106.0054
  2025.0000      0.0000    670.4500      4.0862    103.9894
  2025.2500      0.0000    671.1400      4.3788    101.7327
  2025.5000      0.0000    672.0908      4.6745    101.2553
  2025.7500      0.0000    673.3999      4.9547    103.1242
  2026.0000      0.0000    675.1989      5.2080    106.3316
  2026.2500      0.0000    677.7966      5.4339    109.1273
  2026.5000      0.0000    681.6799      5.6400    110.3562
  2026.7500      0.0000    687.0720      5.8380    110.4151
  2027.0000      0.0000    693.2015      6.0411    110.6858
  2027.2500      0.0000    698.3249      6.2524    111.5999
  2027.5000      0.0000    701.3150      6.4376    111.5070
  2027.7500      0.0000    703.4901      6.5188    108.3364
  2028.0000      0.0000    707.9044      6.4182    102.4730
  2028.2500      0.0000    715.8454      6.1247     96.9980
  2028.5000      0.0000    724.3535      5.7131     94.7752
  2028.7500      0.0000    728.3613      5.2903     96.1246
  2029.0000      0.0000    725.6974      4.9235     99.3235
  2029.2500      0.0000    719.3297      4.6122    102.1439
  2029.5000      0.0000    714.2722      4.3159    102.7159
  2029.7500      0.0000    712.7689      4.0035    100.3146
  2030.0000      0.0000    712.9114      3.6827     96.1187
  2030.2500      0.0000    711.4988      3.3899     92.5114
  2030.5000      0.0000    707.3948      3.1624     91.0196
  2030.7500      0.0000    701.9359      3.0153     91.1546
  2031.0000      0.0000    697.0459      2.9394     91.4203
  2031.2500      0.0000    693.9203      2.9166     91.1169
  2031.5000      0.0000    693.1827      2.9418     90.8690
  2031.7500      0.0000    694.9479      3.0299     91.3630
  2032.0000      0.0000    698.0688      3.1961     91.8563
  2032.2500      0.0000    700.1420      3.4340     90.4910
  2032.5000      0.0000    699.2006      3.7242     86.2860
  2032.7500      0.0000    695.3147      4.0673     80.2641
  2033.0000      0.0000    690.3141      4.4941     74.2857
  2033.2500      0.0000    686.4648      5.0329     69.3488
  2033.5000      0.0000    685.1768      5.6703     65.4954
  2033.7500      0.0000    685.5282      6.3452     62.8552
  2034.0000      0.0000    682.9833      6.9792     62.0846
  2034.2500      0.0000    670.4145      7.5156     63.6758
  2034.5000      0.0000    643.1798      7.9420     67.0885
  2034.7500      0.0000    606.0356      8.2738     70.8908
  2035.0000      0.0000    573.9172      8.5065     73.9081
  2035.2500      0.0000    561.6318      8.5894     76.0179
  2035.5000      0.0000    571.9805      8.4695     77.6340
  2035.7500      0.0000    596.4228      8.1681     78.8361
  2036.0000      0.0000    624.9131      7.7974     79.4144
  2036.2500      0.0000    650.6723      7.4819     79.4477
  2036.5000      0.0000    668.9429      7.2651     79.4035
  2036.7500      0.0000    677.7317      7.1034     79.6811
  2037.0000      0.0000    679.6858      6.9447     80.1958
  2037.2500      0.0000    679.9418      6.7865     80.3550
  2037.5000      0.0000    681.3524      6.6501     79.4545
  2037.7500      0.0000    681.0930      6.5273     77.2577
  2038.0000      0.0000    670.6928      6.3851     74.2497
  2038.2500      0.0000    641.5885      6.2103     71.3641
  2038.5000      0.0000    595.3945      6.0210     69.3985
  2038.7500      0.0000    549.8077      5.8330     68.5861
  2039.0000      0.0000    529.8986      5.6405     68.6105
  2039.2500      0.0000    549.1666      5.4413     68.8899
  2039.5000      0.0000    598.4033      5.2565     68.9680
  2039.7500      0.0000    653.5840      5.1119     69.1369
  2040.0000      0.0000    693.7782      5.0034     70.5638
  2040.2500      0.0000    711.6459      4.8959     74.1184
  2040.5000      0.0000    710.4932      4.7596     78.9762
  2040.7500      0.0000    696.6230      4.6038     82.9632
  2041.0000      0.0000    676.4227      4.4658     84.5432
  2041.2500      0.0000    657.4828      4.3731     84.1038
  2041.5000      0.0000    647.0996      4.3223     83.1575
  2041.7500      0.0000    646.8801      4.2907     82.7445
  2042.0000      0.0000    650.0394      4.2689     82.8812
  2042.2500      0.0000    646.6288      4.2728     83.1582
  2042.5000      0.0000    632.8346      4.3069     83.4158
  2042.7500      0.0000    615.3069      4.3196     84.0070
  2043.0000      0.0000    605.4745      4.2318     85.7069
  2043.2500      0.0000    608.6724      4.0201     89.1534
  2043.5000      0.0000    619.5901      3.7489     93.9773
  2043.7500      0.0000    628.9269      3.5166     98.7044
  2044.0000      0.0000    632.5872      3.3896    101.9994
  2044.2500      0.0000    633.3654      3.3819    103.7460
  2044.5000      0.0000    635.9274      3.4663    104.3794
  2044.7500      0.0000    642.1412      3.5942    103.7780
  2045.0000      0.0000    650.3680      3.7162    101.8583
  2045.2500      0.0000    657.6746      3.7937     99.7915
  2045.5000      0.0000    662.3371      3.7935     99.2845
  2045.7500      0.0000    664.7905      3.6850    100.5884
  2046.0000      0.0000    666.7924      3.4604    102.2222
  2046.2500      0.0000    669.9695      3.1641    102.7678
  2046.5000      0.0000    674.7208      2.8899    102.1365
  2046.7500      0.0000    680.0891      2.7279    101.1000
  2047.0000      0.0000    684.8439      2.7105    100.3345
  2047.2500      0.0000    688.9150      2.8055    100.0309
  2047.5000      0.0000    693.5004      2.9532     99.9008
  2047.7500      0.0000    699.3949      3.1019     99.3757
  2048.0000      0.0000    705.4003      3.2174     97.9663
  2048.2500      0.0000    708.7781      3.2824     95.4877
  2048.5000      0.0000    707.2547      3.2977     92.0215
  2048.7500      0.0000    700.4371      3.2826     87.9049
  2049.0000      0.0000    689.6741      3.2626     83.8673
  2049.2500      0.0000    677.2680      3.2461     80.9448
  2049.5000      0.0000    665.9392      3.2100     79.9034
  2049.7500      0.0000    658.2392      3.1295     80.6020
  2050.0000      0.0000    655.4505      3.0299     82.0069
  2050.2500      0.0000    656.8160      2.9807     82.9887
  2050.5000      0.0000    660.3294      3.0176     83.2665
  2050.7500      0.0000    664.6921      3.0993     83.5043
  2051.0000      0.0000    670.3909      3.1613     84.1621
  2051.2500      0.0000    678.6425      3.1915     84.5628
  2051.5000      0.0000    688.9027      3.2383     83.8317
  2051.7500      0.0000    697.3876      3.3564     82.5570
  2052.0000      0.0000    699.1443      3.5590     82.5437
  2052.2500      0.0000    692.8098      3.8052     84.8209
  2052.5000      0.0000    682.8295      4.0160     88.5288
  2052.7500      0.0000    675.6496      4.1123     91.8236
  2053.0000      0.0000    674.0373      4.0664     93.4835
