~Version Information
VERS.                      2.0: CWLS Log ASCII Standard - VERSION 2.0
WRAP.                       NO: One line per depth step
~Well Information Block
STRT.FT               580.0000: 
STOP.FT              1756.0000: 
STEP.FT                 0.1000: 
NULL.                -999.2500: 
COMP.          Pioneer Natural Resources: COMPANY
WELL.          Lookout Point 31-23 Tr: WELL
FLD.           Purgatoire River: FIELD
LOC.           541' FNL & 1768' FEL: LOCATION
PROV.                 Colorado: PROVINCE
CNTY.               Las Animas: COUNTRY
SRVC.                Patterson: SERVICE COMPANY
DATE.          Mon Jan 24 07:20:20 2005: LOG DATE
UWI.           05 071 08260 00: UNIQUE WELL ID
~Curve Information Block
DEPT.FT            0 000 00 00: Depth
DCAL.in                       : CDL Caliper
DPOR.pu                       : CDL Density Porosity
GR.GAPI                       : Gamma Ray
NPOR.pu                       : Neutron Porosity
RHOB.g/cc                     : CDL Bulk Density
RHOC.g/cc                     : CDL Density Correction
~Parameter Information Block
~A  Depth       DCAL        DPOR         GR         NPOR        RHOB        RHOC    
# ...
  1261.6000      7.8820      1.1428     73.1225     20.0248      2.6311      0.0888
  1261.7000      7.8820     -1.3332     68.0646     19.6980      2.6720      0.1525
  1261.8000      7.8811     -2.1415     63.3082     19.9017      2.6853      0.1297
  1261.9000      7.8811     -1.0149     59.2873     19.9365      2.6667      0.0225
  1262.0000      7.8785      0.7760     57.8109     19.9036      2.6372      0.0490
  1262.1000      7.8785      2.2997     57.1604     19.9778      2.6121     -0.0033
  1262.2000      7.8785      2.7835     54.2177     19.6964      2.6041      0.0602
  1262.3000      7.8742      2.1248     49.9811     18.8364      2.6149      0.0270
  1262.4000      7.8742      1.1814     47.2086     18.3402      2.6305      0.0708
  1262.5000      7.8692      1.3078     45.9849     18.7353      2.6284      0.1022
  1262.6000      7.8692      2.6349     46.1370     19.3592      2.6065      0.0547
  1262.7000      7.8692      3.8334     48.5566     19.6695      2.5867      0.0117
  1262.8000      7.8612      4.1194     52.8262     19.7392      2.5820      0.0208
  1262.9000      7.8612      3.7077     56.3027     19.9225      2.5888      0.0543
  1263.0000      7.8541      2.9370     57.1394     20.1125      2.6015      0.0731
  1263.1000      7.8541      2.0001     56.9425     19.9429      2.6170      0.0641
  1263.2000      7.8541      1.2345     57.6396     19.4346      2.6296      0.1117
  1263.3000      7.8601      1.2370     61.4327     19.0481      2.6296      0.1138
  1263.4000      7.8601      2.0464     69.2291     19.2630      2.6162      0.0858
  1263.5000      7.8694      2.4983     75.9490     20.0181      2.6088      0.0644
  1263.6000      7.8694      1.8077     78.3715     21.1444      2.6202      0.1130
  1263.7000      7.8694      1.0986     78.3565     22.3410      2.6319      0.0999
  1263.8000      7.8740      1.6097     75.2993     22.9330      2.6234      0.0749
  1263.9000      7.8740      3.1524     68.9474     22.6883      2.5980      0.0608
  1264.0000      7.8762      4.7228     64.3426     21.8628      2.5721      0.0107
  1264.1000      7.8762      5.5294     65.8382     21.1374      2.5588      0.0305
  1264.2000      7.8762      5.3105     70.3309     20.9115      2.5624      0.0032
  1264.3000      7.8774      4.3277     70.5404     21.1630      2.5786      0.0846
  1264.4000      7.8774      3.7519     65.2428     21.9515      2.5881      0.0977
  1264.5000      7.8758      4.2740     62.0223     22.8670      2.5795      0.0529
  1264.6000      7.8758      4.9101     64.3914     23.7139      2.5690      0.0359
  1264.7000      7.8758      4.5447     67.0277     24.4768      2.5750      0.0071
  1264.8000      7.8750      3.4589     67.6821     24.5911      2.5929      0.0640
  1264.9000      7.8750      2.6199     70.0899     24.1872      2.6068      0.0497
  1265.0000      7.8770      2.0258     74.2399     23.9945      2.6166      0.0223
  1265.1000      7.8770      1.2779     76.2849     24.1830      2.6289      0.0640
  1265.2000      7.8770      0.7965     77.9571     24.7227      2.6369      0.0592
  1265.3000      7.8786      0.7614     83.5890     25.4985      2.6374      0.0854
  1265.4000      7.8786      0.5821     91.3124     26.2910      2.6404      0.0365
  1265.5000      7.8783      0.5203     97.6625     27.0325      2.6414      0.0643
  1265.6000      7.8783      1.6277    103.3923     27.4577      2.6231      0.0375
  1265.7000      7.8783      3.7637    109.7215     27.3356      2.5879     -0.0291
  1265.8000      7.8788      5.7989    115.1018     26.9002      2.5543     -0.0312
  1265.9000      7.8788      7.4835    117.5114     26.4224      2.5265      0.0347
  1266.0000      7.8781      9.0897    118.2844     26.3002      2.5000      0.0129
  1266.1000      7.8781     10.4224    119.4913     27.1188      2.4780      0.0259
  1266.2000      7.8781     11.7313    121.1254     28.5362      2.4564      0.0519
  1266.3000      7.8765     13.3157    122.9318     29.3906      2.4303      0.0239
  1266.4000      7.8765     14.2736    123.3559     29.1290      2.4145     -0.0111
  1266.5000      7.8770     13.8226    120.8982     28.3128      2.4219      0.0462
  1266.6000      7.8770     12.5646    117.8131     28.1764      2.4427      0.0276
  1266.7000      7.8770     11.2980    115.6238     28.8385      2.4636      0.0466
  1266.8000      7.8781     10.5855    113.9148     28.9028      2.4753      0.0807
  1266.9000      7.8781     11.0398    110.4016     27.8997      2.4678      0.1083
  1267.0000      7.8761     12.7573    105.9594     26.9697      2.4395      0.0591
  1267.1000      7.8761     14.7284    106.0253     26.9381      2.4070      0.0410
  1267.2000      7.8761     15.5373    110.3094     27.3102      2.3936      0.0284
  1267.3000      7.8717     14.6481    112.6696     27.6349      2.4083      0.0605
  1267.4000      7.8717     12.8306    113.1750     27.8792      2.4383      0.0865
  1267.5000      7.8677     11.1662    115.4140     27.4200      2.4658      0.1361
  1267.6000      7.8677      9.5885    116.1084     26.0564      2.4918      0.1057
  1267.7000      7.8677      7.1184    110.8025     24.7563      2.5325      0.1464
  1267.8000      7.8648      4.2552    102.9345     24.0383      2.5798      0.1799
  1267.9000      7.8648      2.8904     97.6637     23.6677      2.6023      0.1613
  1268.0000      7.8603      3.3681     95.2882     23.4546      2.5944      0.1054
  1268.1000      7.8603      3.8580     93.6597     23.1461      2.5863      0.0516
  1268.2000      7.8603      3.1498     89.4260     22.4259      2.5980      0.0682
  1268.3000      7.8557      2.0374     82.0568     21.6040      2.6164      0.0748
  1268.4000      7.8557      1.6306     75.4852     21.1644      2.6231      0.1196
  1268.5000      7.8567      2.3236     71.4618     21.0642      2.6117      0.0995
  1268.6000      7.8567      3.5532     69.3201     20.9780      2.5914      0.0396
  1268.7000      7.8567      4.2392     67.3451     20.6330      2.5801      0.0615
  1268.8000      7.8602      3.9589     64.5586     20.3054      2.5847      0.0488
  1268.9000      7.8602      2.9405     63.4780     20.0977      2.6015      0.0521
  1269.0000      7.8615      1.9206     65.2443     19.5976      2.6183      0.1089
  1269.1000      7.8615      1.6433     66.9440     19.0446      2.6229      0.0615
  1269.2000      7.8615      2.0986     66.1137     18.9445      2.6154      0.0545
  1269.3000      7.8591      3.2912     64.3000     19.6331      2.5957      0.0856
  1269.4000      7.8591      4.7244     66.7063     20.6371      2.5720      0.0442
  1269.5000      7.8569      4.9316     73.8461     20.7217      2.5686      0.0388
  1269.6000      7.8569      3.8311     78.6350     19.7162      2.5868      0.0786
  1269.7000      7.8569      3.1756     76.7955     18.7203      2.5976      0.0979
  1269.8000      7.8558      4.0933     71.3823     18.8103      2.5825      0.0641
  1269.9000      7.8558      5.7354     66.2007     19.8688      2.5554      0.0382
  1270.0000      7.8543      6.4616     63.7545     20.9529      2.5434     -0.0014
  1270.1000      7.8543      5.9399     64.9297     21.7558      2.5520      0.0429
  1270.2000      7.8543      5.2336     66.7801     22.2952      2.5636      0.0269
  1270.3000      7.8537      5.0059     66.5375     22.2065      2.5674      0.0666
  1270.4000      7.8537      5.1818     63.9753     21.5318      2.5645      0.0344
  1270.5000      7.8548      5.6496     60.4283     20.8947      2.5568      0.0436
  1270.6000      7.8548      6.1900     58.3037     20.7253      2.5479      0.0281
  1270.7000      7.8548      6.3738     58.5214     20.5591      2.5448      0.0643
  1270.8000      7.8556      6.2456     60.0195     19.8169      2.5469      0.0622
  1270.9000      7.8556      6.2092     62.1499     18.9310      2.5475      0.0822
  1271.0000      7.8557      6.3853     66.5767     18.7943      2.5446      0.0306
  1271.1000      7.8557      6.5756     71.1040     19.2662      2.5415      0.0657
