~Version Information
VERS.                      2.0: CWLS Log ASCII Standard - VERSION 2.0
WRAP.                       NO: One line per depth step
~Well Information Block
STRT.FT               770.0000: 
STOP.FT              1718.7000: 
STEP.FT                 0.1000: 
NULL.                -999.2500: 
COMP.          Pioneer Natural Resources: COMPANY
WELL.            Salty 42-6 Tr: WELL
FLD.           Purgatoire River: FIELD
LOC.           2409' FNL & 599' FEL: LOCATION
PROV.                 Colorado: PROVINCE
CNTY.               Las Animas: COUNTRY
SRVC.                Patterson: SERVICE COMPANY
DATE.          Thu Dec 16 09:30:36 2004: LOG DATE
UWI.           05 071 08238 00: UNIQUE WELL ID
~Curve Information Block
DEPT.FT            0 000 00 00: Depth
DCAL.in                       : CDL Caliper
RHOB.g/cc                     : CDL Bulk Density
RHOC.g/cc                     : CDL Density Correction
DPOR.pu                       : CDL Density Porosity
NPOR.pu                       : Neutron Porosity
GR.GAPI                       : Gamma Ray
~Parameter Information Block
~A  Depth       DCAL        RHOB        RHOC        DPOR        NPOR         GR     
# ...
   827.6000      8.1764      2.4956      0.0464      9.3596     25.0086    134.9902
   827.7000      8.1764      2.4877     -0.0112      9.8374     25.0016    133.8769
   827.8000      8.1760      2.4937      0.0319      9.4723     24.6242    135.4245
   827.9000      8.1760      2.5088      0.0393      8.5591     24.1611    135.9067
   828.0000      8.1730      2.5153      0.0847      8.1613     24.0366    135.6841
   828.1000      8.1730      2.5094      0.0135      8.5222     24.1233    137.8848
   828.2000      8.1730      2.5059      0.0192      8.7322     24.1046    142.8603
   828.3000      8.1692      2.5120      0.0555      8.3625     24.2029    143.8801
   828.4000      8.1692      2.5177      0.0342      8.0196     24.6552    137.3257
   828.5000      8.1658      2.5183     -0.0134      7.9820     25.1760    131.6826
   828.6000      8.1658      2.5154      0.0216      8.1593     25.4362    132.3949
   828.7000      8.1658      2.5035     -0.0011      8.8783     25.5597    135.3848
   828.8000      8.1609      2.4814      0.0253     10.2162     25.7981    136.8986
   828.9000      8.1609      2.4590     -0.0054     11.5763     26.1907    131.7542
   829.0000      8.1580      2.4430      0.0050     12.5427     26.6955    121.0214
   829.1000      8.1580      2.4211     -0.0061     13.8714     26.9999    115.1151
   829.2000      8.1580      2.3740     -0.0539     16.7254     26.5304    117.1707
   829.3000      8.1612      2.2988     -0.0413     21.2850     25.1654    123.9761
   829.4000      8.1612      2.2087     -0.0559     26.7482     23.5449    134.0276
   829.5000      8.1706      2.1171     -0.0600     32.2971     22.2315    142.3879
   829.6000      8.1706      2.0176     -0.0575     38.3253     20.9830    141.0051
   829.7000      8.1706      1.9031     -0.1113     45.2648     19.3957    131.4189
   829.8000      8.1971      1.7849     -0.0834     52.4286     17.4494    121.3052
   829.9000      8.1971      1.6698     -0.0990     59.4050     15.1551    110.6112
   830.0000      8.2564      1.5582     -0.0974     66.1726     12.7158     99.1851
   830.1000      8.2564      1.4550     -0.1104     72.4249     10.6289     92.2583
   830.2000      8.2564      1.3713     -0.0933     77.4939      9.1635     89.6131
   830.3000      8.3490      1.3197     -0.0478     80.6272      8.1317     84.6385
   830.4000      8.3490      1.2990     -0.0010     81.8807      7.2184     74.9670
   830.5000      8.4896      1.2963      0.0189     82.0446      6.4307     66.5745
   830.6000      8.4896      1.3034      0.0438     81.6129      6.0412     64.7554
   830.7000      8.4896      1.3186      0.0737     80.6898      6.0953     66.1219
   830.8000      8.6556      1.3389      0.0953     79.4635      6.3449     65.2189
   830.9000      8.6556      1.3510      0.1504     78.7266      6.6560     61.7050
   831.0000      8.7730      1.3352      0.1571     79.6872      6.9489     57.2964
   831.1000      8.7730      1.2926      0.0988     82.2657      6.8850     52.8198
   831.2000      8.7730      1.2568      0.0348     84.4341      6.3957     49.2064
   831.3000      8.7956      1.2546      0.0768     84.5693      5.8348     47.0186
   831.4000      8.7956      1.2736      0.1151     83.4158      5.4804     46.0292
   831.5000      8.7508      1.2878      0.0988     82.5594      5.2809     46.4897
   831.6000      8.7508      1.2882      0.0877     82.5359      5.0567     47.2176
   831.7000      8.7508      1.2754      0.0877     83.3120      4.9063     47.2080
   831.8000      8.7269      1.2510      0.0629     84.7854      4.8653     46.5198
   831.9000      8.7269      1.2260      0.0688     86.3027      4.7675     44.4931
   832.0000      8.7410      1.2180      0.0650     86.7907      4.5704     40.8544
   832.1000      8.7410      1.2348      0.1280     85.7711      4.2850     36.9376
   832.2000      8.7410      1.2636      0.1522     84.0218      4.0206     34.9017
   832.3000      8.7489      1.2880      0.1242     82.5443      3.9170     37.0645
   832.4000      8.7489      1.3079      0.0894     81.3384      4.0275     42.8460
   832.5000      8.7235      1.3359      0.1055     79.6447      4.2693     47.6184
   832.6000      8.7235      1.3832      0.1223     76.7747      4.7269     49.2170
   832.7000      8.7235      1.4545      0.1649     72.4546      5.5899     51.0826
   832.8000      8.7052      1.5468      0.2143     66.8583      6.7125     55.0239
   832.9000      8.7052      1.6591      0.2429     60.0515      7.7819     59.5272
   833.0000      8.7084      1.7935      0.2999     51.9063      8.6371     65.0266
   833.1000      8.7084      1.9405      0.3536     42.9987      9.1916     71.5228
   833.2000      8.7084      2.0847      0.3772     34.2608      9.5763     77.0189
   833.3000      8.6490      2.2146      0.3987     26.3867     10.0668     82.5894
   833.4000      8.6490      2.3201      0.3619     19.9956     10.7298     91.6843
   833.5000      8.4833      2.3986      0.3533     15.2378     11.6261    104.0034
   833.6000      8.4833      2.4531      0.3113     11.9312     12.8525    115.1852
   833.7000      8.4833      2.4860      0.2279      9.9372     14.1043    122.4815
   833.8000      8.3035      2.4972      0.2363      9.2608     14.9549    126.6964
   833.9000      8.3035      2.4891      0.1454      9.7539     15.7365    128.1395
   834.0000      8.1954      2.4810      0.1060     10.2414     16.9490    127.2263
   834.1000      8.1954      2.4865      0.1167      9.9083     18.1324    127.5888
   834.2000      8.1954      2.4981      0.1219      9.2078     18.7269    130.3351
   834.3000      8.1413      2.5136      0.0881      8.2663     18.9954    129.3315
   834.4000      8.1413      2.5316      0.1062      7.1735     19.4618    122.6681
   834.5000      8.1070      2.5380      0.0969      6.7887     20.5561    117.3521
   834.6000      8.1070      2.5270      0.1042      7.4555     22.1142    117.5485
   834.7000      8.1070      2.5096      0.0709      8.5117     23.3243    121.4117
   834.8000      8.0912      2.5038      0.0647      8.8633     23.8008    125.4207
   834.9000      8.0912      2.5142      0.1001      8.2316     24.0208    126.6148
   835.0000      8.0871      2.5253      0.1202      7.5570     24.4841    125.2794
   835.1000      8.0871      2.5246      0.0735      7.6029     24.9021    126.3746
   835.2000      8.0871      2.5110      0.0602      8.4271     24.9404    131.8998
   835.3000      8.0855      2.4911      0.0043      9.6300     24.8166    136.5567
   835.4000      8.0855      2.4768      0.0287     10.4959     24.7665    134.9801
   835.5000      8.0828      2.4720      0.0115     10.7876     24.9499    127.7332
   835.6000      8.0828      2.4705      0.0459     10.8769     25.2237    120.0762
   835.7000      8.0828      2.4726      0.0053     10.7513     25.2252    116.9555
   835.8000      8.0785      2.4874      0.0248      9.8563     25.1523    119.0252
   835.9000      8.0785      2.5064      0.0700      8.7055     25.1396    124.9941
   836.0000      8.0742      2.5170      0.0321      8.0627     24.8547    133.1586
   836.1000      8.0742      2.5248      0.0632      7.5884     24.3482    138.6723
   836.2000      8.0742      2.5288      0.0409      7.3477     23.9064    135.9422
   836.3000      8.0705      2.5246      0.0526      7.5995     23.5037    127.6444
   836.4000      8.0705      2.5173      0.0605      8.0450     23.4236    121.9235
   836.5000      8.0677      2.5121      0.0460      8.3553     23.7847    119.9815
   836.6000      8.0677      2.5162      0.0292      8.1082     23.9809    116.9960
   836.7000      8.0677      2.5309      0.0056      7.2199     23.9044    111.6032
   836.8000      8.0687      2.5434      0.0534      6.4609     23.9072    106.7586
   836.9000      8.0687      2.5422      0.0706      6.5360     23.8847    105.4611
   837.0000      8.0704      2.5344      0.0646      7.0033     23.7813    107.4694
   837.1000      8.0704      2.5337      0.0419      7.0456     23.8658    109.6203
