~Version Information
VERS.                      2.0: CWLS Log ASCII Standard - VERSION 2.0
WRAP.                       NO: One line per depth step
~Well Information Block
STRT.FT                 0.0000: 
STOP.FT              2025.0000: 
STEP.FT                 0.2500: 
NULL.                -999.2500: 
COMP.          Petrogulf Corporation: COMPANY
WELL.          Robinson 15-12V: WELL
FLD.           Purgatorie River: FIELD
LOC.           1788' FNL & 466' FWL: LOCATION
PROV.                 Colorado: PROVINCE
CNTY.               Las Animas: COUNTRY
SRVC.                Patterson: SERVICE COMPANY
DATE.          Tue Oct 04 11:57:31 2005: LOG DATE
UWI.                          : UNIQUE WELL ID
~Curve Information Block
DEPT.FT            0 000 00 00: Depth
GR.GAPI                       : Gamma Ray
CCL.                          : Casing Collar Locator
TT3.usec                      : CBL 3' Travel Time
AMP3.mV                       : CBL 3' Amplitude
~Parameter Information Block
~A  Depth        GR         CCL         TT3         AMP3    
# ...
  1976.5000     66.6231      0.0000    700.5430     24.7989
  1976.7500     68.0388      0.0000    697.8406     24.7191
  1977.0000     68.9143      0.0000    693.0622     23.9362
  1977.2500     69.4714      0.0000    689.6246     22.4938
  1977.5000     69.8132      0.0000    688.4885     20.5235
  1977.7500     69.6663      0.0000    690.0601     18.2552
  1978.0000     68.7725      0.0000    696.7366     15.9919
  1978.2500     67.2077      0.0000    711.3329     14.0375
  1978.5000     65.2019      0.0000    731.8060     12.5513
  1978.7500     62.9314      0.0000    749.4564     11.4783
  1979.0000     60.6568      0.0000    756.0361     10.6727
  1979.2500     58.8511      0.0000    750.2419     10.0635
  1979.5000     57.8443      0.0000    735.0797      9.6460
  1979.7500     57.3048      0.0000    716.1299      9.3634
  1980.0000     56.4663      0.0000    703.0303      9.1195
  1980.2500     55.1517      0.0000    704.0168      8.9096
  1980.5000     54.2822      0.0000    718.3935      8.8178
  1980.7500     54.9488      0.0000    735.8069      8.8590
  1981.0000     57.0753      0.0000    744.2990      8.9356
  1981.2500     59.3414      0.0000    739.8655      8.9382
  1981.5000     60.3872      0.0000    726.3475      8.8180
  1981.7500     59.8566      0.0000    710.6396      8.5928
  1982.0000     58.4081      0.0000    699.6673      8.3064
  1982.2500     56.9675      0.0000    698.2773      7.9652
  1982.5000     56.0662      0.0000    710.2410      7.5558
  1982.7500     55.7874      0.0000    737.7838      7.1412
  1983.0000     56.0586      0.0000    776.3065      6.8689
  1983.2500     56.6945      0.0000    815.5551      6.8487
  1983.5000     57.3416      0.0000    846.1547      7.0619
  1983.7500     57.8614      0.0000    858.7606      7.3840
  1984.0000     58.7424      0.0000    845.8177      7.6646
  1984.2500     60.6260      0.0000    812.5915      7.8314
  1984.5000     63.2989      0.0000    777.0875      7.9791
  1984.7500     65.5029      0.0000    753.5367      8.2916
  1985.0000     65.9902      0.0000    742.2636      8.8167
  1985.2500     64.6274      0.0000    735.3281      9.4031
  1985.5000     62.2234      0.0000    726.6212      9.8603
  1985.7500     59.5266      0.0000    718.0695     10.0785
  1986.0000     56.8696      0.0000    717.7039      9.9974
  1986.2500     54.5854      0.0000    729.0359      9.6142
  1986.5000     53.1609      0.0000    743.3719      9.0666
  1986.7500     52.9243      0.0000    750.0070      8.5139
  1987.0000     53.8677      0.0000    753.1417      7.9480
  1987.2500     55.6324      0.0000    764.4996      7.3979
  1987.5000     57.4884      0.0000    784.3050      7.0987
  1987.7500     58.6230      0.0000    811.2106      7.1072
  1988.0000     58.6741      0.0000    859.0817      7.2622
  1988.2500     57.8070      0.0000    935.2751      7.5796
  1988.5000     56.2586      0.0000   1018.0127      8.0431
  1988.7500     54.0931     -2.0000   1081.1733      8.4135
  1989.0000     51.5637     -2.0000   1113.5479      8.5810
  1989.2500     49.4880      0.0000   1102.0519      8.6840
  1989.5000     48.8572      0.0000   1040.9691      8.8830
  1989.7500     49.8421      0.0000    959.8802      9.2448
  1990.0000     51.3884      0.0000    904.4240      9.8304
  1990.2500     52.1902      0.0000    889.9268     10.6365
  1990.5000     52.0856      0.0000    891.2011     11.3528
  1990.7500     52.1835      0.0000    871.6420     11.7027
  1991.0000     53.5728      0.0000    821.2892     11.8935
  1991.2500     56.1654      0.0000    767.6365     12.1541
  1991.5000     58.8677      0.0000    741.8084     12.4092
  1991.7500     60.6120      0.0000    746.2830     12.5920
  1992.0000     61.0360      0.0000    761.5194     12.7520
  1992.2500     60.4314      0.0000    768.5333     12.9148
  1992.5000     59.5012      0.0000    761.0394     13.0012
  1992.7500     59.2989      0.0000    745.9952     12.9010
  1993.0000     60.9743      0.0000    736.3082     12.6709
  1993.2500     64.9720      0.0000    737.8086     12.5447
  1993.5000     70.4118      0.0000    744.5115     12.6852
  1993.7500     75.6010      0.0000    749.8309     13.0278
  1994.0000     79.2204      0.0000    753.1337     13.3402
  1994.2500     80.9148      0.0000    754.2918     13.3227
  1994.5000     81.0232      0.0000    757.1642     12.7713
  1994.7500     80.1239      0.0000    772.2499     11.7945
  1995.0000     78.7634      0.0000    798.7103     10.7244
  1995.2500     77.3562      0.0000    818.8455      9.7511
  1995.5000     76.2668      0.0000    823.9197      8.8288
  1995.7500     75.8839      0.0000    827.5588      7.9439
  1996.0000     76.3964      0.0000    843.9565      7.2486
  1996.2500     77.4441      0.0000    867.8734      6.8894
  1996.5000     78.1366      0.0000    883.5857      6.8480
  1996.7500     77.5591      0.0000    882.6219      6.9874
  1997.0000     75.4215      0.0000    871.4888      7.1720
  1997.2500     72.3990      0.0000    865.2880      7.3297
  1997.5000     69.8325      0.0000    871.7296      7.4614
  1997.7500     68.7820      0.0000    886.8297      7.5867
  1998.0000     69.2183      0.0000    901.7739      7.6914
  1998.2500     70.2721      0.0000    904.8010      7.7376
  1998.5000     71.2171      0.0000    888.4738      7.6818
  1998.7500     71.9137      0.0000    861.1592      7.5234
  1999.0000     72.4576      0.0000    843.2755      7.3431
  1999.2500     72.9729      0.0000    851.4584      7.2183
  1999.5000     73.7657      0.0000    886.4082      7.1380
  1999.7500     75.0870      0.0000    929.4275      7.0464
  2000.0000     76.5238      0.0000    956.6356      6.9150
  2000.2500     77.0795      0.0000    967.7808      6.7552
  2000.5000     76.1895      0.0000    980.0354      6.5918
  2000.7500     74.5062      0.0000    987.6372      6.4536
  2001.0000     73.4797      0.0000    966.9489      6.3745
  2001.2500     74.2334      0.0000    917.3210      6.3670
  2001.5000     76.8882      0.0000    864.0543      6.4130
  2001.7500     80.7183      0.0000    825.3657      6.4890
  2002.0000     84.6573      0.0000    796.6886      6.5721
  2002.2500     87.6974      0.0000    768.5576      6.6488
  2002.5000     89.1329      0.0000    744.1263      6.7269
  2002.7500     88.6525      0.0000    732.2524      6.8080
  2003.0000     86.2778      0.0000    734.5638      6.8787
  2003.2500     82.2842      0.0000    746.0834      6.9642
  2003.5000     77.2999      0.0000    762.6106      7.1475
  2003.7500     72.3915      0.0000    780.8322      7.4984
  2004.0000     68.7438      0.0000    794.6854      7.9918
  2004.2500     67.1518      0.0000    798.8544      8.5212
  2004.5000     67.8770      0.0000    794.1334      9.0022
  2004.7500     70.7020      0.0000    784.8573      9.4183
  2005.0000     74.7743      0.0000    774.2173      9.7507
  2005.2500     78.7292      0.0000    765.5626      9.9478
  2005.5000     81.5838      0.0000    762.3462      9.9860
  2005.7500     83.4758      0.0000    763.5346      9.9219
  2006.0000     85.0800      0.0000    764.5959      9.8952
  2006.2500     86.4562      0.0000    762.5737     10.0541
  2006.5000     86.9890      0.0000    757.7313     10.4158
  2006.7500     86.3269      0.0000    752.7476     10.8182
  2007.0000     84.8172      0.0000    750.0534     11.0515
  2007.2500     83.0728      0.0000    750.1950     11.0175
  2007.5000     81.5169      0.0000    752.9099     10.7682
  2007.7500     80.2292      0.0000    756.7999     10.4406
  2008.0000     78.9070      0.0000    758.6169     10.1540
  2008.2500     77.1045      0.0000    757.6096      9.9456
  2008.5000     74.7847      0.0000    760.6210      9.7942
  2008.7500     72.4825      0.0000    778.4360      9.6789
  2009.0000     70.8203      0.0000    813.0496      9.6005
  2009.2500     70.0626      0.0000    850.6748      9.5608
  2009.5000     70.0625      0.0000    877.0450      9.5307
  2009.7500     70.2906      0.0000    891.7648      9.4584
