~Version Information
VERS.                      2.0: CWLS Log ASCII Standard - VERSION 2.0
WRAP.                       NO: One line per depth step
~Well Information Block
STRT.FT               743.8000: 
STOP.FT              1975.8000: 
STEP.FT                 0.1000: 
NULL.                -999.2500: 
COMP.          Petrogulf Corporation: COMPANY
WELL.            Montoya 6-14V: WELL
FLD.           Purgatorie River: FIELD
LOC.           318' FSL & 882' FWL: LOCATION
CNTY.               Las Animas: COUNTY
SRVC.                         : SERVICE COMPANY
DATE.          Sat Aug 14 09:19:43 2004: LOG DATE
UWI.           05 071 08020 00: UNIQUE WELL ID
STAT.                 Colorado: STATE
~Curve Information Block
DEPT.FT            0 000 00 00: Depth
DCAL.in                       : CDL Caliper
RHOB.g/cc                     : CDL Bulk Density
RHOC.g/cc                     : CDL Density Correction
DPOR.pu                       : CDL Density Porosity
GR.GAPI                       : Gamma Ray
NPOR.pu                       : Neutron Porosity
~Parameter Information Block
~A  Depth       DCAL        RHOB        RHOC        DPOR         GR         NPOR    
# ...
  1617.4000      7.8323      2.4321      0.0322     13.2077    129.3809   -999.2500
  1617.5000      7.8505      2.3837     -0.0429     16.1417    125.3005   -999.2500
  1617.6000      7.8505      2.3678      0.0447     17.1007    125.1602   -999.2500
  1617.7000      7.8505      2.3738      0.0508     16.7380    139.0289   -999.2500
  1617.8000      7.8477      2.3897     -0.0005     15.7737    154.5333   -999.2500
  1617.9000      7.8477      2.4157      0.0385     14.1974    155.9678   -999.2500
  1618.0000      7.9491      2.4440      0.0742     12.4840    150.7071   -999.2500
  1618.1000      7.9491      2.4691      0.0979     10.9658    150.3382   -999.2500
  1618.2000      7.9491      2.4988      0.1171      9.1657    153.4850   -999.2500
  1618.3000      7.8586      2.5392      0.2170      6.7149    158.0443   -999.2500
  1618.4000      7.8586      2.5798      0.2697      4.2524    160.0974   -999.2500
  1618.5000      7.8247      2.5983      0.3089      3.1304    152.8834   -999.2500
  1618.6000      7.8247      2.5862      0.2146      3.8681    142.9256   -999.2500
  1618.7000      7.8247      2.5651      0.1372      5.1458    143.2190   -999.2500
  1618.8000      7.8149      2.5551      0.1493      5.7516    154.8325   -999.2500
  1618.9000      7.8149      2.5499      0.1526      6.0656    164.2029   -999.2500
  1619.0000      7.8297      2.5372      0.1396      6.8338    162.4353   -999.2500
  1619.1000      7.8297      2.5156      0.1415      8.1467    158.6159   -999.2500
  1619.2000      7.8297      2.5002      0.0576      9.0761    156.3741   -999.2500
  1619.3000      7.8081      2.5095      0.0852      8.5167    147.8246   -999.2500
  1619.4000      7.8081      2.5313      0.1014      7.1931    135.5916   -999.2500
  1619.5000      7.8109      2.5420      0.0665      6.5470    129.9916   -999.2500
  1619.6000      7.8109      2.5442      0.0721      6.4093    133.6952   -999.2500
  1619.7000      7.8109      2.5485      0.0979      6.1528    141.4909   -999.2500
  1619.8000      7.8098      2.5501      0.1171      6.0547    145.1665   -999.2500
  1619.9000      7.8098      2.5474      0.0736      6.2162    143.7885   -999.2500
  1620.0000      7.8212      2.5525      0.0535      5.9065    145.0673   -999.2500
  1620.1000      7.8212      2.5689      0.0880      4.9138    146.4186   -999.2500
  1620.2000      7.8212      2.5848      0.0375      3.9491    141.3400   -999.2500
  1620.3000      7.8360      2.5848      0.0922      3.9497    134.2435   -999.2500
  1620.4000      7.8360      2.5559      0.0465      5.7061    129.8504   -999.2500
  1620.5000      7.8342      2.5076     -0.0030      8.6309    130.7087   -999.2500
  1620.6000      7.8342      2.4659     -0.0455     11.1595    141.9865   -999.2500
  1620.7000      7.8342      2.4451     -0.0539     12.4191    156.7489   -999.2500
  1620.8000      7.8195      2.4464     -0.0470     12.3407    160.9657   -999.2500
  1620.9000      7.8195      2.4661     -0.0168     11.1459    157.0180   -999.2500
  1621.0000      7.8313      2.4999      0.0193      9.0947    154.3668   -999.2500
  1621.1000      7.8313      2.5379      0.0642      6.7959    152.8621   -999.2500
  1621.2000      7.8313      2.5621      0.0759      5.3264    150.0427   -999.2500
  1621.3000      7.8586      2.5665      0.0712      5.0621    149.2727   -999.2500
  1621.4000      7.8586      2.5651      0.0659      5.1484    151.8985   -999.2500
  1621.5000      7.8437      2.5706      0.0499      4.8123    152.2179   -999.2500
  1621.6000      7.8437      2.5786      0.0253      4.3278    146.0151   -999.2500
  1621.7000      7.8437      2.5749      0.0470      4.5530    137.6049   -999.2500
  1621.8000      7.8755      2.5540      0.0366      5.8159    135.0273   -999.2500
  1621.9000      7.8755      2.5336     -0.0258      7.0559    136.7724   -999.2500
  1622.0000      7.8761      2.5345      0.0043      6.9980    136.0025   -999.2500
  1622.1000      7.8761      2.5521      0.0336      5.9310    134.0458   -999.2500
  1622.2000      7.8761      2.5647      0.0232      5.1724    134.5350   -999.2500
  1622.3000      7.8733      2.5562      0.0254      5.6877    136.5846   -999.2500
  1622.4000      7.8733      2.5315     -0.0086      7.1841    140.4717   -999.2500
  1622.5000      7.8856      2.5072     -0.0350      8.6528    149.2925   -999.2500
  1622.6000      7.8856      2.4872     -0.0113      9.8656    162.1580   -999.2500
  1622.7000      7.8856      2.4656     -0.0127     11.1777    171.7791   -999.2500
  1622.8000      7.9064      2.4450     -0.0030     12.4250    173.6900   -999.2500
  1622.9000      7.9064      2.4363     -0.0390     12.9509    171.9565   -999.2500
  1623.0000      7.9024      2.4461     -0.0143     12.3588    169.8671   -999.2500
  1623.1000      7.9024      2.4683     -0.0041     11.0151    165.4056   -999.2500
  1623.2000      7.9024      2.4928      0.0365      9.5276    162.3589   -999.2500
  1623.3000      7.9533      2.5125      0.0384      8.3354    163.2482   -999.2500
  1623.4000      7.9533      2.5257      0.0576      7.5312    165.3131   -999.2500
  1623.5000      8.0766      2.5544      0.0390      5.7967    167.5977   -999.2500
  1623.6000      8.0766      2.6418      0.0630      0.4982    162.8073   -999.2500
  1623.7000      8.0766      2.6736      0.0615     -1.4331    149.8004   -999.2500
  1623.8000      8.1154      2.2353      0.4527     25.1349    139.5777   -999.2500
  1623.9000      8.1154      1.2680      0.0000     83.7566    136.2412   -999.2500
  1624.0000      7.2825      0.4297      0.0000    134.5657    136.8063   -999.2500
  1624.1000      7.2825      0.0816   -999.2500    155.6633    139.8007   -999.2500
  1624.2000      7.2825      0.0084   -999.2500    160.0967    143.5471   -999.2500
  1624.3000      0.9532      0.0005   -999.2500    160.5784    145.5716   -999.2500
  1624.4000      0.9532      0.0000   -999.2500    160.6061    145.1326   -999.2500
  1624.5000      0.0962      0.0000   -999.2500    160.6061    145.0306   -999.2500
  1624.6000      0.0962   -999.2500   -999.2500   -999.2500    146.3785   -999.2500
  1624.7000      0.0962   -999.2500   -999.2500   -999.2500    146.4401   -999.2500
  1624.8000   -999.2500   -999.2500   -999.2500   -999.2500    147.3718   -999.2500
  1624.9000   -999.2500   -999.2500   -999.2500   -999.2500    150.4796   -999.2500
  1625.0000   -999.2500   -999.2500   -999.2500   -999.2500    148.9410   -999.2500
  1625.1000   -999.2500   -999.2500   -999.2500   -999.2500    143.3517   -999.2500
  1625.2000   -999.2500   -999.2500   -999.2500   -999.2500    143.7966   -999.2500
  1625.3000   -999.2500   -999.2500   -999.2500   -999.2500    147.5131   -999.2500
  1625.4000   -999.2500   -999.2500   -999.2500   -999.2500    143.8877   -999.2500
  1625.5000   -999.2500   -999.2500   -999.2500   -999.2500    134.1809   -999.2500
  1625.6000   -999.2500   -999.2500   -999.2500   -999.2500    128.7658   -999.2500
  1625.7000   -999.2500   -999.2500   -999.2500   -999.2500    132.0994   -999.2500
  1625.8000   -999.2500   -999.2500   -999.2500   -999.2500    137.4821   -999.2500
  1625.9000   -999.2500   -999.2500   -999.2500   -999.2500    139.9202   -999.2500
  1626.0000   -999.2500   -999.2500   -999.2500   -999.2500    138.5710   -999.2500
  1626.1000   -999.2500   -999.2500   -999.2500   -999.2500    136.0597   -999.2500
  1626.2000   -999.2500   -999.2500   -999.2500   -999.2500    136.9061   -999.2500
  1626.3000   -999.2500   -999.2500   -999.2500   -999.2500    141.2765   -999.2500
  1626.4000   -999.2500   -999.2500   -999.2500   -999.2500    145.9548   -999.2500
  1626.5000   -999.2500   -999.2500   -999.2500   -999.2500    148.0457   -999.2500
  1626.6000   -999.2500   -999.2500   -999.2500   -999.2500    146.5580   -999.2500
  1626.7000   -999.2500   -999.2500   -999.2500   -999.2500    145.5986   -999.2500
  1626.8000   -999.2500   -999.2500   -999.2500   -999.2500    147.6587   -999.2500
  1626.9000   -999.2500   -999.2500   -999.2500   -999.2500    145.4553   -999.2500
