~Version Information
VERS.                      2.0: CWLS Log ASCII Standard - VERSION 2.0
WRAP.                       NO: One line per depth step
~Well Information Block
STRT.FT                -7.2500: 
STOP.FT               765.5000: 
STEP.FT                 0.2500: 
NULL.                -999.2500: 
COMP.          Pioneer Natural Resources: COMPANY
WELL.          Barrelman 41-27: WELL
FLD.           Purgatorie River: FIELD
LOC.           371' FNL & 493' FEL--: LOCATION
PROV.                       CO: PROVINCE
CNTY.               Las Animas: COUNTRY
SRVC.          Patterson Wireline: SERVICE COMPANY
DATE.          Wed May 25 09:32:20 2005: LOG DATE
UWI.           05 071 08334 00: UNIQUE WELL ID
~Curve Information Block
DEPT.FT            0 000 00 00: Depth
CCL.                          : Casing Collar Locator
TT3.usec                      : CBL 3' Travel Time
AMP3.mV                       : CBL 3' Amplitude
GR.GAPI                       : Gamma Ray
~Parameter Information Block
~A  Depth       CCL         TT3         AMP3         GR     
# ...
   595.7500      0.0000    954.3662      8.2144     72.0342
   596.0000      0.0000    902.9719      8.2050     73.4447
   596.2500      0.0000    858.8422      8.2255     74.9797
   596.5000      0.0000    826.7355      8.2785     76.5935
   596.7500      0.0000    805.7605      8.3038     77.9631
   597.0000      0.0000    791.5746      8.2654     78.6594
   597.2500      0.0000    779.0771      8.1829     78.1893
   597.5000      0.0000    763.9856      8.0953     75.9618
   597.7500      0.0000    742.0597      8.0260     71.6851
   598.0000      0.0000    708.6003      7.9801     66.0340
   598.2500      0.0000    662.7231      7.9556     60.6004
   598.5000      0.0000    613.4012      7.9504     56.8052
   598.7500      0.0000    577.0941      7.9640     54.9119
   599.0000      0.0000    565.5522      7.9945     54.2479
   599.2500      0.0000    576.9772      8.0339     54.2073
   599.5000      0.0000    601.2394      8.0676     54.6608
   599.7500      0.0000    631.9242      8.0800     55.3811
   600.0000      0.0000    669.2818      8.0641     55.7029
   600.2500      0.0000    712.1036      8.0270     55.2576
   600.5000      0.0000    752.7618      7.9880     54.6150
   600.7500      0.0000    782.7757      7.9700     54.5891
   601.0000      0.0000    799.8064      7.9872     55.1037
   601.2500      0.0000    807.4197      8.0361     55.2870
   601.5000      0.0000    810.5023      8.0981     54.6082
   601.7500      0.0000    812.4522      8.1488     53.4624
   602.0000      0.0000    815.1255      8.1697     52.5453
   602.2500      0.0000    819.2344      8.1540     51.9570
   602.5000      0.0000    824.1434      8.1090     51.1130
   602.7500      0.0000    828.0239      8.0505     49.4079
   603.0000      0.0000    829.4434      7.9951     46.8646
   603.2500      0.0000    829.1949      7.9529     44.2182
   603.5000      0.0000    829.9411      7.9279     42.4329
   603.7500      0.0000    833.6537      7.9205     42.0736
   604.0000      0.0000    839.6379      7.9252     43.0402
   604.2500      0.0000    845.0769      7.9255     44.7840
   604.5000      0.0000    847.1186      7.8996     46.6267
   604.7500      0.0000    844.5501      7.8358     47.8592
   605.0000      0.0000    838.3809      7.7450     47.8518
   605.2500      0.0000    831.3638      7.6594     46.4212
   605.5000      0.0000    826.3683      7.6199     44.0832
   605.7500      0.0000    824.5057      7.6625     41.6866
   606.0000      0.0000    824.7960      7.8079     39.6892
   606.2500      0.0000    825.5966      8.0563     37.9759
   606.5000      0.0000    825.9134      8.3874     36.5378
   606.7500      0.0000    825.5546      8.7637     36.0937
   607.0000      0.0000    824.9089      9.1391     37.7559
   607.2500      0.0000    824.6273      9.4723     42.1580
   607.5000      0.0000    824.7955      9.7362     49.0797
   607.7500      0.0000    824.4273      9.9167     57.6544
   608.0000      0.0000    822.2700     10.0081     66.5074
   608.2500      0.0000    817.9809     10.0134     73.8912
   608.5000      0.0000    812.4495      9.9487     78.4587
   608.7500      0.0000    807.6351      9.8420     80.2566
   609.0000      0.0000    806.2625      9.7243     80.5828
   609.2500      0.0000    810.5485      9.6151     80.6031
   609.5000      0.0000    820.2650      9.5135     80.3413
   609.7500      0.0000    832.3496      9.4031     79.1526
   610.0000      0.0000    842.9673      9.2668     76.9710
   610.2500      0.0000    849.9202      9.1014     74.8278
   610.5000      0.0000    853.1090      8.9196     74.0494
   610.7500      0.0000    853.2815      8.7388     75.0486
   611.0000      0.0000    850.8112      8.5692     77.0124
   611.2500      0.0000    845.6185      8.4110     78.5934
   611.5000      0.0000    838.0240      8.2630     78.7856
   611.7500      0.0000    829.4141      8.1312     77.4254
   612.0000      0.0000    821.7529      8.0287     75.2562
   612.2500      0.0000    816.3614      7.9636     73.5419
   612.5000      0.0000    813.2973      7.9271     73.3844
   612.7500      0.0000    811.8067      7.8956     75.0638
   613.0000      0.0000    811.0686      7.8471     77.6959
   613.2500      0.0000    810.5193      7.7785     79.6315
   613.5000      0.0000    809.7445      7.7057     79.6682
   613.7500      0.0000    808.3060      7.6482     78.0169
   614.0000      0.0000    805.8061      7.6141     75.9200
   614.2500      0.0000    802.1466      7.5983     74.4883
   614.5000      0.0000    797.6538      7.5907     74.0585
   614.7500      0.0000    792.9673      7.5846     74.2095
   615.0000      0.0000    789.0214      7.5787     74.0419
   615.2500      0.0000    787.0736      7.5735     72.7538
   615.5000      0.0000    788.2380      7.5681     70.3360
   615.7500      0.0000    792.5998      7.5620     67.6732
   616.0000      0.0000    798.9149      7.5577     65.8849
   616.2500      0.0000    805.5283      7.5600     65.5396
   616.5000      0.0000    811.6611      7.5708     66.4557
   616.7500      0.0000    817.5023      7.5852     68.1240
   617.0000      0.0000    822.9276      7.5907     70.1989
   617.2500      0.0000    826.6691      7.5757     72.5149
   617.5000      0.0000    827.4144      7.5403     74.7525
   617.7500      0.0000    825.5156      7.5010     76.3933
   618.0000      0.0000    822.7462      7.4804     77.1040
   618.2500      0.0000    820.3228      7.4938     76.9745
   618.5000      0.0000    818.1261      7.5440     76.3987
   618.7500      0.0000    816.0759      7.6276     76.0433
   619.0000      0.0000    815.0289      7.7406     76.8192
   619.2500      0.0000    815.5037      7.8808     79.2364
   619.5000      0.0000    816.4836      8.0465     82.6467
   619.7500      0.0000    816.4829      8.2319     85.6382
   620.0000      0.0000    815.2473      8.4257     87.3257
   620.2500      0.0000    813.6704      8.6145     87.8379
   620.5000      0.0000    812.4629      8.7872     87.5072
   620.7500      0.0000    811.3844      8.9369     86.0802
   621.0000      0.0000    809.5067      9.0605     83.1275
   621.2500      0.0000    806.0117      9.1572     79.1217
   621.5000      0.0000    801.1039      9.2234     75.7192
   621.7500      0.0000    796.3337      9.2532     74.6810
   622.0000      0.0000    793.5892      9.2439     76.5042
   622.2500      0.0000    793.3203      9.2015     80.0702
   622.5000      0.0000    793.9052      9.1376     83.3730
   622.7500      0.0000    793.1570      9.0620     84.5563
   623.0000      0.0000    790.4622      8.9780     82.7713
   623.2500      0.0000    787.2745      8.8839     78.4961
   623.5000      0.0000    785.7493      8.7772     73.0426
   623.7500      0.0000    787.1622      8.6585     67.6634
   624.0000      0.0000    791.2750      8.5319     63.0028
   624.2500      0.0000    796.6333      8.4039     59.0442
   624.5000      0.0000    801.4695      8.2812     55.3210
   624.7500      0.0000    804.6899      8.1696     51.3634
   625.0000      0.0000    806.2473      8.0764     47.3183
   625.2500      0.0000    806.7285      8.0107     44.1415
   625.5000      0.0000    806.7416      7.9797     42.8880
   625.7500      0.0000    806.6124      7.9835     43.7067
   626.0000      0.0000    806.3808      8.0149     45.7183
   626.2500      0.0000    805.8802      8.0639     47.9188
   626.5000      0.0000    804.8722      8.1202     50.0035
   626.7500      0.0000    803.3256      8.1738     52.2170
   627.0000      0.0000    801.6605      8.2145     54.6840
   627.2500      0.0000    800.5080      8.2312     57.1505
   627.5000      0.0000    800.0662      8.2127     59.2451
   627.7500      0.0000    799.9557      8.1557     60.7489
   628.0000      0.0000    799.9267      8.0702     61.6641
   628.2500      0.0000    800.3364      7.9726     62.1551
   628.5000      0.0000    801.5798      7.8730     62.3968
   628.7500      0.0000    803.3731      7.7708     62.4705
   629.0000      0.0000    804.9746      7.6630     62.4220
