~Version Information
VERS.                      2.0: CWLS Log ASCII Standard - VERSION 2.0
WRAP.                       NO: One line per depth step
~Well Information Block
STRT.FT                -7.2500: 
STOP.FT              2610.0000: 
STEP.FT                 0.2500: 
NULL.                -999.2500: 
COMP.          Pioneer Natural Resources: COMPANY
WELL.              Wagner 13-9: WELL
FLD.           Purgatorie River: FIELD
LOC.           1819' FSL & 1111' FWL--: LOCATION
PROV.                       CO: PROVINCE
CNTY.               Las Animas: COUNTRY
SRVC.          Patterson Wireline: SERVICE COMPANY
DATE.          Wed May 18 09:08:26 2005: LOG DATE
UWI.           05 071 08302 00: UNIQUE WELL ID
~Curve Information Block
DEPT.FT            0 000 00 00: Depth
CCL.                          : Casing Collar Locator
TT3.usec                      : CBL 3' Travel Time
AMP3.mV                       : CBL 3' Amplitude
GR.GAPI                       : Gamma Ray
~Parameter Information Block
~A  Depth       CCL         TT3         AMP3         GR     
# ...
  1701.2500      0.0000    691.7726      3.0011    111.5047
  1701.5000      0.0000    690.8011      3.3071    122.2705
  1701.7500      0.0000    689.7576      3.6113    127.8514
  1702.0000      0.0000    687.6295      3.8343    129.5618
  1702.2500      0.0000    683.3786      3.9611    130.3286
  1702.5000      0.0000    677.4368      4.0075    131.9061
  1702.7500      0.0000    671.3799      3.9890    133.5207
  1703.0000      0.0000    665.6373      3.9135    133.4086
  1703.2500      0.0000    657.3414      3.7853    131.3631
  1703.5000      0.0000    640.6614      3.6148    129.1539
  1703.7500      0.0000    610.8249      3.4329    128.5876
  1704.0000      0.0000    569.8942      3.2981    130.0410
  1704.2500      0.0000    529.0738      3.2775    132.9422
  1704.5000      0.0000    503.8904      3.4056    136.5151
  1704.7500      0.0000    505.1426      3.6539    139.2752
  1705.0000      0.0000    532.3358      3.9322    138.6678
  1705.2500      0.0000    574.2827      4.1250    132.6792
  1705.5000      0.0000    616.5139      4.1436    122.0919
  1705.7500      0.0000    649.7272      3.9761    110.4463
  1706.0000      0.0000    672.4136      3.7053    101.7167
  1706.2500      0.0000    687.2318      3.4590     98.4883
  1706.5000      0.0000    696.8230      3.3123    101.7603
  1706.7500      0.0000    702.7756      3.2347    111.2033
  1707.0000      0.0000    706.4391      3.1583    125.3404
  1707.2500      0.0000    709.3890      3.0886    142.0211
  1707.5000      0.0000    713.3592      3.1096    158.8267
  1707.7500      0.0000    719.9498      3.2752    172.7799
  1708.0000      0.0000    729.7861      3.5334    180.3431
  1708.2500      0.0000    741.6263      3.7695    179.1237
  1708.5000      0.0000    752.9089      3.8918    170.0975
  1708.7500      0.0000    761.5112      3.8623    157.2827
  1709.0000      0.0000    766.3893      3.6838    144.7459
  1709.2500      0.0000    766.8799      3.4004    134.3025
  1709.5000      0.0000    762.8813      3.1033    125.9017
  1709.7500     -2.0000    755.5460      2.9059    119.2630
  1710.0000      0.0000    746.4057      2.8834    114.6851
  1710.2500      0.0000    736.1326      3.0194    112.5894
  1710.5000      0.0000    725.1887      3.2123    112.6469
  1710.7500      0.0000    715.2558      3.3447    113.5088
  1711.0000      0.0000    709.0907      3.3647    113.6193
  1711.2500      0.0000    708.9768      3.3118    112.3618
  1711.5000      0.0000    715.8608      3.2631    110.2898
  1711.7500      0.0000    729.5153      3.2562    108.3756
  1712.0000      0.0000    748.1245      3.2768    107.2800
  1712.2500      0.0000    767.1902      3.3165    106.9563
  1712.5000      0.0000    780.1792      3.3957    106.5510
  1712.7500      0.0000    781.9779      3.5178    105.2169
  1713.0000      0.0000    772.5749      3.6473    103.6182
  1713.2500      0.0000    757.6210      3.7556    104.2168
  1713.5000      0.0000    744.9284      3.8550    109.4240
  1713.7500      0.0000    739.1132      3.9633    119.2789
  1714.0000      0.0000    738.6335      4.0552    130.8246
  1714.2500      0.0000    738.0900      4.0707    139.7421
  1714.5000      0.0000    733.7072      3.9719    143.0339
  1714.7500      0.0000    726.4332      3.7949    140.5700
  1715.0000      0.0000    720.0524      3.6405    134.4375
  1715.2500      0.0000    717.4733      3.5856    127.4035
  1715.5000      0.0000    718.9769      3.5994    122.0308
  1715.7500      0.0000    722.4899      3.5734    120.0791
  1716.0000      0.0000    724.6750      3.4468    121.6076
  1716.2500      0.0000    722.5845      3.2737    124.8550
  1716.5000      0.0000    715.4141      3.1508    127.6850
  1716.7500      0.0000    705.1277      3.1133    129.2096
  1717.0000      0.0000    695.4783      3.1387    129.9114
  1717.2500      0.0000    689.9359      3.2156    130.5337
  1717.5000      0.0000    689.4838      3.3395    131.3337
  1717.7500      0.0000    691.9601      3.4569    132.5293
  1718.0000      0.0000    693.7864      3.4924    134.9778
  1718.2500      0.0000    692.5609      3.4480    139.6900
  1718.5000      0.0000    688.5022      3.4181    146.5071
  1718.7500      0.0000    684.1647      3.4749    153.6519
  1719.0000      0.0000    682.7155      3.5784    158.7647
  1719.2500      0.0000    685.6761      3.6328    160.2037
  1719.5000      0.0000    691.8790      3.6059    157.6712
  1719.7500      0.0000    698.6087      3.5475    152.3286
  1720.0000      0.0000    703.6831      3.4975    146.3959
  1720.2500      0.0000    706.4645      3.4300    141.9326
  1720.5000      0.0000    707.4343      3.3139    139.4601
  1720.7500      0.0000    707.3680      3.1835    137.7541
  1721.0000      0.0000    706.8917      3.1073    135.1257
  1721.2500      0.0000    706.3569      3.1177    130.9985
  1721.5000      0.0000    705.7681      3.2080    126.4074
  1721.7500      0.0000    704.6801      3.3645    122.9885
  1722.0000      0.0000    702.2005      3.5477    121.4023
  1722.2500      0.0000    697.3730      3.6697    120.7173
  1722.5000      0.0000    689.9932      3.6494    119.4840
  1722.7500      0.0000    681.1937      3.4985    117.3921
  1723.0000      0.0000    672.9725      3.3286    115.5813
  1723.2500      0.0000    666.9232      3.2658    115.2055
  1723.5000      0.0000    663.4128      3.3539    115.9593
  1723.7500      0.0000    661.8220      3.5268    116.2419
  1724.0000      0.0000    661.2770      3.6630    114.7447
  1724.2500      0.0000    661.1512      3.6770    111.6980
  1724.5000      0.0000    661.1777      3.5788    108.4404
  1724.7500      0.0000    661.3298      3.4530    105.9154
  1725.0000      0.0000    661.6673      3.3802    103.9079
  1725.2500      0.0000    662.3162      3.3725    101.6885
  1725.5000      0.0000    663.6297      3.3756     98.9590
  1725.7500      0.0000    666.2945      3.3290     96.0082
  1726.0000      0.0000    671.0219      3.2195     93.2761
  1726.2500      0.0000    677.8210      3.0829     90.9084
  1726.5000      0.0000    685.5597      2.9677     88.4616
  1726.7500      0.0000    692.5315      2.9140     84.9808
  1727.0000      0.0000    697.6291      2.9505     79.8954
  1727.2500      0.0000    700.9857      3.0825     74.1562
  1727.5000      0.0000    703.6932      3.2691     69.9664
  1727.7500      0.0000    707.1172      3.4246     68.8848
  1728.0000      0.0000    711.9906      3.4579     70.4675
  1728.2500      0.0000    717.1760      3.3301     72.9737
  1728.5000      0.0000    719.1685      3.0801     74.8533
  1728.7500      0.0000    714.0276      2.7896     75.3388
  1729.0000      0.0000    700.9833      2.5194     74.5202
  1729.2500      0.0000    684.0696      2.2804     73.6775
  1729.5000      0.0000    669.7107      2.0592     74.9741
  1729.7500      0.0000    662.4960      1.8588     79.8270
  1730.0000      0.0000    662.7215      1.7028     87.4437
  1730.2500      0.0000    667.1258      1.6068     95.0760
  1730.5000      0.0000    671.7156      1.5667     99.4073
  1730.7500      0.0000    674.3348      1.5687     98.0281
  1731.0000      0.0000    675.1594      1.5881     90.8017
  1731.2500      0.0000    675.3333      1.5893     80.3913
  1731.5000      0.0000    675.5302      1.5528     70.8668
  1731.7500      0.0000    676.0154      1.5049     65.2550
  1732.0000      0.0000    677.6782      1.4999     64.3279
  1732.2500      0.0000    681.8080      1.5714     67.4128
  1732.5000      0.0000    688.0262      1.7066     73.7919
  1732.7500      0.0000    693.2827      1.8532     83.1395
  1733.0000      0.0000    694.4245      1.9450     94.9474
  1733.2500      0.0000    691.9449      1.9462    107.9453
  1733.5000      0.0000    690.2441      1.8866    120.2217
  1733.7500      0.0000    693.5620      1.8418    129.9594
  1734.0000      0.0000    701.6968      1.8730    136.3353
  1734.2500      0.0000    709.9834      1.9971    139.9220
  1734.5000      0.0000    713.6146      2.2126    141.8958
