~Version Information
VERS.                      2.0: CWLS Log ASCII Standard - VERSION 2.0
WRAP.                       NO: One line per depth step
~Well Information Block
STRT.FT                -7.7500: 
STOP.FT              1383.2500: 
STEP.FT                 0.2500: 
NULL.                -999.2500: 
COMP.          Petrogulf Corporation: COMPANY
WELL.          Great Plains 22-22R: WELL
FLD.           Purgatoire River: FIELD
LOC.           2042' FNL & 1657' FWL SENW 22 33S 67W ----: LOCATION
PROV.                 Colorado: PROVINCE
CNTY.               Las Animas: COUNTRY
SRVC.                         : SERVICE COMPANY
DATE.          Thu Sep 22 14:55:58 2005: LOG DATE
UWI.             07108028     : UNIQUE WELL ID
~Curve Information Block
DEPT.FT            0 000 00 00: Depth
CCL.                          : Casing Collar Locator
TT3.usec                      : CBL 3' Travel Time
AMP3.mV                       : CBL 3' Amplitude
GR.GAPI                       : Gamma Ray
~Parameter Information Block
~A  Depth       CCL         TT3         AMP3         GR     
# ...
   628.7500      0.0000    689.8230      6.9125     79.3265
   629.0000      0.0000    684.2151      7.4406     77.0113
   629.2500      0.0000    680.4941      8.0147     74.7942
   629.5000      0.0000    678.3250      8.6256     72.2835
   629.7500      0.0000    673.7707      9.2970     69.9316
   630.0000      0.0000    661.3815     10.0662     68.8024
   630.2500      0.0000    638.3699     10.9374     69.9757
   630.5000      0.0000    608.4969     11.8435     73.7209
   630.7500      0.0000    581.4147     12.6620     79.0918
   631.0000      0.0000    566.3199     13.2899     84.4102
   631.2500      0.0000    564.1978     13.7193     88.2968
   631.5000      0.0000    564.7144     14.0386     90.4358
   631.7500      0.0000    551.7800     14.3585     91.4548
   632.0000      0.0000    516.0375     14.7333     91.8970
   632.2500      0.0000    463.8338     15.1367     91.3083
   632.5000      0.0000    412.8553     15.4842     88.7601
   632.7500      0.0000    378.7024     15.6761     84.3408
   633.0000      0.0000    365.7031     15.6428     79.5752
   633.2500      0.0000    368.2358     15.3762     76.1656
   633.5000      0.0000    378.9466     14.9188     74.7056
   633.7500      0.0000    396.9480     14.3178     74.6321
   634.0000      0.0000    429.2308     13.5963     74.9656
   634.2500      0.0000    482.5438     12.7670     75.0169
   634.5000      0.0000    552.8040     11.8543     74.6034
   634.7500      0.0000    623.3663     10.8927     73.6301
   635.0000      0.0000    675.0715      9.9096     71.6441
   635.2500      0.0000    698.5225      8.9196     68.0667
   635.5000      0.0000    697.9322      7.9417     62.8237
   635.7500      0.0000    685.6926      7.0217     56.6080
   636.0000      0.0000    674.1238      6.2355     50.5551
   636.2500      0.0000    669.9307      5.6697     45.6415
   636.5000      0.0000    673.3234      5.4000     42.2594
   636.7500      0.0000    680.9306      5.4710     40.4320
   637.0000      0.0000    689.7680      5.8737     40.5606
   637.2500      0.0000    698.9724      6.5318     43.7675
   637.5000      0.0000    708.0335      7.3269     51.3330
   637.7500      0.0000    714.3753      8.1551     63.8206
   638.0000      0.0000    714.4279      8.9673     80.5531
   638.2500      0.0000    707.5173      9.7549     99.2651
   638.5000      0.0000    697.2113     10.4976    116.0362
   638.7500      0.0000    688.1685     11.1193    126.4973
   639.0000      0.0000    682.7195     11.4974    128.2117
   639.2500      0.0000    680.7920     11.5209    122.1594
   639.5000      0.0000    681.8758     11.1497    111.8894
   639.7500      0.0000    686.0863     10.4330    101.3655
   640.0000      0.0000    693.5709      9.4891     93.2220
   640.2500      0.0000    703.5544      8.4613     88.1192
   640.5000      0.0000    714.0609      7.4731     85.1469
   640.7500      0.0000    722.0474      6.6195     83.0894
   641.0000      0.0000    723.8488      5.9987     81.7989
   641.2500      0.0000    716.7138      5.7189     82.4494
   641.5000      0.0000    700.9350      5.8246     86.2726
   641.7500      0.0000    680.2339      6.1985     92.9798
   642.0000      0.0000    659.9783      6.5583    100.5681
   642.2500      0.0000    645.4271      6.6099    106.6254
   642.5000      0.0000    640.5167      6.2559    109.6961
   642.7500      0.0000    645.6956      5.6620    109.7877
   643.0000      0.0000    656.0652      5.1074    108.1625
   643.2500      0.0000    663.3520      4.7670    106.6101
   643.5000     -2.0000    661.5701      4.6270    106.4121
   643.7500      2.0000    650.7567      4.5665    107.6399
   644.0000      0.0000    635.1703      4.4853    109.2523
   644.2500     -2.0000    619.5312      4.3728    109.8508
   644.5000      0.0000    608.1614      4.3121    108.4928
   644.7500      0.0000    605.5526      4.4422    105.1023
   645.0000      0.0000    614.2098      4.8868    100.5557
   645.2500      0.0000    631.6063      5.6582     96.6993
   645.5000      0.0000    651.1826      6.6066     96.0046
   645.7500      0.0000    666.7440      7.4914    100.3901
   646.0000      0.0000    675.6523      8.1456    109.7291
   646.2500      0.0000    678.8463      8.5817    121.5389
   646.5000      0.0000    678.8788      8.9348    132.5574
   646.7500      0.0000    677.9202      9.3062    140.9659
   647.0000      0.0000    676.9642      9.6731    147.1709
   647.2500      0.0000    676.0447      9.9428    152.5397
   647.5000      0.0000    674.8122     10.0769    157.6458
   647.7500      0.0000    673.1087     10.1434    161.8573
   648.0000      0.0000    671.4519     10.2540    164.4276
   648.2500      0.0000    670.8457     10.4706    165.5263
   648.5000      0.0000    671.8728     10.7797    165.8403
   648.7500      0.0000    674.0966     11.1399    165.3503
   649.0000      0.0000    676.5085     11.5387    163.1552
   649.2500      0.0000    678.3440     12.0048    158.5946
   649.5000      0.0000    679.2944     12.5692    151.9595
   649.7500      0.0000    679.1531     13.2093    144.0759
   650.0000      0.0000    677.5109     13.8195    135.8313
   650.2500      0.0000    673.8967     14.2442    128.1019
   650.5000      0.0000    668.3495     14.3642    121.4830
   650.7500      0.0000    661.8852     14.1751    116.0852
   651.0000      0.0000    656.1863     13.7829    111.9038
   651.2500      0.0000    652.7097     13.3219    109.1439
   651.5000      0.0000    652.1268     12.8709    107.8991
   651.7500      0.0000    654.4510     12.4337    107.7468
   652.0000      0.0000    659.2949     11.9743    107.9587
   652.2500      0.0000    665.8004     11.4641    108.0509
   652.5000      0.0000    672.4839     10.9091    107.9828
   652.7500      0.0000    677.5660     10.3460    107.8593
   653.0000      0.0000    679.9119      9.8167    107.6029
   653.2500      0.0000    679.7627      9.3459    106.8729
   653.5000      0.0000    678.3663      8.9416    105.2665
   653.7500      0.0000    676.9231      8.6099    102.7034
   654.0000      0.0000    675.9954      8.3585     99.6321
   654.2500      0.0000    675.6468      8.1887     96.7795
   654.5000      0.0000    675.7452      8.0882     94.6290
   654.7500      0.0000    675.9313      8.0366     93.1203
   655.0000      0.0000    675.3236      8.0197     91.8209
   655.2500      0.0000    672.3246      8.0402     90.3368
   655.5000      0.0000    665.2693      8.1149     88.4733
   655.7500      0.0000    654.3946      8.2600     86.1496
   656.0000      0.0000    643.5751      8.4820     83.5227
   656.2500      0.0000    638.6810      8.7776     81.1404
   656.5000      0.0000    642.4735      9.1330     79.4906
   656.7500      0.0000    651.4683      9.5227     78.4223
   657.0000      0.0000    658.6303      9.9107     77.5121
   657.2500      0.0000    658.7694     10.2545     76.9243
   657.5000      0.0000    651.8625     10.5114     77.3717
   657.7500      0.0000    643.0607     10.6552     79.3590
   658.0000      0.0000    639.3766     10.6950     82.9889
   658.2500      0.0000    644.3026     10.6799     88.1758
   658.5000      0.0000    655.1392     10.6758     94.5276
   658.7500      0.0000    666.1336     10.7240    101.5095
   659.0000      0.0000    673.5089     10.8151    109.1635
   659.2500      0.0000    676.9697     10.9102    117.9424
   659.5000      0.0000    677.9228     10.9907    127.2647
   659.7500      0.0000    677.4657     11.0804    134.8923
   660.0000      0.0000    675.4659     11.2149    138.5846
   660.2500      0.0000    670.2974     11.3981    138.3005
   660.5000      0.0000    659.7336     11.5998    136.3859
   660.7500      0.0000    643.9416     11.7833    135.8500
   661.0000      0.0000    628.4082     11.9264    138.6160
   661.2500      0.0000    621.8071     12.0255    144.6286
   661.5000      0.0000    628.5291     12.0930    151.7707
   661.7500      0.0000    644.2343     12.1534    156.9902
   662.0000      0.0000    660.0359     12.2437    158.3988
