~Version Information
VERS.                      2.0: CWLS Log ASCII Standard - VERSION 2.0
WRAP.                       NO: One line per depth step
~Well Information Block
STRT.FT               475.0000: 
STOP.FT              2336.7000: 
STEP.FT                 0.1000: 
NULL.                -999.2500: 
COMP.          Pioneer Natural Resources: COMPANY
WELL.              Bobsy 34-11: WELL
FLD.           Purgatoire River: FIELD
LOC.           1937' FEL & 451' FSL----: LOCATION
PROV.                 Colorado: PROVINCE
CNTY.               Las Animas: COUNTRY
SRVC.                Patterson: SERVICE COMPANY
DATE.          Fri Apr 08 11:07:54 2005: LOG DATE
UWI.           05 071 08330 00: UNIQUE WELL ID
~Curve Information Block
DEPT.FT            0 000 00 00: Depth
DCAL.in                       : CDL Caliper
RHOB.g/cc                     : CDL Bulk Density
RHOC.g/cc                     : CDL Density Correction
DPOR.pu                       : CDL Density Porosity
NPOR.pu                       : Neutron Porosity
GR.GAPI                       : Gamma Ray
~Parameter Information Block
~A  Depth       DCAL        RHOB        RHOC        DPOR        NPOR         GR     
# ...
  1329.4000      8.0025      2.5475     -0.0102      6.2122     27.8536    112.1403
  1329.5000      8.0087      2.5607      0.0402      5.4098     27.7256    116.5807
  1329.6000      8.0087      2.5737      0.0501      4.6218     27.8190    122.6979
  1329.7000      8.0087      2.5879      0.0804      3.7655     27.9583    126.6126
  1329.8000      8.0155      2.6066      0.0821      2.6294     28.0128    128.7292
  1329.9000      8.0155      2.6393      0.0938      0.6477     27.8389    131.2258
  1330.0000      8.0185      2.6871      0.1750     -2.2507     27.4303    132.8743
  1330.1000      8.0185      2.7200      0.2023     -4.2427     27.2219    132.7910
  1330.2000      8.0185      2.7132      0.1425     -3.8289     27.3458    129.7726
  1330.3000      8.0129      2.6841      0.0577     -2.0644     27.6000    123.2842
  1330.4000      8.0129      2.6614      0.0630     -0.6926     27.9167    117.0663
  1330.5000      8.0039      2.6577      0.0100     -0.4660     28.1460    114.5764
  1330.6000      8.0039      2.6708      0.0600     -1.2628     28.2994    116.0360
  1330.7000      8.0039      2.6808      0.0474     -1.8664     28.4661    122.0705
  1330.8000      7.9965      2.6666      0.0442     -1.0048     28.2755    130.0267
  1330.9000      7.9965      2.6363     -0.0228      0.8274     27.4827    137.2388
  1331.0000      7.9882      2.6137      0.0318      2.2030     26.8168    145.1075
  1331.1000      7.9882      2.5987      0.0842      3.1099     26.9224    151.6794
  1331.2000      7.9882      2.5866      0.0583      3.8429     27.4809    150.6364
  1331.3000      7.9931      2.5830      0.0710      4.0610     27.9610    144.0645
  1331.4000      7.9931      2.5827      0.0854      4.0808     28.0059    140.9521
  1331.5000      8.0280      2.5782      0.0634      4.3503     27.5037    141.4648
  1331.6000      8.0280      2.5714      0.0715      4.7638     26.9041    140.7342
  1331.7000      8.0280      2.5670      0.0533      5.0306     26.8574    138.6061
  1331.8000      8.0673      2.5672      0.0632      5.0179     27.5146    133.5352
  1331.9000      8.0673      2.5647      0.0851      5.1671     28.2616    129.8754
  1332.0000      8.0781      2.5580      0.0419      5.5747     28.5405    132.1648
  1332.1000      8.0781      2.5607      0.0555      5.4146     28.3336    137.9022
  1332.2000      8.0781      2.5725      0.1210      4.6988     27.8641    142.8187
  1332.3000      8.0640      2.5729      0.1020      4.6704     27.5008    141.8878
  1332.4000      8.0640      2.5539      0.0876      5.8270     27.1921    136.3450
  1332.5000      8.0457      2.5304      0.0358      7.2474     26.6949    134.4639
  1332.6000      8.0457      2.5210      0.0547      7.8175     26.2615    138.4613
  1332.7000      8.0457      2.5246      0.0618      7.6020     26.2545    138.5295
  1332.8000      8.0297      2.5315      0.0428      7.1821     26.6380    132.6143
  1332.9000      8.0297      2.5447      0.0328      6.3828     27.1413    131.6035
  1333.0000      8.0171      2.5636      0.0761      5.2384     27.6830    135.4356
  1333.1000      8.0171      2.5750      0.0571      4.5456     28.0601    135.2446
  1333.2000      8.0171      2.5761      0.0725      4.4776     28.1148    133.6028
  1333.3000      8.0129      2.5725      0.0469      4.6998     27.9450    136.5298
  1333.4000      8.0129      2.5618      0.0971      5.3452     27.9027    141.5464
  1333.5000      8.0147      2.5396      0.0528      6.6924     28.0669    140.0781
  1333.6000      8.0147      2.5115      0.0659      8.3929     27.9145    129.7543
  1333.7000      8.0147      2.4872      0.0731      9.8663     27.0974    118.2778
  1333.8000      8.0166      2.4713      0.0260     10.8330     25.6714    111.1768
  1333.9000      8.0166      2.4659      0.0168     11.1581     24.4006    108.2425
  1334.0000      8.0188      2.4742      0.0107     10.6565     24.0259    105.9349
  1334.1000      8.0188      2.4933      0.0798      9.4978     23.9822    101.3685
  1334.2000      8.0188      2.5109      0.0845      8.4301     23.4611     96.5739
  1334.3000      8.0210      2.5287      0.0556      7.3544     22.6760     89.4508
  1334.4000      8.0210      2.5610      0.0983      5.3939     21.9759     78.5477
  1334.5000      8.0232      2.6096      0.1240      2.4482     21.1695     72.4995
  1334.6000      8.0232      2.6693      0.0827     -1.1725     20.1624     74.6645
  1334.7000      8.0232      2.7264      0.1136     -4.6301     19.2493     77.1388
  1334.8000      8.0277      2.7565      0.0778     -6.4540     18.5120     75.1761
  1334.9000      8.0277      2.7606      0.0442     -6.7035     17.9058     71.2401
  1335.0000      8.0327      2.7602      0.0514     -6.6775     17.3655     68.0798
  1335.1000      8.0327      2.7679      0.0553     -7.1430     16.6477     67.0795
  1335.2000      8.0327      2.7809      0.0808     -7.9304     15.8201     68.6126
  1335.3000      8.0318      2.7858      0.0586     -8.2294     15.2678     70.6237
  1335.4000      8.0318      2.7761      0.0592     -7.6400     15.1206     71.9230
  1335.5000      8.0281      2.7624      0.0024     -6.8140     15.1741     72.8471
  1335.6000      8.0281      2.7670      0.0037     -7.0904     14.9805     70.5525
  1335.7000      8.0281      2.7901      0.0431     -8.4903     14.5159     65.9428
  1335.8000      8.0264      2.8012      0.0721     -9.1656     14.4318     63.6869
  1335.9000      8.0264      2.7903      0.0044     -8.5009     15.1467     62.7857
  1336.0000      8.0263      2.7813      0.0175     -7.9581     16.5716     62.5398
  1336.1000      8.0263      2.7870      0.0163     -8.3045     17.6631     65.3110
  1336.2000      8.0263      2.7972      0.0591     -8.9185     17.5337     70.3503
  1336.3000      8.0266      2.8024      0.0416     -9.2338     16.9911     74.4385
  1336.4000      8.0266      2.8029      0.0513     -9.2644     16.9393     74.3323
  1336.5000      8.0269      2.7966      0.0755     -8.8821     17.1028     69.9359
  1336.6000      8.0269      2.7840     -0.0002     -8.1242     16.7750     66.2387
  1336.7000      8.0269      2.7813      0.0114     -7.9585     15.9839     65.4201
  1336.8000      8.0281      2.7921      0.0126     -8.6132     15.6460     64.8548
  1336.9000      8.0281      2.7953      0.0244     -8.8079     16.4745     64.9364
  1337.0000      8.0304      2.7773      0.0225     -7.7148     17.6993     67.0792
  1337.1000      8.0304      2.7508     -0.0159     -6.1114     18.0099     68.7142
  1337.2000      8.0304      2.7338      0.0176     -5.0797     17.5640     67.5955
  1337.3000      8.0321      2.7271      0.0084     -4.6699     17.3741     64.5846
  1337.4000      8.0321      2.7247     -0.0031     -4.5292     17.8284     61.1432
  1337.5000      8.0311      2.7239     -0.0252     -4.4805     18.7165     58.9592
  1337.6000      8.0311      2.7242     -0.0031     -4.4977     19.6637     59.6761
  1337.7000      8.0311      2.7244      0.0126     -4.5112     20.8016     64.4877
  1337.8000      8.0290      2.7135      0.0550     -3.8465     22.2666     69.9887
  1337.9000      8.0290      2.6673      0.0435     -1.0498     23.4020     71.0016
  1338.0000      8.0289      2.5860     -0.0899      3.8765     24.2887     67.3821
  1338.1000      8.0289      2.4959     -0.0527      9.3391     25.6911     60.7874
  1338.2000      8.0289      2.4002     -0.0817     15.1409     26.9298     53.9976
  1338.3000      8.0313      2.2955     -0.1269     21.4828     27.0899     52.1655
  1338.4000      8.0313      2.1979     -0.1455     27.4011     26.8414     55.2834
  1338.5000      8.0323      2.1179     -0.1745     32.2483     26.9352     55.7271
  1338.6000      8.0323      2.0443     -0.0882     36.7098     26.9654     50.4842
  1338.7000      8.0323      1.9670     -0.1010     41.3928     26.5733     44.1684
  1338.8000      8.0300      1.9096     -0.0744     44.8735     26.2520     42.5575
  1338.9000      8.0300      1.9024     -0.0413     45.3118     26.3966     48.6864
