~Version Information
VERS.                      2.0: CWLS Log ASCII Standard - VERSION 2.0
WRAP.                       NO: One line per depth step
~Well Information Block
STRT.FT               664.0000: 
STOP.FT              1615.5000: 
STEP.FT                 0.2500: 
NULL.                -999.2500: 
COMP.          Petrogulf Corporation: COMPANY
WELL.          Great Plains 22-21R: WELL
FLD.           Purgatorie River: FIELD
LOC.           73' FNL & 1992' FWL: LOCATION
PROV.                 Colorado: PROVINCE
CNTY.               Las Animas: COUNTRY
SRVC.                Patterson: SERVICE COMPANY
DATE.          Thu Sep 08 08:05:26 2005: LOG DATE
UWI.                          : UNIQUE WELL ID
~Curve Information Block
DEPT.FT            0 000 00 00: Depth
SP.mV                         : DIL Spontaneous Potential
RILD.Ohm-m                    : DIL Deep Resistivity
RILM.Ohm-m                    : DIL Medium Resistivity
RLL3.Ohm-m                    : DIL Shallow Resistivity
GR.GAPI                       : Gamma Ray
~Parameter Information Block
~A  Depth        SP         RILD        RILM        RLL3         GR     
# ...
  1392.0000    143.5953     14.5366     18.5246     23.8104   -999.2500
  1392.2500    143.3044     14.3010     17.6167     20.8319   -999.2500
  1392.5000    142.9274     14.3662     16.6960     20.4029   -999.2500
  1392.7500    142.5536     14.0774     16.1462     19.8846   -999.2500
  1393.0000    142.2341     13.7578     15.6205     17.9254   -999.2500
  1393.2500    142.0074     13.8936     15.2091     16.9142   -999.2500
  1393.5000    141.9112     14.0427     14.6127     16.5878   -999.2500
  1393.7500    141.9010     14.0356     14.1828     15.7269   -999.2500
  1394.0000    141.8645     14.1670     13.8475     13.4117   -999.2500
  1394.2500    141.8683     14.0846     14.0205     11.9722   -999.2500
  1394.5000    141.8543     14.0702     14.5732     12.2586   -999.2500
  1394.7500    141.7534     13.8859     15.2025     16.5896   -999.2500
  1395.0000    141.5415     13.5881     15.7470     23.4574   -999.2500
  1395.2500    141.2821     13.3971     16.2314     27.8888   -999.2500
  1395.5000    141.0554     13.3339     16.3978     29.8244   -999.2500
  1395.7500    140.8978     13.5103     15.5903     33.3974   -999.2500
  1396.0000    140.7323     13.4944     14.8119     30.8206   -999.2500
  1396.2500    140.5464     13.8014     14.3088     18.4090   -999.2500
  1396.5000    140.3692     14.4165     13.9659     13.0013   -999.2500
  1396.7500    140.2465     14.9866     13.9574     13.0893   -999.2500
  1397.0000    140.1721     15.5140     14.5297     13.4159   -999.2500
  1397.2500    140.0935     15.8031     15.7456     14.2467   -999.2500
  1397.5000    140.0165     15.7592     17.2427     17.5097   -999.2500
  1397.7500    140.0109     15.4867     18.8752     22.7704   -999.2500
  1398.0000    140.1343     14.9552     20.2739     30.1321   -999.2500
  1398.2500    140.4074     14.1941     21.1281     39.6921   -999.2500
  1398.5000    140.8593     13.2469     21.0384     44.6454   -999.2500
  1398.7500    141.4610     12.4938     19.6436     39.9606   -999.2500
  1399.0000    142.2372     11.7169     17.8449     33.8975   -999.2500
  1399.2500    142.8986     11.2382     16.0116     31.7015   -999.2500
  1399.5000    143.4585     10.7365     14.1060     28.6700   -999.2500
  1399.7500    143.8837     10.4923     12.0731     21.8275   -999.2500
  1400.0000    144.2956     10.2823     10.4583     12.8791   -999.2500
  1400.2500    144.7439      9.9856      9.4751      8.3163   -999.2500
  1400.5000    145.0102      9.6610      8.8199      7.1758   -999.2500
  1400.7500    145.2167      9.3241      8.5062      7.0926   -999.2500
  1401.0000    145.3353      8.9027      8.4457      7.6292   -999.2500
  1401.2500    145.3910      8.4941      8.3433      9.4216   -999.2500
  1401.5000    145.4702      8.1191      8.2680     11.2902   -999.2500
  1401.7500    145.4946      7.8909      7.9805     11.5973   -999.2500
  1402.0000    145.4643      7.7412      7.6785     10.7527   -999.2500
  1402.2500    145.4711      7.5772      7.4120      9.6211   -999.2500
  1402.5000    145.5354      7.5412      7.2736      8.7259   -999.2500
  1402.7500    145.6669      7.6375      7.3145      8.5147   -999.2500
  1403.0000    145.7701      7.7868      7.4188      9.1784   -999.2500
  1403.2500    145.9179      7.9612      7.5715     10.2817   -999.2500
  1403.5000    146.1191      8.1900      7.9405     10.8693   -999.2500
  1403.7500    146.2624      8.4093      8.1533     10.9843   -999.2500
  1404.0000    146.2010      8.6098      8.4498     10.8305   -999.2500
  1404.2500    146.1004      8.7283      8.7119     10.6589   -999.2500
  1404.5000    146.0490      8.8977      9.0893     10.5038   -999.2500
  1404.7500    146.0348      9.0927      9.4508     12.2666   -999.2500
  1405.0000    146.0324      9.2835      9.8515     17.2963   -999.2500
  1405.2500    145.9937      9.4887     10.1898     17.8950   -999.2500
  1405.5000    146.0108      9.5833     10.4327     13.4554   -999.2500
  1405.7500    145.9598      9.5624     10.6204     12.8959   -999.2500
  1406.0000    145.8591      9.5008     10.6657     14.1001   -999.2500
  1406.2500    145.7811      9.5364     10.8308     14.4593   -999.2500
  1406.5000    145.7451      9.5053     10.8052     14.3186   -999.2500
  1406.7500    145.7638      9.4990     10.5787     14.2839   -999.2500
  1407.0000    145.8826      9.4984     10.3751     13.2193   -999.2500
  1407.2500    146.0743      9.2737     10.1402     11.6010   -999.2500
  1407.5000    146.2719      9.0261      9.7579     10.5217   -999.2500
  1407.7500    146.5080      8.7620      9.5234     10.4810   -999.2500
  1408.0000    146.6507      8.4994      9.2393     11.1214   -999.2500
  1408.2500    146.7286      8.2531      9.0197     11.5366   -999.2500
  1408.5000    146.6532      7.9738      8.6054     11.5012   -999.2500
  1408.7500    146.4487      7.7584      8.1466     10.7799   -999.2500
  1409.0000    146.1836      7.5584      7.8035      9.6785   -999.2500
  1409.2500    145.8493      7.3613      7.4015      8.8574   -999.2500
  1409.5000    145.4603      7.2102      7.0924      8.5402   -999.2500
  1409.7500    145.0550      7.1096      6.8791      8.2272   -999.2500
  1410.0000    144.5049      7.0896      6.7097      8.2664   -999.2500
  1410.2500    143.9262      7.0173      6.5994      8.3388   -999.2500
  1410.5000    143.3787      6.9946      6.5600      8.5450   -999.2500
  1410.7500    142.7895      7.0413      6.5206      8.7070   -999.2500
  1411.0000    142.1412      7.0874      6.5301      8.9234   -999.2500
  1411.2500    141.5631      7.2435      6.5303      9.0702   -999.2500
  1411.5000    141.1265      7.4508      6.6338      9.1194   -999.2500
  1411.7500    140.8080      7.7023      6.7965      8.8016   -999.2500
  1412.0000    140.5497      8.0835      7.1158      8.5182   -999.2500
  1412.2500    140.3404      8.3866      7.6291      8.4506   -999.2500
  1412.5000    140.2334      8.7703      8.3581      9.5626   -999.2500
  1412.7500    140.0736      9.2525      9.2789     12.5613   -999.2500
  1413.0000    139.7926      9.7434     10.4238     17.9856   -999.2500
  1413.2500    139.4166     10.3656     11.6684     25.6382   -999.2500
  1413.5000    138.9069     11.1005     13.0170     34.1990   -999.2500
  1413.7500    138.4442     11.7791     14.4041     41.1295   -999.2500
  1414.0000    137.9781     12.5862     15.6801     39.2759   -999.2500
  1414.2500    137.5192     13.8383     16.9511     32.5610   -999.2500
  1414.5000    137.0057     15.1713     18.2208     29.9154   -999.2500
  1414.7500    136.3369     16.5861     20.5979     30.4203   -999.2500
  1415.0000    135.5367     18.3204     23.5062     33.8403   -999.2500
  1415.2500    134.7339     20.1332     26.7030     41.0560   -999.2500
  1415.5000    133.9417     21.5727     30.1416     50.1590   -999.2500
  1415.7500    133.2950     22.7917     33.8811     59.4329   -999.2500
  1416.0000    132.7695     24.0186     37.3509     66.7129   -999.2500
  1416.2500    132.3499     25.2332     38.8984     69.8936   -999.2500
  1416.5000    132.0059     25.7186     38.0666     70.8218   -999.2500
  1416.7500    131.7742     26.8510     42.1106     71.5920   -999.2500
  1417.0000    131.7406     27.3663     43.2352     69.1629   -999.2500
  1417.2500    131.8210     27.3549     42.8588     63.8896   -999.2500
  1417.5000    131.8009     28.3569     42.3716     60.1486   -999.2500
  1417.7500    131.7362     28.9636     42.1339     58.2908   -999.2500
  1418.0000    131.7068     29.0384     45.3213     56.9113   -999.2500
  1418.2500    131.7766     29.6054     44.2302     56.9701   -999.2500
  1418.5000    131.9660     29.4621     46.1592     62.5576   -999.2500
  1418.7500    132.2437     28.7187     47.0937     74.1398   -999.2500
  1419.0000    132.6749     29.4669     49.1360     85.2261   -999.2500
  1419.2500    133.2876     29.6128     46.4618     90.2699   -999.2500
  1419.5000    134.0113     28.6778     44.0364     88.1861   -999.2500
  1419.7500    134.8098     27.5397     41.3992     76.6969   -999.2500
