~Version Information
VERS.                      2.0: CWLS Log ASCII Standard - VERSION 2.0
WRAP.                       NO: One line per depth step
~Well Information Block
STRT.FT               450.0000: 
STOP.FT              1739.2000: 
STEP.FT                 0.1000: 
NULL.                -999.2500: 
COMP.          Pioneer Natural Resources: COMPANY
WELL.            Harlee L 34-9: WELL
FLD.           Purgatoire River: FIELD
LOC.           600' FSL & 2125' FEL: LOCATION
PROV.                 Colorado: PROVINCE
CNTY.               Las Animas: COUNTRY
SRVC.                Patterson: SERVICE COMPANY
DATE.          Wed Jan 26 13:57:24 2005: LOG DATE
UWI.           05 071 08009 00: UNIQUE WELL ID
~Curve Information Block
DEPT.FT            0 000 00 00: Depth
DCAL.in                       : CDL Caliper
RHOB.g/cc                     : CDL Bulk Density
RHOC.g/cc                     : CDL Density Correction
DPOR.pu                       : CDL Density Porosity
NPOR.pu                       : Neutron Porosity
GR.GAPI                       : Gamma Ray
~Parameter Information Block
~A  Depth       DCAL        RHOB        RHOC        DPOR        NPOR         GR     
# ...
  1707.6000      8.7529      2.5318      0.0249      7.1660     25.2054      0.0000
  1707.7000      8.7529      2.5468      0.0675      6.2550     25.1723   -999.2500
  1707.8000      8.7448      2.5680      0.0856      4.9715     24.4725   -999.2500
  1707.9000      8.7448      2.5822      0.0832      4.1100     23.6601   -999.2500
  1708.0000      8.7334      2.5981      0.0769      3.1465     23.7816   -999.2500
  1708.1000      8.7334      2.6263      0.0873      1.4336     24.3387   -999.2500
  1708.2000      8.7334      2.6618      0.1024     -0.7135     24.3343   -999.2500
  1708.3000      8.7298      2.6876      0.1410     -2.2797     23.6823   -999.2500
  1708.4000      8.7298      2.6784      0.1480     -1.7192     22.7259   -999.2500
  1708.5000      8.7403      2.6261      0.0921      1.4475     21.6487   -999.2500
  1708.6000      8.7403      2.5641      0.0054      5.2079     20.4859   -999.2500
  1708.7000      8.7403      2.5356      0.0040      6.9356     19.6444   -999.2500
  1708.8000      8.7505      2.5474      0.0345      6.2165     19.5313   -999.2500
  1708.9000      8.7505      2.5677      0.0661      4.9859     19.7448   -999.2500
  1709.0000      8.7408      2.5647      0.0639      5.1695     19.6307   -999.2500
  1709.1000      8.7408      2.5415      0.0174      6.5783     19.2310   -999.2500
  1709.2000      8.7408      2.5213      0.0252      7.7987     18.8435   -999.2500
  1709.3000      8.7281      2.5149      0.0012      8.1876     18.2038   -999.2500
  1709.4000      8.7281      2.5136      0.0060      8.2684     17.1953   -999.2500
  1709.5000      8.7247      2.5049     -0.0129      8.7967     16.5894   -999.2500
  1709.6000      8.7247      2.4894     -0.0038      9.7309     17.1922   -999.2500
  1709.7000      8.7247      2.4829     -0.0419     10.1290     18.8003   -999.2500
  1709.8000      8.7243      2.4887      0.0353      9.7758     20.3668   -999.2500
  1709.9000      8.7243      2.4848      0.0409     10.0130     21.2035   -999.2500
  1710.0000      8.7214      2.4662      0.0008     11.1390     21.5715   -999.2500
  1710.1000      8.7214      2.4531      0.0002     11.9306     21.8025   -999.2500
  1710.2000      8.7214      2.4494      0.0399     12.1602     21.8317   -999.2500
  1710.3000      8.7125      2.4415      0.0138     12.6357     21.8912   -999.2500
  1710.4000      8.7125      2.4324      0.0041     13.1891     22.3565   -999.2500
  1710.5000      8.7061      2.4365      0.0043     12.9402     22.6350   -999.2500
  1710.6000      8.7061      2.4501      0.0320     12.1163     21.9492   -999.2500
  1710.7000      8.7061      2.4536      0.0326     11.9013     21.2767   -999.2500
  1710.8000      8.7118      2.4435      0.0079     12.5155     21.7429   -999.2500
  1710.9000      8.7118      2.4339      0.0153     13.0969     22.9171   -999.2500
  1711.0000      8.7182      2.4310      0.0226     13.2702     23.8543   -999.2500
  1711.1000      8.7182      2.4295      0.0333     13.3611     24.2735   -999.2500
  1711.2000      8.7182      2.4272      0.0465     13.5006     24.7335   -999.2500
  1711.3000      8.7223      2.4238      0.0480     13.7092     25.1696   -999.2500
  1711.4000      8.7223      2.4189      0.0309     14.0089     24.9850   -999.2500
  1711.5000      8.7257      2.4196      0.0275     13.9608     24.3444   -999.2500
  1711.6000      8.7257      2.4315      0.0272     13.2453     23.3901   -999.2500
  1711.7000      8.7257      2.4430      0.0557     12.5446     22.3400   -999.2500
  1711.8000      8.7264      2.4435      0.0352     12.5127     22.0064   -999.2500
  1711.9000      8.7264      2.4440      0.0252     12.4866     22.2995   -999.2500
  1712.0000      8.7267      2.4563      0.0221     11.7384     22.1770   -999.2500
  1712.1000      8.7267      2.4695      0.0687     10.9400     21.3610   -999.2500
  1712.2000      8.7267      2.4696      0.0333     10.9308     20.6002   -999.2500
  1712.3000      8.7266      2.4646      0.0327     11.2382     21.0668   -999.2500
  1712.4000      8.7266      2.4583      0.0461     11.6194     24.5852   -999.2500
  1712.5000      8.7253      2.4410      0.0305     12.6645     33.5412   -999.2500
  1712.6000      8.7253      2.4201     -0.0065     13.9322     45.6882   -999.2500
  1712.7000      8.7253      2.4143      0.0003     14.2868     53.7408   -999.2500
  1712.8000      8.7235      2.4244      0.0424     13.6721     56.5097   -999.2500
  1712.9000      8.7235      2.4348      0.0548     13.0440     57.0429   -999.2500
  1713.0000      8.7232      2.4335      0.0453     13.1237     57.0992   -999.2500
  1713.1000      8.7232      2.4217      0.0332     13.8381     57.1023   -999.2500
  1713.2000      8.7232      2.4052      0.0489     14.8358   -999.2500   -999.2500
  1713.3000      8.7227      2.3872      0.0325     15.9254   -999.2500   -999.2500
  1713.4000      8.7227      2.3736     -0.0065     16.7506   -999.2500   -999.2500
  1713.5000      8.7226      2.3696      0.0083     16.9954   -999.2500   -999.2500
  1713.6000      8.7226      2.3716      0.0011     16.8746   -999.2500   -999.2500
  1713.7000      8.7226      2.3765      0.0207     16.5753   -999.2500   -999.2500
  1713.8000      8.7228      2.3840      0.0402     16.1190   -999.2500   -999.2500
  1713.9000      8.7228      2.3877      0.0272     15.8946   -999.2500   -999.2500
  1714.0000      8.7208      2.3876     -0.0044     15.9022   -999.2500   -999.2500
  1714.1000      8.7208      2.3980      0.0040     15.2731   -999.2500   -999.2500
  1714.2000      8.7208      2.4228      0.0395     13.7684   -999.2500   -999.2500
  1714.3000      8.7198      2.4504      0.0626     12.0965   -999.2500   -999.2500
  1714.4000      8.7198      2.4714      0.0586     10.8221   -999.2500   -999.2500
  1714.5000      8.7212      2.4880      0.0637      9.8168   -999.2500   -999.2500
  1714.6000      8.7212      2.5041      0.0605      8.8397   -999.2500   -999.2500
  1714.7000      8.7212      2.5118      0.0401      8.3772   -999.2500   -999.2500
  1714.8000      8.7226      2.5078      0.0183      8.6177   -999.2500   -999.2500
  1714.9000      8.7226      2.5095      0.0205      8.5138   -999.2500   -999.2500
  1715.0000      8.7214      2.5305      0.0361      7.2422   -999.2500   -999.2500
  1715.1000      8.7214      2.5594      0.0697      5.4883   -999.2500   -999.2500
  1715.2000      8.7214      2.5744      0.0949      4.5791   -999.2500   -999.2500
  1715.3000      8.7138      2.5674      0.0494      5.0058   -999.2500   -999.2500
  1715.4000      8.7138      2.5459      0.0546      6.3117   -999.2500   -999.2500
  1715.5000      8.7008      2.5156      0.0414      8.1440   -999.2500   -999.2500
  1715.6000      8.7008      2.4832      0.0126     10.1089   -999.2500   -999.2500
  1715.7000      8.7008      2.4615      0.0063     11.4256   -999.2500   -999.2500
  1715.8000      8.6886      2.4547      0.0160     11.8380   -999.2500   -999.2500
  1715.9000      8.6886      2.4565      0.0027     11.7272   -999.2500   -999.2500
  1716.0000      8.6767      2.4621      0.0024     11.3906   -999.2500   -999.2500
  1716.1000      8.6767      2.4639      0.0361     11.2760   -999.2500   -999.2500
  1716.2000      8.6767      2.4529      0.0368     11.9472   -999.2500   -999.2500
  1716.3000      8.6691      2.4372      0.0112     12.8951   -999.2500   -999.2500
  1716.4000      8.6691      2.4385     -0.0135     12.8188   -999.2500   -999.2500
  1716.5000      8.6693      2.4570      0.0259     11.6990   -999.2500   -999.2500
  1716.6000      8.6693      2.4695      0.0566     10.9403   -999.2500   -999.2500
  1716.7000      8.6693      2.4652      0.0405     11.1988   -999.2500   -999.2500
  1716.8000      8.6715      2.4617      0.0255     11.4096   -999.2500   -999.2500
  1716.9000      8.6715      2.4806      0.0553     10.2648   -999.2500   -999.2500
  1717.0000      8.6706      2.5123      0.0761      8.3429   -999.2500   -999.2500
  1717.1000      8.6706      2.5341      0.0688      7.0243   -999.2500   -999.2500
