~Version Information
VERS.                      2.0: CWLS Log ASCII Standard - VERSION 2.0
WRAP.                       NO: One line per depth step
~Well Information Block
STRT.FT               -12.5000: 
STOP.FT              1613.0000: 
STEP.FT                 0.2500: 
NULL.                -999.2500: 
COMP.          Pioneer Natural Resources: COMPANY
WELL.          Peregrine 12-20: WELL
FLD.           Purgatorie River: FIELD
LOC.           1722' FNL & 999' FWL--: LOCATION
PROV.                       CO: PROVINCE
CNTY.               Las Animas: COUNTRY
SRVC.          Patterson Wireline: SERVICE COMPANY
DATE.          Fri Jul 22 12:50:00 2005: LOG DATE
UWI.           05 071 08428 00: UNIQUE WELL ID
~Curve Information Block
DEPT.FT            0 000 00 00: Depth
CCL.                          : Casing Collar Locator
TT3.usec                      : CBL 3' Travel Time
AMP3.mV                       : CBL 3' Amplitude
GR.GAPI                       : Gamma Ray
~Parameter Information Block
~A  Depth       CCL         TT3         AMP3         GR     
# ...
  1495.0000      0.0000    802.4182      3.1211     88.1285
  1495.2500      0.0000    802.2926      3.2007     87.6673
  1495.5000      0.0000    800.3447      3.2632     86.4616
  1495.7500      0.0000    799.3978      3.2566     84.3074
  1496.0000      0.0000    802.0042      3.1820     81.9931
  1496.2500      0.0000    807.7174      3.0921     81.0826
  1496.5000      0.0000    813.3961      3.0322     82.5504
  1496.7500      0.0000    815.8322      3.0031     85.7112
  1497.0000      0.0000    813.9606      2.9938     88.7411
  1497.2500      0.0000    809.2272      3.0187     90.3188
  1497.5000      0.0000    804.2098      3.0908     90.5272
  1497.7500      0.0000    800.4123      3.1768     90.2002
  1498.0000      0.0000    797.0220      3.2207     89.8583
  1498.2500      0.0000    791.8762      3.2129     89.4642
  1498.5000      0.0000    783.6122      3.2071     88.8855
  1498.7500      0.0000    772.9028      3.2642     88.3299
  1499.0000      0.0000    762.1481      3.4030     88.3819
  1499.2500      0.0000    754.4762      3.6082     89.5987
  1499.5000      0.0000    752.6184      3.8607     92.0193
  1499.7500      0.0000    757.4745      4.1415     95.0414
  1500.0000      0.0000    767.1364      4.4221     97.6643
  1500.2500      0.0000    777.6533      4.6824     99.0485
  1500.5000      0.0000    785.0611      4.9495     99.2015
  1500.7500      0.0000    787.0944      5.2951     99.1199
  1501.0000      0.0000    784.0292      5.7726     99.9363
  1501.2500      0.0000    778.5857      6.3618    101.8840
  1501.5000      0.0000    774.4785      6.9822    104.0979
  1501.7500      0.0000    774.0319      7.5530    105.3094
  1502.0000      0.0000    776.4876      8.0324    104.8134
  1502.2500      0.0000    778.4185      8.4143    103.0198
  1502.5000      0.0000    775.8945      8.7024    101.1399
  1502.7500      0.0000    766.5746      8.8967    100.2157
  1503.0000      0.0000    749.8768      9.0072    100.3085
  1503.2500      0.0000    726.0590      9.0702    100.5353
  1503.5000      0.0000    696.9450      9.1307     99.9313
  1503.7500      0.0000    667.3739      9.2037     98.3491
  1504.0000      0.0000    642.5353      9.2709     96.4613
  1504.2500      0.0000    622.0397      9.3135     94.9619
  1504.5000      0.0000    600.9992      9.3166     93.9759
  1504.7500      0.0000    580.5832      9.2324     93.1879
  1505.0000      0.0000    573.0233      8.9659     92.0724
  1505.2500      0.0000    590.5739      8.4321     89.9040
  1505.5000      0.0000    631.1859      7.6437     86.1168
  1505.7500      0.0000    679.1422      6.7366     81.2228
  1506.0000      0.0000    718.9034      5.8900     76.9696
  1506.2500      0.0000    745.2390      5.2195     74.8541
  1506.5000      0.0000    761.4581      4.7474     74.5895
  1506.7500      0.0000    772.8757      4.4534     74.6425
  1507.0000      0.0000    783.3269      4.3162     74.3195
  1507.2500      0.0000    794.3481      4.3031     74.9321
  1507.5000      0.0000    804.4642      4.3561     78.7019
  1507.7500      0.0000    810.3542      4.4136     86.4376
  1508.0000      0.0000    811.0925      4.4471     96.2820
  1508.2500      0.0000    810.6966      4.4761    104.9473
  1508.5000      0.0000    814.7329      4.5477    110.4035
  1508.7500      0.0000    824.5377      4.7018    113.3438
  1509.0000      0.0000    835.9957      4.9515    115.7218
  1509.2500      0.0000    843.4703      5.2851    117.8223
  1509.5000      0.0000    843.4988      5.6661    117.5165
  1509.7500      0.0000    835.2438      6.0207    113.0856
  1510.0000      0.0000    819.6820      6.2437    106.0790
  1510.2500      0.0000    799.5411      6.2426    100.2941
  1510.5000      0.0000    779.1625      5.9954     98.3189
  1510.7500      0.0000    763.0637      5.5702    100.0065
  1511.0000      0.0000    754.0662      5.0868    103.6465
  1511.2500      0.0000    752.5269      4.6498    107.2421
  1511.5000      0.0000    756.8939      4.3085    109.0264
  1511.7500      0.0000    764.6335      4.0634    108.2663
  1512.0000      0.0000    772.8575      3.8916    105.7213
  1512.2500      0.0000    778.8461      3.7721    102.3836
  1512.5000      0.0000    780.6856      3.7021     98.0905
  1512.7500      0.0000    777.7781      3.6837     92.3341
  1513.0000      0.0000    771.0377      3.6948     85.8138
  1513.2500      0.0000    762.6684      3.7013     79.9155
  1513.5000      0.0000    755.2813      3.7053     75.0179
  1513.7500      0.0000    750.7158      3.7530     70.5345
  1514.0000      0.0000    749.4703      3.8855     66.3662
  1514.2500      0.0000    750.9788      4.1050     63.1651
  1514.5000      0.0000    754.1716      4.3839     61.2043
  1514.7500      0.0000    758.1332      4.6805     59.8862
  1515.0000      0.0000    762.6006      4.9565     58.5410
  1515.2500      0.0000    767.6124      5.1979     57.1629
  1515.5000      0.0000    772.6233      5.4108     56.0761
  1515.7500      0.0000    776.5659      5.5891     55.2141
  1516.0000      0.0000    778.7332      5.7072     54.1615
  1516.2500      0.0000    778.9579      5.7460     52.8671
  1516.5000      0.0000    777.4533      5.7121     51.9555
  1516.7500      0.0000    775.1923      5.6279     52.1661
  1517.0000      0.0000    773.4148      5.5141     53.6863
  1517.2500      0.0000    771.7885      5.3793     56.1160
  1517.5000      0.0000    768.1386      5.2268     58.8031
  1517.7500      0.0000    760.8901      5.0680     61.0891
  1518.0000      0.0000    750.8177      4.9161     62.5613
  1518.2500      0.0000    740.0428      4.7632     63.4172
  1518.5000      0.0000    730.4263      4.5852     64.3811
  1518.7500      0.0000    723.1802      4.3893     65.8778
  1519.0000      0.0000    718.9711      4.2360     67.2900
  1519.2500      0.0000    718.0060      4.1895     67.3963
  1519.5000      0.0000    720.0978      4.2489     65.6872
  1519.7500      0.0000    724.3395      4.3507     63.0877
  1520.0000      0.0000    728.5709      4.4384     61.2488
  1520.2500      0.0000    730.0671      4.5166     61.1995
  1520.5000      0.0000    727.6570      4.6421     62.6657
  1520.7500      0.0000    722.9434      4.8757     64.4247
  1521.0000      0.0000    719.0074      5.2321     65.0917
  1521.2500      0.0000    718.3231      5.6596     63.7709
  1521.5000      0.0000    721.7283      6.0637     60.5197
  1521.7500      0.0000    728.0106      6.3617     56.4748
  1522.0000      0.0000    733.8234      6.5389     53.1816
  1522.2500      0.0000    735.6328      6.6726     51.3904
  1522.5000      0.0000    733.1350      6.8768     50.5587
  1522.7500      0.0000    729.8135      7.1893     49.6464
  1523.0000      0.0000    728.8842      7.5243     48.1701
  1523.2500     -2.0000    729.1899      7.7615     46.3558
  1523.5000     -2.0000    725.3584      7.8709     44.5509
  1523.7500      0.0000    710.5190      7.9467     42.8891
  1524.0000      0.0000    678.7305      8.1516     41.5859
  1524.2500      0.0000    628.2091      8.6187     41.3027
  1524.5000      0.0000    567.0294      9.3306     42.8815
  1524.7500      0.0000    516.0865     10.0604     46.4676
  1525.0000      0.0000    499.9073     10.5004     50.9835
  1525.2500      0.0000    527.3110     10.5047     54.8415
  1525.5000      0.0000    579.7591     10.1900     57.2207
  1525.7500      0.0000    621.2810      9.8012     58.3023
  1526.0000      0.0000    622.1497      9.5222     58.2806
  1526.2500      0.0000    576.8437      9.4099     56.8167
  1526.5000      0.0000    504.2498      9.4335     53.8485
  1526.7500      0.0000    432.1430      9.5292     50.3901
  1527.0000      0.0000    378.9552      9.6371     47.9743
  1527.2500      0.0000    347.1525      9.7269     47.4810
  1527.5000      0.0000    329.9812      9.7997     48.8226
  1527.7500      0.0000    320.6635      9.8635     51.6194
  1528.0000      0.0000    315.8646      9.9096     55.7185
  1528.2500      0.0000    314.8343      9.9112     60.7814
