~Version Information
 VERS.                      2.0: CWLS Log ASCII Standard - VERSION 2.0
 WRAP.                       NO: One line per depth step
 ~Well Information Block
 STRT.FT               762.3000: 
 STOP.FT              2573.7000: 
 STEP.FT                 0.1000: 
 NULL.                -999.2500: 
 COMP.          Petrogulf Corporation: COMPANY
 WELL.               J&P 12-33V: WELL
 FLD.           Purgatorie River: FIELD
 LOC.           2005' FSL & 1928' FEL: LOCATION
 CNTY.               Las Animas: COUNTY
 SRVC.                         : SERVICE COMPANY
 DATE.          Sat Aug 28 11:34:36 2004: LOG DATE
 UWI.           05 071 08092 00: UNIQUE WELL ID
 STAT.                 Colorado: STATE
 PROV.                         :Province
 ~Curve Information Block
 DEPT.FT            0 000 00 00: Depth
 GR.GAPI                       : Gamma Ray
 DCAL.in                       : CDL Caliper
 DPOR.pu                       : CDL Density Porosity
 NPOR.pu                       : Neutron Porosity
 RHOB.g/cc                     : CDL Bulk Density
 RHOC.g/cc                     : CDL Density Correction
 ~Parameter Information Block
 ~A  Depth        GR         DCAL        DPOR        NPOR        RHOB        RHOC    
# ...
  2087.1000    139.0221      7.9260      9.6774     25.8048      2.4903      0.0508
  2087.2000    132.5746      7.9260      8.5187     25.1426      2.5094      0.0460
  2087.3000    124.2613      7.8995      7.4765     24.3508      2.5266      0.0507
  2087.4000    122.2415      7.8995      6.9035     24.0364      2.5361      0.0477
  2087.5000    125.9001      7.8898      7.0576     24.0839      2.5335      0.0469
  2087.6000    131.7509      7.8898      8.2238     24.0404      2.5143      0.0264
  2087.7000    136.1918      7.8898     10.0829     23.8805      2.4836     -0.0049
  2087.8000    136.5593      7.8453     11.6225     24.0690      2.4582     -0.0015
  2087.9000    135.4419      7.8453     12.1928     24.6780      2.4488      0.0131
  2088.0000    135.3077      7.8352     11.7127     25.2060      2.4567     -0.0031
  2088.1000    134.3643      7.8352     10.4211     25.4040      2.4781      0.0648
  2088.2000    132.2072      7.8352      8.7989     25.1807      2.5048      0.0483
  2088.3000    131.4026      7.8393      7.2138     24.8132      2.5310      0.1264
  2088.4000    134.3328      7.8393      6.1507     24.7705      2.5485      0.1885
  2088.5000    141.4392      7.8618      5.7792     24.6937      2.5546      0.1910
  2088.6000    152.4805      7.8618      5.9621     24.5256      2.5516      0.2131
  2088.7000    162.4047      7.8618      6.7017     24.7977      2.5394      0.1893
  2088.8000    162.5520      7.8734      7.5551     25.2652      2.5253      0.1685
  2088.9000    155.0461      7.8734      7.9918     25.2998      2.5181      0.1714
  2089.0000    150.1901      7.8758      7.9245     25.4808      2.5192      0.1328
  2089.1000    148.5302      7.8758      6.9509     26.3223      2.5353      0.1202
  2089.2000    145.5089      7.8758      4.9851     27.1670      2.5677      0.1716
  2089.3000    141.0070      7.8915      3.3026     27.4327      2.5955      0.1675
  2089.4000    135.7113      7.8915      3.1249     26.8084      2.5984      0.1785
  2089.5000    131.4527      7.9040      4.2804     24.9908      2.5794      0.1393
  2089.6000    131.5556      7.9040      5.5737     22.7315      2.5580      0.1169
  2089.7000    135.7970      7.9040      5.9725     21.6320      2.5515      0.0779
  2089.8000    137.0360      7.9273      5.7040     21.9001      2.5559      0.1028
  2089.9000    131.8946      7.9273      5.8603     22.3060      2.5533      0.0833
  2090.0000    126.2917      7.9142      6.3420     22.0218      2.5454      0.0203
  2090.1000    124.3462      7.9142      5.9309     21.2122      2.5521      0.0397
  2090.2000    125.6958      7.9142      4.7181     20.5401      2.5722      0.0597
  2090.3000    127.3051      7.8477      4.2701     20.5909      2.5795      0.0645
  2090.4000    126.0375      7.8477      5.2351     21.4347      2.5636      0.0497
  2090.5000    121.1348      7.8385      6.2804     22.5282      2.5464      0.0090
  2090.6000    115.0877      7.8385      6.0800     23.0298      2.5497      0.0131
  2090.7000    110.9501      7.8385      5.2420     22.8432      2.5635      0.0361
  2090.8000    109.0666      7.8475      5.2957     22.5160      2.5626      0.0515
  2090.9000    111.8945      7.8475      6.2896     22.3466      2.5462     -0.0003
  2091.0000    119.6568      7.8580      6.8767     22.4318      2.5365     -0.0108
  2091.1000    124.8633      7.8580      6.5616     22.9530      2.5417      0.0127
  2091.2000    123.6917      7.8580      6.0296     23.8046      2.5505      0.0423
  2091.3000    118.7305      7.8640      5.9888     24.1176      2.5512      0.0283
  2091.4000    113.9816      7.8640      6.3867     23.3451      2.5446     -0.0062
  2091.5000    115.4341      7.8535      6.5299     22.5095      2.5423      0.0130
  2091.6000    122.9759      7.8535      5.9721     22.7933      2.5515      0.0275
  2091.7000    130.0003      7.8535      5.0690     23.5656      2.5664      0.0650
  2091.8000    137.5184      7.8627      4.5784     23.8234      2.5745      0.0556
  2091.9000    147.6582      7.8627      4.8097     23.6851      2.5706      0.0260
  2092.0000    151.7347      7.8656      5.4602     23.4340      2.5599      0.0290
  2092.1000    146.0491      7.8656      6.1114     23.5093      2.5492      0.0210
  2092.2000    138.3476      7.8656      6.6888     24.1471      2.5396      0.0147
  2092.3000    132.2097      7.8632      7.4754     24.7172      2.5267      0.0155
  2092.4000    128.0145      7.8632      8.4957     24.7257      2.5098      0.0160
  2092.5000    129.4242      7.8647      9.2574     24.3975      2.4973     -0.0023
  2092.6000    133.0840      7.8647      9.4071     23.9161      2.4948      0.0047
  2092.7000    132.3870      7.8647      9.3047     23.4713      2.4965      0.0140
  2092.8000    129.5021      7.8816      9.3193     23.2663      2.4962     -0.0044
  2092.9000    127.3000      7.8816      9.3471     23.2900      2.4958      0.0369
  2093.0000    124.3725      7.8832      9.1061     23.8275      2.4997      0.0377
  2093.1000    124.9402      7.8832      8.2443     24.6155      2.5140      0.0439
  2093.2000    134.7103      7.8832      7.0730     24.7426      2.5333      0.0922
  2093.3000    145.4542      7.8445      6.6975     24.4556      2.5395      0.1333
  2093.4000    146.9098      7.8445      7.2695     24.4710      2.5301      0.0805
  2093.5000    143.7193      7.8441      7.5600     25.0695      2.5253      0.0643
  2093.6000    144.0158      7.8441      7.3824     25.8782      2.5282      0.1019
  2093.7000    150.0934      7.8441      7.6726     25.9603      2.5234      0.0899
  2093.8000    157.0491      7.8570      8.0788     24.9861      2.5167      0.0591
  2093.9000    153.3859      7.8570      7.5415     23.5960      2.5256      0.0910
  2094.0000    139.2711      7.8758      6.1202     22.4954      2.5490      0.0838
  2094.1000    126.8053      7.8758      4.6817     21.9329      2.5728      0.1404
  2094.2000    123.7531      7.8758      3.8047     21.7838      2.5872      0.1566
  2094.3000    129.5785      7.8771      3.3066     21.9533      2.5954      0.1262
  2094.4000    135.3654      7.8771      3.0154     22.3353      2.6002      0.1254
  2094.5000    132.0345      7.8829      3.3690     22.5895      2.5944      0.1617
  2094.6000    124.2609      7.8829      4.2355     22.6412      2.5801      0.1236
  2094.7000    123.6521      7.8829      4.5143     22.4344      2.5755      0.0670
  2094.8000    131.7794      7.8851      3.9113     22.0470      2.5855      0.1020
  2094.9000    140.3209      7.8851      3.4991     21.9087      2.5923      0.1167
  2095.0000    141.4056      7.8895      3.9327     22.0448      2.5851      0.1100
  2095.1000    134.2935      7.8895      4.5402     22.2915      2.5751      0.0625
  2095.2000    126.6661      7.8895      4.7713     22.6009      2.5713      0.0827
  2095.3000    123.8965      7.8791      4.9740     22.4022      2.5679      0.0621
  2095.4000    123.7583      7.8791      5.2479     21.4304      2.5634      0.0649
  2095.5000    123.7455      7.8455      5.1089     20.7091      2.5657      0.0665
  2095.6000    125.7829      7.8455      4.2328     20.8960      2.5802      0.0542
  2095.7000    129.7216      7.8455      3.1930     21.4530      2.5973      0.0912
  2095.8000    133.1422      7.8358      2.9276     21.5695      2.6017      0.0667
  2095.9000    133.9690      7.8358      3.5028     20.9464      2.5922      0.0650
  2096.0000    129.8428      7.8088      4.1969     20.2289      2.5808      0.0368
  2096.1000    121.8989      7.8088      4.5313     20.0798      2.5752      0.0806
  2096.2000    117.0595      7.8088      4.8295     20.5088      2.5703      0.0683
  2096.3000    120.4435      7.7961      5.3421     21.1834      2.5619      0.0465
  2096.4000    132.0463      7.7961      5.9146     21.6967      2.5524      0.0332
  2096.5000    150.4743      7.7970      6.4274     21.8650      2.5439      0.0270
  2096.6000    162.3593      7.7970      6.6515     21.6607      2.5403      0.0031
