~Version Information
VERS.                      2.0: CWLS Log ASCII Standard - VERSION 2.0
WRAP.                       NO: One line per depth step
~Well Information Block
STRT.FT               -10.0000: 
STOP.FT              2544.2500: 
STEP.FT                 0.2500: 
NULL.                -999.2500: 
COMP.          Pioneer Natural Resources: COMPANY
WELL.            Cortina 23-25: WELL
FLD.           Purgatorie River: FIELD
LOC.           2344' FWL  & 2526' FSL------: LOCATION
PROV.                       CO: PROVINCE
CNTY.               Las Animas: COUNTRY
SRVC.          Patterson Wireline: SERVICE COMPANY
DATE.          Fri Apr 01 11:50:55 2005: LOG DATE
UWI.           05 071 08340 00: UNIQUE WELL ID
~Curve Information Block
DEPT.FT            0 000 00 00: Depth
CCL.                          : Casing Collar Locator
TT3.usec                      : CBL 3' Travel Time
AMP3.mV                       : CBL 3' Amplitude
GR.GAPI                       : Gamma Ray
~Parameter Information Block
~A  Depth       CCL         TT3         AMP3         GR     
# ...
  2502.5000      0.0000    948.1039      5.8670     97.2180
  2502.7500      0.0000    968.9167      5.7701     99.4282
  2503.0000      0.0000    987.7384      5.7218    102.1757
  2503.2500      0.0000    990.6745      5.7115    105.2874
  2503.5000      0.0000    974.3215      5.6957    109.0976
  2503.7500      0.0000    947.6454      5.6238    112.9581
  2504.0000      0.0000    921.6019      5.4802    115.0498
  2504.2500      0.0000    901.0743      5.3091    114.2541
  2504.5000      0.0000    886.4319      5.1769    111.6402
  2504.7500      0.0000    878.2476      5.0959    109.2327
  2505.0000      0.0000    878.3216      5.0093    107.7193
  2505.2500      0.0000    887.3889      4.8739    106.2131
  2505.5000      0.0000    902.9973      4.7336    103.8834
  2505.7500      0.0000    920.6370      4.6874    100.9059
  2506.0000      0.0000    937.0896      4.7992     98.0903
  2506.2500      0.0000    950.5024      5.0551     96.4108
  2506.5000      0.0000    956.4609      5.3900     96.6972
  2506.7500      0.0000    948.1360      5.7320     98.8750
  2507.0000      0.0000    923.3909      6.0224    101.3814
  2507.2500      0.0000    889.3782      6.2134    102.0679
  2507.5000      0.0000    857.9071      6.2662    100.2029
  2507.7500      0.0000    838.4594      6.1652     97.3562
  2508.0000      0.0000    836.3307      5.9423     95.8898
  2508.2500      0.0000    853.2365      5.6822     96.5700
  2508.5000      0.0000    885.6595      5.4905     97.9242
  2508.7500      0.0000    922.8679      5.4286     97.8943
  2509.0000      0.0000    949.1872      5.4591     95.8649
  2509.2500      0.0000    951.5287      5.4584     93.1112
  2509.5000      0.0000    928.7195      5.3036     91.4761
  2509.7500      0.0000    894.7443      4.9692     91.6262
  2510.0000      0.0000    868.8716      4.5556     92.4880
  2510.2500      0.0000    859.6540      4.2253     92.1450
  2510.5000      0.0000    861.1675      4.0907     89.1311
  2510.7500      0.0000    866.2321      4.1398     83.1672
  2511.0000      0.0000    877.6218      4.2561     75.3569
  2511.2500      0.0000    901.0569      4.3057     67.9656
  2511.5000      0.0000    930.2861      4.2240     63.5582
  2511.7500     -2.0000    946.0461      4.0502     63.7276
  2512.0000     -2.0000    932.5115      3.8919     68.3156
  2512.2500      0.0000    892.8110      3.8416     75.7117
  2512.5000      0.0000    846.0903      3.9120     83.9116
  2512.7500      0.0000    810.9319      4.0519     91.4404
  2513.0000      0.0000    793.9169      4.2169     97.4812
  2513.2500      0.0000    790.8698      4.4039    101.5309
  2513.5000      0.0000    793.3561      4.6140    103.3154
  2513.7500      0.0000    793.1461      4.8014    102.8392
  2514.0000      0.0000    784.5904      4.8860    100.3325
  2514.2500      0.0000    766.2108      4.8272     96.4825
  2514.5000      0.0000    741.0351      4.6725     92.6463
  2514.7500      0.0000    715.5638      4.5185     90.1097
  2515.0000      0.0000    698.0690      4.4357     89.0647
  2515.2500      0.0000    695.1030      4.4428     88.8088
  2515.5000      0.0000    706.5136      4.5263     88.7518
  2515.7500      0.0000    724.8148      4.6440     88.6911
  2516.0000      0.0000    741.2897      4.7293     88.5579
  2516.2500      0.0000    751.5736      4.7428     88.6665
  2516.5000      0.0000    755.8094      4.7157     89.8831
  2516.7500      0.0000    757.2524      4.7086     92.8613
  2517.0000      0.0000    761.2051      4.7330     97.1563
  2517.2500      0.0000    771.5391      4.7554    101.3047
  2517.5000      0.0000    787.1464      4.7744    103.6645
  2517.7500      0.0000    803.2606      4.8413    103.2697
  2518.0000      0.0000    815.5693      4.9867    100.3019
  2518.2500      0.0000    821.8834      5.1634     95.9557
  2518.5000      0.0000    821.2140      5.2861     91.7012
  2518.7500      0.0000    813.1767      5.3095     88.4310
  2519.0000      0.0000    798.8630      5.2589     86.1770
  2519.2500      0.0000    781.5933      5.1940     84.6049
  2519.5000      0.0000    765.8865      5.1491     83.6199
  2519.7500      0.0000    755.4070      5.1145     83.2398
  2520.0000      0.0000    751.8814      5.0789     83.0810
  2520.2500      0.0000    755.0712      5.0591     82.5815
  2520.5000      0.0000    762.4995      5.0725     81.7416
  2520.7500      0.0000    769.4044      5.1092     81.1016
  2521.0000      0.0000    770.3055      5.1448     80.9603
  2521.2500      0.0000    762.1677      5.1539     81.1682
  2521.5000      0.0000    746.8762      5.1143     81.5998
  2521.7500      0.0000    730.0262      5.0289     82.2484
  2522.0000      0.0000    716.6067      4.9385     82.9120
  2522.2500      0.0000    707.9738      4.8838     83.2633
  2522.5000      0.0000    702.5959      4.8631     83.2701
  2522.7500      0.0000    698.6791      4.8463     83.3042
  2523.0000      0.0000    695.8212      4.8171     83.7970
  2523.2500      0.0000    694.7110      4.7824     84.8164
  2523.5000      0.0000    695.7497      4.7554     86.0123
  2523.7500      0.0000    698.2045      4.7434     87.0707
  2524.0000      0.0000    700.7570      4.7401     88.1606
  2524.2500      0.0000    702.5300      4.7232     89.7848
  2524.5000      0.0000    703.3986      4.6723     92.3085
  2524.7500      0.0000    703.6308      4.5946     95.6984
  2525.0000      0.0000    703.5259      4.5282     99.3278
  2525.2500      0.0000    703.3088      4.5147    101.9613
  2525.5000      0.0000    703.1270      4.5655    102.3824
  2525.7500      0.0000    703.0236      4.6566    100.3354
  2526.0000      0.0000    702.9431      4.7505     96.7981
  2526.2500      0.0000    702.8084      4.8145     93.3044
  2526.5000      0.0000    702.6082      4.8271     91.0287
  2526.7500      0.0000    702.3989      4.7873     90.2653
  2527.0000      0.0000    702.2367      4.7212     90.3329
  2527.2500      0.0000    702.1177      4.6685     89.9626
  2527.5000      0.0000    701.9906      4.6511     88.3839
  2527.7500      0.0000    701.8287      4.6541     86.2499
  2528.0000      0.0000    701.6704      4.6438     85.0443
  2528.2500      0.0000    701.5703      4.6016     85.3664
  2528.5000      0.0000    701.5272      4.5416     86.3099
  2528.7500      0.0000    701.4916      4.4952     86.7433
  2529.0000      0.0000    701.4301      4.4858     86.6084
  2529.2500      0.0000    701.3170      4.5183     86.5552
  2529.5000      0.0000    701.0296      4.5850     86.6275
  2529.7500      0.0000    700.2703      4.6724     85.5055
  2530.0000      0.0000    698.7167      4.7654     80.7963
  2530.2500      0.0000    696.4621      4.8495     70.3714
  2530.5000      0.0000    694.3804      4.9128     54.3583
  2530.7500      0.0000    693.7485      4.9512     36.0174
  2531.0000      0.0000    695.1519      4.9722     19.9497
  2531.2500      0.0000    697.8636      4.9888      9.0650
  2531.5000      0.0000    700.5212      5.0064      3.3342
  2531.7500      0.0000    702.2487      5.0185      0.9826
  2532.0000      0.0000    703.0102      5.0198      0.2302
  2532.2500      0.0000    703.1960      5.0137      0.0421
  2532.5000      0.0000    703.1769      5.0093      0.0054
  2532.7500      0.0000    703.1671      5.0186      0.0000
  2533.0000      0.0000    703.2584      5.0570   -999.2500
  2533.2500      0.0000    703.4673      5.1363   -999.2500
  2533.5000      0.0000    703.8046      5.2494   -999.2500
  2533.7500      0.0000    704.3657      5.3569   -999.2500
  2534.0000      0.0000    705.4420      5.3931   -999.2500
  2534.2500      0.0000    707.4002      5.3066   -999.2500
  2534.5000      0.0000    710.0514      5.1215   -999.2500
  2534.7500      0.0000    711.4325      4.9496   -999.2500
  2535.0000      0.0000    706.5509      4.9029   -999.2500
  2535.2500      0.0000    686.3080      4.9723   -999.2500
  2535.5000      0.0000    637.7589      5.0110   -999.2500
  2535.7500      0.0000    549.5724      4.8517   -999.2500
