~Version Information
VERS.                      2.0: CWLS Log ASCII Standard - VERSION 2.0
WRAP.                       NO: One line per depth step
~Well Information Block
STRT.FT               682.0000: 
STOP.FT              2190.5000: 
STEP.FT                 0.1000: 
NULL.                -999.2500: 
COMP.          Pioneer Natural Resources: COMPANY
WELL.               King 22-13: WELL
FLD.           Purgatoire River: FIELD
LOC.           2419' FNL & 1806' FWL----: LOCATION
PROV.                 Colorado: PROVINCE
CNTY.               Las Animas: COUNTRY
SRVC.                Patterson: SERVICE COMPANY
DATE.          Fri Apr 01 07:38:12 2005: LOG DATE
UWI.           05 071 08318 00: UNIQUE WELL ID
~Curve Information Block
DEPT.FT            0 000 00 00: Depth
DCAL.in                       : CDL Caliper
RHOB.g/cc                     : CDL Bulk Density
RHOC.g/cc                     : CDL Density Correction
DPOR.pu                       : CDL Density Porosity
NPOR.pu                       : Neutron Porosity
GR.GAPI                       : Gamma Ray
~Parameter Information Block
~A  Depth       DCAL        RHOB        RHOC        DPOR        NPOR         GR     
# ...
  1968.4000      7.9190      2.5554      0.0985      5.7328     20.4006     91.4326
  1968.5000      7.9175      2.5387      0.0507      6.7445     20.1179     95.3895
  1968.6000      7.9175      2.5321      0.0267      7.1468     19.1277    100.2779
  1968.7000      7.9175      2.5464      0.0626      6.2778     18.1554    101.8442
  1968.8000      7.9147      2.5642      0.0773      5.2009     17.9817     95.6143
  1968.9000      7.9147      2.5741      0.0583      4.5988     18.5108     82.4327
  1969.0000      7.9067      2.5904      0.0215      3.6125     18.9916     72.2203
  1969.1000      7.9067      2.6135      0.1061      2.2126     18.7826     73.1622
  1969.2000      7.9067      2.6194      0.0727      1.8554     18.1946     82.0404
  1969.3000      7.8938      2.6025      0.0885      2.8772     18.1221     89.4879
  1969.4000      7.8938      2.5854      0.0148      3.9138     18.8111     90.7216
  1969.5000      7.8799      2.5863      0.0472      3.8611     19.4137     87.6891
  1969.6000      7.8799      2.5895      0.1039      3.6652     19.4651     83.3199
  1969.7000      7.8799      2.5731      0.0813      4.6595     19.9889     80.0792
  1969.8000      7.8678      2.5457      0.0506      6.3215     21.1940     80.4808
  1969.9000      7.8678      2.5267      0.0752      7.4713     21.7986     84.4514
  1970.0000      7.8590      2.5248      0.0550      7.5880     21.6279     90.3878
  1970.1000      7.8590      2.5391      0.0856      6.7205     21.6073     95.6149
  1970.2000      7.8590      2.5573      0.0845      5.6183     22.1678     96.1291
  1970.3000      7.8586      2.5650      0.0789      5.1506     22.9624     93.0406
  1970.4000      7.8586      2.5558      0.0682      5.7109     23.2328     92.6205
  1970.5000      7.8628      2.5347      0.0460      6.9904     23.0912     96.8057
  1970.6000      7.8628      2.5177      0.0379      8.0210     23.1450    101.8567
  1970.7000      7.8628      2.5100      0.0531      8.4824     23.2925    102.7518
  1970.8000      7.8624      2.4990      0.0684      9.1542     23.3928     99.0813
  1970.9000      7.8624      2.4843      0.0381     10.0405     23.3965     96.0380
  1971.0000      7.8545      2.4831      0.0744     10.1174     23.3766     99.7144
  1971.1000      7.8545      2.4959      0.1124      9.3372     23.9515    109.5357
  1971.2000      7.8545      2.5170      0.0665      8.0615     24.7548    117.1675
  1971.3000      7.8510      2.5467      0.1028      6.2588     24.4789    117.5266
  1971.4000      7.8510      2.5695      0.1422      4.8771     23.3042    112.4451
  1971.5000      7.8590      2.5678      0.1098      4.9823     22.3419    106.7567
  1971.6000      7.8590      2.5512      0.1089      5.9897     21.7484    104.1554
  1971.7000      7.8590      2.5379      0.0854      6.7919     21.1742    104.3028
  1971.8000      7.8689      2.5338      0.0656      7.0395     20.8854    103.9310
  1971.9000      7.8689      2.5376      0.0668      6.8132     21.1270    101.2780
  1972.0000      7.8763      2.5460      0.0774      6.3041     21.3729     96.1803
  1972.1000      7.8763      2.5525      0.0808      5.9100     21.4053     89.9645
  1972.2000      7.8763      2.5474      0.0911      6.2204     21.4868     83.9887
  1972.3000      7.8793      2.5316      0.0404      7.1733     21.3589     78.7052
  1972.4000      7.8793      2.5220      0.0534      7.7598     20.6256     75.8586
  1972.5000      7.8755      2.5203      0.0923      7.8629     19.9785     78.8243
  1972.6000      7.8755      2.5125      0.0725      8.3314     20.3319     86.1843
  1972.7000      7.8755      2.5001      0.0280      9.0867     21.2381     92.8020
  1972.8000      7.8677      2.4961      0.0355      9.3247     21.7187     94.7777
  1972.9000      7.8677      2.5075      0.0372      8.6390     21.7854     92.7188
  1973.0000      7.8633      2.5207      0.1026      7.8355     22.1751     93.2148
  1973.1000      7.8633      2.5157      0.0961      8.1413     23.1729     98.6108
  1973.2000      7.8633      2.5004      0.0510      9.0677     24.1422    100.8720
  1973.3000      7.8673      2.4880      0.1034      9.8161     24.1784     95.1713
  1973.4000      7.8673      2.4735      0.0620     10.6996     23.2892     89.8678
  1973.5000      7.8791      2.4601      0.0659     11.5091     22.0487     93.9451
  1973.6000      7.8791      2.4567      0.0541     11.7180     20.8671    101.8932
  1973.7000      7.8791      2.4648      0.0328     11.2242     20.2149    104.4712
  1973.8000      7.8899      2.4794      0.1103     10.3376     20.1045     99.9347
  1973.9000      7.8899      2.4879      0.1010      9.8251     20.1756     91.8473
  1974.0000      7.8917      2.4952      0.0590      9.3798     20.0256     85.3210
  1974.1000      7.8917      2.5186      0.0647      7.9624     19.4529     82.9886
  1974.2000      7.8917      2.5526      0.1357      5.9016     18.9345     84.7255
  1974.3000      7.8846      2.5784      0.1070      4.3371     18.8484     84.5468
  1974.4000      7.8846      2.5897      0.0959      3.6533     19.0956     75.8804
  1974.5000      7.8758      2.5828      0.1413      4.0712     19.7048     65.1240
  1974.6000      7.8758      2.5559      0.1085      5.7012     20.4040     61.0064
  1974.7000      7.8758      2.5237      0.0357      7.6546     20.6393     61.0609
  1974.8000      7.8701      2.5057     -0.0135      8.7447     20.6527     61.6537
  1974.9000      7.8701      2.5044      0.0600      8.8252     20.9775     62.3192
  1975.0000      7.8622      2.5122      0.0161      8.3510     21.4667     64.5432
  1975.1000      7.8622      2.5329      0.0485      7.0995     21.6725     70.9005
  1975.2000      7.8622      2.5630      0.0905      5.2734     21.6045     78.0832
  1975.3000      7.8422      2.5773      0.1206      4.4034     21.6032     80.5036
  1975.4000      7.8422      2.5569      0.0971      5.6433     21.8101     78.7711
  1975.5000      7.8086      2.5179      0.0676      8.0064     21.8724     75.1123
  1975.6000      7.8086      2.4931      0.0740      9.5063     21.3717     69.3261
  1975.7000      7.8086      2.4974      0.0987      9.2500     20.4720     62.9132
  1975.8000      7.7754      2.5210      0.1258      7.8167     19.6921     60.6793
  1975.9000      7.7754      2.5482      0.1032      6.1672     19.2422     63.5866
  1976.0000      7.7592      2.5615      0.1494      5.3647     19.0577     66.8720
  1976.1000      7.7592      2.5363      0.1579      6.8926     19.3302     66.7642
  1976.2000      7.7592      2.4800      0.0978     10.3050     20.1220     63.5900
  1976.3000      7.7570      2.4370      0.0471     12.9064     20.6580     59.0756
  1976.4000      7.7570      2.4283      0.1145     13.4353     20.2441     55.4010
  1976.5000      7.7578      2.4385      0.0587     12.8186     19.2891     55.4852
  1976.6000      7.7578      2.4518      0.1115     12.0143     18.3859     59.2017
  1976.7000      7.7578      2.4631      0.1106     11.3275     17.5920     62.1343
  1976.8000      7.7561      2.4754      0.1493     10.5838     17.1500     63.3234
  1976.9000      7.7561      2.4865      0.1523      9.9100     17.4518     68.1377
  1977.0000      7.7546      2.4830      0.1646     10.1219     18.2116     75.5298
  1977.1000      7.7546      2.4556      0.1245     11.7835     18.9933     74.1824
  1977.2000      7.7546      2.4160      0.1125     14.1796     19.5236     62.2616
  1977.3000      7.7542      2.3917      0.0405     15.6573     19.4664     53.4021
  1977.4000      7.7542      2.4051      0.1387     14.8434     18.8392     54.1363
  1977.5000      7.7469      2.4572      0.1399     11.6821     18.1981     57.3672
  1977.6000      7.7469      2.5296      0.2163      7.2955     18.0024     57.2729
  1977.7000      7.7469      2.5977      0.2342      3.1684     18.0866     55.0081
  1977.8000      7.7337      2.6450      0.2807      0.3056     18.1100     54.9542
  1977.9000      7.7337      2.6639      0.3023     -0.8417     18.2118     56.4179
