~Version Information
VERS.                      2.0: CWLS Log ASCII Standard - VERSION 2.0
WRAP.                       NO: One line per depth step
~Well Information Block
STRT.FT                -4.7500: 
STOP.FT              1784.7500: 
STEP.FT                 0.2500: 
NULL.                -999.2500: 
COMP.          Pioneer Natural Resources: COMPANY
WELL.          Buckeye 11-13 Tr: WELL
FLD.           Purgatorie River: FIELD
LOC.           211' FNL & 1054' FWL--: LOCATION
STAT.                       CO: State
CNTY.               Las Animas: COUNTY
CTRY. USA : Country
SECT. 13 : Section
TOWN. 33S : Township
RANG. 67W : range
SRVC.          Patterson Wireline: SERVICE COMPANY
DATE.          Wed Mar 16 09:19:21 2005: LOG DATE
API.           05 071 08317 00: UNIQUE WELL ID
~Curve Information Block
DEPT.FT            0 000 00 00: Depth
CCL.                          : Casing Collar Locator
TT3.usec                      : CBL 3' Travel Time
AMP3.mV                       : CBL 3' Amplitude
GR.GAPI                       : Gamma Ray
~Parameter Information Block
~A  Depth       CCL         TT3         AMP3         GR     
# ...
  1167.7500      0.0000    779.7682      5.8471    149.5068
  1168.0000      0.0000    788.0351      5.8300    146.2725
  1168.2500      0.0000    790.3276      5.8107    142.8387
  1168.5000      0.0000    786.7687      5.8100    139.2709
  1168.7500      0.0000    781.8547      5.8300    136.0715
  1169.0000      0.0000    780.3799      5.8464    133.6387
  1169.2500      0.0000    784.0388      5.8239    132.0398
  1169.5000      0.0000    791.8266      5.7489    131.2115
  1169.7500      0.0000    801.8902      5.6488    131.1900
  1170.0000      0.0000    812.1039      5.5806    132.0853
  1170.2500      0.0000    820.2684      5.5915    133.7620
  1170.5000      0.0000    825.0555      5.6734    135.6797
  1170.7500      0.0000    826.9526      5.7595    137.3681
  1171.0000      0.0000    827.9200      5.7789    138.9602
  1171.2500      0.0000    829.7296      5.7169    141.1655
  1171.5000      0.0000    832.3688      5.6176    144.8357
  1171.7500      0.0000    834.0486      5.5333    150.0196
  1172.0000      0.0000    832.9547      5.4807    154.9070
  1172.2500      0.0000    829.0214      5.4393    156.4253
  1172.5000      0.0000    823.9485      5.3844    152.6977
  1172.7500      0.0000    819.7677      5.3199    144.5996
  1173.0000      0.0000    817.7271      5.2792    134.8326
  1173.2500      0.0000    818.2192      5.2896    126.2830
  1173.5000      0.0000    821.0168      5.3454    121.1978
  1173.7500      0.0000    825.2950      5.4247    120.6079
  1174.0000      0.0000    829.8892      5.5191    123.7092
  1174.2500      0.0000    833.9888      5.6297    128.0464
  1174.5000      0.0000    837.5198      5.7449    130.7616
  1174.7500      0.0000    840.6515      5.8388    130.2282
  1175.0000      0.0000    843.0124      5.8889    127.0766
  1175.2500      0.0000    843.5621      5.8885    123.7154
  1175.5000      0.0000    840.9690      5.8454    122.5877
  1175.7500      0.0000    833.7247      5.7789    124.5388
  1176.0000      0.0000    820.3830      5.7173    128.3865
  1176.2500      0.0000    801.2884      5.6894    131.7811
  1176.5000      0.0000    780.6413      5.7109    132.8903
  1176.7500      0.0000    765.3663      5.7721    131.6416
  1177.0000      0.0000    760.5128      5.8381    129.3717
  1177.2500      0.0000    765.8159      5.8703    127.5086
  1177.5000      0.0000    776.7496      5.8550    126.8248
  1177.7500      0.0000    787.8138      5.8119    127.4052
  1178.0000      0.0000    794.7327      5.7716    128.6612
  1178.2500      0.0000    795.2801      5.7524    129.6265
  1178.5000      0.0000    789.4828      5.7582    129.7342
  1178.7500      0.0000    778.9228      5.7846    129.2279
  1179.0000      0.0000    765.4788      5.8187    128.7604
  1179.2500      0.0000    750.9844      5.8404    128.8252
  1179.5000      0.0000    737.9588      5.8349    129.5170
  1179.7500      0.0000    729.9870      5.8048    130.4664
  1180.0000      0.0000    730.7906      5.7761    130.7774
  1180.2500      0.0000    742.2833      5.7913    128.9770
  1180.5000      0.0000    762.6020      5.8833    123.4239
  1180.7500      0.0000    785.9582      6.0448    113.5081
  1181.0000      0.0000    805.4576      6.2266    100.6190
  1181.2500      0.0000    817.0712      6.3747     87.3582
  1181.5000      0.0000    821.1871      6.4660     75.6962
  1181.7500      0.0000    820.6602      6.5070     66.3060
  1182.0000      0.0000    818.0653      6.5134     59.4469
  1182.2500      0.0000    814.8012      6.5040     55.5646
  1182.5000      0.0000    811.6741      6.5071     54.7837
  1182.7500      0.0000    809.0605      6.5555     56.4026
  1183.0000      0.0000    805.9839      6.6663     59.1625
  1183.2500      0.0000    799.9205      6.8250     61.8161
  1183.5000      0.0000    788.9814      6.9842     63.5912
  1183.7500      0.0000    774.9672      7.0781     64.4192
  1184.0000      0.0000    763.5323      7.0557     64.8268
  1184.2500      0.0000    760.4523      6.9229     65.6008
  1184.5000      0.0000    767.6570      6.7496     67.3872
  1184.7500      0.0000    782.5801      6.6186     70.2155
  1185.0000      0.0000    800.3091      6.5658     73.2263
  1185.2500      0.0000    816.0517      6.5742     75.1201
  1185.5000      0.0000    826.6526      6.6155     75.2153
  1185.7500      0.0000    831.3464      6.6818     74.1167
  1186.0000      0.0000    831.7892      6.7820     73.3092
  1186.2500      0.0000    830.8179      6.9287     74.2967
  1186.5000      0.0000    830.4205      7.1367     78.2378
  1186.7500      0.0000    830.7828      7.4248     85.7645
  1187.0000      0.0000    831.1560      7.8028     96.5513
  1187.2500      0.0000    831.0339      8.2540    109.3439
  1187.5000      0.0000    829.6678      8.7354    122.6457
  1187.7500      0.0000    823.8745      9.2007    134.9441
  1188.0000      0.0000    806.7717      9.6248    144.4849
  1188.2500      0.0000    771.3781     10.0023    149.9854
  1188.5000      0.0000    718.5878     10.3275    151.9759
  1188.7500      0.0000    661.4529     10.5858    152.6098
  1189.0000      0.0000    618.8359     10.7681    153.5553
  1189.2500      0.0000    603.4733     10.8798    154.4004
  1189.5000      0.0000    615.3263     10.9212    153.4638
  1189.7500      0.0000    643.4738     10.8597    149.9753
  1190.0000      0.0000    673.1270     10.6351    145.1409
  1190.2500      0.0000    694.1140     10.1985    141.1445
  1190.5000      0.0000    705.4033      9.5460    139.3258
  1190.7500      0.0000    711.8782      8.7279    139.1763
  1191.0000      0.0000    718.3420      7.8422    138.6443
  1191.2500      0.0000    727.4533      7.0124    135.2496
  1191.5000      0.0000    740.3942      6.3461    127.3809
  1191.7500      0.0000    756.5707      5.8961    115.1323
  1192.0000     -2.0000    773.5058      5.6484    100.2704
  1192.2500      0.0000    788.4366      5.5370     85.5755
  1192.5000      0.0000    799.7039      5.4858     74.0280
  1192.7500      0.0000    806.8774      5.4571     67.9096
  1193.0000      0.0000    810.5789      5.4616     67.9036
  1193.2500      0.0000    812.1251      5.5130     72.7921
  1193.5000      0.0000    813.0608      5.5927     80.1016
  1193.7500      0.0000    814.8376      5.6788     87.1849
  1194.0000      0.0000    817.6316      5.7892     92.1761
  1194.2500      0.0000    818.9208      5.9586     94.9239
  1194.5000      0.0000    814.5931      6.1743     97.3827
  1194.7500      0.0000    802.6855      6.3644    102.4566
  1195.0000      0.0000    785.8098      6.4526    111.6462
  1195.2500      0.0000    769.3915      6.4072    123.5813
  1195.5000      0.0000    757.8268      6.2423    134.7534
  1195.7500      0.0000    752.5675      5.9989    141.6679
  1196.0000      0.0000    752.9072      5.7355    142.8696
  1196.2500      0.0000    757.3251      5.5182    139.6418
  1196.5000      0.0000    763.9767      5.3971    134.6983
  1196.7500      0.0000    770.6271      5.3795    129.9186
  1197.0000      0.0000    774.9623      5.4296    125.4525
  1197.2500      0.0000    775.7935      5.4961    120.6580
  1197.5000      0.0000    774.2119      5.5399    115.2461
  1197.7500      0.0000    772.9153      5.5425    109.6689
  1198.0000      0.0000    774.4007      5.5085    104.9312
  1198.2500      0.0000    780.3122      5.4683    101.9313
  1198.5000      0.0000    791.2514      5.4613    100.7161
  1198.7500      0.0000    805.7407      5.5000    100.5980
  1199.0000      0.0000    820.3555      5.5569    101.0551
  1199.2500      0.0000    832.0841      5.5919    102.2581
  1199.5000      0.0000    839.8615      5.5853    104.7515
  1199.7500      0.0000    843.6854      5.5419    108.8170
  1200.0000      0.0000    843.5112      5.4738    113.9450
  1200.2500      0.0000    839.3707      5.3883    118.8968
  1200.5000      0.0000    831.7014      5.2888    122.6835
  1200.7500      0.0000    821.4057      5.1767    125.4919
  1201.0000      0.0000    810.1983      5.0533    128.1563
