~Version Information
VERS.                      2.0: CWLS Log ASCII Standard - VERSION 2.0
WRAP.                       NO: One line per depth step
~Well Information Block
STRT.FT               706.1000: 
STOP.FT              2370.0000: 
STEP.FT                 0.1000: 
NULL.                -999.2500: 
COMP.          Petrogulf Corporation: COMPANY
WELL.             State 16-12V: WELL
FLD.           Purgatorie River: FIELD
LOC.           1992' FNL & 1237' FWL: LOCATION
CNTY.               Las Animas: COUNTY
SRVC.                         : SERVICE COMPANY
DATE.          Thu Aug 04 09:34:25 2005: LOG DATE
UWI.           05-071-08016-00: UNIQUE WELL ID
STAT.                 Colorado: STATE
~Curve Information Block
DEPT.FT            0 000 00 00: Depth
DCAL.in                       : CDL Caliper
DPOR.pu                       : CDL Density Porosity
GR.GAPI                       : Gamma Ray
NPOR.pu                       : Neutron Porosity
RHOB.g/cc                     : CDL Bulk Density
RHOC.g/cc                     : CDL Density Correction
~Parameter Information Block
~A  Depth       DCAL        DPOR         GR         NPOR        RHOB        RHOC    
# ...
  1685.3000      8.0194     16.3237    163.0530     22.3463      2.3807      0.1624
  1685.4000      8.0194     16.4635    162.9257     21.3321      2.3784      0.1951
  1685.5000      8.0600     15.2923    160.6912     20.7503      2.3977      0.2581
  1685.6000      8.0600     13.7897    158.5289     20.4470      2.4225      0.3042
  1685.7000      8.0600     12.4655    158.3876     20.0704      2.4443      0.2455
  1685.8000      8.2689     11.7126    160.9225     19.6229      2.4567      0.3133
  1685.9000      8.2689     12.9813    164.7084     19.5021      2.4358      0.3631
  1686.0000      8.5203     16.5554    166.1165     19.7324      2.3768      0.2483
  1686.1000      8.5203     21.1714    163.8165     19.8032      2.3007      0.2682
  1686.2000      8.5203     26.2085    159.8376     19.5885      2.2176      0.2238
  1686.3000      8.3641     30.6300    156.6939     19.7492      2.1446      0.0790
  1686.4000      8.3641     32.6416    156.3251     20.7827      2.1114      0.0645
  1686.5000      8.0971     32.2569    157.0509     22.4547      2.1178      0.1092
  1686.6000      8.0971     30.8286    156.1769     24.1236      2.1413      0.1053
  1686.7000      8.0971     29.0684    154.8459     25.3556      2.1704      0.1471
  1686.8000      8.0963     27.0665    153.6196     26.2627      2.2034      0.1229
  1686.9000      8.0963     24.6865    150.8788     26.9381      2.2427      0.1199
  1687.0000      8.1010     22.3126    147.1409     27.2373      2.2818      0.1130
  1687.1000      8.1010     20.5617    143.7084     27.1607      2.3107      0.0433
  1687.2000      8.1010     19.2889    141.4303     26.9195      2.3317      0.0780
  1687.3000      8.0940     18.0846    141.2213     26.7698      2.3516      0.0888
  1687.4000      8.0940     16.5749    142.7219     26.8202      2.3765      0.0841
  1687.5000      8.1608     14.7114    144.9801     26.8679      2.4073      0.1002
  1687.6000      8.1608     13.3917    145.8827     26.7451      2.4290      0.1507
  1687.7000      8.1608     13.4057    144.8134     26.6012      2.4288      0.1284
  1687.8000      8.1424     13.9347    143.8381     26.4713      2.4201      0.1217
  1687.9000      8.1424     13.8652    143.9823     26.0469      2.4212      0.1781
  1688.0000      8.1061     13.2026    146.1161     25.3544      2.4322      0.1931
  1688.1000      8.1061     12.5113    150.9883     24.8328      2.4436      0.2179
  1688.2000      8.1061     12.0455    155.1241     24.6268      2.4513      0.1876
  1688.3000      8.1700     11.0699    155.4618     24.4317      2.4673      0.1695
  1688.4000      8.1700      8.9186    153.7708     24.1457      2.5028      0.2264
  1688.5000      8.1765      6.3826    152.7554     24.0247      2.5447      0.2728
  1688.6000      8.1765      4.9410    153.5013     24.0934      2.5685      0.3044
  1688.7000      8.1765      5.3296    155.1948     24.2820      2.5621      0.2916
  1688.8000      8.3349      6.8228    155.7980     24.8854      2.5374      0.2577
  1688.9000      8.3349      7.7332    152.6610     25.9129      2.5224      0.1585
  1689.0000      8.2234      6.7367    147.0394     26.6459      2.5388      0.1108
  1689.1000      8.2234      4.2617    143.6924     26.7810      2.5797      0.1875
  1689.2000      8.2234      2.0044    143.4184     26.8046      2.6169      0.2199
  1689.3000      8.0854      1.0230    142.0865     26.9368      2.6331      0.2033
  1689.4000      8.0854      1.5480    139.7287     27.0148      2.6245      0.2342
  1689.5000      8.0666      3.3741    143.2979     26.8860      2.5943      0.1527
  1689.6000      8.0666      5.6686    152.7991     26.3621      2.5565      0.0974
  1689.7000      8.0666      7.5804    158.1179     25.7683      2.5249      0.0705
  1689.8000      8.1141      8.8745    155.3778     25.6759      2.5036      0.0561
  1689.9000      8.1141      9.8215    151.9553     25.8856      2.4879      0.0622
  1690.0000      8.1135     10.5215    150.9182     25.8834      2.4764      0.0129
  1690.1000      8.1135     11.0360    148.6720     25.5705      2.4679      0.0607
  1690.2000      8.1135     11.7231    146.5329     25.1962      2.4566      0.0476
  1690.3000      8.1250     12.1082    147.8622     24.9711      2.4502      0.0098
  1690.4000      8.1250     11.1303    151.8412     24.8247      2.4664      0.0524
  1690.5000      8.1918      8.9222    153.6076     24.7970      2.5028      0.0877
  1690.6000      8.1918      6.7922    151.0956     25.2313      2.5379      0.1128
  1690.7000      8.1918      6.1390    147.3048     26.0059      2.5487      0.1689
  1690.8000      8.2213      7.2379    145.0095     26.6148      2.5306      0.0856
  1690.9000      8.2213      8.6886    144.3847     26.9294      2.5066      0.0417
  1691.0000      8.1957      9.4538    144.5335     27.0756      2.4940      0.0555
  1691.1000      8.1957     10.2447    143.7630     27.1907      2.4810      0.0889
  1691.2000      8.1957     11.9182    142.3416     27.4341      2.4533      0.0616
  1691.3000      8.1930     13.9469    142.6594     27.8330      2.4199      0.0005
  1691.4000      8.1930     15.2183    143.7843     28.0868      2.3989     -0.0024
  1691.5000      8.2019     15.3839    144.3673     27.8541      2.3962      0.0035
  1691.6000      8.2019     14.6353    145.1733     27.4454      2.4085     -0.0065
  1691.7000      8.2019     13.3482    145.3553     27.1528      2.4298      0.0505
  1691.8000      8.1387     12.3414    142.8221     26.7153      2.4464      0.0901
  1691.9000      8.1387     12.1595    138.3716     26.1938      2.4494      0.1093
  1692.0000      8.1403     12.6242    134.9600     25.8011      2.4417      0.0977
  1692.1000      8.1403     13.1962    134.1368     25.2992      2.4323      0.1137
  1692.2000      8.1403     13.2446    135.8219     24.6421      2.4315      0.1331
  1692.3000      8.0872     12.6207    138.1625     24.1947      2.4418      0.1906
  1692.4000      8.0872     11.9363    140.8180     24.0284      2.4531      0.2197
  1692.5000      8.0783     11.6517    145.2312     23.9526      2.4577      0.2015
  1692.6000      8.0783     11.7493    148.3511     24.0007      2.4561      0.2193
  1692.7000      8.0783     12.3411    147.8840     24.1431      2.4464      0.2462
  1692.8000      8.0958     13.4152    146.9629     24.1102      2.4286      0.2680
  1692.9000      8.0958     14.5561    146.6188     23.8505      2.4098      0.2342
  1693.0000      8.0990     14.6118    146.3258     23.5462      2.4089      0.2066
  1693.1000      8.0990     12.0890    146.5127     23.2059      2.4505      0.1956
  1693.2000      8.0990      7.2325    146.9770     22.7383      2.5307      0.3025
  1693.3000      8.1239      2.5129    146.6560     22.3805      2.6085      0.3513
  1693.4000      8.1239      0.0027    144.8063     22.3580      2.6500      0.3436
  1693.5000      8.1280     -0.2507    142.0489     22.5811      2.6541      0.3321
  1693.6000      8.1280      1.3088    138.7092     22.9997      2.6284      0.3675
  1693.7000      8.1280      4.1424    137.1811     23.5330      2.5817      0.2402
  1693.8000      8.1132      6.4909    139.9940     23.9992      2.5429      0.1548
  1693.9000      8.1132      7.0904    143.4342     24.3771      2.5330      0.1317
  1694.0000      8.1119      6.6515    143.4147     25.0210      2.5403      0.1571
  1694.1000      8.1119      6.4141    141.6770     26.0902      2.5442      0.1475
  1694.2000      8.1119      6.7284    141.0590     27.0816      2.5390      0.1670
  1694.3000      8.1512      7.0736    140.4942     27.6376      2.5333      0.1097
  1694.4000      8.1512      6.6372    139.4233     27.8181      2.5405      0.0791
  1694.5000      8.1299      5.7761    140.3875     27.7252      2.5547      0.1176
  1694.6000      8.1299      5.8700    141.8743     27.4666      2.5531      0.1303
  1694.7000      8.1299      7.2773    141.0445     27.2459      2.5299      0.1010
  1694.8000      8.0975      9.0841    140.6987     27.0762      2.5001      0.0276
