~Version Information
VERS.                      2.0: CWLS Log ASCII Standard - VERSION 2.0
WRAP.                       NO: One line per depth step
~Well Information Block
STRT.FT               440.0000: 
STOP.FT              1003.5000: 
STEP.FT                 0.2500: 
NULL.                -999.2500: 
COMP.          Pioneer Natural Resources: COMPANY
WELL.              Dylan 42-25: WELL
FLD.           Purgatoire River: FIELD
LOC.           2160' FNL & 855' FEL: LOCATION
PROV.                 Colorado: PROVINCE
CNTY.               Las Animas: COUNTRY
SRVC.                Patterson: SERVICE COMPANY
DATE.          Sat Apr 23 11:21:51 2005: LOG DATE
UWI.           05 071 08229 00: UNIQUE WELL ID
~Curve Information Block
DEPT.FT            0 000 00 00: Depth
SN.Ohm-m                      : IEL Short Normal
SP.mV                         : IEL Spontaneous Potential
DIR.Ohm-m                     : IEL Induction Resistivity
GR.GAPI                       : Gamma Ray
~Parameter Information Block
~A  Depth        SN          SP         DIR          GR     
   440.0000   2000.0000   2000.0000    121.2257    136.3576
   440.2500   2000.0000   2000.0000    116.8013    134.3090
   440.5000   2000.0000   2000.0000    113.9770    129.6377
   440.7500   2000.0000   2000.0000    112.4023    126.0767
   441.0000   2000.0000   2000.0000    111.4701    121.7551
   441.2500   2000.0000   2000.0000    110.7087    120.2492
   441.5000   2000.0000   2000.0000    109.9555    120.2550
   441.7500   2000.0000   2000.0000    109.3150    121.6210
   442.0000   2000.0000   2000.0000    108.9719    125.6096
   442.2500   2000.0000   2000.0000    109.0073    129.4840
   442.5000   2000.0000   2000.0000    109.3215    136.2852
   442.7500   2000.0000   2000.0000    109.7205    140.3591
   443.0000   2000.0000   2000.0000    110.0451    143.2764
   443.2500   2000.0000   2000.0000    110.2454    142.0904
   443.5000   2000.0000   2000.0000    110.3580    136.1009
   443.7500   2000.0000   2000.0000    110.4321    130.8176
   444.0000   2000.0000   2000.0000    110.4692    123.9370
   444.2500   2000.0000   2000.0000    110.4044    121.0106
   444.5000   2000.0000   2000.0000    110.1377    119.0243
   444.7500   2000.0000   2000.0000    109.6017    118.7519
   445.0000   2000.0000   2000.0000    108.8245    119.2481
   445.2500   2000.0000   2000.0000    107.9512    120.0999
   445.5000   2000.0000   2000.0000    107.2141    121.9193
   445.7500   2000.0000   2000.0000    106.8567    122.9780
   446.0000   2000.0000   2000.0000    107.0274    123.1589
   446.2500   2000.0000   2000.0000    107.6842    122.0246
   446.5000   2000.0000   2000.0000    108.5772    118.9279
   446.7500   2000.0000   2000.0000    109.3536    116.4549
   447.0000   2000.0000   2000.0000    109.7458    112.7319
   447.2500   2000.0000   2000.0000    109.7087    110.5088
   447.5000   2000.0000   2000.0000    109.4201    108.1836
   447.7500   2000.0000   2000.0000    109.1714    107.5314
   448.0000   2000.0000   2000.0000    109.2643    107.4951
   448.2500   2000.0000   2000.0000    109.9471    107.5371
   448.5000   2000.0000   2000.0000    111.3429    106.9463
   448.7500   2000.0000   2000.0000    113.3316    106.0691
   449.0000   2000.0000   2000.0000    115.4249    104.4598
   449.2500   2000.0000   2000.0000    116.8188    103.4794
   449.5000   2000.0000   2000.0000    116.7160    102.3110
   449.7500   2000.0000   2000.0000    114.7653    101.6403
   450.0000   2000.0000   2000.0000    111.2787    100.5507
   450.2500   2000.0000   2000.0000    107.1074     99.7457
   450.5000   2000.0000   2000.0000    103.3363     98.8142
   450.7500   2000.0000   2000.0000    100.9626     98.7112
   451.0000   2000.0000   2000.0000    100.6133     99.4624
   451.2500   2000.0000   2000.0000    102.3463    100.2439
   451.5000   2000.0000   2000.0000    105.5577    100.8691
   451.7500   2000.0000   2000.0000    109.0846    100.3214
   452.0000   2000.0000   2000.0000    111.6311     97.4371
   452.2500   2000.0000   2000.0000    112.4297     94.3318
   452.5000   2000.0000   2000.0000    111.7011     89.2680
   452.7500   2000.0000   2000.0000    110.5113     86.6795
   453.0000   2000.0000   2000.0000    110.1347     85.3316
   453.2500   2000.0000   2000.0000    111.2994     86.2069
   453.5000   2000.0000   2000.0000    113.5572     88.9334
   453.7500   2000.0000   2000.0000    114.9442     90.6253
   454.0000   2000.0000   2000.0000    112.6476     91.9040
   454.2500   2000.0000   2000.0000    105.1189     91.9555
   454.5000   2000.0000   2000.0000     93.6610     91.2768
   454.7500   2000.0000   2000.0000     81.3082     90.3975
   455.0000   2000.0000   2000.0000     70.7751     88.3080
   455.2500   2000.0000   2000.0000     63.7543     86.4025
   455.5000   2000.0000   2000.0000     61.3622     82.9811
   455.7500   2000.0000   2000.0000     65.0280     80.4601
   456.0000   2000.0000   2000.0000     77.7813     76.6048
   456.2500   2000.0000   2000.0000    106.1789     74.3239
   456.5000   2000.0000   2000.0000    159.9159     72.1525
   456.7500   2000.0000   2000.0000    227.0271     71.8283
   457.0000   2000.0000   2000.0000    237.8039     72.6540
   457.2500   2000.0000   2000.0000    192.1755     73.4805
   457.5000   2000.0000   2000.0000    152.5640     74.2898
   457.7500   2000.0000   2000.0000    132.7368     74.4310
   458.0000   2000.0000   2000.0000    127.9268     74.3863
   458.2500   2000.0000   2000.0000    134.2204     74.5744
   458.5000   2000.0000   2000.0000    148.6234     75.8780
   458.7500   2000.0000   2000.0000    161.2281     77.5292
   459.0000   2000.0000   2000.0000    147.1348     80.5435
   459.2500   2000.0000   2000.0000    102.9665     82.3932
   459.5000   2000.0000   2000.0000     63.2230     84.5036
   459.7500   2000.0000   2000.0000     40.6482     85.4813
   460.0000   2000.0000   2000.0000     29.9651     86.5249
   460.2500   2000.0000   2000.0000     26.5879     87.3282
   460.5000   2000.0000   2000.0000     30.5149     90.0175
   460.7500   2000.0000   2000.0000     60.7253     93.5026
   461.0000   2000.0000   2000.0000 100000.0000    100.9799
   461.2500   2000.0000   2000.0000 100000.0000    106.2777
   461.5000   2000.0000   2000.0000 100000.0000    112.2993
   461.7500   2000.0000   2000.0000 100000.0000    106.7341
   462.0000   2000.0000   2000.0000 100000.0000    107.4112
   462.2500   2000.0000   2000.0000 100000.0000    107.2211
   462.5000   2000.0000   2000.0000 100000.0000    107.5053
   462.7500   2000.0000   2000.0000     40.1394    101.1541
   463.0000   2000.0000   2000.0000      9.2834    105.6349
   463.2500   2000.0000   2000.0000      5.9334    109.6808
   463.5000   2000.0000   2000.0000      5.2554    114.4252
   463.7500   2000.0000   2000.0000      5.6751    106.2179
   464.0000   2000.0000   2000.0000      7.0540    103.3045
   464.2500   2000.0000   2000.0000      9.8513    100.0913
   464.5000   2000.0000   2000.0000     15.9186     96.6614
   464.7500   2000.0000   2000.0000     35.8212     89.0532
   465.0000   2000.0000   2000.0000 100000.0000     95.7651
   465.2500   2000.0000   2000.0000 100000.0000    104.9144
   465.5000   2000.0000   2000.0000 100000.0000    124.5233
   465.7500   2000.0000   2000.0000 100000.0000    126.5292
   466.0000   2000.0000   2000.0000 100000.0000    143.8546
   466.2500   2000.0000   2000.0000     49.3104    151.7489
   466.5000   2000.0000   2000.0000     23.3381    158.2605
   466.7500   2000.0000   2000.0000     16.6466    160.5315
   467.0000   2000.0000   2000.0000     14.0032    163.2431
   467.2500   2000.0000   2000.0000     12.7351    165.0838
   467.5000   2000.0000   2000.0000     12.0013    167.5299
   467.7500   2000.0000   2000.0000     11.4913    168.6643
   468.0000   2000.0000   2000.0000     11.1038    169.5772
   468.2500   2000.0000   2000.0000     10.8265    169.7881
   468.5000   2000.0000   2000.0000     10.6892    169.6804
   468.7500   2000.0000   2000.0000     10.7350    169.3791
   469.0000   2000.0000   2000.0000     10.9917    168.6400
   469.2500   2000.0000   2000.0000     11.4347    167.8866
   469.5000   2000.0000   2000.0000     11.9632    165.9793
   469.7500   2000.0000   2000.0000     12.4272    164.0406
   470.0000   2000.0000   2000.0000     12.7125    160.4621
   470.2500   2000.0000   2000.0000     12.8138    157.9660
   470.5000   2000.0000   2000.0000     12.8151    154.2423
   470.7500   2000.0000   2000.0000     12.8094    151.8134
   471.0000   2000.0000   2000.0000     12.8483    148.9109
   471.2500   2000.0000   2000.0000     12.9440    148.0572
   471.5000   2000.0000   2000.0000     13.0980    148.6152
   471.7500   2000.0000   2000.0000     13.3272    149.5290
   472.0000   2000.0000   2000.0000     13.6683    149.7514
   472.2500   2000.0000   2000.0000     14.1607    148.2412
   472.5000   2000.0000   2000.0000     14.8202    143.3925
   472.7500   2000.0000   2000.0000     15.6245    139.2020
   473.0000   2000.0000   2000.0000     16.5204    133.1209
   473.2500   2000.0000   2000.0000     17.4533    129.6482
