~Version Information
VERS.                      2.0: CWLS Log ASCII Standard - VERSION 2.0
WRAP.                       NO: One line per depth step
~Well Information Block
STRT.FT                -4.2500: 
STOP.FT              2500.7500: 
STEP.FT                 0.2500: 
NULL.                -999.2500: 
COMP.          Pioneer Natural Resources: COMPANY
WELL.          Cock-a-doodle-doo 44-27: WELL
FLD.           Purgatoire River: FIELD
LOC.           163' FSL & 54' FEL--: LOCATION
PROV.                 Colorado: PROVINCE
CNTY.               Las Animas: COUNTRY
SRVC.                Patterson: SERVICE COMPANY
DATE.          Wed Jul 06 10:56:34 2005: LOG DATE
UWI.                071 08429 : UNIQUE WELL ID
~Curve Information Block
DEPT.FT            0 000 00 00: Depth
CCL.                          : Casing Collar Locator
TT3.usec                      : CBL 3' Travel Time
AMP3.mV                       : CBL 3' Amplitude
GR.GAPI                       : Gamma Ray
~Parameter Information Block
~A  Depth       CCL         TT3         AMP3         GR     
# ...
  2139.7500      0.0000    438.4723      5.2179     90.9350
  2140.0000      0.0000    435.7553      5.3003     93.3738
  2140.2500      0.0000    438.9935      5.3628     95.4957
  2140.5000      0.0000    443.4712      5.3957     97.4989
  2140.7500      0.0000    446.4303      5.4092     98.6307
  2141.0000      0.0000    446.5592      5.4186     98.0006
  2141.2500      0.0000    443.1497      5.4298     95.7505
  2141.5000      0.0000    436.6735      5.4442     93.1941
  2141.7500      0.0000    430.6989      5.4715     91.8686
  2142.0000      0.0000    431.9200      5.5262     92.3404
  2142.2500      0.0000    446.3642      5.6131     93.6333
  2142.5000      0.0000    474.8175      5.7175     94.0589
  2142.7500      0.0000    512.3564      5.8075     92.9270
  2143.0000      0.0000    551.8322      5.8465     91.1414
  2143.2500      0.0000    586.9175      5.8110     89.8807
  2143.5000      0.0000    613.5931      5.7039     89.3641
  2143.7500      0.0000    631.6111      5.5582     89.3383
  2144.0000      0.0000    644.1373      5.4242     89.9525
  2144.2500      0.0000    654.2822      5.3455     91.5322
  2144.5000      0.0000    662.5006      5.3349     94.0846
  2144.7500      0.0000    667.5798      5.3683     97.4706
  2145.0000      0.0000    668.6844      5.3990    101.5030
  2145.2500      0.0000    666.1410      5.3878    105.5093
  2145.5000      0.0000    661.3715      5.3280    108.1339
  2145.7500      0.0000    656.4107      5.2433    107.8985
  2146.0000      0.0000    652.8074      5.1565    104.1939
  2146.2500      0.0000    650.8901      5.0651     97.9261
  2146.5000      0.0000    650.0885      4.9565     91.2774
  2146.7500      0.0000    649.7410      4.8419     86.7393
  2147.0000      0.0000    649.5269      4.7603     86.1092
  2147.2500      0.0000    649.4127      4.7423     89.9069
  2147.5000      0.0000    649.4734      4.7808     97.1325
  2147.7500      0.0000    649.8553      4.8413    105.4021
  2148.0000      0.0000    650.8784      4.8970    111.8526
  2148.2500      0.0000    653.0330      4.9477    114.6806
  2148.5000      0.0000    656.5538      5.0058    114.2198
  2148.7500      0.0000    660.7007      5.0712    112.5220
  2149.0000      0.0000    663.6476      5.1259    111.5397
  2149.2500      0.0000    663.6771      5.1537    111.5547
  2149.5000      0.0000    660.7237      5.1595    111.7406
  2149.7500      0.0000    656.4385      5.1649    112.0967
  2150.0000      0.0000    652.7045      5.1849    113.7576
  2150.2500      0.0000    650.2891      5.2156    117.0704
  2150.5000      0.0000    648.6028      5.2464    120.4848
  2150.7500      0.0000    645.7441      5.2772    121.9891
  2151.0000      0.0000    638.2127      5.3168    120.9250
  2151.2500      0.0000    621.3488      5.3651    117.9993
  2151.5000      0.0000    591.7668      5.4099    114.2016
  2151.7500      0.0000    550.5078      5.4423    110.0999
  2152.0000      0.0000    503.7167      5.4701    105.6886
  2152.2500      0.0000    459.8383      5.5084    100.6413
  2152.5000      0.0000    425.6337      5.5612     94.9853
  2152.7500      0.0000    403.5852      5.6163     89.5626
  2153.0000      0.0000    391.7063      5.6568     85.4890
  2153.2500      0.0000    385.6214      5.6753     83.1852
  2153.5000      0.0000    381.5161      5.6747     82.2535
  2153.7500      0.0000    377.8124      5.6611     82.3310
  2154.0000      0.0000    374.7563      5.6398     83.7671
  2154.2500      0.0000    373.1793      5.6166     87.1206
  2154.5000      0.0000    373.8264      5.5998     92.0046
  2154.7500      0.0000    377.1062      5.5992     96.8891
  2155.0000      0.0000    382.6867      5.6252    100.3146
  2155.2500      0.0000    389.2284      5.6836    101.9458
  2155.5000      0.0000    394.9389      5.7687    102.1661
  2155.7500      0.0000    398.6056      5.8617    101.2428
  2156.0000      0.0000    400.0198      5.9417     99.5257
  2156.2500      0.0000    399.4670      5.9998     97.8875
  2156.5000      0.0000    397.0605      6.0437     97.0248
  2156.7500      0.0000    392.7715      6.0889     96.5981
  2157.0000      0.0000    387.1948      6.1456     95.8752
  2157.2500      0.0000    382.1259      6.2102     95.0307
  2157.5000      0.0000    379.8773      6.2676     95.1014
  2157.7500      0.0000    381.5789      6.3046     96.7586
  2158.0000      0.0000    386.1252      6.3216     99.5979
  2158.2500      0.0000    390.8643      6.3346    102.5823
  2158.5000      0.0000    393.2291      6.3624    104.8096
  2158.7500      0.0000    391.9161      6.4097    105.7915
  2159.0000      0.0000    387.2227      6.4605    105.2576
  2159.2500      0.0000    380.7781      6.4856    102.9845
  2159.5000      0.0000    374.8080      6.4549     98.9113
  2159.7500      0.0000    371.2601      6.3418     93.4506
  2160.0000      0.0000    371.2704      6.1288     87.6622
  2160.2500      0.0000    374.8676      5.8284     82.7945
  2160.5000      0.0000    380.6808      5.5005     79.2861
  2160.7500      0.0000    386.1188      5.2290     76.3266
  2161.0000      0.0000    388.5119      5.0676     72.7870
  2161.2500      0.0000    386.5746      5.0201     68.6319
  2161.5000      0.0000    381.0581      5.0657     65.1871
  2161.7500      0.0000    374.4441      5.1755     63.9739
  2162.0000      0.0000    370.2129      5.3061     65.3821
  2162.2500     -2.0000    372.0006      5.4035     68.4871
  2162.5000      2.0000    382.6559      5.4270     71.9727
  2162.7500      2.0000    403.2777      5.3775     74.8918
  2163.0000      0.0000    432.3161      5.3050     76.5742
  2163.2500      0.0000    464.9207      5.2712     76.4838
  2163.5000      0.0000    493.0335      5.2808     74.6600
  2163.7500      0.0000    507.2603      5.2626     72.1296
  2164.0000      0.0000    501.5933      5.1520     70.5919
  2164.2500      0.0000    478.5267      4.9760     71.3180
  2164.5000      0.0000    448.4946      4.8278     73.8710
  2164.7500      0.0000    422.7504      4.7688     76.0029
  2165.0000      0.0000    407.0732      4.7842     75.4149
  2165.2500      0.0000    401.3844      4.8172     71.7811
  2165.5000      0.0000    402.4781      4.8240     66.9372
  2165.7500      0.0000    406.2216      4.7985     63.2962
  2166.0000      0.0000    409.1574      4.7609     62.1628
  2166.2500      0.0000    409.8329      4.7309     63.2185
  2166.5000      0.0000    408.9922      4.7128     65.2850
  2166.7500      0.0000    408.6563      4.7034     67.4473
  2167.0000      0.0000    410.8606      4.7077     69.4516
  2167.2500      0.0000    416.4142      4.7409     71.3301
  2167.5000      0.0000    424.3074      4.8150     73.0093
  2167.7500      0.0000    432.6256      4.9233     74.2993
  2168.0000      0.0000    440.3942      5.0346     74.9913
  2168.2500      0.0000    448.5464      5.1074     74.8713
  2168.5000      0.0000    458.7406      5.1175     73.8187
  2168.7500      0.0000    470.7882      5.0735     72.0050
  2169.0000      0.0000    481.5637      5.0055     69.8499
  2169.2500      0.0000    488.0998      4.9409     67.6364
  2169.5000      0.0000    492.5092      4.8904     65.2694
  2169.7500      0.0000    501.5305      4.8520     62.5985
  2170.0000      0.0000    518.3644      4.8219     59.8025
  2170.2500      0.0000    535.6913      4.7999     57.1733
  2170.5000      0.0000    540.0445      4.7868     54.7898
  2170.7500      0.0000    524.5300      4.7778     52.8643
  2171.0000      0.0000    495.7388      4.7601     52.0403
  2171.2500      0.0000    467.5230      4.7225     52.6706
  2171.5000      0.0000    449.9416      4.6663     53.9800
  2171.7500      0.0000    444.8015      4.6064     54.5934
  2172.0000      0.0000    448.6009      4.5600     53.8400
  2172.2500      0.0000    457.1347      4.5369     52.2210
  2172.5000      0.0000    468.7592      4.5415     50.7795
  2172.7500      0.0000    485.5562      4.5787     50.3440
  2173.0000      0.0000    510.5202      4.6526     51.1803
