~Version Information
VERS.                      2.0: CWLS Log ASCII Standard - VERSION 2.0
WRAP.                       NO: One line per depth step
~Well Information Block
STRT.FT               390.0000: 
STOP.FT              2770.2500: 
STEP.FT                 0.2500: 
NULL.                -999.2500: 
COMP.          Pioneer Natural Resources: COMPANY
WELL.              Lynch 43-30: WELL
FLD.           Purgatoire River: FIELD
LOC.           1438' FSL & 429' FEL: LOCATION
PROV.                 Colorado: PROVINCE
CNTY.               Las Animas: COUNTRY
SRVC.                Patterson: SERVICE COMPANY
DATE.          Wed Oct 27 08:06:51 2004: LOG DATE
UWI.           05 071 08170 00: UNIQUE WELL ID
~Curve Information Block
DEPT.FT            0 000 00 00: Depth
DIR.Ohm-m                     : IEL Induction Resistivity
SN.Ohm-m                      : IEL Short Normal
SP.mV                         : IEL Spontaneous Potential
GR.GAPI                       : Gamma Ray
~Parameter Information Block
~A  Depth       DIR          SN          SP          GR     
# ...
  2567.5000     22.7851     26.5247    134.0849     84.8748
  2567.7500     23.6930     27.9985    133.8214     80.1151
  2568.0000     24.6641     29.7379    133.5219     74.7994
  2568.2500     25.7470     31.7320    133.1927     71.5577
  2568.5000     26.9242     33.8920    132.8278     66.3253
  2568.7500     28.1128     36.0582    132.4194     62.8654
  2569.0000     29.2013     38.0592    131.9719     58.2703
  2569.2500     30.0934     39.7641    131.5130     55.5140
  2569.5000     30.7297     41.0746    131.0953     51.8997
  2569.7500     31.0821     41.8885    130.7865     50.5528
  2570.0000     31.1348     42.0904    130.6499     51.7452
  2570.2500     30.8758     41.5773    130.7220     54.8117
  2570.5000     30.2985     40.2977    130.9956     61.0359
  2570.7500     29.4193     38.2966    131.4160     64.8429
  2571.0000     28.2891     35.7435    131.8940     68.6460
  2571.2500     26.9905     32.9021    132.3309     69.8252
  2571.5000     25.6095     30.0444    132.6460     69.9084
  2571.7500     24.2006     27.3805    132.7949     69.2508
  2572.0000     22.7738     25.0508    132.7744     68.7460
  2572.2500     21.3198     23.1457    132.6149     70.0306
  2572.5000     19.8501     21.6962    132.3645     75.9853
  2572.7500     18.4201     20.6471    132.0724     82.6402
  2573.0000     17.1166     19.8769    131.7749     95.1498
  2573.2500     16.0226     19.2763    131.4866    103.7658
  2573.5000     15.1886     18.8046    131.2000    114.4250
  2573.7500     14.6223     18.4711    130.8916    118.9764
  2574.0000     14.2948     18.2743    130.5365    122.2408
  2574.2500     14.1545     18.1717    130.1219    123.1588
  2574.5000     14.1420     18.1016    129.6571    124.2191
  2574.7500     14.2023     18.0208    129.1736    124.6560
  2575.0000     14.2922     17.9186    128.7146    123.6155
  2575.2500     14.3849     17.8077    128.3205    121.0828
  2575.5000     14.4730     17.7187    128.0157    114.5395
  2575.7500     14.5673     17.7091    127.8013    109.3532
  2576.0000     14.6883     17.8617    127.6571    103.1868
  2576.2500     14.8541     18.2428    127.5508    101.5280
  2576.5000     15.0688     18.8383    127.4485    103.1127
  2576.7500     15.3163     19.5338    127.3242    106.0725
  2577.0000     15.5620     20.1694    127.1645    111.7558
  2577.2500     15.7644     20.6169    126.9689    115.9993
  2577.5000     15.8918     20.8201    126.7479    122.9496
  2577.7500     15.9373     20.7974    126.5192    127.2862
  2578.0000     15.9232     20.6307    126.3037    130.4604
  2578.2500     15.8957     20.4446    126.1203    128.7835
  2578.5000     15.9113     20.3663    125.9826    120.8755
  2578.7500     16.0215     20.4774    125.8960    114.1717
  2579.0000     16.2600     20.7836    125.8578    106.3892
  2579.2500     16.6360     21.2225    125.8609    103.8769
  2579.5000     17.1321     21.7018    125.8991    102.8312
  2579.7500     17.7064     22.1432    125.9725    102.4974
  2580.0000     18.3032     22.5130    126.0901    101.3110
  2580.2500     18.8730     22.8346    126.2652    100.1096
  2580.5000     19.3926     23.1748    126.5068     97.6281
  2580.7500     19.8708     23.6080    126.8104     95.2575
  2581.0000     20.3339     24.1750    127.1540     91.1108
  2581.2500     20.8049     24.8642    127.5036     89.0717
  2581.5000     21.2918     25.6252    127.8237     88.7751
  2581.7500     21.7863     26.4064    128.0883     90.1876
  2582.0000     22.2710     27.1906    128.2852     92.5522
  2582.2500     22.7340     28.0013    128.4123     93.0995
  2582.5000     23.1881     28.8751    128.4682     91.9721
  2582.7500     23.6786     29.8269    128.4436     90.5545
  2583.0000     24.2683     30.8407    128.3186     88.6610
  2583.2500     25.0064     31.8942    128.0658     87.7095
  2583.5000     25.9037     32.9956    127.6596     85.9583
  2583.7500     26.9294     34.1994    127.0855     83.9557
  2584.0000     28.0242     35.5805    126.3497     79.2502
  2584.2500     29.1209     37.1811    125.4845     75.2023
  2584.5000     30.1621     38.9674    124.5496     68.5580
  2584.7500     31.1133     40.8288    123.6260     64.1939
  2585.0000     31.9657     42.6241    122.8024     58.3564
  2585.2500     32.7280     44.2412    122.1574     55.2768
  2585.5000     33.4176     45.6254    121.7410     52.5146
  2585.7500     34.0601     46.7675    121.5642     52.2468
  2586.0000     34.6890     47.6867    121.5982     54.1356
  2586.2500     35.3312     48.4289    121.7843     56.2006
  2586.5000     35.9779     49.0619    122.0513     58.7012
  2586.7500     36.5646     49.6404    122.3321     59.4700
  2587.0000     36.9857     50.1570    122.5775     60.1262
  2587.2500     37.1484     50.5274    122.7623     61.1767
  2587.5000     37.0281     50.6327    122.8865     64.5187
  2587.7500     36.6833     50.3892    122.9720     67.5589
  2588.0000     36.2266     49.8001    123.0567     71.3528
  2588.2500     35.7830     48.9672    123.1847     71.9660
  2588.5000     35.4642     48.0698    123.3965     68.7799
  2588.7500     35.3526     47.3127    123.7202     64.4628
  2589.0000     35.4899     46.8396    124.1682     57.4213
  2589.2500     35.8696     46.6575    124.7407     54.0976
  2589.5000     36.4361     46.6461    125.4322     52.5983
  2589.7500     37.0923     46.6610    126.2377     53.4508
  2590.0000     37.7195     46.6298    127.1538     55.5390
  2590.2500     38.2130     46.5556    128.1752     56.6415
  2590.5000     38.5297     46.4578    129.2895     57.8376
  2590.7500     38.7085     46.3410    130.4732     58.8786
  2591.0000     38.8369     46.2145    131.6908     61.6523
  2591.2500     38.9851     46.1134    132.8987     64.1484
  2591.5000     39.1568     46.0833    134.0519     67.2064
  2591.7500     39.2973     46.1521    135.1133     67.6876
  2592.0000     39.3541     46.3195    136.0593     65.7048
  2592.2500     39.3311     46.5609    136.8822     63.4243
  2592.5000     39.2900     46.8344    137.5855     60.3915
  2592.7500     39.2955     47.0956    138.1769     59.0060
  2593.0000     39.3601     47.3215    138.6622     57.0787
  2593.2500     39.4377     47.5314    139.0469     55.3102
  2593.5000     39.4803     47.7837    139.3432     52.1856
  2593.7500     39.5179     48.1433    139.5814     50.5956
  2594.0000     39.6830     48.6403    139.8158     49.9600
  2594.2500     40.1304     49.2443    140.1223     50.5272
  2594.5000     40.9061     49.8677    140.5827     51.7186
  2594.7500     41.8691     50.4005    141.2618     52.2197
  2595.0000     42.7411     50.7606    142.1841     52.6112
  2595.2500     43.2647     50.9330    143.3197     53.0856
  2595.5000     43.3427     50.9724    144.5863     54.5963
  2595.7500     43.0355     50.9650    145.8661     55.7937
  2596.0000     42.4629     50.9834    147.0333     56.3537
  2596.2500     41.7423     51.0676    147.9825     55.1351
  2596.5000     40.9991     51.2362    148.6503     51.2898
  2596.7500     40.3909     51.5026    149.0234     48.7691
  2597.0000     40.0870     51.8801    149.1323     48.0350
  2597.2500     40.2124     52.3759    149.0353     50.4551
  2597.5000     40.8018     52.9863    148.7995     57.1212
  2597.7500     41.7894     53.7005    148.4860     61.6109
  2598.0000     43.0400     54.5061    148.1420     65.4397
  2598.2500     44.4007     55.3892    147.7970     65.5553
  2598.5000     45.7398     56.3320    147.4622     63.0785
  2598.7500     46.9604     57.3162    147.1324     60.5919
  2599.0000     48.0071     58.3255    146.7911     56.9077
  2599.2500     48.8817     59.3362    146.4198     55.0165
  2599.5000     49.6479     60.3057    146.0059     53.6725
  2599.7500     50.3916     61.1762    145.5470     53.8294
  2600.0000     51.1441     61.8943    145.0479     54.7921
  2600.2500     51.8335     62.4263    144.5159     55.2173
  2600.5000     52.3127     62.7572    143.9546     55.4642
  2600.7500     52.4687     62.8820    143.3621     56.1353
