~Version Information
 VERS.                                  2.0 : CWLS LAS VERSION
 WRAP.                                   NO : WRAPING MODE
 SWARE .                 MController 2.5.0J : SOFTWARE VERSION
~Well Information
 WELL.                           Ywam 7-23V : WELL
 COMP.                       Petrogulf Corp : COMPANY
 FLD.                      Purgatorie River : FIELD
 LOC.                 NE/SW Sec 7 T33S R67W : LOCATION
 DATE.                          10/29-30/04 : DATE(S) LOGGED
 SRVC.       Blanco Geological Services LLC : SERVICE COMPANY
 STAT.                                   CO : STATE
 CNTY.                           Las Animas : COUNTY
 CTRY.                                  USA : COUNTRY
 API.                       05-071-08227-00 : API NUMBER
 STRT.FT                             634.00 : START DEPTH
 STOP.FT                            2611.00 : STOP DEPTH
 STEP.FT                               1.00 : DEPTH INCREMENT
 NULL.                                -9999 : NULL VALUE
~Curve information
 DEPTH.FT                                   :
 ROP.MIN/FT                                 :
 GAS.UNITS                                  :
~ASCII Log data
# ...
       834.0         0.23         11.0 
       835.0         0.17         11.0 
       836.0         0.13         10.6 
       837.0         0.17          9.8 
       838.0         0.13          9.9 
       839.0         0.13         10.4 
       840.0         0.13         10.8 
       841.0         0.10         10.4 
       842.0         0.13         10.0 
       843.0         0.10         10.4 
       844.0         0.10          9.9 
       845.0         0.10         10.5 
       846.0         0.10         10.5 
       847.0         0.12         11.0 
       848.0         0.10         11.5 
       849.0         0.10         12.1 
       850.0         0.10         12.1 
       851.0         0.10         11.1 
       852.0         0.10          9.9 
       853.0         0.10          9.8 
       854.0         0.10          9.4 
       855.0         0.10         10.0 
       856.0         0.07         10.0 
       857.0         0.10         10.0 
       858.0         0.10         10.5 
       859.0         0.10         10.5 
       860.0         0.10         10.5 
       861.0         0.07         10.5 
       862.0         0.10         10.5 
       863.0         0.40         11.3 
       864.0         0.50         12.1 
       865.0         0.33         10.9 
       866.0         0.13         10.6 
       867.0         0.17         10.2 
       868.0         0.27         11.3 
       869.0         0.18         10.9 
       870.0         0.13         11.6 
       871.0         0.17         10.6 
       872.0         0.17         10.7 
       873.0         0.17         11.2 
       874.0         0.13         10.6 
       875.0         0.10         10.3 
       876.0         0.13         10.4 
       877.0         0.10         10.1 
       878.0         0.10         10.7 
       879.0         0.10         10.5 
       880.0         0.10         10.7 
       881.0         0.10         11.2 
       882.0         0.10         10.8 
       883.0         0.10         10.4 
       884.0         0.10         10.1 
       885.0         0.13          9.9 
       886.0         0.10         10.1 
       887.0         0.10          9.0 
       888.0         0.10          9.3 
       889.0         0.10          9.7 
       890.0         0.10         11.0 
       891.0         0.10         11.0 
       892.0         0.10         11.0 
       893.0         0.10         10.7 
       894.0         0.13         10.7 
       895.0         0.10         10.7 
       896.0         0.10         10.7 
       897.0         0.38         10.0 
       898.0         0.47         10.9 
       899.0         0.50         10.9 
       900.0         0.20         10.2 
       901.0         0.20         10.3 
       902.0         0.20         11.1 
       903.0         0.20         11.0 
       904.0         0.17         11.3 
       905.0         0.13         11.4 
       906.0         0.17         11.8 
       907.0         0.13         11.2 
       908.0         0.10         10.5 
       909.0         0.13         10.4 
       910.0         0.13         10.3 
       911.0         0.07         10.3 
       912.0         0.10         10.9 
       913.0         0.10         10.3 
       914.0         0.10         10.5 
       915.0         0.12         10.1 
       916.0         0.10         10.5 
       917.0         0.13         10.5 
       918.0         0.10         10.8 
       919.0         0.10         11.5 
       920.0         0.13         10.4 
       921.0         0.10         10.2 
       922.0         0.10         10.0 
       923.0         0.10          9.9 
       924.0         0.10          9.9 
       925.0         0.10         11.7 
       926.0         0.10         11.0 
       927.0         0.13         11.1 
       928.0         0.10         11.1 
       929.0         0.10         11.4 
       930.0         0.27         11.2 
       931.0         0.17         10.0 
       932.0         0.17         10.6 
       933.0         0.10         11.3 
       934.0         0.10         11.4 
       935.0         0.10         11.9 
       936.0         0.13         11.9 
       937.0         0.10         11.6 
       938.0         0.17         11.8 
       939.0         0.13         11.3 
       940.0         0.13         12.1 
       941.0         0.13         11.3 
       942.0         0.10         11.3 
       943.0         0.13         10.2 
       944.0         0.13         10.4 
       945.0         0.13          9.9 
       946.0         0.13          9.6 
       947.0         0.13          9.6 
       948.0         0.10         10.5 
       949.0         0.13         10.0 
       950.0         0.10         10.1 
       951.0         0.10         10.1 
       952.0         0.10         10.9 
       953.0         0.07         10.9 
       954.0         0.10         10.9 
       955.0         0.07         10.9 
       956.0         0.10         10.9 
       957.0         0.08         11.3 
       958.0         0.27          9.9 
       959.0         0.27         10.4 
       960.0         0.27         11.0 
       961.0         0.10          9.2 
       962.0         0.10          9.4 
       963.0         0.10          9.4 
       964.0         0.07          9.4 
       965.0         0.13         10.7 
       966.0         0.10         10.7 
       967.0         0.10         10.5 
       968.0         0.10         10.5 
       969.0         0.30         10.7 
       970.0         0.23         11.3 
       971.0         0.25          9.9 
       972.0         0.23          9.9 
       973.0         0.20          9.9 
       974.0         0.20          9.9 
       975.0         0.27         10.9 
       976.0         0.27          9.2 
       977.0         0.17          9.3 
       978.0         0.20         10.1 
       979.0         0.13         10.1 
       980.0         0.30         10.1 
       981.0         0.20         10.4 
       982.0         0.27         10.8 
       983.0         0.23         10.3 
       984.0         0.27         10.5 
       985.0         0.18          9.3 
       986.0         0.17         10.3 
       987.0         0.20          9.3 
       988.0         0.10          9.3 
       989.0         0.17         10.2 
       990.0         0.27         10.3 
       991.0         0.37          9.8 
       992.0         0.30          9.4 
       993.0         0.27          9.9 
       994.0         0.27         10.1 
       995.0         0.20          9.7 
       996.0         0.17          9.1 
       997.0         0.25          9.1 
       998.0         0.20          9.5 
       999.0         0.23          9.2 
      1000.0         0.27         10.0 
      1001.0         0.23         10.0 
      1002.0         0.20         10.8 
      1003.0         0.23         10.6 
      1004.0         0.27         10.2 
      1005.0         0.47         10.0 
      1006.0         0.17         10.7 
      1007.0         0.20         10.6 
      1008.0         0.20          9.3 
      1009.0         0.20          8.9 
      1010.0         0.20          9.2 
      1011.0         0.18          8.3 
      1012.0         0.17          8.4 
      1013.0         0.17          9.9 
      1014.0         0.20         10.2 
      1015.0         0.20         10.2 
      1016.0         0.20         10.7 
      1017.0         0.20         10.3 
      1018.0         0.20          9.6 
      1019.0         0.20          9.1 
      1020.0         0.20          9.2 
      1021.0         0.20          9.6 
      1022.0         0.18          9.7 
      1023.0         0.33          8.9 
      1024.0         0.30         10.1 
      1025.0         0.20         10.9 
      1026.0         0.20         10.3 
      1027.0         0.23          9.3 
      1028.0         0.20          9.1 
      1029.0         0.17          9.1 
      1030.0         0.20          9.6 
      1031.0         0.28          9.4 
      1032.0         0.23          9.3 
      1033.0         0.23          9.1 
