~Version Information
VERS.                      2.0: CWLS Log ASCII Standard - VERSION 2.0
WRAP.                       NO: One line per depth step
~Well Information Block
STRT.FT               823.7000: 
STOP.FT              2444.0000: 
STEP.FT                 0.1000: 
NULL.                -999.2500: 
COMP.          Petrogulf Corporation: COMPANY
WELL.            Kraft 17-23 V: WELL
FLD.           Purgatorie River: FIELD
LOC.           1500' FSL & 1773' FWL: LOCATION
CNTY.               Las Animas: COUNTY
SRVC.                         : SERVICE COMPANY
DATE.          Thu Nov 20 07:09:00 2003: LOG DATE
UWI.                          : UNIQUE WELL ID
STAT.                 Colorado: STATE
~Curve Information Block
DEPT.FT            0 000 00 00: Depth
DCAL.in                       : CDL Caliper
RHOB.g/cc                     : CDL Bulk Density
RHOC.g/cc                     : CDL Density Correction
DPOR.pu                       : CDL Density Porosity
GR.GAPI                       : Gamma Ray
NPOR.pu                       : Neutron Porosity
~Parameter Information Block
~A  Depth       DCAL        RHOB        RHOC        DPOR         GR         NPOR    
# ...
   842.9000   -999.2500   -999.2500   -999.2500   -999.2500     72.8222     46.6284
   843.0000   -999.2500   -999.2500   -999.2500   -999.2500     73.4690     46.3840
   843.1000   -999.2500   -999.2500   -999.2500   -999.2500     71.1081     46.5590
   843.2000   -999.2500   -999.2500   -999.2500   -999.2500     68.5356     47.0257
   843.3000   -999.2500   -999.2500   -999.2500   -999.2500     68.5782     47.3488
   843.4000   -999.2500   -999.2500   -999.2500   -999.2500     70.2078     47.2339
   843.5000   -999.2500   -999.2500   -999.2500   -999.2500     70.3459     46.7691
   843.6000   -999.2500   -999.2500   -999.2500   -999.2500     67.0864     46.5970
   843.7000   -999.2500   -999.2500   -999.2500   -999.2500     62.3059     47.0344
   843.8000   -999.2500   -999.2500   -999.2500   -999.2500     58.5073     47.3666
   843.9000   -999.2500   -999.2500   -999.2500   -999.2500     58.1340     47.1889
   844.0000   -999.2500   -999.2500   -999.2500   -999.2500     60.9619     46.9884
   844.1000   -999.2500   -999.2500   -999.2500   -999.2500     62.2714     47.0377
   844.2000   -999.2500   -999.2500   -999.2500   -999.2500     60.8186     47.1029
   844.3000   -999.2500   -999.2500   -999.2500   -999.2500     60.6690     46.8898
   844.4000   -999.2500   -999.2500   -999.2500   -999.2500     63.1368     46.3538
   844.5000   -999.2500   -999.2500   -999.2500   -999.2500     65.6253     45.9004
   844.6000   -999.2500   -999.2500   -999.2500   -999.2500     67.6701     46.0118
   844.7000   -999.2500   -999.2500   -999.2500   -999.2500     70.7066     46.5526
   844.8000   -999.2500   -999.2500   -999.2500   -999.2500     71.3115     47.0096
   844.9000   -999.2500   -999.2500   -999.2500   -999.2500     67.5540     47.1644
   845.0000   -999.2500   -999.2500   -999.2500   -999.2500     65.2709     47.1800
   845.1000   -999.2500   -999.2500   -999.2500   -999.2500     65.8509     47.1800
   845.2000   -999.2500   -999.2500   -999.2500   -999.2500     63.8396     47.1167
   845.3000   -999.2500   -999.2500   -999.2500   -999.2500     60.1692     46.9943
   845.4000   -999.2500   -999.2500   -999.2500   -999.2500     60.0303     46.9719
   845.5000   -999.2500   -999.2500   -999.2500   -999.2500     62.9004     47.1956
   845.6000   -999.2500   -999.2500   -999.2500   -999.2500     65.1880     47.5287
   845.7000   -999.2500   -999.2500   -999.2500   -999.2500     65.0851     47.5025
   845.8000   -999.2500   -999.2500   -999.2500   -999.2500     62.9661     47.0412
   845.9000   -999.2500   -999.2500   -999.2500   -999.2500     61.6646     46.6521
   846.0000   -999.2500   -999.2500   -999.2500   -999.2500     62.7656     46.5910
   846.1000   -999.2500   -999.2500   -999.2500   -999.2500     63.2521     46.7729
   846.2000   -999.2500   -999.2500   -999.2500   -999.2500     62.3780     47.2334
   846.3000   -999.2500   -999.2500   -999.2500   -999.2500     63.1833     47.7894
   846.4000   -999.2500   -999.2500     -0.3608   -999.2500     66.0818     48.0122
   846.5000   -999.2500   -999.2500     -0.4448   -999.2500     69.9761     47.9694
   846.6000   -999.2500   -999.2500     -0.4495   -999.2500     73.6848     48.0661
   846.7000   -999.2500   -999.2500     -0.3824   -999.2500     73.9017     48.4241
   846.8000   -999.2500   -999.2500     -0.3527   -999.2500     69.8849     48.8326
   846.9000   -999.2500      2.1840     -0.3790     28.2408     66.9715     49.1409
   847.0000      8.4480      2.1592     -0.4086     29.7475     70.1924     49.3383
   847.1000      8.4480      2.1447     -0.3606     30.6237     76.8298     49.5638
   847.2000      8.4480      2.1271     -0.2955     31.6888     82.4675     49.9311
   847.3000      8.4178      2.0987     -0.4146     33.4104     84.8679     50.3019
   847.4000      8.4178      2.0710     -0.4082     35.0903     81.4145     50.5188
   847.5000      8.3879      2.0382     -0.3471     37.0762     74.1951     50.4756
   847.6000      8.3879      2.0013     -0.5013     39.3172     68.4741     50.1445
   847.7000      8.3879      1.9788     -0.4174     40.6798     65.8415     49.7432
   847.8000      8.3811      1.9641     -0.4191     41.5686     64.7411     49.4499
   847.9000      8.3811      1.9419     -0.4566     42.9181     64.4511     49.0096
   848.0000      8.3834      1.9152     -0.5220     44.5324     63.2507     48.3808
   848.1000      8.3834      1.8992     -0.5098     45.5004     61.3695     47.9890
   848.2000      8.3834      1.9215     -0.6152     44.1502     63.9489     47.8339
   848.3000      8.3943      1.9947     -0.5046     39.7140     70.8047     47.7064
   848.4000      8.3943      2.0809     -0.4098     34.4927     76.3750     47.8154
   848.5000      8.4049      2.1473     -0.4606     30.4694     78.1098     48.2614
   848.6000      8.4049      2.2008     -0.3863     27.2213     76.9128     48.6257
   848.7000      8.4049      2.2323     -0.2980     25.3145     74.6199     48.4317
   848.8000      8.4005      2.2227     -0.3192     25.8962     74.2556     47.8486
   848.9000      8.4005      2.1958     -0.3707     27.5243     77.5180     47.4681
   849.0000      8.4012      2.1870     -0.3838     28.0616     82.3289     47.5441
   849.1000      8.4012      2.1959     -0.3554     27.5226     86.0470     47.8878
   849.2000      8.4012      2.2058     -0.3277     26.9230     88.0009     48.1795
   849.3000      8.4145      2.2162     -0.3875     26.2934     91.0438     48.3696
   849.4000      8.4145      2.2378     -0.4293     24.9833     96.9911     48.4851
   849.5000      8.4221      2.2633     -0.3062     23.4346     98.9214     48.2513
   849.6000      8.4221      2.2823     -0.3977     22.2870     93.5640     47.6192
   849.7000      8.4221      2.2952     -0.2903     21.5056     88.7860     47.1787
   849.8000      8.4206      2.2883     -0.2979     21.9206     88.1590     47.4023
   849.9000      8.4206      2.2598     -0.3406     23.6458     85.3136     47.7851
   850.0000      8.3980      2.2311     -0.3571     25.3902     79.7767     47.8072
   850.1000      8.3980      2.2133     -0.4394     26.4666     79.5475     47.8138
   850.2000      8.3980      2.1990     -0.4055     27.3356     84.8032     48.0419
   850.3000      8.3771      2.1845     -0.4004     28.2098     88.2044     48.2665
   850.4000      8.3771      2.1874     -0.4036     28.0389     89.3674     48.4038
   850.5000      8.3850      2.2118     -0.3724     26.5576     91.0733     48.3984
   850.6000      8.3850      2.2330     -0.3707     25.2728     91.7801     48.1063
   850.7000      8.3850      2.2344     -0.3355     25.1874     90.6683     47.6938
   850.8000      8.3936      2.2318     -0.3737     25.3443     89.4268     47.5702
   850.9000      8.3936      2.2453     -0.3827     24.5268     91.3588     47.9315
   851.0000      8.3977      2.2582     -0.2840     23.7430     95.2786     48.6351
   851.1000      8.3977      2.2507     -0.3679     24.1984     94.7760     49.2539
   851.2000      8.3977      2.2316     -0.3397     25.3600     91.3787     49.3648
   851.3000      8.4198      2.2130     -0.3364     26.4856     89.4496     48.9956
   851.4000      8.4198      2.2074     -0.4163     26.8220     85.7383     48.5323
   851.5000      8.4334      2.2188     -0.3873     26.1347     82.1587     48.1508
   851.6000      8.4334      2.2305     -0.3529     25.4250     84.9250     47.8442
   851.7000      8.4334      2.2340     -0.4331     25.2126     91.8787     47.8137
   851.8000      8.4180      2.2379     -0.3723     24.9740     96.8016     48.1218
   851.9000      8.4180      2.2549     -0.3957     23.9428     97.4705     48.4393
   852.0000      8.4060      2.2854     -0.2758     22.0981     94.6677     48.5720
   852.1000      8.4060      2.2985     -0.2817     21.3036     89.4686     48.6164
   852.2000      8.4060      2.2737     -0.3075     22.8062     84.8153     48.6708
   852.3000      8.4476      2.2382     -0.4118     24.9562     84.1136     48.7844
   852.4000      8.4476      2.2270     -0.3870     25.6380     87.3095     48.9989
