~Version Information
VERS.                      2.0: CWLS Log ASCII Standard - VERSION 2.0
WRAP.                       NO: One line per depth step
~Well Information Block
STRT.FT               550.0000: 
STOP.FT              2359.0000: 
STEP.FT                 0.1000: 
NULL.                -999.2500: 
COMP.          Pioneer Natural Resources: COMPANY
WELL.              Whinny 42-2: WELL
FLD.           Purgatoire River: FIELD
LOC.           1836' FNL & 466' FEL: LOCATION
PROV.                 Colorado: PROVINCE
CNTY.               Las Animas: COUNTRY
SRVC.                Patterson: SERVICE COMPANY
DATE.          Mon Aug 22 07:28:42 2005: LOG DATE
UWI.           05 071 08406 00: UNIQUE WELL ID
~Curve Information Block
DEPT.FT            0 000 00 00: Depth
DCAL.in                       : CDL Caliper
RHOB.g/cc                     : CDL Bulk Density
RHOC.g/cc                     : CDL Density Correction
DPOR.pu                       : CDL Density Porosity
GR.GAPI                       : Gamma Ray
NPOR.pu                       : Neutron Porosity
~Parameter Information Block
~A  Depth       DCAL        RHOB        RHOC        DPOR         GR         NPOR    
# ...
  1145.2000      8.8194      1.1632      0.0121     90.1110     46.0896     24.7454
  1145.3000      9.3712      1.1504      0.0086     90.8820     43.8082     25.2922
  1145.4000      9.3712      1.1459      0.0026     91.1586     44.9274     25.8268
  1145.5000     10.1506      1.1474      0.0652     91.0696     46.4841     26.4627
  1145.6000     10.1506      1.1437      0.0933     91.2906     44.5031     27.0376
  1145.7000     10.1506      1.1344      0.0872     91.8555     42.2330     27.6698
  1145.8000     10.5516      1.1357      0.0313     91.7762     44.9307     28.4637
  1145.9000     10.5516      1.1675      0.0364     89.8477     52.3955     29.1687
  1146.0000     10.7784      1.2331      0.1043     85.8755     61.0129     29.6892
  1146.1000     10.7784      1.3206      0.0969     80.5724     68.1114     30.4215
  1146.2000     10.7784      1.4236      0.1613     74.3265     76.5212     31.6437
  1146.3000     11.0725      1.5403      0.1675     67.2540     88.4738     32.9157
  1146.4000     11.0725      1.6629      0.2144     59.8237     98.5419     33.6322
  1146.5000     10.8877      1.7839      0.2225     52.4884    104.0794     33.8741
  1146.6000     10.8877      1.9102      0.1896     44.8365    110.4821     33.8543
  1146.7000     10.8877      2.0473      0.2660     36.5290    121.5599     33.3592
  1146.8000     10.2451      2.1795      0.2513     28.5139    137.7114     32.7800
  1146.9000     10.2451      2.2918      0.1681     21.7088    153.2025     33.0727
  1147.0000      9.4606      2.3801      0.1865     16.3575    158.4828     33.7275
  1147.1000      9.4606      2.4391      0.2009     12.7812    152.4875     33.4452
  1147.2000      9.4606      2.4697      0.1062     10.9261    142.9532     32.2372
  1147.3000      8.4652      2.4791      0.1360     10.3603    138.2075     31.0890
  1147.4000      8.4652      2.4746      0.0874     10.6313    136.9409     30.6703
  1147.5000      8.2868      2.4712      0.0255     10.8370    131.7113     30.6988
  1147.6000      8.2868      2.4754      0.0515     10.5829    124.0940     30.3339
  1147.7000      8.2868      2.4801      0.0012     10.2980    120.0436     29.4678
  1147.8000      8.1622      2.4922     -0.0251      9.5663    120.5716     28.6980
  1147.9000      8.1622      2.5201      0.0413      7.8724    124.8620     28.2305
  1148.0000      8.0947      2.5518      0.0617      5.9508    130.0343     27.8828
  1148.1000      8.0947      2.5739      0.0803      4.6148    134.6887     27.5205
  1148.2000      8.0947      2.5794      0.1033      4.2788    139.3153     27.0917
  1148.3000      8.0924      2.5613      0.0709      5.3740    142.3246     22.8069
  1148.4000      8.0924      2.5282      0.0573      7.3807    143.6638     22.8658
  1148.5000      8.0966      2.5067      0.0349      8.6831    144.8897     22.8840
  1148.6000      8.0966      2.5036      0.0295      8.8703    144.8982     22.4265
  1148.7000      8.0966      2.5004      0.0646      9.0649    143.6299     22.0230
  1148.8000      8.1099      2.4905      0.0089      9.6693    140.5418     22.3527
  1148.9000      8.1099      2.4831      0.0160     10.1127    132.7478     22.8633
  1149.0000      8.0875      2.4759      0.0139     10.5511    123.0577     22.6285
  1149.1000      8.0875      2.4668     -0.0253     11.1059    117.3353     22.0048
  1149.2000      8.0875      2.4692     -0.0222     10.9598    115.2409     21.7252
  1149.3000      8.0881      2.4768      0.0540     10.4944    116.4047     21.5713
  1149.4000      8.0881      2.4850     -0.0435      9.9999    123.7747     21.1524
  1149.5000      8.1007      2.5164     -0.0133      8.0985    135.1465     20.9010
  1149.6000      8.1007      2.5666      0.0265      5.0536    141.7969     21.1213
  1149.7000      8.1007      2.6018      0.0565      2.9206    139.4215     21.4827
  1149.8000      8.1017      2.6062      0.1123      2.6531    131.3309     21.9302
  1149.9000      8.1017      2.5896      0.0260      3.6605    121.1034     22.1521
  1150.0000      8.0651      2.5656      0.0437      5.1180    112.3158     21.7333
  1150.1000      8.0651      2.5376      0.0309      6.8122    108.7051     21.2689
  1150.2000      8.0651      2.5104      0.0409      8.4577    111.6281     21.2717
  1150.3000      8.0179      2.4851      0.0296      9.9932    119.0586     21.6486
  1150.4000      8.0179      2.4641     -0.0252     11.2650    130.1790     22.0264
  1150.5000      7.9814      2.4623     -0.0211     11.3747    141.6303     22.0176
  1150.6000      7.9814      2.4828     -0.0304     10.1359    145.3437     21.8645
  1150.7000      7.9814      2.5090      0.0026      8.5448    144.2004     22.2941
  1150.8000      7.9849      2.5223      0.0547      7.7372    143.4285     23.4552
  1150.9000      7.9849      2.5201     -0.0286      7.8738    140.8070     24.3947
  1151.0000      8.0115      2.5224      0.0027      7.7356    136.3074     24.0775
  1151.1000      8.0115      2.5531      0.0391      5.8713    129.7835     23.2574
  1151.2000      8.0115      2.6116      0.0540      2.3247    124.6810     23.3720
  1151.3000      8.0090      2.6618      0.1221     -0.7129    125.0495     24.2240
  1151.4000      8.0090      2.6662      0.0882     -0.9809    127.1216     24.7044
  1151.5000      8.0057      2.6314      0.0428      1.1258    128.5482     24.5653
  1151.6000      8.0057      2.5931      0.0305      3.4480    131.1802     23.9886
  1151.7000      8.0057      2.5689     -0.0124      4.9130    133.7506     23.4093
  1151.8000      8.0122      2.5506      0.0479      6.0265    132.6707     23.4558
  1151.9000      8.0122      2.5292     -0.0561      7.3225    129.2734     24.0179
  1152.0000      8.0224      2.5086     -0.0206      8.5721    127.6036     24.6119
  1152.1000      8.0224      2.4923     -0.0139      9.5579    126.3567     24.9237
  1152.2000      8.0224      2.4859     -0.0277      9.9463    123.8289     24.4820
  1152.3000      8.0204      2.4950      0.0039      9.3921    121.6012     23.4188
  1152.4000      8.0204      2.5078      0.0855      8.6160    123.7763     22.7168
  1152.5000      8.0233      2.5154     -0.0204      8.1559    132.1556     22.6500
  1152.6000      8.0233      2.5238      0.0617      7.6485    140.2530     22.6313
  1152.7000      8.0233      2.5233      0.0695      7.6761    141.5004     22.5900
  1152.8000      8.0216      2.5043      0.0380      8.8321    136.5947     23.1371
  1152.9000      8.0216      2.4778      0.0199     10.4370    132.2971     24.3661
  1153.0000      8.0311      2.4605     -0.0160     11.4852    135.2049     25.3683
  1153.1000      8.0311      2.4596      0.0051     11.5392    143.0078     25.3181
  1153.2000      8.0311      2.4751     -0.0154     10.6003    147.9558     24.7390
  1153.3000      8.0422      2.5138     -0.0141      8.2516    148.4574     24.5649
  1153.4000      8.0422      2.5669      0.0801      5.0372    147.0797     24.7507
  1153.5000      8.0320      2.6047      0.0535      2.7441    144.1459     24.8219
  1153.6000      8.0320      2.6132      0.1013      2.2288    140.3894     24.4739
  1153.7000      8.0320      2.5940      0.0663      3.3941    139.4531     23.9403
  1153.8000      8.0188      2.5742     -0.0349      4.5948    145.1690     24.0184
  1153.9000      8.0188      2.5853     -0.0064      3.9239    152.8046     24.8425
  1154.0000      8.0306      2.6033      0.0864      2.8289    154.9662     25.6636
  1154.1000      8.0306      2.5893      0.0282      3.6796    154.5322     25.8392
  1154.2000      8.0306      2.5594      0.0297      5.4898    156.4432     25.4802
  1154.3000      8.0419      2.5464      0.0430      6.2764    158.6716     24.9519
  1154.4000      8.0419      2.5465      0.0901      6.2755    158.2305     24.5660
  1154.5000      8.0275      2.5437      0.0637      6.4397    154.8118     24.4086
  1154.6000      8.0275      2.5365      0.0696      6.8797    147.1254     24.1745
  1154.7000      8.0275      2.5239      0.0486      7.6450    138.0306     23.8057
