~Version Information
VERS.                      2.0: CWLS Log ASCII Standard - VERSION 2.0
WRAP.                       NO: One line per depth step
~Well Information Block
STRT.FT               521.0000: 
STOP.FT              2732.5000: 
STEP.FT                 0.2500: 
NULL.                -999.2500: 
COMP.          Petrogulf Corporation: COMPANY
WELL.              Silva 6-22V: WELL
FLD.           Purgatorie River: FIELD
LOC.           1936' FNL & 1798' FWL: LOCATION
CNTY.               Las Animas: COUNTY
SRVC.                         : SERVICE COMPANY
DATE.          Tue Nov 09 08:09:38 2004: LOG DATE
UWI.           05 071 08143 00: UNIQUE WELL ID
STAT.                 Colorado: STATE
~Curve Information Block
DEPT.FT            0 000 00 00: Depth
SP.mV                         : DIL Spontaneous Potential
RILD.Ohm-m                    : DIL Deep Resistivity
RILM.Ohm-m                    : DIL Medium Resistivity
RLL3.Ohm-m                    : DIL Shallow Resistivity
GR.GAPI                       : Gamma Ray
~Parameter Information Block
~A  Depth        SP         RILD        RILM        RLL3         GR     
# ...
  1417.0000    -34.2713     16.7845     16.5517     21.4764    143.1203
  1417.2500    -34.9982     16.8351     16.7496     21.9426    143.9793
  1417.5000    -35.8795     16.9443     17.0519     22.6705    148.1371
  1417.7500    -36.6646     17.1195     17.4635     23.6693    152.0699
  1418.0000    -37.0970     17.3675     17.9856     24.9085    157.4927
  1418.2500    -36.9820     17.6937     18.6143     26.3287    159.6232
  1418.5000    -36.2425     18.1011     19.3406     27.8645    159.8698
  1418.7500    -34.9485     18.5905     20.1503     29.4698    158.5775
  1419.0000    -33.3058     19.1593     21.0258     31.1349    156.2354
  1419.2500    -31.6061     19.8000     21.9479     32.8934    155.2327
  1419.5000    -30.1579     20.4993     22.8975     34.8161    154.6701
  1419.7500    -29.2132     21.2353     23.8577     36.9923    154.3410
  1420.0000    -28.9169     21.9766     24.8118     39.4980    152.7588
  1420.2500    -29.2837     22.6815     25.7408     42.3582    150.5854
  1420.5000    -30.2114     23.3019     26.6179     45.5075    145.6727
  1420.7500    -31.5222     23.7887     27.4046     48.7646    141.7904
  1421.0000    -33.0158     24.1015     28.0511     51.8322    136.5036
  1421.2500    -34.5135     24.2183     28.5015     54.3339    133.9787
  1421.5000    -35.8949     24.1404     28.7077     55.8838    131.6037
  1421.7500    -37.1069     23.8919     28.6431     56.1771    130.5098
  1422.0000    -38.1583     23.5119     28.3139     55.0734    129.4339
  1422.2500    -39.0952     23.0446     27.7585     52.6464    129.5173
  1422.5000    -39.9736     22.5293     27.0363     49.1807    131.4584
  1422.7500    -40.8283     21.9953     26.2129     45.1137    133.6777
  1423.0000    -41.6597     21.4603     25.3468     40.9385    136.9061
  1423.2500    -42.4258     20.9324     24.4814     37.0967    138.2485
  1423.5000    -43.0574     20.4154     23.6453     33.8899    139.1974
  1423.7500    -43.4753     19.9114     22.8545     31.4349    139.8893
  1424.0000    -43.6130     19.4249     22.1171     29.6718    142.0391
  1424.2500    -43.4301     18.9626     21.4371     28.4177    144.1053
  1424.5000    -42.9211     18.5342     20.8175     27.4464    147.1183
  1424.7500    -42.1161     18.1499     20.2612     26.5656    148.5203
  1425.0000    -41.0711     17.8189     19.7709     25.6688    149.5840
  1425.2500    -39.8660     17.5479     19.3503     24.7484    149.9401
  1425.5000    -38.5981     17.3411     19.0029     23.8733    150.3152
  1425.7500    -37.3720     17.1991     18.7324     23.1434    150.1746
  1426.0000    -36.2887     17.1211     18.5428     22.6491    148.7450
  1426.2500    -35.4262     17.1047     18.4383     22.4521    147.3048
  1426.5000    -34.8177     17.1470     18.4237     22.5934    146.1504
  1426.7500    -34.4419     17.2448     18.5033     23.1396    146.8146
  1427.0000    -34.2220     17.3959     18.6808     24.2443    149.5789
  1427.2500    -34.0455     17.5975     18.9577     26.2015    151.7068
  1427.5000    -33.7916     17.8465     19.3323     29.4646    153.7460
  1427.7500    -33.3553     18.1381     19.7979     34.5970    153.5886
  1428.0000    -32.6717     18.4662     20.3416     42.1306    150.1312
  1428.2500    -31.7281     18.8218     20.9427     52.3374    145.3882
  1428.5000    -30.5625     19.1949     21.5736     64.9702    134.4849
  1428.7500    -29.2567     19.5759     22.2009     79.0747    124.8100
  1429.0000    -27.9217     19.9577     22.7910     92.9925    107.7948
  1429.2500    -26.6784     20.3375     23.3173    104.6346     96.2513
  1429.5000    -25.6386     20.7179     23.7678    111.9961     81.9903
  1429.7500    -24.8823     21.1063     24.1510    113.7548     76.1555
  1430.0000    -24.4507     21.5127     24.4968    109.7266     74.1208
  1430.2500    -24.3377     21.9469     24.8520    100.9819     77.0570
  1430.5000    -24.5022     22.4162     25.2731     89.5631     86.5265
  1430.7500    -24.8838     22.9230     25.8160     77.9072     94.8677
  1431.0000    -25.4123     23.4653     26.5289     68.1934    107.5011
  1431.2500    -26.0213     24.0373     27.4456     61.8365    114.5087
  1431.5000    -26.6574     24.6304     28.5803     59.2585    121.5656
  1431.7500    -27.2797     25.2357     29.9230     59.9606    123.7632
  1432.0000    -27.8717     25.8441     31.4369     62.8201    123.2736
  1432.2500    -28.4347     26.4476     33.0578     66.4981    120.7036
  1432.5000    -28.9844     27.0380     34.7009     69.8340    115.1293
  1432.7500    -29.5346     27.6076     36.2736     72.1157    111.6919
  1433.0000    -30.0723     28.1492     37.6956     73.1651    108.6339
  1433.2500    -30.5490     28.6573     38.9142     73.2308    107.9658
  1433.5000    -30.8741     29.1269     39.9134     72.7623    107.8978
  1433.7500    -30.9357     29.5545     40.7079     72.1714    107.9612
  1434.0000    -30.6394     29.9363     41.3274     71.6694    108.1713
  1434.2500    -29.9485     30.2663     41.7984     71.2396    108.5747
  1434.5000    -28.9164     30.5342     42.1286     70.7175    109.5800
  1434.7500    -27.6926     30.7241     42.2998     69.9137    110.3213
  1435.0000    -26.4917     30.8145     42.2737     68.7152    111.3699
  1435.2500    -25.5465     30.7800     41.9981     67.1230    112.1684
  1435.5000    -25.0456     30.5977     41.4277     65.2229    113.7825
  1435.7500    -25.0870     30.2529     40.5404     63.1170    115.0614
  1436.0000    -25.6639     29.7453     39.3493     60.8592    116.8675
  1436.2500    -26.6744     29.0925     37.9041     58.4270    117.7665
  1436.5000    -27.9592     28.3289     36.2845     55.7428    118.4312
  1436.7500    -29.3538     27.4999     34.5828     52.7306    118.4430
  1437.0000    -30.7177     26.6529     32.8883     49.3811    118.4124
  1437.2500    -31.9588     25.8292     31.2743     45.7874    118.9656
  1437.5000    -33.0294     25.0573     29.7904     42.1373    121.2475
  1437.7500    -33.9136     24.3506     28.4635     38.6651    123.3774
  1438.0000    -34.6214     23.7087     27.3000     35.5888    126.1108
  1438.2500    -35.1725     23.1207     26.2918     33.0572    127.1354
  1438.5000    -35.6042     22.5708     25.4220     31.1252    128.0001
  1438.7500    -35.9637     22.0433     24.6693     29.7582    128.8849
  1439.0000    -36.2968     21.5264     24.0125     28.8567    131.3997
  1439.2500    -36.6382     21.0160     23.4319     28.2887    133.6232
  1439.5000    -36.9847     20.5148     22.9107     27.9223    136.9366
  1439.7500    -37.2811     20.0314     22.4345     27.6500    139.0067
  1440.0000    -37.4284     19.5772     21.9917     27.4052    142.5760
  1440.2500    -37.3018     19.1639     21.5725     27.1646    145.7561
  1440.5000    -36.7954     18.8015     21.1689     26.9395    151.8645
  1440.7500    -35.8648     18.4974     20.7747     26.7582    156.3652
  1441.0000    -34.5528     18.2549     20.3863     26.6473    162.3651
  1441.2500    -33.0006     18.0739     20.0019     26.6186    165.0647
  1441.5000    -31.4181     17.9507     19.6223     26.6652    166.5085
  1441.7500    -30.0356     17.8781     19.2498     26.7658    165.9684
  1442.0000    -29.0432     17.8456     18.8882     26.8905    163.9946
  1442.2500    -28.5408     17.8415     18.5420     27.0052    162.4639
  1442.5000    -28.5114     17.8534     18.2169     27.0736    160.0820
  1442.7500    -28.8301     17.8710     17.9198     27.0608    158.3669
  1443.0000    -29.3042     17.8883     17.6592     26.9408    156.0140
  1443.2500    -29.7310     17.9058     17.4455     26.7111    155.2089
  1443.5000    -29.9508     17.9318     17.2908     26.4109    155.9003
  1443.7500    -29.8813     17.9816     17.2086     26.1504    157.3726
  1444.0000    -29.5267     18.0766     17.2136     26.1328    159.5720
  1444.2500    -28.9517     18.2415     17.3209     26.6699    160.0918
  1444.5000    -28.2425     18.5017     17.5462     28.1798    158.6508
  1444.7500    -27.4712     18.8809     17.9057     31.1553    156.1973
