~Version Information
VERS.                      2.0: CWLS Log ASCII Standard - VERSION 2.0
WRAP.                       NO: One line per depth step
~Well Information Block
STRT.FT               784.0000: 
STOP.FT              1033.0000: 
STEP.FT                 0.1000: 
NULL.                -999.2500: 
COMP.          Pioneer Natural Resources: COMPANY
WELL.          Run-Away-Train 43-26: WELL
FLD.           Purgatoire River: FIELD
LOC.           1693' FSL & 1195' FEL: LOCATION
PROV.                 Colorado: PROVINCE
CNTY.               Las Animas: COUNTRY
SRVC.                Patterson: SERVICE COMPANY
DATE.          Wed Apr 06 07:23:28 2005: LOG DATE
UWI.           05 071 08188 00: UNIQUE WELL ID
~Curve Information Block
DEPT.FT            0 000 00 00: Depth
DCAL.in                       : CDL Caliper
RHOB.g/cc                     : CDL Bulk Density
RHOC.g/cc                     : CDL Density Correction
DPOR.pu                       : CDL Density Porosity
GR.GAPI                       : Gamma Ray
NPOR.pu                       : Neutron Porosity
~Parameter Information Block
~A  Depth       DCAL        RHOB        RHOC        DPOR         GR         NPOR    
# ...
   956.8000      7.8433      2.5759      0.0575      4.4902     65.0355     21.6130
   956.9000      7.8433      2.5851      0.0605      3.9339     65.7105     21.2437
   957.0000      7.8443      2.5856      0.0519      3.9015     66.1695     21.3875
   957.1000      7.8443      2.5837     -0.0083      4.0184     66.1995     21.3779
   957.2000      7.8443      2.5857      0.0288      3.8984     67.7939     20.7264
   957.3000      7.8464      2.5935      0.0244      3.4243     68.0986     19.9833
   957.4000      7.8464      2.6061      0.0549      2.6630     63.9766     19.6284
   957.5000      7.8578      2.6090      0.0388      2.4870     61.1875     19.5528
   957.6000      7.8578      2.5927      0.0057      3.4708     63.4769     19.5301
   957.7000      7.8578      2.5685      0.0724      4.9375     66.4240     19.4040
   957.8000      7.8473      2.5463      0.0188      6.2847     66.8735     19.2410
   957.9000      7.8473      2.5297      0.0290      7.2909     65.3756     19.2233
   958.0000      7.8272      2.5260     -0.0158      7.5141     62.9614     19.2384
   958.1000      7.8272      2.5372      0.0170      6.8376     60.8265     19.0709
   958.2000      7.8272      2.5461      0.0192      6.2977     60.7917     18.8791
   958.3000      7.8376      2.5325     -0.0086      7.1209     64.7583     18.8564
   958.4000      7.8376      2.4997     -0.0154      9.1072     70.4006     18.9123
   958.5000      7.8431      2.4726     -0.0524     10.7497     72.3921     19.1677
   958.6000      7.8431      2.4687     -0.0064     10.9851     69.4050     19.7850
   958.7000      7.8431      2.4750      0.0258     10.6043     66.1864     20.3843
   958.8000      7.8676      2.4748      0.0131     10.6198     66.7255     20.4911
   958.9000      7.8676      2.4766     -0.0382     10.5076     67.8738     20.3139
   959.0000      7.8715      2.4865      0.0464      9.9063     66.5251     20.3207
   959.1000      7.8715      2.4903      0.0146      9.6799     65.2992     20.6050
   959.2000      7.8715      2.4867      0.0078      9.8940     65.2397     21.0347
   959.3000      7.8765      2.4915      0.0150      9.6032     64.2242     21.2122
   959.4000      7.8765      2.5028      0.0710      8.9231     63.6712     20.8848
   959.5000      7.8790      2.5030      0.0552      8.9074     65.6603     20.3967
   959.6000      7.8790      2.4992     -0.0199      9.1369     68.2713     20.0596
   959.7000      7.8790      2.5147      0.0361      8.2008     70.5192     19.9328
   959.8000      7.8759      2.5365      0.0605      6.8761     72.5780     20.1735
   959.9000      7.8759      2.5333      0.0288      7.0749     72.7767     20.8200
   960.0000      7.8779      2.5027      0.0518      8.9278     70.5020     21.5809
   960.1000      7.8779      2.4719     -0.0768     10.7937     68.1510     22.0125
   960.2000      7.8779      2.4698     -0.0454     10.9240     68.0705     21.9864
   960.3000      7.8807      2.4896      0.0488      9.7204     69.8834     21.8536
   960.4000      7.8807      2.5091     -0.0034      8.5393     72.6942     21.9554
   960.5000      7.8897      2.5251      0.0139      7.5697     79.0394     22.2486
   960.6000      7.8897      2.5295      0.0637      7.3004     89.4688     22.4372
   960.7000      7.8897      2.5064      0.0714      8.7051     97.3476     22.5108
   960.8000      7.8707      2.4696     -0.0119     10.9317     98.4554     22.5199
   960.9000      7.8707      2.4558      0.0003     11.7713     97.6807     22.4269
   961.0000      7.8718      2.4722      0.0672     10.7780     98.4534     22.2222
   961.1000      7.8718      2.4981      0.0172      9.2037     99.1475     21.5995
   961.2000      7.8718      2.5210      0.0324      7.8152     97.5633     20.7752
   961.3000      7.8738      2.5346      0.0782      6.9921     93.5407     20.5696
   961.4000      7.8738      2.5423      0.0399      6.5255     87.7905     21.0164
   961.5000      7.8716      2.5536      0.0654      5.8409     79.8032     21.4405
   961.6000      7.8716      2.5634      0.0634      5.2479     74.6944     21.4784
   961.7000      7.8716      2.5589      0.0911      5.5194     75.3477     21.2516
   961.8000      7.8718      2.5327      0.0549      7.1104     78.2387     21.1836
   961.9000      7.8718      2.4940      0.0357      9.4515     81.5289     21.5269
   962.0000      7.8580      2.4670      0.0110     11.0931     84.3853     22.0358
   962.1000      7.8580      2.4707     -0.0072     10.8662     85.5606     22.3628
   962.2000      7.8580      2.5054      0.0259      8.7617     84.6332     22.4219
   962.3000      7.8460      2.5421      0.1151      6.5409     81.2268     22.5956
   962.4000      7.8460      2.5450      0.1183      6.3626     77.6369     22.8962
   962.5000      7.8518      2.5208      0.0099      7.8301     76.2111     22.6531
   962.6000      7.8518      2.5062      0.0292      8.7153     75.8475     21.9151
   962.7000      7.8518      2.5102      0.0632      8.4702     75.0797     21.5869
   962.8000      7.8519      2.5210     -0.0152      7.8204     73.0026     21.9024
   962.9000      7.8519      2.5387      0.0603      6.7458     71.3156     22.1694
   963.0000      7.8557      2.5577      0.0469      5.5926     73.4166     21.9808
   963.1000      7.8557      2.5607      0.0359      5.4145     77.8332     21.8227
   963.2000      7.8557      2.5367      0.0369      6.8682     78.5170     21.9540
   963.3000      7.8564      2.5017     -0.0242      8.9891     73.3384     22.0554
   963.4000      7.8564      2.4906     -0.0154      9.6612     66.4528     22.2035
   963.5000      7.8466      2.5113      0.0148      8.4053     63.2793     22.5400
   963.6000      7.8466      2.5334      0.0303      7.0650     65.2499     22.4581
   963.7000      7.8466      2.5273      0.0485      7.4349     68.6699     21.7239
   963.8000      7.8401      2.4968     -0.0130      9.2823     69.5197     20.8964
   963.9000      7.8401      2.4732      0.0226     10.7129     68.0872     20.3415
   964.0000      7.8601      2.4728      0.0167     10.7376     66.7516     20.0355
   964.1000      7.8601      2.4825      0.0381     10.1526     65.2253     19.9871
   964.2000      7.8601      2.4967     -0.0090      9.2894     62.4017     20.1446
   964.3000      7.8736      2.5267      0.0314      7.4755     61.2310     20.2155
   964.4000      7.8736      2.5613      0.0962      5.3746     64.6394     20.2324
   964.5000      7.8761      2.5792      0.1064      4.2911     69.5530     20.3367
   964.6000      7.8761      2.5790      0.1066      4.3058     71.7078     20.3314
   964.7000      7.8761      2.5631      0.1511      5.2684     70.2690     20.2589
   964.8000      7.8527      2.5304      0.0746      7.2505     67.0390     20.2535
   964.9000      7.8527      2.4937      0.0205      9.4708     65.4338     20.3085
   965.0000      7.8477      2.4726      0.0324     10.7494     69.5854     20.4326
   965.1000      7.8477      2.4750      0.0279     10.6087     77.8426     20.8562
   965.2000      7.8477      2.4853      0.0731      9.9819     81.1981     21.6173
   965.3000      7.8624      2.4819      0.0136     10.1906     78.0459     22.0853
   965.4000      7.8624      2.4695      0.0096     10.9398     76.5064     21.9887
   965.5000      7.8718      2.4598      0.0632     11.5302     79.6629     21.8989
   965.6000      7.8718      2.4570      0.0627     11.6979     84.3220     22.1868
   965.7000      7.8718      2.4652      0.0830     11.1974     88.1675     22.8234
   965.8000      7.8577      2.4794      0.0499     10.3406     90.0370     23.6111
   965.9000      7.8577      2.4981      0.0687      9.2037     91.2073     24.1161
   966.0000      7.8227      2.5308      0.0535      7.2217     94.5524     24.1425
   966.1000      7.8227      2.5814      0.1706      4.1582     99.5249     24.0839
   966.2000      7.8227      2.6322      0.1970      1.0805    106.5113     24.2095
   966.3000      7.8170      2.6495      0.2608      0.0316    119.7778     24.2677
