~Version Information
VERS.                      2.0: CWLS Log ASCII Standard - VERSION 2.0
WRAP.                       NO: One line per depth step
~Well Information Block
STRT.FT               235.0000: 
STOP.FT              1634.5000: 
STEP.FT                 0.2500: 
NULL.                -999.2500: 
COMP.          Petrogulf Corporation: COMPANY
WELL.             State 16-41R: WELL
FLD.           Purgatorie River: FIELD
LOC.           280' FNL & 907' FEL: LOCATION
SECT.                       16: SECTION
TOWN.                      33S: TOWNSHIP
RANG.                      67W: RANGE
STAT.                 Colorado: STATE
CNTY.               Las Animas: COUNTY
CTRY.                      USA: COUNTRY
SRVC.                Patterson: SERVICE COMPANY
DATE.         Tue Oct 18 15:59:41 2005: LOG DATE
API.              05-071-08345: UNIQUE WELL ID
~Curve Information Block
DEPT.FT            0 000 00 00: Depth
SP.mV                         : DIL Spontaneous Potential
RILD.Ohm-m                    : DIL Deep Resistivity
RILM.Ohm-m                    : DIL Medium Resistivity
RLL3.Ohm-m                    : DIL Shallow Resistivity
GR.GAPI                       : Gamma Ray
~Parameter Information Block
~A  Depth        SP         RILD        RILM        RLL3         GR     
# ...
  1047.0000    171.3691     10.3401     10.7510     16.0984    130.3745
  1047.2500    171.2182     10.7206     11.1813     16.8132    129.6831
  1047.5000    170.9777     11.1373     11.5947     17.5465    127.3720
  1047.7500    170.6413     11.5937     11.9907     18.0771    125.2516
  1048.0000    170.2051     12.0950     12.3775     18.1178    122.5243
  1048.2500    169.6708     12.6470     12.7734     17.5666    121.9078
  1048.5000    169.0509     13.2533     13.2052     16.6559    123.7465
  1048.7500    168.3747     13.9129     13.7064     15.8574    126.6515
  1049.0000    167.6897     14.6187     14.3143     15.6937    131.7018
  1049.2500    167.0573     15.3610     15.0665     16.7017    133.8451
  1049.5000    166.5430     16.1317     15.9987     19.5732    132.6459
  1049.7500    166.2021     16.9287     17.1413     25.2615    128.2677
  1050.0000    166.0673     17.7593     18.5166     34.8101    116.9663
  1050.2500    166.1406     18.6392     20.1346     48.8425    107.3223
  1050.5000    166.3929     19.5904     21.9899     66.9481     92.0692
  1050.7500    166.7721     20.6362     24.0594     87.4233     82.8764
  1051.0000    167.2166     21.7951     26.3044    107.5993     72.5796
  1051.2500    167.6711     23.0720     28.6751    124.3928     68.4402
  1051.5000    168.0987     24.4489     31.1180    134.6265     65.4565
  1051.7500    168.4864     25.8815     33.5812    135.5057     64.6770
  1052.0000    168.8423     27.3075     36.0163    126.0011     64.2432
  1052.2500    169.1889     28.6624     38.3765    108.4593     64.5210
  1052.5000    169.5541     29.8909     40.6124     88.3510     66.6624
  1052.7500    169.9648     30.9464     42.6688     71.4874     69.4451
  1053.0000    170.4445     31.7842     44.4825     60.9751     74.5222
  1053.2500    171.0123     32.3629     45.9833     56.5228     77.2258
  1053.5000    171.6833     32.6603     47.0969     56.0107     78.5641
  1053.7500    172.4676     32.6887     47.7505     57.2716     77.7096
  1054.0000    173.3672     32.4918     47.8845     58.8320     75.7527
  1054.2500    174.3708     32.1266     47.4661     59.9191     75.3130
  1054.5000    175.4501     31.6470     46.5035     60.2994     76.5869
  1054.7500    176.5589     31.1004     45.0537     59.9941     77.9490
  1055.0000    177.6373     30.5291     43.2191     58.8924     78.9373
  1055.2500    178.6202     29.9603     41.1314     56.6104     78.4548
  1055.5000    179.4505     29.3948     38.9282     52.7914     76.9551
  1055.7500    180.0900     28.8092     36.7298     47.5438     76.5782
  1056.0000    180.5287     28.1802     34.6253     41.6185     78.3728
  1056.2500    180.7855     27.5116     32.6702     36.2095     81.0524
  1056.5000    180.9026     26.8419     30.8941     32.4508     85.7629
  1056.7500    180.9332     26.2263     29.3126     30.7864     88.2506
  1057.0000    180.9284     25.7128     27.9380     30.6006     89.6626
  1057.2500    180.9277     25.3271     26.7855     30.5356     89.0095
  1057.5000    180.9556     25.0706     25.8741     29.4383     87.2680
  1057.7500    181.0250     24.9253     25.2220     27.1982     87.1253
  1058.0000    181.1436     24.8576     24.8420     24.7060     89.9741
  1058.2500    181.3197     24.8190     24.7343     23.0331     93.3824
  1058.5000    181.5641     24.7444     24.8801     22.7111     98.1431
  1058.7500    181.8886     24.5554     25.2324     23.7371     99.7095
  1059.0000    182.3025     24.1751     25.7052     26.0885     98.8912
  1059.2500    182.8081     23.5537     26.1649     30.0836     96.6561
  1059.5000    183.3983     22.6889     26.4328     36.1061     91.9987
  1059.7500    184.0554     21.6242     26.3136     43.8192     88.4837
  1060.0000    184.7527     20.4295     25.6542     51.5997     82.6710
  1060.2500    185.4559     19.1791     24.4119     56.9127     78.4947
  1060.5000    186.1267     17.9382     22.6837     57.5598     72.8176
  1060.7500    186.7269     16.7575     20.6691     52.9324     70.5168
  1061.0000    187.2228     15.6698     18.5902     44.3728     71.0335
  1061.2500    187.5897     14.6896     16.6230     34.4152     74.5413
  1061.5000    187.8160     13.8165     14.8721     25.4800     84.2657
  1061.7500    187.9045     13.0413     13.3787     18.9144     92.8534
  1062.0000    187.8725     12.3519     12.1424     14.8444    106.5109
  1062.2500    187.7482     11.7366     11.1418     12.6320    114.7262
  1062.5000    187.5672     11.1848     10.3473     11.4623    124.3690
  1062.7500    187.3690     10.6865      9.7290     10.7356    129.0589
  1063.0000    187.1943     10.2322      9.2587     10.1874    134.3137
  1063.2500    187.0840      9.8139      8.9103      9.8297    136.9645
  1063.5000    187.0768      9.4270      8.6594      9.8379    139.6599
  1063.7500    187.2050      9.0721      8.4818     10.4368    140.5587
  1064.0000    187.4891      8.7551      8.3541     11.7519    140.6096
  1064.2500    187.9326      8.4863      8.2548     13.6223    139.6510
  1064.5000    188.5182      8.2773      8.1669     15.5110    136.4250
  1064.7500    189.2093      8.1392      8.0808     16.7114    133.4267
  1065.0000    189.9550      8.0804      7.9963     16.7786    129.3069
  1065.2500    190.6990      8.1061      7.9224     15.7824    127.5986
  1065.5000    191.3892      8.2170      7.8749     14.1584    126.3741
  1065.7500    191.9854      8.4084      7.8727     12.4087    125.7306
  1066.0000    192.4638      8.6697      7.9343     10.9605    124.3009
  1066.2500    192.8159      8.9847      8.0762     10.1451    123.2528
  1066.5000    193.0442      9.3339      8.3115     10.1509    122.3493
  1066.7500    193.1552      9.6994      8.6500     10.9820    122.4094
  1067.0000    193.1514     10.0697      9.0989     12.5519    122.9709
  1067.2500    193.0270     10.4446      9.6627     14.9191    122.9308
  1067.5000    192.7670     10.8355     10.3437     18.4544    120.8943
  1067.7500    192.3514     11.2639     11.1419     23.6260    117.7311
  1068.0000    191.7623     11.7569     12.0550     30.3484    110.4127
  1068.2500    190.9918     12.3420     13.0777     37.4258    104.5135
  1068.5000    190.0470     13.0416     14.2011     42.8531     96.1481
  1068.7500    188.9523     13.8699     15.4114     45.0126     92.1197
  1069.0000    187.7455     14.8310     16.6890     43.7590     89.3686
  1069.2500    186.4711     15.9182     18.0086     40.3846     89.2681
  1069.5000    185.1712     17.1112     19.3391     36.6144     89.9456
  1069.7500    183.8779     18.3692     20.6456     33.6271     90.0730
  1070.0000    182.6085     19.6255     21.8932     31.7693     89.2279
  1070.2500    181.3660     20.7944     23.0508     30.8275     88.1450
  1070.5000    180.1429     21.7945     24.0971     30.3964     86.4314
  1070.7500    178.9263     22.5812     25.0248     30.1040     85.5178
  1071.0000    177.7042     23.1605     25.8413     29.7208     84.4656
  1071.2500    176.4701     23.5743     26.5653     29.2167     83.8725
  1071.5000    175.2261     23.8663     27.2184     28.7593     83.4015
  1071.7500    173.9849     24.0548     27.8140     28.6468     83.7652
  1072.0000    172.7686     24.1253     28.3458     29.1828     85.7047
  1072.2500    171.6065     24.0407     28.7781     30.5197     87.5257
  1072.5000    170.5311     23.7574     29.0416     32.5429     89.2675
  1072.7500    169.5738     23.2425     29.0389     34.9026     88.7278
  1073.0000    168.7607     22.4899     28.6634     37.1976     85.0276
  1073.2500    168.1092     21.5330     27.8326     39.1630     81.4265
  1073.5000    167.6259     20.4440     26.5267     40.6922     76.3463
  1073.7500    167.3063     19.3132     24.8116     41.6896     74.1339
  1074.0000    167.1359     18.2206     22.8296     41.8951     73.2891
  1074.2500    167.0939     17.2180     20.7589     40.8312     74.1483
  1074.5000    167.1576     16.3290     18.7642     37.9861     76.5842
  1074.7500    167.3074     15.5580     16.9640     33.2427     78.7723
