~Version Information
VERS.                      2.0: CWLS Log ASCII Standard - VERSION 2.0
WRAP.                       NO: One line per depth step
~Well Information Block
STRT.FT               750.6000: 
STOP.FT              2495.5000: 
STEP.FT                 0.1000: 
NULL.                -999.2500: 
COMP.                         : COMPANY
WELL.                         : WELL
FLD.                          : FIELD
LOC.                          : LOCATION
CNTY.                         : COUNTY
SRVC.                         : SERVICE COMPANY
DATE.          Sat Feb 28 14:05:57 2004: LOG DATE
UWI.                          : UNIQUE WELL ID
STAT.                         : STATE
~Curve Information Block
DEPT.FT            0 000 00 00: Depth
DCAL.in                       : CDL Caliper
RHOB.g/cc                     : CDL Bulk Density
RHOC.g/cc                     : CDL Density Correction
DPOR.pu                       : CDL Density Porosity
GR.GAPI                       : Gamma Ray
NPOR.pu                       : Neutron Porosity
~Parameter Information Block
~A  Depth       DCAL        RHOB        RHOC        DPOR         GR         NPOR    
# ...
  1009.8000      8.0074      2.7448      0.2356     -5.7450    117.6241     25.2747
  1009.9000      8.0074      2.7230      0.2319     -4.4245    119.6764     25.6055
  1010.0000      8.0182      2.6860      0.1669     -2.1847    121.1095     25.2652
  1010.1000      8.0182      2.6668      0.1812     -1.0179    121.5814     24.3931
  1010.2000      8.0182      2.6750      0.1739     -1.5147    119.5870     23.8291
  1010.3000      8.0006      2.7026      0.2025     -3.1859    118.8799     23.9370
  1010.4000      8.0006      2.7257      0.2890     -4.5905    123.0168     24.2472
  1010.5000      7.9757      2.7260      0.1920     -4.6047    128.4149     24.3279
  1010.6000      7.9757      2.7177      0.2211     -4.1059    129.4300     24.2310
  1010.7000      7.9757      2.7095      0.2450     -3.6056    126.0567     24.2034
  1010.8000      7.9685      2.6907      0.1711     -2.4686    123.6730     24.5180
  1010.9000      7.9685      2.6646      0.1831     -0.8840    121.6502     24.9294
  1011.0000      7.9707      2.6412      0.1979      0.5308    116.9886     25.2317
  1011.1000      7.9707      2.6279      0.1487      1.3372    112.6220     25.6988
  1011.2000      7.9707      2.6355      0.1065      0.8788    110.6019     26.1985
  1011.3000      7.9746      2.6494      0.1831      0.0388    110.8909     26.4480
  1011.4000      7.9746      2.6424      0.1276      0.4615    112.2446     26.5843
  1011.5000      7.9940      2.6326      0.1214      1.0551    109.5962     26.6584
  1011.6000      7.9940      2.6496      0.1661      0.0234    103.8377     26.4392
  1011.7000      7.9940      2.6763      0.1943     -1.5910    101.5793     26.1434
  1011.8000      7.9954      2.6864      0.1001     -2.2062    103.9014     26.2715
  1011.9000      7.9954      2.6860      0.1473     -2.1846    103.4600     26.5980
  1012.0000      7.9848      2.6849      0.1601     -2.1126     96.6670     26.2791
  1012.1000      7.9848      2.6804      0.1660     -1.8431     91.7769     25.4260
  1012.2000      7.9848      2.6612      0.2172     -0.6769     91.7790     24.9469
  1012.3000      7.9721      2.6327      0.1363      1.0493     91.9569     24.7992
  1012.4000      7.9721      2.6253      0.0570      1.4956     89.4739     24.5814
  1012.5000      7.9640      2.6412      0.1379      0.5359     85.8333     24.4749
  1012.6000      7.9640      2.6396      0.1523      0.6312     84.4059     24.4455
  1012.7000      7.9640      2.6063      0.0585      2.6455     85.9752     24.2043
  1012.8000      7.9926      2.5852     -0.0111      3.9252     91.9195     23.9641
  1012.9000      7.9926      2.6117      0.0668      2.3188     99.5043     23.7465
  1013.0000      8.0290      2.6619      0.1775     -0.7188     99.6693     23.2131
  1013.1000      8.0290      2.7013      0.1325     -3.1095     91.2927     22.8428
  1013.2000      8.0290      2.7245      0.2656     -4.5148     81.3526     23.2554
  1013.3000      7.9961      2.7273      0.1650     -4.6850     76.3972     24.1164
  1013.4000      7.9961      2.7182      0.1524     -4.1310     77.9985     24.9505
  1013.5000      7.9630      2.7113      0.1725     -3.7134     83.0533     25.5826
  1013.6000      7.9630      2.7032      0.1585     -3.2243     90.7246     25.5546
  1013.7000      7.9630      2.6849      0.0830     -2.1143     98.7192     24.8424
  1013.8000      7.9735      2.6524      0.0946     -0.1463    103.4389     24.2958
  1013.9000      7.9735      2.6127      0.0605      2.2579    108.9311     24.4753
  1014.0000      8.0357      2.5768      0.0497      4.4372    117.2696     24.8555
  1014.1000      8.0357      2.5503     -0.0242      6.0422    124.0193     25.1674
  1014.2000      8.0357      2.5444      0.0046      6.3992    127.3915     25.8568
  1014.3000      8.0580      2.5593      0.1085      5.4946    130.6358     26.5549
  1014.4000      8.0580      2.5710      0.1020      4.7889    136.7869     26.5839
  1014.5000      8.0769      2.5747      0.0425      4.5624    143.5776     26.2475
  1014.6000      8.0769      2.5926      0.0686      3.4809    146.7700     26.2228
  1014.7000      8.0769      2.6267      0.1350      1.4137    145.7143     26.9149
  1014.8000      8.0848      2.6560      0.1723     -0.3620    143.4189     28.0475
  1014.9000      8.0848      2.6657      0.1812     -0.9541    141.7570     28.9037
  1015.0000      8.0816      2.6637      0.1889     -0.8297    139.3485     29.3726
  1015.1000      8.0816      2.6626      0.1783     -0.7610    135.7962     29.8449
  1015.2000      8.0816      2.6578      0.2253     -0.4738    132.9106     30.4016
  1015.3000      8.0479      2.6454      0.1409      0.2808    130.2601     30.7718
  1015.4000      8.0479      2.6404      0.1631      0.5836    126.2500     30.8088
  1015.5000      8.0635      2.6485      0.1730      0.0937    124.2917     30.5475
  1015.6000      8.0635      2.6625      0.1965     -0.7590    127.9398     30.2460
  1015.7000      8.0635      2.6741      0.1870     -1.4634    135.7685     30.1412
  1015.8000      8.1127      2.6717      0.1748     -1.3130    141.8204     29.8952
  1015.9000      8.1127      2.6542      0.1397     -0.2546    140.4313     29.3134
  1016.0000      8.1555      2.6293      0.1134      1.2550    134.8403     28.8403
  1016.1000      8.1555      2.5970      0.1412      3.2126    132.4594     28.7616
  1016.2000      8.1555      2.5635      0.0670      5.2435    134.0058     28.6177
  1016.3000      8.1630      2.5457      0.1146      6.3236    136.4986     27.8330
  1016.4000      8.1630      2.5463      0.0891      6.2827    137.5160     26.6905
  1016.5000      8.1617      2.5615      0.1068      5.3630    135.3476     26.1519
  1016.6000      8.1617      2.5870      0.1658      3.8200    131.2441     26.5544
  1016.7000      8.1617      2.6106      0.1702      2.3859    128.3816     27.2800
  1016.8000      8.1624      2.6259      0.1255      1.4612    127.8721     27.9443
  1016.9000      8.1624      2.6299      0.1658      1.2178    129.2308     28.5910
  1017.0000      8.1621      2.6191      0.1343      1.8755    136.2798     29.0998
  1017.1000      8.1621      2.6012      0.1300      2.9604    147.5627     29.3754
  1017.2000      8.1621      2.5876      0.1201      3.7837    148.6711     29.4905
  1017.3000      8.1605      2.5881      0.0458      3.7498    138.9095     29.3901
  1017.4000      8.1605      2.6059      0.1038      2.6724    137.7364     28.9918
  1017.5000      8.1681      2.6188      0.1161      1.8905    148.3768     28.5599
  1017.6000      8.1681      2.6092      0.0263      2.4702    153.4239     28.4676
  1017.7000      8.1681      2.5896      0.0910      3.6619    146.0750     28.6105
  1017.8000      8.1669      2.5745      0.0661      4.5774    138.0440     28.5357
  1017.9000      8.1669      2.5656      0.0710      5.1125    137.1072     28.1759
  1018.0000      8.1631      2.5498      0.0939      6.0742    139.8348     27.7621
  1018.1000      8.1631      2.5263     -0.0148      7.4969    139.6733     27.4801
  1018.2000      8.1631      2.5157      0.0364      8.1371    134.9981     27.3975
  1018.3000      8.1652      2.5214      0.0777      7.7969    131.9056     27.0388
  1018.4000      8.1652      2.5372      0.0886      6.8382    133.1467     26.3673
  1018.5000      8.1782      2.5588      0.0765      5.5247    136.2255     26.1669
  1018.6000      8.1782      2.5730      0.1221      4.6656    139.2118     26.3833
  1018.7000      8.1782      2.5730      0.1051      4.6655    139.4944     26.4369
  1018.8000      8.1877      2.5760      0.0622      4.4868    138.5947     26.4711
  1018.9000      8.1877      2.5860      0.1579      3.8785    139.5047     26.3627
  1019.0000      8.1939      2.5786      0.0773      4.3289    138.4231     25.7440
  1019.1000      8.1939      2.5475      0.1014      6.2137    135.2053     24.9780
  1019.2000      8.1939      2.5020      0.1420      8.9685    134.5526     24.4144
  1019.3000      8.2087      2.4500      0.0389     12.1193    135.9660     23.6637
