~Version Information
VERS.                      2.0: CWLS Log ASCII Standard - VERSION 2.0
WRAP.                       NO: One line per depth step
~Well Information Block
STRT.FT               620.0000: 
STOP.FT              2663.2500: 
STEP.FT                 0.2500: 
NULL.                -999.2500: 
COMP.          Evergreen Operating Corporation: COMPANY
WELL.             Carbon 34-21: WELL
FLD.           Purgatoire River: FIELD
LOC.           56' FSL & 2304' FEL: LOCATION
PROV.                 Colorado: PROVINCE
CNTY.               Las Animas: COUNTRY
SRVC.                Patterson: SERVICE COMPANY
DATE.          Mon Sep 13 11:41:04 2004: LOG DATE
UWI.           05 071 08117 00: UNIQUE WELL ID
~Curve Information Block
DEPT.FT            0 000 00 00: Depth
DIR.Ohm-m                     : IEL Induction Resistivity
SN.Ohm-m                      : IEL Short Normal
SP.mV                         : IEL Spontaneous Potential
GR.GAPI                       : Gamma Ray
~Parameter Information Block
~A  Depth       DIR          SN          SP          GR     
# ...
  2094.0000     11.0490     13.1792    -83.6287    119.5352
  2094.2500     10.9465     13.1406    -83.7272    121.8188
  2094.5000     10.8672     13.0730    -83.8075    122.9844
  2094.7500     10.8113     12.9333    -83.8821    122.3403
  2095.0000     10.7755     12.7060    -83.9611    119.8872
  2095.2500     10.7495     12.4044    -84.0491    117.7514
  2095.5000     10.7176     12.0621    -84.1441    114.9850
  2095.7500     10.6673     11.7187    -84.2407    114.0364
  2096.0000     10.5955     11.4078    -84.3332    113.8020
  2096.2500     10.5095     11.1513    -84.4200    113.7542
  2096.5000     10.4190     10.9564    -84.5043    113.0749
  2096.7500     10.3289     10.8149    -84.5937    112.3472
  2097.0000     10.2369     10.7097    -84.6970    111.3923
  2097.2500     10.1369     10.6258    -84.8222    111.1022
  2097.5000     10.0243     10.5554    -84.9758    111.4979
  2097.7500      9.9010     10.4975    -85.1643    112.1664
  2098.0000      9.7769     10.4572    -85.3951    112.8403
  2098.2500      9.6692     10.4465    -85.6749    112.8373
  2098.5000      9.5973     10.4772    -86.0059    113.2927
  2098.7500      9.5768     10.5500    -86.3803    114.7723
  2099.0000      9.6143     10.6462    -86.7774    118.4989
  2099.2500      9.7061     10.7325    -87.1636    120.6901
  2099.5000      9.8387     10.7762    -87.4978    120.9962
  2099.7500      9.9914     10.7623    -87.7378    118.4953
  2100.0000     10.1386     10.6989    -87.8477    111.4413
  2100.2500     10.2528     10.6074    -87.8024    105.8819
  2100.5000     10.3096     10.5076    -87.5905     98.9232
  2100.7500     10.2942     10.4063    -87.2150     96.3548
  2101.0000     10.2053     10.2943    -86.6924     96.4940
  2101.2500     10.0528     10.1533    -86.0521     99.2401
  2101.5000      9.8502      9.9677    -85.3337    106.7257
  2101.7500      9.6075      9.7358    -84.5823    113.1924
  2102.0000      9.3319      9.4744    -83.8401    122.9048
  2102.2500      9.0337      9.2102    -83.1363    127.9378
  2102.5000      8.7298      8.9645    -82.4792    132.1592
  2102.7500      8.4423      8.7428    -81.8544    133.3218
  2103.0000      8.1919      8.5369    -81.2322    134.4458
  2103.2500      7.9922      8.3356    -80.5829    135.3220
  2103.5000      7.8475      8.1364    -79.8929    136.3134
  2103.7500      7.7534      7.9447    -79.1749    136.2369
  2104.0000      7.6991      7.7634    -78.4665    134.8162
  2104.2500      7.6708      7.5862    -77.8180    133.2398
  2104.5000      7.6536      7.4042    -77.2751    130.2134
  2104.7500      7.6345      7.2158    -76.8646    127.7203
  2105.0000      7.6034      7.0284    -76.5901    123.4296
  2105.2500      7.5531      6.8526    -76.4369    120.6639
  2105.5000      7.4797      6.6980    -76.3828    117.8177
  2105.7500      7.3819      6.5743    -76.4075    117.3507
  2106.0000      7.2615      6.4935    -76.4957    119.0691
  2106.2500      7.1247      6.4650    -76.6356    121.5714
  2106.5000      6.9816      6.4889    -76.8140    126.6799
  2106.7500      6.8458      6.5582    -77.0146    130.5359
  2107.0000      6.7314      6.6650    -77.2193    135.5006
  2107.2500      6.6500      6.8007    -77.4126    136.9706
  2107.5000      6.6079      6.9452    -77.5857    135.3363
  2107.7500      6.6050      7.0615    -77.7374    132.6593
  2108.0000      6.6368      7.1060    -77.8715    129.4521
  2108.2500      6.6977      7.0532    -77.9915    128.9615
  2108.5000      6.7848      6.9190    -78.0970    130.3010
  2108.7500      6.8999      6.7653    -78.1827    131.9741
  2109.0000      7.0491      6.6853    -78.2414    135.4441
  2109.2500      7.2398      6.7741    -78.2674    138.3214
  2109.5000      7.4770      7.0905    -78.2601    142.0839
  2109.7500      7.7604      7.6276    -78.2244    143.1317
  2110.0000      8.0827      8.3185    -78.1696    142.5475
  2110.2500      8.4321      9.0825    -78.1073    142.1315
  2110.5000      8.7987      9.8732    -78.0512    143.4443
  2110.7500      9.1811     10.6899    -78.0179    144.9962
  2111.0000      9.5884     11.5586    -78.0288    145.0931
  2111.2500     10.0384     12.5197    -78.1097    142.2690
  2111.5000     10.5527     13.6323    -78.2872    133.8391
  2111.7500     11.1533     14.9707    -78.5818    126.4473
  2112.0000     11.8610     16.6068    -79.0006    114.6866
  2112.2500     12.6965     18.5998    -79.5323    107.4875
  2112.5000     13.6781     20.9933    -80.1475     99.0406
  2112.7500     14.8176     23.8026    -80.8039     95.0372
  2113.0000     16.1109     26.9972    -81.4563     90.0618
  2113.2500     17.5253     30.5037    -82.0668     86.3221
  2113.5000     18.9915     34.2387    -82.6121     79.1774
  2113.7500     20.4162     38.1342    -83.0850     73.7001
  2114.0000     21.7251     42.1268    -83.4915     65.6613
  2114.2500     22.9103     46.1180    -83.8438     60.9824
  2114.5000     24.0294     49.9480    -84.1549     55.4226
  2114.7500     25.1451     53.4119    -84.4353     52.9938
  2115.0000     26.2581     56.3113    -84.6932     52.1378
  2115.2500     27.2982     58.5004    -84.9355     53.6441
  2115.5000     28.1785     59.9037    -85.1652     57.9953
  2115.7500     28.8566     60.5169    -85.3730     61.1284
  2116.0000     29.3467     60.4040    -85.5268     64.4985
  2116.2500     29.6854     59.6787    -85.5656     65.4692
  2116.5000     29.8996     58.4550    -85.4045     65.2674
  2116.7500     29.9968     56.7840    -84.9519     64.5084
  2117.0000     29.9639     54.6143    -84.1355     63.3701
  2117.2500     29.7608     51.8195    -82.9258     62.8871
  2117.5000     29.3166     48.3047    -81.3485     62.2325
  2117.7500     28.5519     44.1429    -79.4828     61.3960
  2118.0000     27.4239     39.6346    -77.4459     59.2961
  2118.2500     25.9680     35.2151    -75.3705     57.8997
  2118.5000     24.2955     31.2659    -73.3822     58.0380
  2118.7500     22.5454     27.9730    -71.5824     61.2082
  2119.0000     20.8316     25.3207    -70.0386     72.4207
  2119.2500     19.2191     23.1819    -68.7815     84.0345
  2119.5000     17.7339     21.4133    -67.8077    104.8319
  2119.7500     16.3844     19.9031    -67.0851    118.4046
  2120.0000     15.1790     18.5771    -66.5612    134.6358
  2120.2500     14.1286     17.3914    -66.1726    141.8012
  2120.5000     13.2417     16.3283    -65.8537    147.2475
  2120.7500     12.5183     15.3886    -65.5441    147.7146
  2121.0000     11.9473     14.5794    -65.1927    144.5125
  2121.2500     11.5088     13.9032    -64.7611    140.8171
  2121.5000     11.1788     13.3547    -64.2262    135.4713
  2121.7500     10.9335     12.9207    -63.5852    133.0849
  2122.0000     10.7518     12.5809    -62.8597    131.3682
  2122.2500     10.6151     12.3080    -62.0967    131.0320
  2122.5000     10.5069     12.0742    -61.3613    131.4087
  2122.7500     10.4126     11.8640    -60.7233    132.1625
  2123.0000     10.3224     11.6797    -60.2393    133.1695
  2123.2500     10.2322     11.5305    -59.9390    133.0462
  2123.5000     10.1436     11.4122    -59.8195    131.4648
  2123.7500     10.0592     11.3033    -59.8489    130.1564
  2124.0000      9.9793     11.1832    -59.9774    129.3416
  2124.2500      9.9008     11.0552    -60.1525    130.0800
  2124.5000      9.8201     10.9483    -60.3318    132.8588
  2124.7500      9.7365     10.8937    -60.4921    135.0090
  2125.0000      9.6537     10.9001    -60.6298    136.8006
  2125.2500      9.5776     10.9496    -60.7548    136.4102
  2125.5000      9.5133     11.0121    -60.8799    134.2650
  2125.7500      9.4624     11.0617    -61.0118    133.1319
  2126.0000      9.4251     11.0843    -61.1473    133.6966
  2126.2500      9.4035     11.0769    -61.2761    135.4514
  2126.5000      9.4027     11.0415    -61.3872    138.0630
  2126.7500      9.4273     10.9822    -61.4747    138.4693
  2127.0000      9.4738     10.9061    -61.5418    136.2617
  2127.2500      9.5279     10.8267    -61.6009    133.4590
