~Version Information
VERS.                      2.0: CWLS Log ASCII Standard - VERSION 2.0
WRAP.                       NO: One line per depth step
~Well Information Block
STRT.FT               240.0000: 
STOP.FT              1452.5000: 
STEP.FT                 0.1000: 
NULL.                -999.2500: 
COMP.          Petrogulf Corporation: COMPANY
WELL.          Robinson 15-12R: WELL
FLD.           Purgatorie River: FIELD
LOC.           1752' FNL & 561' FWL: LOCATION
PROV.                 Colorado: PROVINCE
CNTY.               Las Animas: COUNTRY
SRVC.                Patterson: SERVICE COMPANY
DATE.          Tue Sep 13 15:07:52 2005: LOG DATE
UWI.                          : UNIQUE WELL ID
~Curve Information Block
DEPT.FT            0 000 00 00: Depth
DCAL.in                       : CDL Caliper
RHOB.g/cc                     : CDL Bulk Density
RHOC.g/cc                     : CDL Density Correction
DPOR.pu                       : CDL Density Porosity
GR.GAPI                       : Gamma Ray
NPOR.pu                       : Neutron Porosity
~Parameter Information Block
~A  Depth       DCAL        RHOB        RHOC        DPOR         GR         NPOR    
# ...
   316.8000      8.1482      2.6268      0.0689      1.4058    147.9426     29.0785
   316.9000      8.1482      2.6707      0.0661     -1.2520    153.9527     29.5421
   317.0000      8.1481      2.6960      0.1558     -2.7898    156.2775     29.5798
   317.1000      8.1481      2.6969      0.0979     -2.8432    154.4362     29.2955
   317.2000      8.1481      2.6841      0.0767     -2.0665    152.4855     28.9881
   317.3000      8.1351      2.6641      0.0646     -0.8522    151.1291     28.7273
   317.4000      8.1351      2.6357      0.0243      0.8677    148.0584     28.3882
   317.5000      8.1480      2.6078      0.0137      2.5598    143.5115     28.0266
   317.6000      8.1480      2.5884      0.0009      3.7329    141.0277     27.7366
   317.7000      8.1480      2.5707      0.0532      4.8040    143.2767     27.3845
   317.8000      8.1613      2.5449      0.0493      6.3697    149.5498     26.8231
   317.9000      8.1613      2.5173     -0.0108      8.0437    156.8500     26.2730
   318.0000      8.1685      2.4932      0.0481      9.5024    160.7494     26.0394
   318.1000      8.1685      2.4657     -0.0049     11.1687    161.2162     26.1003
   318.2000      8.1685      2.4375     -0.0051     12.8811    163.0772     26.2640
   318.3000      8.2053      2.4169      0.0190     14.1261    166.6741     26.3126
   318.4000      8.2053      2.4128     -0.0267     14.3756    167.9666     26.0571
   318.5000      8.2315      2.4326      0.0153     13.1766    167.0020     25.6154
   318.6000      8.2315      2.4655      0.0144     11.1816    166.7779     25.3025
   318.7000      8.2315      2.4838      0.0714     10.0709    168.4860     25.3513
   318.8000      8.2521      2.4735      0.0454     10.6962    170.1149     25.7295
   318.9000      8.2521      2.4562      0.0062     11.7438    169.9742     26.1881
   319.0000      8.2315      2.4536      0.0814     11.9042    170.2400     26.5431
   319.1000      8.2315      2.4568      0.0613     11.7082    172.9934     26.7052
   319.2000      8.2315      2.4548      0.0530     11.8301    175.9596     26.6560
   319.3000      8.2461      2.4533      0.0832     11.9195    177.7670     26.4960
   319.4000      8.2461      2.4555      0.0975     11.7887    180.3666     26.4415
   319.5000      8.1964      2.4478      0.1208     12.2545    183.2297     26.6489
   319.6000      8.1964      2.4267      0.0255     13.5337    182.8449     26.9931
   319.7000      8.1964      2.4134      0.0090     14.3379    178.5150     27.2110
   319.8000      8.1563      2.4213      0.0575     13.8612    173.4138     27.1993
   319.9000      8.1563      2.4402      0.0622     12.7170    170.6561     27.1414
   320.0000      8.1452      2.4565      0.0759     11.7259    170.9958     27.2178
   320.1000      8.1452      2.4641      0.0956     11.2645    171.9082     27.3230
   320.2000      8.1452      2.4634      0.1000     11.3096    170.9761     27.2611
   320.3000      8.1179      2.4610      0.0874     11.4524    167.1167     27.1201
   320.4000      8.1179      2.4615      0.1153     11.4228    160.4612     27.1077
   320.5000      8.1072      2.4604      0.1119     11.4929    156.4454     27.2886
   320.6000      8.1072      2.4519      0.0720     12.0052    159.4085     27.4306
   320.7000      8.1072      2.4361      0.0665     12.9614    166.2700     27.2941
   320.8000      8.1049      2.4123      0.0388     14.4053    171.3965     27.0019
   320.9000      8.1049      2.3754      0.0574     16.6450    172.7830     26.5662
   321.0000      8.0960      2.3320      0.0022     19.2754    172.1042     26.0467
   321.1000      8.0960      2.3059      0.0173     20.8531    170.3444     25.7570
   321.2000      8.0960      2.3080      0.0222     20.7273    166.9301     25.6691
   321.3000      8.0997      2.3274      0.0167     19.5489    161.9511     25.5218
   321.4000      8.0997      2.3479      0.0827     18.3112    158.2454     25.3440
   321.5000      8.1164      2.3546      0.0960     17.9049    158.4730     25.3798
   321.6000      8.1164      2.3436      0.0866     18.5677    161.9628     25.6587
   321.7000      8.1164      2.3214      0.1541     19.9141    165.2037     25.9224
   321.8000      8.1376      2.3042      0.1053     20.9573    164.6625     26.0532
   321.9000      8.1376      2.3103      0.1647     20.5866    161.6589     25.9737
   322.0000      8.1317      2.3316      0.1439     19.2944    159.5354     25.6983
   322.1000      8.1317      2.3506      0.1047     18.1466    159.2696     25.5163
   322.2000      8.1317      2.3740      0.0574     16.7294    160.3497     25.6527
   322.3000      8.1361      2.4099      0.1636     14.5527    161.2425     25.8791
   322.4000      8.1361      2.4383      0.2164     12.8302    160.7121     25.9917
   322.5000      8.1480      2.4422      0.1789     12.5932    158.1972     26.0524
   322.6000      8.1480      2.4284      0.2193     13.4286    155.2793     26.0693
   322.7000      8.1480      2.3969      0.2636     15.3401    155.8928     26.0078
   322.8000      8.1521      2.3414      0.1606     18.7037    159.2451     25.7315
   322.9000      8.1521      2.2841      0.0942     22.1737    159.7752     25.0724
   323.0000      8.1678      2.2583      0.1037     23.7372    155.9977     24.2170
   323.1000      8.1678      2.2639      0.1885     23.3988    150.1334     23.4309
   323.2000      8.1678      2.2780      0.2027     22.5439    145.3243     22.6479
   323.3000      8.1512      2.2895      0.2318     21.8511    143.6868     21.8235
   323.4000      8.1512      2.2914      0.3035     21.7311    143.5123     21.1737
   323.5000      8.1760      2.2752      0.3026     22.7146    142.7420     20.7867
   323.6000      8.1760      2.2358      0.3624     25.1031    142.3998     20.5119
   323.7000      8.1760      2.1677      0.3001     29.2324    142.8629     20.3006
   323.8000      8.2499      2.0795      0.1595     34.5746    142.8810     20.1288
   323.9000      8.2499      2.0009      0.1044     39.3364    142.4098     20.0805
   324.0000      8.3447      1.9539      0.1423     42.1894    142.2264     20.2885
   324.1000      8.3447      1.9364      0.1299     43.2467    142.7033     20.5341
   324.2000      8.3447      1.9384      0.0593     43.1296    144.2160     20.6231
   324.3000      8.3221      1.9505      0.0589     42.3916    146.2949     20.9105
   324.4000      8.3221      1.9683      0.0678     41.3130    146.8796     21.6014
   324.5000      8.2882      1.9971      0.1304     39.5667    144.9708     22.4608
   324.6000      8.2882      2.0467      0.1331     36.5619    141.5829     23.3686
   324.7000      8.2882      2.1213      0.2157     32.0421    139.5571     24.2862
   324.8000      8.2728      2.2111      0.2801     26.5982    140.2905     25.1488
   324.9000      8.2728      2.2955      0.2809     21.4876    141.5957     25.9976
   325.0000      8.2204      2.3601      0.1929     17.5692    142.2155     26.8056
   325.1000      8.2204      2.4112      0.1518     14.4722    142.4748     27.6400
   325.2000      8.2204      2.4573      0.1644     11.6780    142.8062     28.5778
   325.3000      8.1785      2.4920      0.1215      9.5740    143.3170     29.4249
   325.4000      8.1785      2.5103      0.0803      8.4676    143.0617     29.9801
   325.5000      8.1906      2.5164      0.0297      8.0942    141.4667     30.2219
   325.6000      8.1906      2.5102      0.0537      8.4712    140.0844     30.1651
   325.7000      8.1906      2.4937     -0.0001      9.4755    140.0545     29.9495
   325.8000      8.1738      2.4863     -0.0053      9.9221    140.9556     29.8112
   325.9000      8.1738      2.5011      0.0047      9.0269    140.3996     29.7407
   326.0000      8.1564      2.5245      0.0486      7.6086    136.7122     29.5043
   326.1000      8.1564      2.5374      0.0475      6.8248    133.6229     29.0385
   326.2000      8.1564      2.5349      0.0501      6.9730    133.9084     28.5660
   326.3000      8.1334      2.5241      0.0347      7.6315    135.2871     28.1493
