~Version Information
VERS.                      2.0: CWLS Log ASCII Standard - VERSION 2.0
WRAP.                       NO: One line per depth step
~Well Information Block
STRT.FT                -8.7500: 
STOP.FT              1126.7500: 
STEP.FT                 0.2500: 
NULL.                -999.2500: 
COMP.          Evergreen Operating Corp.: COMPANY
WELL.             Bernice 21-3: WELL
FLD.           Purgatorie River: FIELD
LOC.           201' FNL & 2575' FWL--: LOCATION
PROV.                       CO: PROVINCE
CNTY.               Las Animas: COUNTRY
SRVC.          Patterson Wireline: SERVICE COMPANY
DATE.          Mon Feb 02 12:04:59 2004: LOG DATE
UWI.              05 071 07912: UNIQUE WELL ID
~Curve Information Block
DEPT.FT            0 000 00 00: Depth
CCL.                          : Casing Collar Locator
TT3.usec                      : CBL 3' Travel Time
AMP3.mV                       : CBL 3' Amplitude
GR.GAPI                       : Gamma Ray
~Parameter Information Block
~A  Depth       CCL         TT3         AMP3         GR     
# ...
   359.7500      0.0000    857.5548      6.9894    100.0305
   360.0000      0.0000    856.8906      6.8918    100.8703
   360.2500      0.0000    857.9545      6.8309     99.0567
   360.5000      0.0000    859.6112      6.7896     96.1304
   360.7500      0.0000    860.1390      6.7524     93.6602
   361.0000      0.0000    858.9128      6.7125     92.4390
   361.2500      0.0000    857.4277      6.6733     92.3719
   361.5000      0.0000    858.5956      6.6474     93.1390
   361.7500      0.0000    864.3994      6.6451     94.6648
   362.0000      0.0000    873.8947      6.6679     96.5614
   362.2500      0.0000    883.8888      6.7147     97.6634
   362.5000      0.0000    891.6718      6.7886     97.0038
   362.7500      0.0000    896.7809      6.8878     95.0591
   363.0000      0.0000    900.5047      6.9975     93.3757
   363.2500      0.0000    904.5038      7.0957     93.1578
   363.5000      0.0000    909.7562      7.1632     94.7060
   363.7500      0.0000    915.7751      7.1873     97.8710
   364.0000      0.0000    920.2810      7.1652    102.2975
   364.2500      0.0000    920.1606      7.1149    106.9837
   364.5000      0.0000    913.6701      7.0779    109.9730
   364.7500      0.0000    902.1954      7.0974    109.1897
   365.0000      0.0000    889.8107      7.1862    104.0914
   365.2500      0.0000    880.7858      7.3161     96.3728
   365.5000      0.0000    877.0370      7.4416     88.8084
   365.7500      0.0000    877.3350      7.5294     83.5004
   366.0000      0.0000    878.5505      7.5682     81.0473
   366.2500      0.0000    877.9551      7.5607     80.5906
   366.5000      0.0000    874.9042      7.5190     80.2954
   366.7500      0.0000    870.5562      7.4616     78.3501
   367.0000      0.0000    866.1061      7.4106     74.1280
   367.2500      0.0000    861.4799      7.3869     68.6874
   367.5000      0.0000    855.7395      7.4028     64.3764
   367.7500      0.0000    848.5858      7.4559     63.6732
   368.0000      0.0000    841.3600      7.5321     67.5135
   368.2500      0.0000    836.4650      7.6127     74.2306
   368.5000      0.0000    835.6038      7.6704     80.4557
   368.7500      0.0000    838.4295      7.6676     83.4995
   369.0000      0.0000    842.8791      7.5773     83.0938
   369.2500      0.0000    846.8359      7.4122     81.1236
   369.5000      0.0000    849.2790      7.2213     79.8623
   369.7500      0.0000    849.7381      7.0519     80.2302
   370.0000      0.0000    847.3343      6.9158     81.3895
   370.2500      0.0000    841.1606      6.7951     81.8585
   370.5000      0.0000    831.5595      6.6712     81.0288
   370.7500      0.0000    820.6788      6.5418     79.5312
   371.0000      0.0000    811.7349      6.4151     78.1715
   371.2500      0.0000    807.2428      6.3025     76.8825
   371.5000      0.0000    806.9863      6.2220     75.0243
   371.7500      0.0000    807.7815      6.1939     72.4546
   372.0000      0.0000    806.3893      6.2282     69.9390
   372.2500      0.0000    803.2231      6.3185     68.6318
   372.5000      0.0000    802.5845      6.4428     69.4289
   372.7500      0.0000    808.5529      6.5635     72.5727
   373.0000      0.0000    820.6275      6.6417     77.4640
   373.2500      0.0000    833.7383      6.6728     82.8917
   373.5000      0.0000    842.4193      6.7035     87.6940
   373.7500      0.0000    844.8921      6.8000     91.2581
   374.0000      0.0000    843.7063      6.9968     93.6033
   374.2500      0.0000    843.0851      7.2746     95.3564
   374.5000      0.0000    845.5987      7.5843     97.4994
   374.7500      0.0000    850.7916      7.8855    100.5009
   375.0000      0.0000    856.4178      8.1660    103.5784
   375.2500      0.0000    860.6110      8.4316    105.3087
   375.5000      0.0000    862.9381      8.6805    105.0983
   375.7500      0.0000    863.9769      8.8870    103.6499
   376.0000      0.0000    864.4485      9.0146    102.0575
   376.2500      0.0000    864.7705      9.0489    100.8793
   376.5000      0.0000    865.0651      9.0145    100.1064
   376.7500      0.0000    865.3446      8.9539     99.5102
   377.0000      0.0000    865.6178      8.8870     98.7355
   377.2500      0.0000    865.8558      8.7856     97.3313
   377.5000      0.0000    865.8469      8.6001     95.1786
   377.7500      0.0000    865.3354      8.3230     92.9743
   378.0000      0.0000    865.0215      8.0127     91.8231
   378.2500      0.0000    867.7857      7.7321     92.0436
   378.5000      0.0000    877.7440      7.4807     92.6805
   378.7500      0.0000    896.6434      7.2242     92.3957
   379.0000      0.0000    922.4391      6.9677     90.5322
   379.2500      0.0000    953.0198      6.7508     87.4926
   379.5000      0.0000    987.9397      6.5883     84.7489
   379.7500     -4.0000   1021.9265      6.4580     84.2735
   380.0000     -4.0000   1040.2881      6.3367     87.1259
   380.2500      0.0000   1028.9572      6.2317     92.5295
   380.5000      0.0000    989.4488      6.1912     98.7130
   380.7500      0.0000    938.1898      6.2906    104.4284
   381.0000      0.0000    891.5034      6.5760    109.4387
   381.2500      0.0000    856.0328      6.9939    113.8160
   381.5000      0.0000    832.0873      7.3982    116.9497
   381.7500      0.0000    819.5421      7.6504    117.3060
   382.0000      0.0000    818.1696      7.7148    113.5439
   382.2500      0.0000    825.5183      7.6633    106.0454
   382.5000      0.0000    837.1713      7.6041     97.0205
   382.7500      0.0000    848.8035      7.6066     88.9672
   383.0000      0.0000    857.6474      7.6777     83.1699
   383.2500      0.0000    862.7372      7.7912     79.5754
   383.5000      0.0000    864.3369      7.9180     77.6922
   383.7500      0.0000    862.9872      8.0350     77.2766
   384.0000      0.0000    859.0041      8.1266     78.1168
   384.2500      0.0000    853.1143      8.1936     79.3766
   384.5000      0.0000    847.4399      8.2495     79.5796
   384.7500      0.0000    844.9135      8.3006     77.6348
   385.0000      0.0000    846.9489      8.3367     73.8677
   385.2500      0.0000    852.0546      8.3549     69.7184
   385.5000      0.0000    857.3213      8.3783     66.3798
   385.7500      0.0000    860.9168      8.4325     63.9730
   386.0000      0.0000    862.9048      8.5069     62.0087
   386.2500      0.0000    864.4608      8.5538     60.3227
   386.5000      0.0000    867.1667      8.5329     59.4791
   386.7500      0.0000    872.8108      8.4487     60.3279
   387.0000      0.0000    882.7579      8.3428     63.1431
   387.2500      0.0000    896.3309      8.2613     67.3060
   387.5000      0.0000    909.5815      8.2268     72.0308
   387.7500      0.0000    916.6689      8.2310     77.1295
   388.0000      0.0000    914.0222      8.2471     82.6807
   388.2500      0.0000    903.7646      8.2541     88.3040
   388.5000      0.0000    892.8307      8.2452     93.2150
   388.7500      0.0000    888.2240      8.2133     96.6651
   389.0000      0.0000    892.4875      8.1433     98.0976
   389.2500      0.0000    902.6696      8.0265     97.3903
   389.5000      0.0000    913.2115      7.8821     95.1847
   389.7500      0.0000    920.4107      7.7564     92.4877
   390.0000      0.0000    924.5435      7.6943     89.8650
   390.2500      0.0000    928.0787      7.7058     87.6407
   390.5000      0.0000    932.4647      7.7573     86.8035
   390.7500      0.0000    936.8829      7.7942     88.6127
   391.0000      0.0000    939.9829      7.7748     92.8824
   391.2500      0.0000    942.2781      7.6955     97.6371
   391.5000      0.0000    945.7288      7.5938    101.1904
   391.7500      0.0000    950.4524      7.5196    103.9041
   392.0000      0.0000    953.7649      7.4956    107.1713
   392.2500      0.0000    954.6326      7.5050    111.2099
   392.5000      0.0000    957.2130      7.5187    114.6559
   392.7500      0.0000    966.1993      7.5194    116.0918
   393.0000      0.0000    979.8167      7.4981    115.2651
