~Version Information
VERS.                      2.0: CWLS Log ASCII Standard - VERSION 2.0
WRAP.                       NO: One line per depth step
~Well Information Block
STRT.FT                -9.5000: 
STOP.FT              2893.0000: 
STEP.FT                 0.2500: 
NULL.                -999.2500: 
COMP.          Pioneer Natural Resources: COMPANY
WELL.          Old Yeller 31-32: WELL
FLD.           Purgatoire River: FIELD
LOC.           1832' FEL & 793' FNL----: LOCATION
STAT.                 Colorado: State
CNTY.               Las Animas: COUNTY
CTRY. USA : Country
SECT. 32 : Section
TOWN. 32S : Township
RANG. 67W : Range
SRVC.                         : SERVICE COMPANY
DATE.          Fri Sep 02 16:45:38 2005: LOG DATE
API. 05-071-08356                         : UNIQUE WELL ID
~Curve Information Block
DEPT.FT            0 000 00 00: Depth
CCL.                          : Casing Collar Locator
TT3.usec                      : CBL 3' Travel Time
AMP5.mV                       : CBL 5' Amplitude
GR.GAPI                       : Gamma Ray
~Parameter Information Block
~A  Depth       CCL         TT3         AMP5         GR     
    -9.5000   -999.2500   -999.2500   -999.2500     72.2599
    -9.2500   -999.2500   -999.2500   -999.2500     70.8345
    -9.0000   -999.2500   -999.2500   -999.2500     68.5397
    -8.7500   -999.2500   -999.2500   -999.2500     65.9488
    -8.5000   -999.2500   -999.2500   -999.2500     63.9210
    -8.2500   -999.2500   -999.2500   -999.2500     63.2537
    -8.0000   -999.2500   -999.2500   -999.2500     63.8544
    -7.7500   -999.2500   -999.2500   -999.2500     64.6542
    -7.5000   -999.2500   -999.2500     -0.7446     64.6355
    -7.2500   -999.2500   -999.2500     -0.3964     63.7266
    -7.0000   -999.2500   -999.2500     -0.3093     62.5214
    -6.7500   -999.2500   -999.2500     -0.1352     61.4539
    -6.5000   -999.2500   -999.2500     -0.1352     60.6735
    -6.2500   -999.2500   -999.2500      0.0389     60.5944
    -6.0000   -999.2500   -999.2500     -0.0482     61.9847
    -5.7500   -999.2500   -999.2500     -0.3093     65.1554
    -5.5000   -999.2500   -999.2500     -0.2223     69.2068
    -5.2500   -999.2500   -999.2500     -0.5705     72.3913
    -5.0000   -999.2500   -999.2500     -0.0482     73.3731
    -4.7500   -999.2500   -999.2500     -0.3964     72.2126
    -4.5000   -999.2500    795.0000     -0.3093     70.0667
    -4.2500   -999.2500    795.0000     -0.1352     67.9420
    -4.0000   -999.2500    795.0000     -0.3093     65.9692
    -3.7500   -999.2500    795.0000     -0.3964     63.9336
    -3.5000   -999.2500    795.0000     -0.4834     62.0729
    -3.2500   -999.2500    795.0000     -0.5705     61.0150
    -3.0000   -999.2500    795.0000     -0.6575     61.0349
    -2.7500   -999.2500    795.0000     -0.3964     61.5858
    -2.5000   -999.2500    795.0000      0.2129     61.5865
    -2.2500   -999.2500    795.0000     -0.2223     60.3179
    -2.0000   -999.2500    795.0000     -0.7446     58.3246
    -1.7500   -999.2500    795.0000     -0.3093     57.2493
    -1.5000   -999.2500    795.0000     -0.1352     58.2717
    -1.2500   -999.2500    795.0000     -0.2223     60.6742
    -1.0000   -999.2500    795.0000     -0.6575     62.1247
    -0.7500   -999.2500    795.0000     -0.2223     60.3746
    -0.5000   -999.2500    795.0000     -0.1352     54.8488
    -0.2500   -999.2500    795.0000     -0.1352     46.9930
     0.0000   -999.2500    795.0000      0.0389     39.2011
     0.2500   -999.2500    795.0000     -0.3964     29.4991
     0.5000   -999.2500    795.0000      0.2129     27.5664
     0.7500   -999.2500    795.0000     -0.5705     26.9497
     1.0000      0.0000    795.0000      0.2129     27.4930
     1.2500      0.0000    795.0000     -0.3093     29.4561
     1.5000      2.0000    795.0000      0.1259     33.3313
     1.7500     -2.0000    795.0000     -0.8316     39.1942
     2.0000      0.0000    795.0000     -0.1352     46.0536
     2.2500     -2.0000    795.0000     -0.3093     52.0922
     2.5000      0.0000    795.0000     -0.5705     55.7559
     2.7500      0.0000    795.0000     -0.1352     56.6113
     3.0000      0.0000    795.0000     -0.7446     55.2945
     3.2500      0.0000    795.0000     -0.1352     53.0381
     3.5000      0.0000    795.0000     -0.9187     51.3263
     3.7500      0.0000    795.0000      0.0389     51.3522
     4.0000      0.0000    795.0000     -0.9187     53.1696
     4.2500      0.0000    795.0000     -0.2223     55.5187
     4.5000      0.0000    795.0000      0.0389     56.8802
     4.7500      0.0000    795.0000     -0.1352     56.6816
     5.0000      0.0000    795.0000      0.0389     55.4860
     5.2500      0.0000    795.0000     -0.5705     54.3119
     5.5000      0.0000    795.0000     -0.3964     53.9122
     5.7500      0.0000    795.0000     -0.2223     54.4230
     6.0000      0.0000    795.0000     -0.2223     55.4134
     6.2500      0.0000    795.0000     -0.7446     56.2414
     6.5000      0.0000    795.0000     -0.3093     56.5158
     6.7500      0.0000    795.0000     -0.3093     56.4211
     7.0000      0.0000    795.0000     -0.3093     56.5473
     7.2500      0.0000    795.0000     -0.6575     57.1990
     7.5000      0.0000    795.0000     -0.4834     58.0340
     7.7500      0.0000    795.0000     -0.4834     58.6246
     8.0000      0.0000    794.9861     -0.0482     59.1012
     8.2500      0.0000    794.8734     -0.4834     59.9443
     8.5000      0.0000    794.2697     -0.3964     61.3178
     8.7500      0.0000    791.7216     -0.7446     62.8458
     9.0000      0.0000    783.2395     -0.4834     63.9333
     9.2500      0.0000    760.9413     -0.3964     64.0572
     9.5000      0.0000    714.6069     -0.5705     62.8879
     9.7500      0.0000    638.4632     -0.6575     60.5884
    10.0000      0.0000    539.4977     -0.3093     58.1332
    10.2500      0.0000    437.8109      0.0389     56.8853
    10.5000      0.0000    355.2833      1.3446     57.5061
    10.7500      0.0000    302.4431     81.0792     59.3713
    11.0000      0.0000    275.7895    121.2947     61.1329
    11.2500      0.0000    265.2119    119.3796     61.8178
    11.5000      0.0000    261.9116    117.4646     61.6151
    11.7500      0.0000    261.0996    118.3351     61.8663
    12.0000      0.0000    260.9387    119.2056     64.0645
    12.2500      0.0000    260.9133    120.1631     68.4167
    12.5000      0.0000    260.9168    117.5517     73.3197
    12.7500      0.0000    260.9300    119.3796     76.6205
    13.0000      0.0000    260.9500    120.0760     77.4720
    13.2500      0.0000    260.9705    119.5537     76.6706
    13.5000      0.0000    260.9879    118.5092     75.2301
    13.7500      0.0000    261.0024    120.7724     73.4503
    14.0000      0.0000    261.0150    118.7703     71.9510
    14.2500      0.0000    261.0238    118.5092     72.5675
    14.5000      0.0000    261.0247    118.0740     76.6213
    14.7500      0.0000    261.0164    119.6408     82.4484
    15.0000      0.0000    261.0024    119.8149     86.0884
    15.2500      0.0000    260.9897    120.3372     84.7389
    15.5000      0.0000    260.9839    118.8574     78.7482
    15.7500      0.0000    260.9872    120.1631     70.3254
    16.0000      0.0000    260.9972    119.8149     61.4574
    16.2500      0.0000    261.0097    120.7724     53.4487
    16.5000      0.0000    261.0199    121.2076     47.3752
    16.7500      0.0000    261.0245    121.9040     43.8982
    17.0000      0.0000    261.0224    118.5092     42.6814
    17.2500      0.0000    261.0143    119.9890     42.5259
    17.5000      0.0000    261.0030    120.2501     42.2024
    17.7500      0.0000    260.9925    120.8594     41.2504
    18.0000      0.0000    260.9868    121.4688     40.2321
    18.2500      0.0000    260.9872    118.2480     40.1408
    18.5000      0.0000    260.9913    121.3817     41.3024
    18.7500      0.0000    260.9955    119.8149     42.8982
    19.0000      0.0000    260.9980    120.0760     43.7652
    19.2500      0.0000    261.0018    121.1206     43.5807
    19.5000      0.0000    261.0117    121.0335     43.2013
    19.7500      0.0000    261.0291    123.9061     43.9064
    20.0000      0.0000    261.0498    122.8615     46.2428
    20.2500      0.0000    261.0669    121.2076     49.4365
    20.5000      0.0000    261.0760    122.6004     51.9846
    20.7500      0.0000    261.0769    122.1651     52.9617
    21.0000      0.0000    261.0737    120.7724     52.7016
    21.2500      0.0000    261.0712    124.0802     52.1650
    21.5000      0.0000    261.0732    122.4263     51.9156
    21.7500      0.0000    261.0796    121.9040     51.9130
    22.0000      0.0000    261.0869    120.6853     52.0092
    22.2500      0.0000    261.0911    121.3817     52.2959
    22.5000      0.0000    261.0909    122.6874     53.1054
    22.7500      0.0000    261.0895    120.5113     54.9232
    23.0000      0.0000    261.0914    121.5558     58.1464
    23.2500      0.0000    261.1002    121.9040     62.5254
    23.5000      0.0000    261.1165    121.0335     66.8723
    23.7500      0.0000    261.1364    123.4708     69.7983
