~Version Information
VERS.                      2.0: CWLS Log ASCII Standard - VERSION 2.0
WRAP.                       NO: One line per depth step
~Well Information Block
STRT.FT               575.0000: 
STOP.FT              2016.2500: 
STEP.FT                 0.2500: 
NULL.                -999.2500: 
COMP.          Pioneer Natural Resources: COMPANY
WELL.          Bucksnort 41-35: WELL
FLD.           Purgatoire River: FIELD
LOC.           117' FNL & 463' FEL--: LOCATION
PROV.                 Colorado: PROVINCE
CNTY.               Las Animas: COUNTRY
SRVC.                Patterson: SERVICE COMPANY
DATE.          Thu Jul 21 10:13:55 2005: LOG DATE
UWI.           05 071 08401 00: UNIQUE WELL ID
~Curve Information Block
DEPT.FT            0 000 00 00: Depth
SN.Ohm-m                      : IEL Short Normal
SP.mV                         : IEL Spontaneous Potential
DIR.Ohm-m                     : IEL Induction Resistivity
GR.GAPI                       : Gamma Ray
~Parameter Information Block
~A  Depth        SN          SP         DIR          GR     
# ...
  1412.5000     27.5805     26.1420     23.8668     88.3460
  1412.7500     26.3001     26.6053     23.1157     87.9325
  1413.0000     24.8135     27.0831     22.2633     87.9169
  1413.2500     23.1335     27.5995     21.2552     88.8238
  1413.5000     21.3675     28.1786     20.0862     93.5725
  1413.7500     19.6529     28.8391     18.7987    100.1610
  1414.0000     18.0877     29.5893     17.4622    115.1279
  1414.2500     16.7032     30.4243     16.1506    126.8057
  1414.5000     15.4816     31.3263     14.9268    142.7843
  1414.7500     14.3926     32.2665     13.8331    150.8140
  1415.0000     13.4216     33.2106     12.8893    158.5382
  1415.2500     12.5781     34.1234     12.0957    161.2700
  1415.5000     11.8801     34.9742     11.4404    162.1892
  1415.7500     11.3322     35.7405     10.9072    160.7530
  1416.0000     10.9144     36.4098     10.4805    156.3627
  1416.2500     10.5899     36.9799     10.1459    152.9878
  1416.5000     10.3220     37.4578      9.8903    148.7965
  1416.7500     10.0876     37.8572      9.7015    146.6984
  1417.0000      9.8799     38.1966      9.5679    143.8939
  1417.2500      9.7012     38.4957      9.4782    142.1668
  1417.5000      9.5527     38.7726      9.4192    140.7932
  1417.7500      9.4283     39.0416      9.3737    141.3824
  1418.0000      9.3146     39.3115      9.3218    144.6765
  1418.2500      9.1964     39.5851      9.2448    147.9104
  1418.5000      9.0640     39.8604      9.1307    152.8251
  1418.7500      8.9169     40.1325      8.9775    155.3680
  1419.0000      8.7647     40.3955      8.7927    157.7039
  1419.2500      8.6212     40.6443      8.5902    158.7982
  1419.5000      8.4949     40.8755      8.3858    161.1171
  1419.7500      8.3845     41.0878      8.1938    163.4433
  1420.0000      8.2836     41.2813      8.0237    167.2439
  1420.2500      8.1879     41.4565      7.8793    169.0229
  1420.5000      8.0968     41.6138      7.7591    169.5028
  1420.7500      8.0107     41.7525      7.6578    168.5707
  1421.0000      7.9301     41.8700      7.5683    166.4755
  1421.2500      7.8577     41.9618      7.4839    165.0780
  1421.5000      7.7980     42.0209      7.4001    163.0258
  1421.7500      7.7523     42.0383      7.3162    161.6639
  1422.0000      7.7156     42.0033      7.2354    160.0900
  1422.2500      7.6802     41.9049      7.1635    159.7975
  1422.5000      7.6429     41.7324      7.1063    160.9534
  1422.7500      7.6077     41.4774      7.0670    162.5375
  1423.0000      7.5805     41.1347      7.0449    164.6562
  1423.2500      7.5646     40.7038      7.0365    164.7993
  1423.5000      7.5622     40.1892      7.0374    162.2417
  1423.7500      7.5784     39.6004      7.0451    159.4050
  1424.0000      7.6215     38.9515      7.0609    156.2792
  1424.2500      7.6990     38.2603      7.0895    156.3180
  1424.5000      7.8107     37.5471      7.1373    159.4729
  1424.7500      7.9444     36.8340      7.2097    162.2632
  1425.0000      8.0750     36.1442      7.3082    164.7132
  1425.2500      8.1703     35.5010      7.4297    164.2269
  1425.5000      8.2024     34.9276      7.5662    160.0062
  1425.7500      8.1600     34.4465      7.7063    155.0850
  1426.0000      8.0553     34.0798      7.8371    145.3118
  1426.2500      7.9223     33.8488      7.9462    138.1407
  1426.5000      7.8039     33.7737      8.0237    129.0153
  1426.7500      7.7287     33.8716      8.0636    125.6756
  1427.0000      7.6912     34.1543      8.0643    126.5665
  1427.2500      7.6535     34.6242      8.0273    131.0881
  1427.5000      7.5764     35.2715      7.9564    141.8814
  1427.7500      7.4530     36.0721      7.8563    149.8145
  1428.0000      7.3172     36.9882      7.7332    159.0177
  1428.2500      7.2191     37.9718      7.5954    161.5608
  1428.5000      7.1899     38.9701      7.4534    158.8925
  1428.7500      7.2271     39.9323      7.3191    153.6698
  1429.0000      7.3046     40.8152      7.2039    144.2064
  1429.2500      7.3979     41.5880      7.1155    139.0303
  1429.5000      7.5014     42.2334      7.0572    134.9525
  1429.7500      7.6295     42.7473      7.0282    134.4641
  1430.0000      7.8002     43.1359      7.0262    135.4688
  1430.2500      8.0175     43.4130      7.0500    136.5332
  1430.5000      8.2697     43.5957      7.1009    138.3997
  1430.7500      8.5427     43.7013      7.1836    139.9336
  1431.0000      8.8321     43.7449      7.3047    142.4557
  1431.2500      9.1431     43.7369      7.4716    143.7273
  1431.5000      9.4836     43.6834      7.6907    143.7617
  1431.7500      9.8589     43.5870      7.9661    142.0339
  1432.0000     10.2704     43.4497      8.2994    136.7936
  1432.2500     10.7112     43.2755      8.6896    131.9323
  1432.5000     11.1627     43.0734      9.1330    123.4843
  1432.7500     11.5988     42.8585      9.6235    117.5516
  1433.0000     11.9991     42.6508     10.1498    109.0167
  1433.2500     12.3614     42.4724     10.6926    104.2284
  1433.5000     12.7021     42.3427     11.2236     99.9361
  1433.7500     13.0424     42.2743     11.7070     99.8911
  1434.0000     13.3888     42.2700     12.1071    104.7771
  1434.2500     13.7226     42.3213     12.3979    111.0085
  1434.5000     14.0080     42.4102     12.5723    123.1097
  1434.7500     14.2151     42.5116     12.6447    131.6751
  1435.0000     14.3412     42.5977     12.6472    142.9891
  1435.2500     14.4169     42.6416     12.6208    148.4065
  1435.5000     14.4974     42.6211     12.6054    152.1393
  1435.7500     14.6470     42.5203     12.6335    151.4748
  1436.0000     14.9256     42.3308     12.7306    146.0783
  1436.2500     15.3812     42.0504     12.9197    140.0755
  1436.5000     16.0514     41.6819     13.2257    129.0559
  1436.7500     16.9662     41.2307     13.6765    121.6700
  1437.0000     18.1441     40.7031     14.2996    112.5733
  1437.2500     19.5780     40.1065     15.1133    108.3213
  1437.5000     21.2095     39.4489     16.1146    104.2245
  1437.7500     22.9024     38.7416     17.2641    102.5025
  1438.0000     24.4460     38.0003     18.4712    100.9497
  1438.2500     25.6086     37.2461     19.5912    100.6520
  1438.5000     26.2161     36.5051     20.4469    101.6248
  1438.7500     26.2090     35.8072     20.8794    103.2429
  1439.0000     25.6421     35.1837     20.8069    106.6220
  1439.2500     24.6374     34.6652     20.2530    109.0536
  1439.5000     23.3229     34.2787     19.3264    112.2936
  1439.7500     21.7983     34.0454     18.1688    113.8801
  1440.0000     20.1401     33.9766     16.9112    115.0462
  1440.2500     18.4269     34.0696     15.6537    115.1422
  1440.5000     16.7550     34.3045     14.4653    115.5936
  1440.7500     15.2265     34.6432     13.3900    117.2664
  1441.0000     13.9212     35.0334     12.4526    122.9163
  1441.2500     12.8742     35.4167     11.6632    128.2672
  1441.5000     12.0745     35.7389     11.0216    136.4227
  1441.7500     11.4825     35.9588     10.5216    140.6513
  1442.0000     11.0542     36.0534     10.1541    143.8675
  1442.2500     10.7601     36.0175      9.9101    143.6961
  1442.5000     10.5908     35.8594      9.7817    140.3791
  1442.7500     10.5495     35.5954      9.7613    136.8203
  1443.0000     10.6387     35.2454      9.8397    130.9104
  1443.2500     10.8464     34.8313     10.0055    127.0847
  1443.5000     11.1452     34.3776     10.2442    121.5305
  1443.7500     11.5013     33.9124     10.5398    117.9173
  1444.0000     11.8883     33.4668     10.8763    113.1785
  1444.2500     12.2934     33.0727     11.2397    110.9299
  1444.5000     12.7137     32.7583     11.6194    109.3141
  1444.7500     13.1450     32.5438     12.0078    109.4553
  1445.0000     13.5741     32.4376     12.3989    111.4266
  1445.2500     13.9816     32.4351     12.7869    113.5035
  1445.5000     14.3524     32.5191     13.1656    116.0245
  1445.7500     14.6788     32.6633     13.5285    116.1406
