~Version Information
VERS.                      2.0: CWLS Log ASCII Standard - VERSION 2.0
WRAP.                       NO: One line per depth step
~Well Information Block
STRT.FT               241.5000: 
STOP.FT              2340.7500: 
STEP.FT                 0.2500: 
NULL.                -999.2500: 
COMP.          Petrogulf Corporation: COMPANY
WELL.            Montoya 1-24V: WELL
FLD.           Purgatorie River: FIELD
LOC.           605' FSL & 2557' FWL: LOCATION
CNTY.               Las Animas: COUNTY
SRVC.                         : SERVICE COMPANY
DATE.          Tue Nov 30 10:28:39 2004: LOG DATE
UWI.           05 071 08194 00: UNIQUE WELL ID
STAT.                 Colorado: STATE
~Curve Information Block
DEPT.FT            0 000 00 00: Depth
GR.GAPI                       : Gamma Ray
CCL.                          : Casing Collar Locator
TT3.usec                      : CBL 3' Travel Time
AMP3.mV                       : CBL 3' Amplitude
~Parameter Information Block
~A  Depth        GR         CCL         TT3         AMP3    
# ...
  1615.0000    168.0389      0.0000    668.5318     12.4617
  1615.2500    170.1822      0.0000    680.6449     12.3403
  1615.5000    169.8602      0.0000    693.1569     12.0211
  1615.7500    169.7003      0.0000    702.5438     11.5803
  1616.0000    171.7077      0.0000    705.5844     11.0531
  1616.2500    175.7893      0.0000    701.8370     10.4377
  1616.5000    180.8005      0.0000    693.4235      9.7561
  1616.7500    185.8504      0.0000    682.0189      9.0728
  1617.0000    190.2990      0.0000    667.6492      8.4488
  1617.2500    193.3201      0.0000    651.3161      7.8915
  1617.5000    193.9629      0.0000    637.0258      7.3531
  1617.7500    191.6867      0.0000    629.1919      6.7885
  1618.0000    187.2575      0.0000    628.3366      6.2303
  1618.2500    183.0514      0.0000    630.8295      5.7903
  1618.5000    181.4614      0.0000    633.2392      5.5463
  1618.7500    182.3750      0.0000    635.9420      5.4333
  1619.0000    182.5183      0.0000    641.2405      5.2943
  1619.2500    177.8756      0.0000    648.5460      5.0305
  1619.5000    167.2220      0.0000    654.1613      4.6644
  1619.7500    153.4251      3.0000    656.6171      4.2782
  1620.0000    140.9790      0.0000    659.1251      3.9402
  1620.2500    132.1106      0.0000    664.8282      3.6834
  1620.5000    125.6286      0.0000    671.9379      3.5164
  1620.7500    119.4614      0.0000    675.4122      3.4310
  1621.0000    113.4078      0.0000    672.1448      3.3973
  1621.2500    108.9228      0.0000    663.2167      3.3612
  1621.5000    106.8885      0.0000    651.8862      3.2669
  1621.7500    106.3136      0.0000    640.7032      3.0991
  1622.0000    105.0980      0.0000    630.5067      2.8982
  1622.2500    101.7902      0.0000    621.2737      2.7279
  1622.5000     96.7119      0.0000    613.5102      2.6318
  1622.7500     91.5279      0.0000    608.7739      2.6181
  1623.0000     87.7847      0.0000    608.4951      2.6630
  1623.2500     85.9686      0.0000    612.2259      2.7228
  1623.5000     85.7729      0.0000    617.5864      2.7544
  1623.7500     86.5493      0.0000    622.0904      2.7342
  1624.0000     87.2212      0.0000    624.6749      2.6634
  1624.2500     86.4637      0.0000    625.6090      2.5607
  1624.5000     83.6076      0.0000    625.6078      2.4565
  1624.7500     79.1791      0.0000    625.2393      2.3820
  1625.0000     74.3659      0.0000    624.8112      2.3482
  1625.2500     70.3015      0.0000    624.4412      2.3367
  1625.5000     67.9109      0.0000    624.1641      2.3207
  1625.7500     67.7022      0.0000    624.0477      2.2956
  1626.0000     69.2826      0.0000    624.2959      2.2800
  1626.2500     71.4770      0.0000    625.2347      2.2853
  1626.5000     73.1293      0.0000    627.0953      2.2965
  1626.7500     73.5088      0.0000    629.7252      2.2879
  1627.0000     72.1656      0.0000    632.5086      2.2529
  1627.2500     69.1465      0.0000    634.5660      2.2115
  1627.5000     65.5652      0.0000    635.0831      2.1902
  1627.7500     63.2524      0.0000    633.7232      2.1961
  1628.0000     63.1721      0.0000    630.9719      2.2113
  1628.2500     64.2642      0.0000    627.9217      2.2116
  1628.5000     64.3287      0.0000    625.4747      2.1962
  1628.7500     62.1798      0.0000    623.7419      2.1956
  1629.0000     58.7085      0.0000    622.1920      2.2455
  1629.2500     55.7615      0.0000    620.2401      2.3513
  1629.5000     54.2772      0.0000    617.7202      2.4838
  1629.7500     53.7534      0.0000    615.0052      2.6039
  1630.0000     53.2855      0.0000    612.8600      2.6821
  1630.2500     52.7445      0.0000    612.1290      2.6984
  1630.5000     52.9861      0.0000    613.2488      2.6413
  1630.7500     55.1312      0.0000    615.8089      2.5249
  1631.0000     59.6392      0.0000    618.7155      2.3972
  1631.2500     65.8089      0.0000    620.9695      2.3127
  1631.5000     71.9976      0.0000    622.2487      2.2905
  1631.7500     76.4872      0.0000    622.7913      2.3028
  1632.0000     78.5357      0.0000    622.9605      2.3025
  1632.2500     78.7694      0.0000    622.9937      2.2588
  1632.5000     78.5762      0.0000    622.9962      2.1741
  1632.7500     78.9077      0.0000    622.9949      2.0750
  1633.0000     79.3378      0.0000    622.9775      1.9905
  1633.2500     78.4706      0.0000    622.8901      1.9362
  1633.5000     75.7222      0.0000    622.5873      1.9127
  1633.7500     72.4464      0.0000    621.7569      1.9155
  1634.0000     70.8632      0.0000    620.0236      1.9452
  1634.2500     72.1606      0.0000    617.4178      2.0069
  1634.5000     75.9005      0.0000    614.8521      2.0997
  1634.7500     80.6413      0.0000    613.7600      2.2031
  1635.0000     84.6438      0.0000    614.8616      2.2762
  1635.2500     86.5188      0.0000    617.4280      2.2790
  1635.5000     85.9403      0.0000    620.0078      2.2066
  1635.7500     83.7594      0.0000    621.6635      2.1050
  1636.0000     81.3109      0.0000    622.3513      2.0475
  1636.2500     79.7264      0.0000    622.4724      2.0856
  1636.5000     79.6918      0.0000    622.4014      2.2113
  1636.7500     81.1646      0.0000    622.3421      2.3616
  1637.0000     83.0161      0.0000    622.3679      2.4650
  1637.2500     83.3814      0.0000    622.4826      2.4953
  1637.5000     80.8778      0.0000    622.6667      2.4829
  1637.7500     75.6528      0.0000    622.8934      2.4768
  1638.0000     69.3406      0.0000    623.1387      2.4962
  1638.2500     64.1585      0.0000    623.3900      2.5197
  1638.5000     61.7805      0.0000    623.6523      2.5153
  1638.7500     62.4803      0.0000    623.9396      2.4757
  1639.0000     65.0039      0.0000    624.2531      2.4238
  1639.2500     67.3257      0.0000    624.5682      2.3916
  1639.5000     67.8354      0.0000    624.8455      2.3947
  1639.7500     66.1748      0.0000    625.1042      2.4263
  1640.0000     63.2463      0.0000    625.5820      2.4731
  1640.2500     60.5982      0.0000    626.9335      2.5325
  1640.5000     59.6377      0.0000    630.2079      2.6141
  1640.7500     60.8639      0.0000    636.2150      2.7220
  1641.0000     63.4498      0.0000    644.3745      2.8381
  1641.2500     65.7157      0.0000    652.2460      2.9262
  1641.5000     66.3485      0.0000    657.0836      2.9559
  1641.7500     65.3397      0.0000    658.6052      2.9247
  1642.0000     63.8090      0.0000    659.9312      2.8593
  1642.2500     63.0895      0.0000    664.9733      2.7996
  1642.5000     63.9532      0.0000    674.7180      2.7784
  1642.7500     66.3820      0.0000    686.3171      2.8044
  1643.0000     69.7122      0.0000    695.5103      2.8574
  1643.2500     72.9977      0.0000    699.4705      2.9046
  1643.5000     75.5014      0.0000    697.9368      2.9248
  1643.7500     77.0611      0.0000    692.7991      2.9189
  1644.0000     77.9668      0.0000    686.8355      2.8973
  1644.2500     78.4943      0.0000    682.1798      2.8672
  1644.5000     78.7313      0.0000    679.4196      2.8360
  1644.7500     78.8352      0.0000    677.6764      2.8191
  1645.0000     79.0504      0.0000    675.1182      2.8309
  1645.2500     79.3124      0.0000    669.7037      2.8674
  1645.5000     79.2232      0.0000    660.4782      2.9063
  1645.7500     78.6260      0.0000    648.7259      2.9234
  1646.0000     78.0177      0.0000    637.4312      2.9061
  1646.2500     78.4139      0.0000    629.1625      2.8521
  1646.5000     80.7708      0.0000    624.5590      2.7691
  1646.7500     85.1369      0.0000    622.6820      2.6828
  1647.0000     90.1683      0.0000    622.2369      2.6342
  1647.2500     93.8690      0.0000    622.3240      2.6493
  1647.5000     95.0917      0.0000    622.5270      2.7077
  1647.7500     94.0769      0.0000    622.7518      2.7535
  1648.0000     91.5785      0.0000    623.1096      2.7458
  1648.2500     88.1266      0.0000    623.9174      2.6972
