~Version Information
VERS.                      2.0: CWLS Log ASCII Standard - VERSION 2.0
WRAP.                       NO: One line per depth step
~Well Information Block
STRT.FT               898.0000: 
STOP.FT              2359.2000: 
STEP.FT                 0.1000: 
NULL.                -999.2500: 
COMP.          Pioneer Natural Resources: COMPANY
WELL.             Trimax 44-23: WELL
FLD.           Purgatoire River: FIELD
LOC.           527' FSL & 1064' FEL: LOCATION
PROV.                 Colorado: PROVINCE
CNTY.               Las Animas: COUNTRY
SRVC.                Patterson: SERVICE COMPANY
DATE.          Mon Mar 14 07:28:19 2005: LOG DATE
UWI.           05 071 08326 00: UNIQUE WELL ID
~Curve Information Block
DEPT.FT            0 000 00 00: Depth
DCAL.in                       : CDL Caliper
RHOB.g/cc                     : CDL Bulk Density
RHOC.g/cc                     : CDL Density Correction
DPOR.pu                       : CDL Density Porosity
GR.GAPI                       : Gamma Ray
NPOR.pu                       : Neutron Porosity
~Parameter Information Block
~A  Depth       DCAL        RHOB        RHOC        DPOR         GR         NPOR    
# ...
  2347.6000      7.7640      2.6838      0.1199     -2.0507   -999.2500   -999.2500
  2347.7000      7.7640      2.6768      0.1043     -1.6225   -999.2500   -999.2500
  2347.8000      7.7901      2.6462      0.0434      0.2287   -999.2500   -999.2500
  2347.9000      7.7901      2.6030      0.0119      2.8468   -999.2500   -999.2500
  2348.0000      7.8091      2.5682      0.0010      4.9557   -999.2500   -999.2500
  2348.1000      7.8091      2.5588      0.0132      5.5274   -999.2500   -999.2500
  2348.2000      7.8091      2.5724      0.0327      4.7035   -999.2500   -999.2500
  2348.3000      7.8100      2.5852      0.0557      3.9256   -999.2500   -999.2500
  2348.4000      7.8100      2.5823      0.0243      4.1056   -999.2500   -999.2500
  2348.5000      7.8038      2.5726      0.0276      4.6909   -999.2500   -999.2500
  2348.6000      7.8038      2.5643      0.0719      5.1921   -999.2500   -999.2500
  2348.7000      7.8038      2.5581      0.0697      5.5705   -999.2500   -999.2500
  2348.8000      7.7844      2.5602      0.0496      5.4395   -999.2500   -999.2500
  2348.9000      7.7844      2.5740      0.0718      4.6082   -999.2500   -999.2500
  2349.0000      7.7613      2.5926      0.0729      3.4805   -999.2500   -999.2500
  2349.1000      7.7613      2.6076      0.0576      2.5707   -999.2500   -999.2500
  2349.2000      7.7613      2.6189      0.0723      1.8831   -999.2500   -999.2500
  2349.3000      7.7695      2.6357      0.0886      0.8666   -999.2500   -999.2500
  2349.4000      7.7695      2.6555      0.0930     -0.3343   -999.2500   -999.2500
  2349.5000      7.7871      2.6645      0.1215     -0.8773   -999.2500   -999.2500
  2349.6000      7.7871      2.6662      0.0966     -0.9828   -999.2500   -999.2500
  2349.7000      7.7871      2.6721      0.1070     -1.3369   -999.2500   -999.2500
  2349.8000      7.7784      2.6753      0.1214     -1.5336   -999.2500   -999.2500
  2349.9000      7.7784      2.6700      0.1169     -1.2118   -999.2500   -999.2500
  2350.0000      7.7612      2.6618      0.1130     -0.7180   -999.2500   -999.2500
  2350.1000      7.7612      2.6504      0.1232     -0.0227   -999.2500   -999.2500
  2350.2000      7.7612      2.6339      0.0771      0.9755   -999.2500   -999.2500
  2350.3000      7.7482      2.6232      0.0613      1.6243   -999.2500   -999.2500
  2350.4000      7.7482      2.6227      0.0782      1.6564   -999.2500   -999.2500
  2350.5000      7.7426      2.6245      0.0651      1.5470   -999.2500   -999.2500
  2350.6000      7.7426      2.6279      0.0478      1.3383   -999.2500   -999.2500
  2350.7000      7.7426      2.6358      0.0658      0.8618   -999.2500   -999.2500
  2350.8000      7.7578      2.6406      0.0794      0.5716   -999.2500   -999.2500
  2350.9000      7.7578      2.6349      0.0937      0.9167   -999.2500   -999.2500
  2351.0000      7.7843      2.6232      0.0708      1.6239   -999.2500   -999.2500
  2351.1000      7.7843      2.6119      0.0692      2.3110   -999.2500   -999.2500
  2351.2000      7.7843      2.6000      0.0613      3.0288   -999.2500   -999.2500
  2351.3000      7.8002      2.5901      0.0346      3.6324   -999.2500   -999.2500
  2351.4000      7.8002      2.5899      0.0258      3.6418   -999.2500   -999.2500
  2351.5000      7.7948      2.5975      0.0763      3.1817   -999.2500   -999.2500
  2351.6000      7.7948      2.6032      0.0842      2.8336   -999.2500   -999.2500
  2351.7000      7.7948      2.6080      0.0519      2.5476   -999.2500   -999.2500
  2351.8000      7.7783      2.6129      0.1236      2.2497   -999.2500   -999.2500
  2351.9000      7.7783      2.6156      0.1052      2.0863   -999.2500   -999.2500
  2352.0000      7.7754      2.6196      0.0767      1.8415   -999.2500   -999.2500
  2352.1000      7.7754      2.6181      0.0889      1.9317   -999.2500   -999.2500
  2352.2000      7.7754      2.6038      0.0485      2.8013   -999.2500   -999.2500
  2352.3000      7.7872      2.5903      0.0801      3.6156   -999.2500   -999.2500
  2352.4000      7.7872      2.5860      0.0676      3.8771   -999.2500   -999.2500
  2352.5000      7.7949      2.5792      0.0497      4.2888   -999.2500   -999.2500
  2352.6000      7.7949      2.5668      0.0218      5.0427   -999.2500   -999.2500
  2352.7000      7.7949      2.5594      0.0561      5.4907   -999.2500   -999.2500
  2352.8000      7.7920      2.5553      0.0749      5.7378   -999.2500   -999.2500
  2352.9000      7.7920      2.5445      0.0665      6.3948   -999.2500   -999.2500
  2353.0000      7.7855      2.5272      0.0681      7.4452   -999.2500   -999.2500
  2353.1000      7.7855      2.5101      0.0522      8.4770   -999.2500   -999.2500
  2353.2000      7.7855      2.5017      0.0488      8.9877   -999.2500   -999.2500
  2353.3000      7.7791      2.5001      0.1029      9.0847   -999.2500   -999.2500
  2353.4000      7.7791      2.4958      0.0617      9.3431   -999.2500   -999.2500
  2353.5000      7.7777      2.4863      0.0412      9.9193   -999.2500   -999.2500
  2353.6000      7.7777      2.4695      0.0299     10.9396   -999.2500   -999.2500
  2353.7000      7.7777      2.4484     -0.0007     12.2193   -999.2500   -999.2500
  2353.8000      7.7794      2.4320      0.0303     13.2142   -999.2500   -999.2500
  2353.9000      7.7794      2.4208      0.0475     13.8932   -999.2500   -999.2500
  2354.0000      7.7822      2.4135      0.0082     14.3334   -999.2500   -999.2500
  2354.1000      7.7822      2.4128      0.0503     14.3780   -999.2500   -999.2500
  2354.2000      7.7822      2.4201      0.0242     13.9307   -999.2500   -999.2500
  2354.3000      7.7896      2.4368      0.0392     12.9182   -999.2500   -999.2500
  2354.4000      7.7896      2.4567      0.0445     11.7128   -999.2500   -999.2500
  2354.5000      7.7946      2.4712      0.0721     10.8372   -999.2500   -999.2500
  2354.6000      7.7946      2.4838      0.0238     10.0698   -999.2500   -999.2500
  2354.7000      7.7946      2.4997      0.0784      9.1070   -999.2500   -999.2500
  2354.8000      7.7948      2.5115      0.0480      8.3963   -999.2500   -999.2500
  2354.9000      7.7948      2.5171      0.0670      8.0529   -999.2500   -999.2500
  2355.0000      7.7934      2.5241      0.0538      7.6293   -999.2500   -999.2500
  2355.1000      7.7934      2.5348      0.0717      6.9843   -999.2500   -999.2500
  2355.2000      7.7934      2.5411      0.0480      6.5990   -999.2500   -999.2500
  2355.3000      7.7925      2.5385      0.0683      6.7584   -999.2500   -999.2500
  2355.4000      7.7925      2.5338      0.0325      7.0434   -999.2500   -999.2500
  2355.5000      7.7965      2.5383      0.0257      6.7697   -999.2500   -999.2500
  2355.6000      7.7965      2.5495      0.0790      6.0913   -999.2500   -999.2500
  2355.7000      7.7965      2.5521      0.0431      5.9334   -999.2500   -999.2500
  2355.8000      7.7914      2.5450      0.0497      6.3627   -999.2500   -999.2500
  2355.9000      7.7914      2.5398      0.0561      6.6815   -999.2500   -999.2500
  2356.0000      7.7576      2.5433      0.0496      6.4660   -999.2500   -999.2500
  2356.1000      7.7576      2.5540      0.0265      5.8154   -999.2500   -999.2500
  2356.2000      7.7576      2.5610      0.0883      5.3968   -999.2500   -999.2500
  2356.3000      7.7130      2.5680      0.0804      4.9674   -999.2500   -999.2500
  2356.4000      7.7130      2.6205      0.0239      1.7887   -999.2500   -999.2500
  2356.5000      7.6221      2.6296      0.0817      1.2340   -999.2500   -999.2500
  2356.6000      7.6221      2.1948      0.5009     27.5881   -999.2500   -999.2500
  2356.7000      7.6221      1.2459      0.0000     85.0995   -999.2500   -999.2500
  2356.8000      7.1896      0.4225      0.0000    135.0021   -999.2500   -999.2500
  2356.9000      7.1896      0.0802   -999.2500    155.7440   -999.2500   -999.2500
  2357.0000      5.7518      0.0083   -999.2500    160.1049   -999.2500   -999.2500
  2357.1000      5.7518      0.0004   -999.2500    160.5788   -999.2500   -999.2500
