~Version Information
VERS.                      2.0: CWLS Log ASCII Standard - VERSION 2.0
WRAP.                       NO: One line per depth step
~Well Information Block
STRT.FT                 0.5000: 
STOP.FT              2744.2500: 
STEP.FT                 0.2500: 
NULL.                -999.2500: 
COMP.          Petrogulf Corporation: COMPANY
WELL.              Silva 1-43V: WELL
FLD.           Purgatoire River: FIELD
LOC.           2010' FSL & 614' FEL--: LOCATION
PROV.                 Colorado: PROVINCE
CNTY.               Las Animas: COUNTRY
SRVC.                Patterson: SERVICE COMPANY
DATE.          Mon Sep 12 10:37:12 2005: LOG DATE
UWI.           05 071 08371 00: UNIQUE WELL ID
~Curve Information Block
DEPT.FT            0 000 00 00: Depth
CCL.                          : Casing Collar Locator
TT3.usec                      : CBL 3' Travel Time
AMP3.mV                       : CBL 3' Amplitude
GR.GAPI                       : Gamma Ray
~Parameter Information Block
~A  Depth       CCL         TT3         AMP3         GR     
# ...
  1977.0000      0.0000    674.4069      5.7936    149.0811
  1977.2500      0.0000    676.8979      5.8292    147.0661
  1977.5000      0.0000    679.9949      5.8971    144.4077
  1977.7500      0.0000    683.0404      5.9912    142.6129
  1978.0000      0.0000    685.8179      6.0997    142.7822
  1978.2500      0.0000    687.8078      6.2092    145.6684
  1978.5000      0.0000    688.3427      6.3115    151.1532
  1978.7500      0.0000    687.6173      6.4007    157.4878
  1979.0000      0.0000    686.6545      6.4681    161.9462
  1979.2500      0.0000    686.0063      6.5073    162.7559
  1979.5000      0.0000    685.2450      6.5238    160.2653
  1979.7500      0.0000    684.1188      6.5335    156.2657
  1980.0000      0.0000    683.8583      6.5505    152.4675
  1980.2500      0.0000    686.8041      6.5748    149.5196
  1980.5000      0.0000    694.2529      6.5921    147.1738
  1980.7500      0.0000    704.3689      6.5826    145.1176
  1981.0000      0.0000    712.4379      6.5373    143.4458
  1981.2500      0.0000    713.7769      6.4665    142.4159
  1981.5000      0.0000    707.0100      6.3924    142.1263
  1981.7500      0.0000    694.8407      6.3301    142.5802
  1982.0000      0.0000    681.5826      6.2777    143.7236
  1982.2500      0.0000    669.8593      6.2248    145.0717
  1982.5000      0.0000    659.6932      6.1671    145.5001
  1982.7500      0.0000    650.6126      6.1113    143.9800
  1983.0000      0.0000    644.0936      6.0669    140.6819
  1983.2500      0.0000    643.5626      6.0360    137.0127
  1983.5000      0.0000    651.9129      6.0118    134.4587
  1983.7500      0.0000    668.9004      5.9847    133.6518
  1984.0000      0.0000    690.7778      5.9550    134.6039
  1984.2500      0.0000    712.7134      5.9391    137.1231
  1984.5000      0.0000    731.8344      5.9609    140.3821
  1984.7500      0.0000    747.6830      6.0334    142.4380
  1985.0000      0.0000    760.0907      6.1480    141.1389
  1985.2500      0.0000    768.0456      6.2831    136.1595
  1985.5000      0.0000    770.5889      6.4213    130.0237
  1985.7500      0.0000    767.0031      6.5571    126.4644
  1986.0000      0.0000    756.1373      6.6879    127.3956
  1986.2500      0.0000    737.6587      6.8019    131.6284
  1986.5000      0.0000    714.2086      6.8781    136.5276
  1986.7500      0.0000    690.5533      6.8993    140.4565
  1987.0000      0.0000    670.2292      6.8693    143.2986
  1987.2500      0.0000    654.1520      6.8162    145.0324
  1987.5000      0.0000    642.3564      6.7721    144.8374
  1987.7500      0.0000    635.6553      6.7460    142.1406
  1988.0000      0.0000    635.0173      6.7226    138.0457
  1988.2500      0.0000    639.9367      6.6864    134.7312
  1988.5000      0.0000    647.9400      6.6438    133.1456
  1988.7500      0.0000    655.7996      6.6173    131.8691
  1989.0000      0.0000    661.1832      6.6205    128.6141
  1989.2500      0.0000    663.2168      6.6475    122.3816
  1989.5000      0.0000    661.9685      6.6842    113.8686
  1989.7500      0.0000    658.2817      6.7225    104.3665
  1990.0000      0.0000    654.5156      6.7583     94.7159
  1990.2500      0.0000    654.5957      6.7864     85.1403
  1990.5000      0.0000    661.6967      6.8023     75.7675
  1990.7500      0.0000    675.1115      6.8063     67.1721
  1991.0000      0.0000    690.0870      6.8029     60.3162
  1991.2500      0.0000    701.3682      6.7950     55.9440
  1991.5000      0.0000    706.5906      6.7788     54.2290
  1991.7500      0.0000    706.3377      6.7454     55.1802
  1992.0000      0.0000    702.2901      6.6909     59.2694
  1992.2500      0.0000    696.2305      6.6249     67.4091
  1992.5000      0.0000    689.9448      6.5640     80.0425
  1992.7500      0.0000    684.6685      6.5159     95.9178
  1993.0000      0.0000    680.4700      6.4727    111.7260
  1993.2500      0.0000    676.8160      6.4206    123.6333
  1993.5000      0.0000    673.7531      6.3553    130.1064
  1993.7500      0.0000    672.1454      6.2868    133.3787
  1994.0000      0.0000    672.9041      6.2322    137.4112
  1994.2500      0.0000    676.1077      6.2042    144.0088
  1994.5000      0.0000    680.4345      6.2050    151.3457
  1994.7500      0.0000    683.2863      6.2286    156.2895
  1995.0000      0.0000    682.0385      6.2664    157.2054
  1995.2500      0.0000    675.6390      6.3085    154.2747
  1995.5000      0.0000    665.0390      6.3449    148.4476
  1995.7500      0.0000    652.4258      6.3680    141.1997
  1996.0000      0.0000    640.4395      6.3768    134.7316
  1996.2500      0.0000    631.7010      6.3789    131.2653
  1996.5000      0.0000    628.2283      6.3864    131.6065
  1996.7500      0.0000    630.7435      6.4084    134.3676
  1997.0000      0.0000    638.2396      6.4445    136.8156
  1997.2500      0.0000    648.2598      6.4870    136.8366
  1997.5000      0.0000    658.1925      6.5261    134.1939
  1997.7500      0.0000    666.7875      6.5524    130.0470
  1998.0000      0.0000    674.2792      6.5630    125.7264
  1998.2500      0.0000    680.9321      6.5647    122.0887
  1998.5000      0.0000    686.0113      6.5670    119.4136
  1998.7500      0.0000    688.6809      6.5717    117.2506
  1999.0000      0.0000    689.3694      6.5724    114.4439
  1999.2500      0.0000    689.2785      6.5642    109.9317
  1999.5000      0.0000    688.7654      6.5467    103.9451
  1999.7500      0.0000    687.4049      6.5199     98.2047
  2000.0000      0.0000    685.7543      6.4812     94.4374
  2000.2500      0.0000    685.8298      6.4262     92.6826
  2000.5000      0.0000    689.1891      6.3530     91.3465
  2000.7500      0.0000    695.1326      6.2705     88.7911
  2001.0000      0.0000    701.2964      6.2014     84.4983
  2001.2500      0.0000    705.7016      6.1695     78.9400
  2001.5000      0.0000    707.9199      6.1797     72.9046
  2001.7500      0.0000    708.6262      6.2139     67.0206
  2002.0000      0.0000    708.6085      6.2429     61.5236
  2002.2500      0.0000    708.1701      6.2441     56.2280
  2002.5000      0.0000    706.9897      6.2134     50.8192
  2002.7500      0.0000    704.1858      6.1748     45.3660
  2003.0000      0.0000    698.8259      6.1826     40.5045
  2003.2500      0.0000    691.1157      6.2991     36.9420
  2003.5000      0.0000    683.3901      6.5534     34.8341
  2003.7500      0.0000    679.1459      6.9304     33.7926
  2004.0000      0.0000    679.9236      7.4129     33.3970
  2004.2500      0.0000    683.1223      8.0078     33.4533
  2004.5000      0.0000    683.4416      8.6920     33.7603
  2004.7500      0.0000    676.9642      9.3583     33.8716
  2005.0000     -2.0000    664.8260      9.8557     33.2607
  2005.2500      2.0000    653.9357     10.0736     31.7891
  2005.5000      0.0000    653.1642      9.9719     29.9921
  2005.7500      0.0000    666.5977      9.5705     28.8213
  2006.0000      0.0000    689.9601      8.9502     29.0085
  2006.2500      0.0000    714.0624      8.2454     30.6431
  2006.5000      0.0000    731.1356      7.5986     33.5034
  2006.7500      0.0000    738.0007      7.1082     37.9501
  2007.0000      0.0000    735.3935      6.8022     45.2082
  2007.2500      0.0000    725.9824      6.6380     56.2991
  2007.5000      0.0000    712.9443      6.5415     70.6136
  2007.7500      0.0000    699.2451      6.4626     85.8466
  2008.0000      0.0000    687.0504      6.3913     99.4597
  2008.2500      0.0000    677.3687      6.3312    110.0177
  2008.5000      0.0000    670.5593      6.2820    117.1701
  2008.7500      0.0000    667.4496      6.2447    121.0641
  2009.0000      0.0000    669.3997      6.2265    122.4766
  2009.2500      0.0000    676.7719      6.2336    123.0454
  2009.5000      0.0000    687.5483      6.2598    124.1840
  2009.7500      0.0000    698.0699      6.2819    125.6560
  2010.0000      0.0000    705.7050      6.2710    126.1850
  2010.2500      0.0000    710.6388      6.2135    125.4795
