~Version Information
VERS.                      2.0: CWLS Log ASCII Standard - VERSION 2.0
WRAP.                       NO: One line per depth step
~Well Information Block
STRT.FT               294.0000: 
STOP.FT              1961.5000: 
STEP.FT                 0.2500: 
NULL.                -999.2500: 
COMP.          Pioneer Natural Resources: COMPANY
WELL.          Commander 43-26 Tr: WELL
FLD.           Purgatoire River: FIELD
LOC.           2439' FSL & 446' FEL: LOCATION
PROV.                 Colorado: PROVINCE
CNTY.               Las Animas: COUNTRY
SRVC.                Patterson: SERVICE COMPANY
DATE.          Thu Apr 14 18:26:07 2005: LOG DATE
UWI.           05 071 08341 00: UNIQUE WELL ID
~Curve Information Block
DEPT.FT            0 000 00 00: Depth
SN.Ohm-m                      : IEL Short Normal
SP.mV                         : IEL Spontaneous Potential
DIR.Ohm-m                     : IEL Induction Resistivity
GR.GAPI                       : Gamma Ray
~Parameter Information Block
~A  Depth        SN          SP         DIR          GR     
# ...
  1935.5000     10.6192     47.8073      8.7104    117.0233
  1935.7500     10.5622     47.8375      8.7154    122.8420
  1936.0000     10.9471     47.8638      8.7457    134.2191
  1936.2500     11.6817     47.8759      8.8003    141.6996
  1936.5000     12.4477     47.8759      8.8688    150.0466
  1936.7500     13.0518     47.8683      8.9336    152.9874
  1937.0000     13.4893     47.8481      8.9776    153.8272
  1937.2500     13.7814     47.7997      8.9923    152.6993
  1937.5000     13.8947     47.7075      8.9815    149.5532
  1937.7500     13.7691     47.5672      8.9578    146.8903
  1938.0000     13.3834     47.3922      8.9348    142.6219
  1938.2500     12.8157     47.2148      8.9199    139.9798
  1938.5000     12.2434     47.0756      8.9130    136.8033
  1938.7500     11.8206     47.0053      8.9110    135.1976
  1939.0000     11.5687     47.0077      8.9135    133.2375
  1939.2500     11.4261     47.0565      8.9245    132.1905
  1939.5000     11.3560     47.1132      8.9481    131.2922
  1939.7500     11.3733     47.1523      8.9833    131.2345
  1940.0000     11.4649     47.1760      9.0229    131.5573
  1940.2500     11.5315     47.2094      9.0570    131.5430
  1940.5000     11.4935     47.2833      9.0781    130.4396
  1940.7500     11.3969     47.4180      9.0839    128.9370
  1941.0000     11.3502     47.6101      9.0774    125.7444
  1941.2500     11.4005     47.8287      9.0664    122.5048
  1941.5000     11.5212     48.0257      9.0625    113.2081
  1941.7500     11.7159     48.1608      9.0785    102.0555
  1942.0000     11.9916     48.2225      9.1236     77.1302
  1942.2500     12.2434     48.2285      9.1996     57.3917
  1942.5000     12.3567     48.2136      9.3019     30.1633
  1942.7500     12.3662     48.2168      9.4242     16.9151
  1943.0000     12.3969     48.2691      9.5649      5.5600
  1943.2500     12.5052     48.3800      9.7296      2.2284
  1943.5000     12.6490     48.5339      9.9301      0.4306
  1943.7500     12.8091     48.7000     10.1803      0.1185
  1944.0000     13.0513     48.8471     10.4907      0.0111
  1944.2500     13.4199     48.9535     10.8629      0.0000
  1944.5000     13.9017     49.0113     11.2884   -999.2500
  1944.7500     14.5109     49.0261     11.7538   -999.2500
  1945.0000     15.2725     49.0100     12.2501   -999.2500
  1945.2500     16.1951     48.9746     12.7813   -999.2500
  1945.5000     17.2989     48.9311     13.3644   -999.2500
  1945.7500     18.5880     48.8953     14.0225   -999.2500
  1946.0000     20.0501     48.8876     14.7765   -999.2500
  1946.2500     21.6946     48.9264     15.6371   -999.2500
  1946.5000     23.4918     49.0176     16.6003   -999.2500
  1946.7500     25.3095     49.1475     17.6463   -999.2500
  1947.0000     26.9689     49.2866     18.7441   -999.2500
  1947.2500     28.3304     49.4074     19.8582   -999.2500
  1947.5000     29.3721     49.5086     20.9513   -999.2500
  1947.7500     30.1810     49.6203     21.9788   -999.2500
  1948.0000     30.8592     49.7803     22.8883   -999.2500
  1948.2500     31.4996     50.0055     23.6397   -999.2500
  1948.5000     32.1722     50.2878     24.0730   -999.2500
  1948.7500     32.9009     50.6079     24.6104   -999.2500
  1949.0000     33.6968     50.9405     25.2129   -999.2500
  1949.2500     34.5575     51.2496     25.9726   -999.2500
  1949.5000     35.4642     51.4923     26.8820   -999.2500
  1949.7500     36.3829     51.6362     27.8134   -999.2500
  1950.0000     37.2059     51.6777     28.5613   -999.2500
  1950.2500     37.7249     51.6456     28.9301   -999.2500
  1950.5000     37.7483     51.5855     28.8223   -999.2500
  1950.7500     37.2559     51.5317     28.2832   -999.2500
  1951.0000     36.3776     51.4845     27.5074   -999.2500
  1951.2500     35.2321     51.4198     26.8250   -999.2500
  1951.5000     33.8290     51.3220     26.6729   -999.2500
  1951.7500     32.1403     51.2030     27.5784   -999.2500
  1952.0000     30.1638     51.0812     30.5352   -999.2500
  1952.2500     27.8877     50.9527     35.9954   -999.2500
  1952.5000     25.3827     50.7866     45.8296   -999.2500
  1952.7500     22.9020     50.5404     62.3834   -999.2500
  1953.0000     20.7151     50.1850     87.9010   -999.2500
  1953.2500     18.9296     49.7339    121.0508   -999.2500
  1953.5000     17.5493     49.2529    152.9399   -999.2500
  1953.7500     16.5835     48.8275    172.8245   -999.2500
  1954.0000     16.0616     48.5132    179.4710   -999.2500
  1954.2500     15.9645     48.3101    179.1325   -999.2500
  1954.5000     16.1541     48.1748    177.7191   -999.2500
  1954.7500     16.4414     48.0523    178.6527   -999.2500
  1955.0000     16.7101     47.9082  17665.9961   -999.2500
  1955.2500     16.9316     47.7445 100000.0000   -999.2500
  1955.5000     17.1929     47.5926 100000.0000   -999.2500
  1955.7500     17.6910     47.4942 100000.0000   -999.2500
  1956.0000     18.5093     47.4807 100000.0000   -999.2500
  1956.2500     19.4961     47.5551 100000.0000   -999.2500
  1956.5000     20.4431     47.6803 100000.0000   -999.2500
  1956.7500     21.2527     47.7457 100000.0000   -999.2500
  1957.0000     21.9507     47.4773 100000.0000   -999.2500
  1957.2500     22.5762     46.2829 100000.0000   -999.2500
  1957.5000     23.0472     43.2156 100000.0000   -999.2500
  1957.7500     23.1693     37.3989 100000.0000   -999.2500
  1958.0000     22.5374     28.9106 100000.0000   -999.2500
  1958.2500     20.2554     19.2904 100000.0000   -999.2500
  1958.5000     15.6288     10.8036 100000.0000   -999.2500
  1958.7500      9.7378      4.9731 100000.0000   -999.2500
  1959.0000      4.9713      1.8532 100000.0000   -999.2500
  1959.2500      2.5101      0.5530 100000.0000   -999.2500
  1959.5000      1.6972      0.1309 100000.0000   -999.2500
  1959.7500      1.5253      0.0242 100000.0000   -999.2500
  1960.0000      1.5020      0.0032 100000.0000   -999.2500
  1960.2500   -999.2500   -999.2500 100000.0000   -999.2500
  1960.5000   -999.2500   -999.2500 100000.0000   -999.2500
  1960.7500   -999.2500   -999.2500 100000.0000   -999.2500
  1961.0000   -999.2500   -999.2500 100000.0000   -999.2500
  1961.2500   -999.2500   -999.2500 100000.0000   -999.2500
  1961.5000   -999.2500   -999.2500 100000.0000   -999.2500
