~Version Information
VERS.                      2.0: CWLS Log ASCII Standard - VERSION 2.0
WRAP.                       NO: One line per depth step
~Well Information Block
STRT.FT                -8.2500: 
STOP.FT              1175.7500: 
STEP.FT                 0.2500: 
NULL.                -999.2500: 
COMP.          Evergreen Operating Corporation: COMPANY
WELL.             Justin 32-10: WELL
FLD.           Purgatorie River: FIELD
LOC.           2994' FNL & 1449' FEL: LOCATION
PROV.                 Colorado: PROVINCE
CNTY.               Las Animas: COUNTRY
SRVC.                         : SERVICE COMPANY
DATE.          Wed Sep 29 10:00:10 2004: LOG DATE
UWI.           05 071 08053 00: UNIQUE WELL ID
~Curve Information Block
DEPT.FT            0 000 00 00: Depth
GR.GAPI                       : Gamma Ray
CCL.                          : Casing Collar Locator
TT3.usec                      : CBL 3' Travel Time
AMP3.mV                       : CBL 3' Amplitude
~Parameter Information Block
~A  Depth        GR         CCL         TT3         AMP3    
# ...
   527.7500    141.6657      0.0000    823.2925      4.0078
   528.0000    141.9892      0.0000    847.9349      4.0403
   528.2500    143.0395      0.0000    870.4427      4.0527
   528.5000    144.2128      0.0000    881.3361      4.0289
   528.7500    143.9347      0.0000    875.9893      3.9569
   529.0000    140.8494      0.0000    859.0897      3.8357
   529.2500    134.6419      0.0000    842.7089      3.6834
   529.5000    125.8473      0.0000    838.0519      3.5329
   529.7500    115.4436      0.0000    846.9145      3.4149
   530.0000    104.7922      0.0000    860.2099      3.3412
   530.2500     95.4805      0.0000    865.0526      3.3035
   530.5000     88.6847      0.0000    854.5750      3.2845
   530.7500     84.5315      0.0000    832.0998      3.2695
   531.0000     82.1709      0.0000    806.0660      3.2544
   531.2500     80.5177      0.0000    782.1429      3.2473
   531.5000     78.9427      0.0000    761.7478      3.2621
   531.7500     77.3745      0.0000    746.5099      3.3074
   532.0000     75.9989      0.0000    740.1516      3.3829
   532.2500     75.1382      0.0000    745.4462      3.4821
   532.5000     75.4141      0.0000    760.9114      3.5953
   532.7500     77.7100      0.0000    780.0250      3.7075
   533.0000     82.6636      0.0000    793.4812      3.8005
   533.2500     90.1306      0.0000    795.0394      3.8632
   533.5000     98.9781      0.0000    787.3298      3.8976
   533.7500    107.2465      0.0000    780.2029      3.9156
   534.0000    112.8562      0.0000    781.3564      3.9314
   534.2500    114.6911      0.0000    789.1832      3.9543
   534.5000    113.2551      0.0000    795.6918      3.9837
   534.7500    110.3665      0.0000    795.1293      4.0106
   535.0000    108.1234      0.0000    788.2634      4.0260
   535.2500    107.7799      0.0000    779.5039      4.0288
   535.5000    109.1787      0.0000    772.0870      4.0268
   535.7500    111.0114      0.0000    766.2587      4.0318
   536.0000    111.7468      0.0000    760.6572      4.0532
   536.2500    110.6253      0.0000    754.4400      4.0916
   536.5000    108.0103      0.0000    748.0854      4.1355
   536.7500    105.0820      0.0000    743.1579      4.1656
   537.0000    103.3170      0.0000    742.0594      4.1694
   537.2500    103.6293      0.0000    747.0976      4.1547
   537.5000    105.2311      0.0000    758.3206      4.1455
   537.7500    105.6411      0.0000    772.1268      4.1628
   538.0000    102.7074      0.0000    782.8478      4.2052
   538.2500     96.7531      0.0000    786.5037      4.2484
   538.5000     90.3733      0.0000    783.7815      4.2649
   538.7500     86.1879      0.0000    779.7827      4.2468
   539.0000     85.1042      0.0000    780.2469      4.2056
   539.2500     86.5511      0.0000    787.0251      4.1544
   539.5000     89.7487      0.0000    797.0834      4.0999
   539.7500     94.4222      0.0000    806.1155      4.0536
   540.0000    100.4240      0.0000    812.4992      4.0331
   540.2500    107.1017      0.0000    817.1522      4.0460
   540.5000    113.4289      0.0000    820.1443      4.0784
   540.7500    118.6979      0.0000    818.9528      4.1028
   541.0000    122.7004      0.0000    810.9329      4.0999
   541.2500    125.1448      0.0000    797.2283      4.0710
   541.5000    125.4688      0.0000    783.3550      4.0310
   541.7500    123.7293      0.0000    774.8007      3.9943
   542.0000    121.3750      0.0000    771.4613      3.9670
   542.2500    120.4392      0.0000    767.3713      3.9477
   542.5000    121.7277      0.0000    757.2534      3.9308
   542.7500    124.1368      0.0000    742.7317      3.9111
   543.0000    126.0217      0.0000    730.3124      3.8915
   543.2500    126.8285      0.0000    723.8300      3.8823
   543.5000    127.0610      0.0000    721.2752      3.8899
   543.7500    127.2331      0.0000    719.6554      3.9074
   544.0000    127.5280      0.0000    720.2717      3.9213
   544.2500    128.0841      0.0000    726.1368      3.9256
   544.5000    128.8279      0.0000    734.5242      3.9255
   544.7500    129.1358      0.0000    736.2748      3.9269
   545.0000    128.2486      0.0000    725.0798      3.9265
   545.2500    126.0623      0.0000    705.0495      3.9148
   545.5000    123.0771      0.0000    687.0121      3.8869
   545.7500    119.5913      0.0000    680.0403      3.8472
   546.0000    115.6697      0.0000    687.9133      3.8068
   546.2500    112.0584      0.0000    709.2996      3.7794
   546.5000    110.2547      0.0000    737.3138      3.7782
   546.7500    111.2869      0.0000    761.4633      3.8095
   547.0000    114.9569      0.0000    774.6746      3.8660
   547.2500    120.3546      0.0000    778.3011      3.9281
   547.5000    126.3141      0.0000    778.0883      3.9751
   547.7500    131.0899      0.0000    777.1434      3.9973
   548.0000    132.5920      0.0000    774.9874      3.9988
   548.2500    130.0133      0.0000    770.8731      3.9890
   548.5000    125.0959      0.0000    764.8530      3.9754
   548.7500    120.9302      0.0000    756.8002      3.9632
   549.0000    119.2802      0.0000    746.7496      3.9566
   549.2500    119.5495      0.0000    736.1578      3.9555
   549.5000    120.3999      0.0000    727.6904      3.9521
   549.7500    121.7106      0.0000    723.4330      3.9315
   550.0000    124.5144      0.0000    723.3932      3.8759
   550.2500    129.4354      0.0000    725.9926      3.7718
   550.5000    135.6473      0.0000    729.5132      3.6228
   550.7500    141.3161      0.0000    732.0347      3.4548
   551.0000    144.9916      0.0000    731.1702      3.3065
   551.2500    146.7325      0.0000    726.9397      3.2055
   551.5000    147.8924      0.0000    725.0828      3.1426
   551.7500    149.7109      0.0000    734.4731      3.0667
   552.0000    152.0368      0.0000    759.6173      2.9274
   552.2500    153.3015      0.0000    796.4057      2.7361
   552.5000    151.6620      0.0000    835.4218      2.5679
   552.7500    146.4644      0.0000    869.0152      2.4914
   553.0000    138.9456     -1.0098    895.0757      2.5149
   553.2500    131.3654     -3.1311    913.6368      2.6078
   553.5000    125.1646     -1.3742    921.5363      2.7562
   553.7500    120.1264      0.0000    914.4833      2.9916
   554.0000    115.5637      0.0000    894.8356      3.3699
   554.2500    111.8989      0.0000    872.8404      3.9094
   554.5000    110.3577      0.0000    857.8884      4.5285
   554.7500    111.4011      0.0000    850.6541      5.0650
   555.0000    114.3035      0.0000    845.5344      5.3876
   555.2500    118.0539      0.0000    839.3993      5.4856
   555.5000    121.8599      0.0000    835.2197      5.4405
   555.7500    125.1007      0.0000    836.8428      5.3417
   556.0000    127.7213      0.0000    843.2231      5.2491
   556.2500    130.6201      0.0000    849.0459      5.2081
   556.5000    134.8621      0.0000    848.0283      5.2691
   556.7500    140.1782      0.0000    833.0628      5.4825
   557.0000    144.5699      0.0000    795.5811      5.8673
   557.2500    145.8687      0.0000    730.7405      6.3730
   557.5000    143.7564      0.0000    648.0707      6.8742
   557.7500    139.9134      0.0000    575.2374      7.2244
   558.0000    136.1837      0.0000    543.1282      7.3489
   558.2500    133.1473      0.0000    559.6829      7.3098
   558.5000    130.6391      0.0000    597.8788      7.2938
   558.7500    128.8264      0.0000    613.9174      7.5251
   559.0000    127.9138      0.0000    581.3752      8.1477
   559.2500    127.0718      0.0000    509.4826      9.1388
   559.5000    124.6268      0.0000    430.0553     10.2955
   559.7500    119.6220      0.0000    370.0677     11.2981
   560.0000    112.7471      0.0000    337.1444     11.8326
   560.2500    105.6543      0.0000    324.6927     11.7361
   560.5000     99.7815      0.0000    323.1493     11.0921
   560.7500     95.9553      0.0000    325.7299     10.1921
   561.0000     94.5180      0.0000    328.8561      9.3708
