~Version Information
 VERS.                                  2.0 : CWLS LAS VERSION
 WRAP.                                   NO : WRAPING MODE
 SWARE .                 MController 2.5.0E : SOFTWARE VERSION
~Well Information
 WELL.                          Enzo 43-8TR : WELL
 COMP.        Pioneer Natural Resources Inc : COMPANY
 FLD.                      Purgatorie River : FIELD
 LOC.                 NE/SE Sec 8 T32S R66W : LOCATION
 DATE.                             10/29/04 : DATE(S) LOGGED
 SRVC.       Blanco Geological Services LLC : SERVICE COMPANY
 STAT.                                   CO : STATE
 CNTY.                           Las Animas : COUNTY
 CTRY.                                  USA : COUNTRY
 API.                       05-071-08213-00 : API NUMBER
 STRT.FT                             562.00 : START DEPTH
 STOP.FT                            2170.00 : STOP DEPTH
 STEP.FT                               1.00 : DEPTH INCREMENT
 NULL.                                -9999 : NULL VALUE
~Curve information
 DEPTH.FT                                   :
 ROP.MIN/FT                                 :
 GAS.UNITS                                  :
~ASCII Log data
# ...
     1562.00        0.233         19.5 
     1563.00        0.300         17.8 
     1564.00        0.300         16.7 
     1565.00        0.233         15.5 
     1566.00        0.250         15.5 
     1567.00        0.200         14.1 
     1568.00        0.267         14.6 
     1569.00        0.300         14.5 
     1570.00        0.300         14.4 
     1571.00        0.300         14.4 
     1572.00        0.333         14.6 
     1573.00        0.233         15.4 
     1574.00        0.333         15.9 
     1575.00        0.267         15.8 
     1576.00        0.367         15.6 
     1577.00        0.383         15.7 
     1578.00        0.300         15.5 
     1579.00        0.267         16.9 
     1580.00        0.367         16.9 
     1581.00        0.367         16.5 
     1582.00        0.300         15.2 
     1583.00        0.433         14.4 
     1584.00        0.433         12.0 
     1585.00        0.333         10.0 
     1586.00        4.700         61.7 
     1587.00        0.467         27.9 
     1588.00        0.400         23.0 
     1589.00        0.467         22.9 
     1590.00        0.467         23.6 
     1591.00        0.417         23.4 
     1592.00        0.467         20.9 
     1593.00        0.567         17.3 
     1594.00        0.267         15.1 
     1595.00        0.267         14.6 
     1596.00        0.300         14.5 
     1597.00        0.267         14.7 
     1598.00        0.233         16.2 
     1599.00        0.267         15.8 
     1600.00        0.233         16.3 
     1601.00        0.200         17.3 
     1602.00        0.167         16.5 
     1603.00        0.183         17.7 
     1604.00        0.267         17.5 
     1605.00        0.233         17.4 
     1606.00        0.367         17.4 
     1607.00        0.167         16.4 
     1608.00        0.333         15.7 
     1609.00        0.167         15.6 
     1610.00        0.333         14.5 
     1611.00        0.367         14.2 
     1612.00        0.333         12.4 
     1613.00        0.333         11.2 
     1614.00        0.350         10.7 
     1615.00        0.167         10.3 
     1616.00        3.117        111.5 
     1617.00        0.200        100.6 
     1618.00        0.167         86.1 
     1619.00        0.400         74.1 
     1620.00        0.333         49.9 
     1621.00        0.267         38.0 
     1622.00        0.167         28.7 
     1623.00        0.233         25.4 
     1624.00        0.333         20.7 
     1625.00        0.633         17.8 
     1626.00        0.267         14.4 
     1627.00        0.350         13.8 
     1628.00        0.533         14.0 
     1629.00        0.300         13.8 
     1630.00        0.233         13.1 
     1631.00        0.333         13.4 
     1632.00        0.267         13.4 
     1633.00        0.300         13.2 
     1634.00        0.367         13.2 
     1635.00        0.267         13.1 
     1636.00        0.233         13.0 
     1637.00        0.483         14.4 
     1638.00        0.233         14.2 
     1639.00        0.367         13.5 
     1640.00        0.167         13.3 
     1641.00        0.367         13.3 
     1642.00        0.467         13.3 
     1643.00        0.433         13.7 
     1644.00        0.367         14.3 
     1645.00        0.233         14.6 
     1646.00        5.767         50.6 
     1647.00        0.333         46.1 
     1648.00        0.333         43.5 
     1649.00        0.433         39.9 
     1650.00        0.400         33.7 
     1651.00        0.283         28.8 
     1652.00        0.367         26.7 
     1653.00        0.300         24.7 
     1654.00        0.267         22.9 
     1655.00        0.300         22.7 
     1656.00        0.300         20.2 
     1657.00        0.367         19.3 
     1658.00        0.300         17.6 
     1659.00        0.400         16.6 
     1660.00        0.433         15.1 
     1661.00        0.250         16.1 
     1662.00        0.367         15.4 
     1663.00        0.233         14.2 
     1664.00        0.300         12.5 
     1665.00        0.400         12.1 
     1666.00        0.200         10.2 
     1667.00        0.500          8.9 
     1668.00        0.233          7.2 
     1669.00        0.333          7.1 
     1670.00        0.267          7.9 
     1671.00        0.333          9.9 
     1672.00        0.250         11.6 
     1673.00        0.433         18.5 
     1674.00        0.300         24.3 
     1675.00        0.400         29.6 
     1676.00        2.583         32.3 
     1677.00        0.167         22.1 
     1678.00        0.233         21.8 
     1679.00        0.233         19.7 
     1680.00        0.167         18.9 
     1681.00        0.333         18.8 
     1682.00        0.400         17.1 
     1683.00        0.200         16.6 
     1684.00        0.267         18.8 
     1685.00        0.233         21.8 
     1686.00        0.167         23.5 
     1687.00        0.200         25.1 
     1688.00        0.317         25.8 
     1689.00        0.233         28.1 
     1690.00        0.367         31.7 
     1691.00        0.267         30.8 
     1692.00        0.200         27.8 
     1693.00        0.300         26.3 
     1694.00        0.300         25.2 
     1695.00        0.233         25.0 
     1696.00        0.233         24.1 
     1697.00        0.400         23.0 
     1698.00        0.300         20.1 
     1699.00        0.367         20.2 
     1700.00        0.350         26.3 
     1701.00        0.433         38.3 
     1702.00        0.267         47.0 
     1703.00        0.267         58.6 
     1704.00        0.333         68.8 
     1705.00        0.233         73.3 
     1706.00        1.983         74.1 
     1707.00        0.433         47.4 
     1708.00        0.400         42.3 
     1709.00        0.300         40.5 
     1710.00        0.300         37.6 
     1711.00        0.333         34.8 
     1712.00        0.367         32.1 
     1713.00        0.333         30.2 
     1714.00        0.450         28.7 
     1715.00        0.367         27.0 
     1716.00        0.400         26.6 
     1717.00        0.367         26.0 
     1718.00        0.400         25.3 
     1719.00        0.367         23.9 
     1720.00        0.433         22.8 
     1721.00        0.300         19.7 
     1722.00        0.400         18.7 
     1723.00        0.267         17.2 
     1724.00        0.350         18.0 
     1725.00        0.267         18.0 
     1726.00        0.367         18.1 
     1727.00        0.233         18.2 
     1728.00        0.267         18.6 
     1729.00        0.367         18.7 
     1730.00        0.300         18.6 
     1731.00        0.233         18.6 
     1732.00        0.367         18.8 
     1733.00        0.400         19.5 
     1734.00        0.317         19.8 
     1735.00        0.333         20.2 
     1736.00        5.483         65.2 
     1737.00        0.400         73.3 
     1738.00        0.333         72.3 
     1739.00        0.283         65.4 
     1740.00        0.300         61.0 
     1741.00        0.333         56.0 
     1742.00        0.400         51.6 
     1743.00        0.367         43.5 
     1744.00        0.400         41.6 
     1745.00        0.333         42.4 
     1746.00        0.400         42.5 
     1747.00        0.300         41.2 
     1748.00        0.350         39.3 
     1749.00        0.300         37.3 
     1750.00        0.333         34.7 
     1751.00        0.267         32.5 
     1752.00        0.367         30.3 
     1753.00        0.300         27.8 
     1754.00        0.267         25.7 
     1755.00        0.267         25.1 
     1756.00        0.333         24.0 
     1757.00        0.350         23.6 
     1758.00        0.300         23.1 
     1759.00        0.367         22.8 
     1760.00        0.367         26.0 
     1761.00        0.267         26.8 
