~Version Information
VERS.                      2.0: CWLS Log ASCII Standard - VERSION 2.0
WRAP.                       NO: One line per depth step
~Well Information Block
STRT.FT               860.0000: 
STOP.FT              2733.7000: 
STEP.FT                 0.1000: 
NULL.                -999.2500: 
COMP.          Pioneer Natural Resources: COMPANY
WELL.          Beacon 11-18 Tr: WELL
FLD.           Purgatoire River: FIELD
LOC.           409' FNL & 203' FWL: LOCATION
PROV.                 Colorado: PROVINCE
CNTY.               Las Animas: COUNTRY
SRVC.                Patterson: SERVICE COMPANY
DATE.          Mon Jan 17 07:36:09 2005: LOG DATE
UWI.           05 071 08251 00: UNIQUE WELL ID
~Curve Information Block
DEPT.FT            0 000 00 00: Depth
DCAL.in                       : CDL Caliper
RHOB.g/cc                     : CDL Bulk Density
RHOC.g/cc                     : CDL Density Correction
DPOR.pu                       : CDL Density Porosity
NPOR.pu                       : Neutron Porosity
GR.GAPI                       : Gamma Ray
~Parameter Information Block
~A  Depth       DCAL        RHOB        RHOC        DPOR        NPOR         GR     
# ...
  2453.6000      8.0702      2.6460      0.1060      0.2432     19.5204    112.7626
  2453.7000      8.0702      2.6396      0.0969      0.6298     19.1376    110.2118
  2453.8000      8.0709      2.6305      0.0466      1.1819     19.0935    108.5597
  2453.9000      8.0709      2.6363      0.0294      0.8275     20.0739    105.1538
  2454.0000      8.0700      2.6498      0.1086      0.0096     21.1020    101.0063
  2454.1000      8.0700      2.6507      0.0984     -0.0402     21.3540    100.5014
  2454.2000      8.0700      2.6447      0.0921      0.3237     21.2379    105.5619
  2454.3000      8.0687      2.6398      0.1282      0.6166     21.0134    111.7504
  2454.4000      8.0687      2.6342      0.0501      0.9568     20.4291    112.9228
  2454.5000      8.0694      2.6331      0.0853      1.0231     19.4625    109.7962
  2454.6000      8.0694      2.6272      0.1243      1.3804     18.7314    104.4323
  2454.7000      8.0694      2.6098      0.0416      2.4377     18.4064     96.4976
  2454.8000      8.0718      2.5965      0.0573      3.2453     18.3596     91.4334
  2454.9000      8.0718      2.5957      0.0681      3.2914     18.7676     94.8885
  2455.0000      8.0744      2.6020      0.0714      2.9102     19.4128    101.6408
  2455.1000      8.0744      2.6033      0.0780      2.8328     19.7691    102.3271
  2455.2000      8.0744      2.5938      0.0461      3.4036     19.6573     96.3844
  2455.3000      8.0755      2.5860      0.0556      3.8764     19.2880     91.2352
  2455.4000      8.0755      2.5941      0.0268      3.3903     19.0174     92.9383
  2455.5000      8.0754      2.6129      0.0742      2.2513     18.8757     96.1801
  2455.6000      8.0754      2.6274      0.0537      1.3679     18.4117     93.8577
  2455.7000      8.0754      2.6370      0.0670      0.7909     17.3816     88.4782
  2455.8000      8.0743      2.6430      0.0873      0.4229     16.5661     84.3737
  2455.9000      8.0743      2.6434      0.0277      0.3997     16.2352     81.7237
  2456.0000      8.0735      2.6439      0.0502      0.3712     15.6690     80.7379
  2456.1000      8.0735      2.6475      0.0802      0.1502     14.6043     82.1788
  2456.2000      8.0735      2.6501      0.0821     -0.0083     13.7149     82.9051
  2456.3000      8.0711      2.6452      0.0672      0.2909     13.6000     80.5530
  2456.4000      8.0711      2.6254      0.0722      1.4939     14.0659     77.5791
  2456.5000      8.0624      2.5955      0.0232      3.3042     14.9240     75.1179
  2456.6000      8.0624      2.5761     -0.0101      4.4769     16.0418     72.4359
  2456.7000      8.0624      2.5719      0.0574      4.7333     16.8586     69.9991
  2456.8000      8.0557      2.5661      0.0176      5.0824     17.3478     71.0406
  2456.9000      8.0557      2.5577     -0.0072      5.5965     18.0152     77.4360
  2457.0000      8.0630      2.5546      0.0402      5.7819     18.9827     85.4878
  2457.1000      8.0630      2.5545     -0.0177      5.7901     20.2339     91.6520
  2457.2000      8.0630      2.5537      0.0090      5.8347     21.5089     97.2525
  2457.3000      8.0723      2.5500      0.0105      6.0618     22.2908    104.4552
  2457.4000      8.0723      2.5447      0.0243      6.3803     22.4555    114.8226
  2457.5000      8.0751      2.5463     -0.0103      6.2830     22.5347    123.9966
  2457.6000      8.0751      2.5571      0.0193      5.6300     23.1244    125.5314
  2457.7000      8.0751      2.5725      0.0392      4.6953     23.6971    124.7804
  2457.8000      8.0749      2.5931      0.0576      3.4500     23.4252    128.8849
  2457.9000      8.0749      2.6166      0.0783      2.0224     22.7868    134.6615
  2458.0000      8.0742      2.6420      0.0513      0.4851     22.5079    138.4626
  2458.1000      8.0742      2.6767      0.0622     -1.6182     22.5697    139.9540
  2458.2000      8.0742      2.7152      0.1032     -3.9514     22.8140    139.4544
  2458.3000      8.0742      2.7397      0.1315     -5.4355     23.2179    139.5273
  2458.4000      8.0742      2.7433      0.1050     -5.6533     23.6829    140.2984
  2458.5000      8.0749      2.7330      0.0993     -5.0315     23.8841    139.0033
  2458.6000      8.0749      2.7170      0.0652     -4.0594     23.5974    137.5394
  2458.7000      8.0749      2.6950      0.0458     -2.7296     23.4711    138.2376
  2458.8000      8.0724      2.6639      0.0140     -0.8419     24.3556    137.1779
  2458.9000      8.0724      2.6327     -0.0282      1.0498     25.6624    134.6910
  2459.0000      8.0639      2.6202     -0.0354      1.8047     26.0182    135.0627
  2459.1000      8.0639      2.6280      0.0245      1.3321     24.9901    140.6763
  2459.2000      8.0639      2.6364      0.0160      0.8225     23.3786    149.8138
  2459.3000      8.0581      2.6301      0.0263      1.2089     22.5736    157.2245
  2459.4000      8.0581      2.6113      0.0560      2.3442     22.9792    158.0461
  2459.5000      8.0661      2.5985      0.0317      3.1201     23.5523    152.0255
  2459.6000      8.0661      2.6058      0.0801      2.6765     23.4941    143.4993
  2459.7000      8.0661      2.6233      0.0973      1.6211     23.1120    140.2762
  2459.8000      8.0762      2.6349      0.0627      0.9153     22.9357    145.9757
  2459.9000      8.0762      2.6320      0.1300      1.0890     22.9892    154.3158
  2460.0000      8.0778      2.6107      0.1003      2.3817     23.0812    158.3147
  2460.1000      8.0778      2.5905      0.0417      3.6058     23.4001    157.2424
  2460.2000      8.0778      2.5887      0.0725      3.7165     24.1959    150.5219
  2460.3000      8.0732      2.5930      0.0929      3.4566     24.7967    138.7679
  2460.4000      8.0732      2.5897      0.0517      3.6526     24.0444    129.7742
  2460.5000      8.0698      2.5793      0.0761      4.2851     22.3796    129.0636
  2460.6000      8.0698      2.5724      0.0029      4.7053     21.4231    134.0224
  2460.7000      8.0698      2.5716      0.0823      4.7499     21.7403    139.0645
  2460.8000      8.0697      2.5560      0.0888      5.6942     22.9118    140.7285
  2460.9000      8.0697      2.5285      0.0193      7.3660     24.3070    136.3458
  2461.0000      8.0692      2.5257      0.0298      7.5311     25.1021    130.3949
  2461.1000      8.0692      2.5539      0.0759      5.8233     25.2463    132.6175
  2461.2000      8.0692      2.5865      0.0678      3.8509     25.0090    140.4194
  2461.3000      8.0678      2.6068      0.0882      2.6208     24.2925    145.9105
  2461.4000      8.0678      2.6120      0.0571      2.3056     23.6712    149.1134
  2461.5000      8.0684      2.6064      0.0913      2.6425     23.6387    150.6121
  2461.6000      8.0684      2.5926      0.0850      3.4812     24.1781    148.9223
  2461.7000      8.0684      2.5721      0.0594      4.7225     25.1084    144.1133
  2461.8000      8.0709      2.5597      0.0229      5.4700     25.8100    139.0975
  2461.9000      8.0709      2.5762      0.0209      4.4712     25.8214    138.3974
  2462.0000      8.0721      2.6163      0.1112      2.0406     25.0557    145.0409
  2462.1000      8.0721      2.6526      0.0837     -0.1594     23.8467    153.9763
  2462.2000      8.0721      2.6722      0.1113     -1.3445     22.7236    152.0414
  2462.3000      8.0694      2.6746      0.1052     -1.4905     21.6664    135.1880
  2462.4000      8.0694      2.6580      0.1035     -0.4823     20.6277    118.3295
  2462.5000      8.0668      2.6276      0.0955      1.3574     19.9530    113.1670
  2462.6000      8.0668      2.6062      0.0489      2.6575     19.7109    112.7701
  2462.7000      8.0668      2.6084      0.0726      2.5227     19.5965    107.6015
  2462.8000      8.0682      2.6167      0.0269      2.0153     19.2930     98.2276
  2462.9000      8.0682      2.6131      0.0113      2.2340     18.7782     91.3126
  2463.0000      8.0717      2.6042     -0.0002      2.7731     18.1258     90.7356
  2463.1000      8.0717      2.6033      0.0166      2.8279     17.1644     91.5252
