~Version Information
VERS.                      2.0: CWLS Log ASCII Standard - VERSION 2.0
WRAP.                       NO: One line per depth step
~Well Information Block
STRT.FT               480.0000: 
STOP.FT              1994.2000: 
STEP.FT                 0.1000: 
NULL.                -999.2500: 
COMP.          Evergreen Operating Corporation: COMPANY
WELL.          McCullough 34-32 Tr: WELL
FLD.           Purgatoire River: FIELD
LOC.           394' FSL & 2077' FEL: LOCATION
PROV.                 Colorado: PROVINCE
CNTY.               Las Animas: COUNTRY
SRVC.                Patterson: SERVICE COMPANY
DATE.          Mon Sep 20 07:30:00 2004: LOG DATE
UWI.           05 071 08157 00: UNIQUE WELL ID
~Curve Information Block
DEPT.FT            0 000 00 00: Depth
DCAL.in                       : CDL Caliper
RHOB.g/cc                     : CDL Bulk Density
RHOC.g/cc                     : CDL Density Correction
DPOR.pu                       : CDL Density Porosity
NPOR.pu                       : Neutron Porosity
GR.GAPI                       : Gamma Ray
~Parameter Information Block
~A  Depth       DCAL        RHOB        RHOC        DPOR        NPOR         GR     
# ...
   576.0000      8.3111      2.3545     -0.0117     17.9065     20.2977    153.6703
   576.1000      8.3111      2.3722      0.0363     16.8371     20.4475    159.9007
   576.2000      8.3111      2.3965      0.0586     15.3637     20.7591    155.5502
   576.3000      8.3391      2.4094      0.0775     14.5809     21.1242    143.0165
   576.4000      8.3391      2.4074      0.0992     14.7003     21.2113    132.7438
   576.5000      8.3933      2.4048      0.0377     14.8621     21.2176    131.0606
   576.6000      8.3933      2.4102      0.0949     14.5317     21.7160    136.0067
   576.7000      8.3933      2.4109      0.1266     14.4929     22.5173    142.5955
   576.8000      8.4020      2.4053      0.0816     14.8306     23.0036    146.5264
   576.9000      8.4020      2.4092      0.1501     14.5955     23.1456    146.9015
   577.0000      8.3294      2.4157      0.1428     14.2026     23.0966    145.3156
   577.1000      8.3294      2.4091      0.0803     14.5978     22.9159    143.8976
   577.2000      8.3294      2.3976      0.0456     15.2943     23.0057    142.9534
   577.3000      8.2689      2.3920      0.0291     15.6356     23.3871    142.2925
   577.4000      8.2689      2.3800      0.0503     16.3662     23.5856    143.0046
   577.5000      8.2528      2.3474      0.0493     18.3408     23.5473    141.5039
   577.6000      8.2528      2.3037      0.0058     20.9884     23.4671    135.2243
   577.7000      8.2528      2.2679     -0.0022     23.1593     23.2698    131.7435
   577.8000      8.2509      2.2481     -0.0383     24.3557     22.9296    136.6107
   577.9000      8.2509      2.2441     -0.0071     24.6015     22.7911    143.0623
   578.0000      8.2526      2.2516      0.0144     24.1454     22.8850    145.8583
   578.1000      8.2526      2.2644      0.0297     23.3721     22.9899    147.2067
   578.2000      8.2526      2.2787      0.0311     22.5060     22.9065    148.0548
   578.3000      8.2539      2.2949      0.0610     21.5213     22.3991    146.7360
   578.4000      8.2539      2.3154      0.0617     20.2812     21.7481    144.9799
   578.5000      8.2540      2.3435      0.0994     18.5749     21.4480    148.5833
   578.6000      8.2540      2.3755      0.1169     16.6360     21.4054    157.1680
   578.7000      8.2540      2.4026      0.0871     14.9927     21.3291    160.3666
   578.8000      8.2541      2.4266      0.0582     13.5366     21.4921    157.2263
   578.9000      8.2541      2.4533      0.0922     11.9186     22.2568    158.2190
   579.0000      8.2536      2.4766      0.0851     10.5088     23.1956    162.3863
   579.1000      8.2536      2.4834      0.0885     10.0961     23.6324    162.1240
   579.2000      8.2536      2.4694      0.0326     10.9447     23.6491    156.9817
   579.3000      8.2539      2.4481      0.0088     12.2350     23.9428    149.4887
   579.4000      8.2539      2.4364      0.0349     12.9474     24.8431    144.6694
   579.5000      8.2550      2.4345      0.0167     13.0598     25.8370    142.8498
   579.6000      8.2550      2.4286      0.0389     13.4169     26.2676    140.6061
   579.7000      8.2550      2.4134      0.0106     14.3395     26.0173    141.0723
   579.8000      8.2571      2.3994      0.0379     15.1899     25.4379    147.1031
   579.9000      8.2571      2.3901      0.0247     15.7496     24.9993    154.3205
   580.0000      8.2616      2.3770      0.0346     16.5425     24.7497    157.8721
   580.1000      8.2616      2.3572      0.0016     17.7445     24.4616    158.1287
   580.2000      8.2616      2.3375      0.0234     18.9410     24.2157    157.7196
   580.3000      8.2673      2.3229     -0.0196     19.8232     23.9773    155.1058
   580.4000      8.2673      2.3093      0.0526     20.6505     23.4771    147.0646
   580.5000      8.2739      2.2903     -0.0260     21.7996     22.7785    139.3300
   580.6000      8.2739      2.2714     -0.0439     22.9449     22.2721    138.2902
   580.7000      8.2739      2.2505      0.0297     24.2124     22.1198    140.1668
   580.8000      8.2864      2.2198     -0.0128     26.0709     21.9060    139.8129
   580.9000      8.2864      2.1918     -0.0380     27.7678     21.2858    137.2653
   581.0000      8.2990      2.1794     -0.0271     28.5190     20.6134    135.2783
   581.1000      8.2990      2.1738     -0.0144     28.8608     20.0784    135.0699
   581.2000      8.2990      2.1526      0.0562     30.1447     19.3229    134.2142
   581.3000      8.3027      2.0916      0.0829     33.8440     18.3605    131.1000
   581.4000      8.3027      1.9774      0.0604     40.7607     17.7213    128.8694
   581.5000      8.3007      1.8220     -0.0213     50.1830     17.5048    131.0653
   581.6000      8.3007      1.6704     -0.0963     59.3672     17.3689    135.8810
   581.7000      8.3007      1.5793     -0.1300     64.8915     17.1571    141.6297
   581.8000      8.2978      1.5617     -0.0276     65.9588     17.0244    147.4876
   581.9000      8.2978      1.5829      0.0212     64.6727     16.9706    150.0302
   582.0000      8.3016      1.6446      0.0024     60.9336     16.9040    148.4334
   582.1000      8.3016      1.7970      0.1839     51.6964     17.2206    144.0449
   582.2000      8.3016      2.0263      0.5540     37.7987     18.2433    139.3099
   582.3000      8.3141      2.2414      0.6268     24.7649     19.6171    137.8575
   582.4000      8.3141      2.3876      0.5772     15.9026     20.7811    139.8244
   582.5000      8.3258      2.4758      0.5556     10.5575     21.3997    140.1591
   582.6000      8.3258      2.5258      0.4602      7.5248     21.5535    137.1850
   582.7000      8.3258      2.5403      0.4132      6.6483     21.6251    134.3347
   582.8000      8.3338      2.5309      0.2622      7.2178     21.8345    133.7560
   582.9000      8.3338      2.5391      0.1911      6.7233     22.1175    134.6216
   583.0000      8.3520      2.5823      0.2931      4.1003     22.2317    135.6489
   583.1000      8.3520      2.6298      0.3345      1.2218     22.1015    136.9329
   583.2000      8.3520      2.6546      0.3273     -0.2777     22.0148    135.4564
   583.3000      8.3657      2.6608      0.2651     -0.6565     21.9893    130.6426
   583.4000      8.3657      2.6640      0.2419     -0.8457     21.6339    127.4300
   583.5000      8.3611      2.6695      0.2551     -1.1821     21.0510    125.5926
   583.6000      8.3611      2.6688      0.1287     -1.1383     20.7231    121.1236
   583.7000      8.3611      2.6523      0.1020     -0.1369     20.5708    118.6543
   583.8000      8.3649      2.6270      0.0384      1.3933     20.1670    126.3089
   583.9000      8.3649      2.6061      0.0493      2.6597     19.6051    136.4382
   584.0000      8.3912      2.5860      0.0113      3.8791     19.4289    137.3220
   584.1000      8.3912      2.5602      0.0148      5.4423     19.6880    132.5946
   584.2000      8.3912      2.5359     -0.0008      6.9173     19.9844    128.3740
   584.3000      8.4331      2.5231     -0.0133      7.6927     20.3413    123.3372
   584.4000      8.4331      2.5199      0.0076      7.8857     20.7695    118.0769
   584.5000      8.4433      2.5146      0.0155      8.2073     20.7386    114.8163
   584.6000      8.4433      2.5055     -0.0033      8.7584     20.2222    113.7226
   584.7000      8.4433      2.5082      0.0457      8.5952     19.8503    113.4714
   584.8000      8.3679      2.5241      0.1654      7.6294     19.9939    112.9817
   584.9000      8.3679      2.5267      0.1750      7.4734     20.6642    115.4864
   585.0000      8.2753      2.5060      0.1331      8.7244     21.4253    121.6288
   585.1000      8.2753      2.4916      0.0704      9.5986     21.6795    125.8826
   585.2000      8.2753      2.5060      0.1439      8.7258     21.3654    126.2168
   585.3000      8.2298      2.5298      0.1500      7.2853     20.8185    124.8264
   585.4000      8.2298      2.5370      0.1156      6.8476     20.5120    123.5974
   585.5000      8.2057      2.5275      0.1096      7.4253     20.7205    124.2674
