~Version Information
VERS.                      2.0: CWLS Log ASCII Standard - VERSION 2.0
WRAP.                       NO: One line per depth step
~Well Information Block
STRT.FT               483.0000: 
STOP.FT              1702.5000: 
STEP.FT                 0.2500: 
NULL.                -999.2500: 
COMP.          Pioneer Natural Resources: COMPANY
WELL.            Mad Dog 42-31: WELL
FLD.           Purgatorie River: FIELD
LOC.           2064' FNL & 479' FEL: LOCATION
PROV.                 Colorado: PROVINCE
CNTY.               Las Animas: COUNTRY
SRVC.                         : SERVICE COMPANY
DATE.          Sun Oct 10 04:26:24 2004: LOG DATE
UWI.           05 071 08195 00: UNIQUE WELL ID
~Curve Information Block
DEPT.FT            0 000 00 00: Depth
LTEN.lb                       : Surface Line Tension
SN.Ohm-m                      : IEL Short Normal
SP.mV                         : IEL Spontaneous Potential
DIR.Ohm-m                     : IEL Induction Resistivity
GR.GAPI                       : Gamma Ray
~Parameter Information Block
~A  Depth       LTEN         SN          SP         DIR          GR     
# ...
   651.0000    695.9504   2000.0000   2000.0000     28.7190     73.7848
   651.2500    693.2531   2000.0000   2000.0000     27.3098     74.7156
   651.5000    691.9102   2000.0000   2000.0000     25.9328     77.1518
   651.7500    691.8075   2000.0000   2000.0000     24.6515     78.4447
   652.0000    692.7316   2000.0000   2000.0000     23.3778     79.4445
   652.2500    694.8135   2000.0000   2000.0000     21.9735     80.0458
   652.5000    698.5326   2000.0000   2000.0000     20.3782     82.1720
   652.7500    703.5187   2000.0000   2000.0000     18.6776     84.7633
   653.0000    707.6254   2000.0000   2000.0000     17.0545     89.9368
   653.2500    708.1819   2000.0000   2000.0000     15.6802     93.5981
   653.5000    704.3726   2000.0000   2000.0000     14.6639     98.4594
   653.7500    698.0287   2000.0000   2000.0000     14.0904    101.0028
   654.0000    692.1323   2000.0000   2000.0000     14.1158    103.6424
   654.2500    688.8535   2000.0000   2000.0000     15.1246    104.6774
   654.5000    688.7558   2000.0000   2000.0000     18.1772    105.4034
   654.7500    691.1278   2000.0000   2000.0000     27.3475    105.4571
   655.0000    694.6166   2000.0000   2000.0000     85.6609    104.9086
   655.2500    697.7266   2000.0000   2000.0000 100000.0000    104.1260
   655.5000    699.2214   2000.0000   2000.0000 100000.0000    102.5523
   655.7500    698.4811   2000.0000   2000.0000 100000.0000    101.4322
   656.0000    695.6822   2000.0000   2000.0000 100000.0000     99.9173
   656.2500    691.7650   2000.0000   2000.0000 100000.0000     99.1793
   656.5000    688.2115   2000.0000   2000.0000 100000.0000     98.8053
   656.7500    686.5132   2000.0000   2000.0000 100000.0000     99.1275
   657.0000    687.4046   2000.0000   2000.0000 100000.0000    100.2110
   657.2500    690.3184   2000.0000   2000.0000 100000.0000    101.1178
   657.5000    693.5610   2000.0000   2000.0000 100000.0000    102.7790
   657.7500    695.2817   2000.0000   2000.0000 100000.0000    104.3050
   658.0000    694.5829   2000.0000   2000.0000    286.6873    107.3213
   658.2500    692.0063   2000.0000   2000.0000    186.9785    109.4581
   658.5000    689.1497   2000.0000   2000.0000 100000.0000    111.8358
   658.7500    687.8199   2000.0000   2000.0000 100000.0000    112.4892
   659.0000    689.1094   2000.0000   2000.0000 100000.0000    112.2882
   659.2500    692.6071   2000.0000   2000.0000 100000.0000    111.8521
   659.5000    696.2781   2000.0000   2000.0000 100000.0000    111.4487
   659.7500    697.5563   2000.0000   2000.0000 100000.0000    111.3820
   660.0000    695.1442   2000.0000   2000.0000 100000.0000    110.8112
   660.2500    690.1813   2000.0000   2000.0000 100000.0000    109.3103
   660.5000    685.8796   2000.0000   2000.0000 100000.0000    104.0960
   660.7500    685.7057   2000.0000   2000.0000 100000.0000     98.4199
   661.0000    690.9776   2000.0000   2000.0000 100000.0000     87.5744
   661.2500    699.5756   2000.0000   2000.0000      2.6923     80.0078
   661.5000    707.2736   2000.0000   2000.0000      0.9709     70.4087
   661.7500    710.8847   2000.0000   2000.0000      0.4903     65.9040
   662.0000    710.3928   2000.0000   2000.0000      0.2864     61.6376
   662.2500    708.1790   2000.0000   2000.0000      0.1909     59.7098
   662.5000    706.3055   2000.0000   2000.0000      0.1522     57.2777
   662.7500    704.6562   2000.0000   2000.0000      0.1509     55.8829
   663.0000    701.7327   2000.0000   2000.0000      0.1864     54.0326
   663.2500    696.8030   2000.0000   2000.0000      0.2752     52.5484
   663.5000    690.7018   2000.0000   2000.0000      0.4564     49.1309
   663.7500    684.9695   2000.0000   2000.0000      0.8249     46.0994
   664.0000    681.0900   2000.0000   2000.0000      1.6684     41.4561
   664.2500    680.1453   2000.0000   2000.0000      4.0648     38.9309
   664.5000    682.1702   2000.0000   2000.0000     15.9787     36.3813
   664.7500    685.9501   2000.0000   2000.0000 100000.0000     35.3787
   665.0000    690.1425   2000.0000   2000.0000 100000.0000     34.5263
   665.2500    694.4720   2000.0000   2000.0000 100000.0000     34.2279
   665.5000    699.3663   2000.0000   2000.0000 100000.0000     34.2113
   665.7500    704.5322   2000.0000   2000.0000 100000.0000     34.6479
   666.0000    708.4324   2000.0000   2000.0000 100000.0000     36.0841
   666.2500    709.6760   2000.0000   2000.0000 100000.0000     37.3380
   666.5000    708.7988   2000.0000   2000.0000 100000.0000     38.9551
   666.7500    707.8926   2000.0000   2000.0000 100000.0000     39.5228
   667.0000    708.3880   2000.0000   2000.0000 100000.0000     39.4519
   667.2500    710.0509   2000.0000   2000.0000 100000.0000     38.8767
   667.5000    711.9847   2000.0000   2000.0000 100000.0000     37.4580
   667.7500    713.3422   2000.0000   2000.0000 100000.0000     36.3189
   668.0000    713.1283   2000.0000   2000.0000     19.9735     34.7862
   668.2500    710.8320   2000.0000   2000.0000      5.0239     34.2801
   668.5000    707.5094   2000.0000   2000.0000      2.5197     35.3563
   668.7500    705.1248   2000.0000   2000.0000      1.4863     38.2662
   669.0000    704.5697   2000.0000   2000.0000      0.9276     47.9148
   669.2500    704.9342   2000.0000   2000.0000      0.5992     58.5434
   669.5000    704.6918   2000.0000   2000.0000      0.4058     79.4423
   669.7500    703.2912   2000.0000   2000.0000      0.2998     94.2570
   670.0000    701.6436   2000.0000   2000.0000      0.2568    112.8222
   670.2500    701.0928   2000.0000   2000.0000      0.2685    121.0293
   670.5000    701.9564   2000.0000   2000.0000      0.3453    127.7111
   670.7500    703.4233   2000.0000   2000.0000      0.5329    130.2816
   671.0000    704.7378   2000.0000   2000.0000      0.9895    134.3429
   671.2500    705.7688   2000.0000   2000.0000      2.5949    137.6495
   671.5000    706.3608   2000.0000   2000.0000 100000.0000    142.2439
   671.7500    705.9577   2000.0000   2000.0000 100000.0000    144.2897
   672.0000    704.3527   2000.0000   2000.0000 100000.0000    145.9517
   672.2500    702.3742   2000.0000   2000.0000 100000.0000    146.6005
   672.5000    701.2684   2000.0000   2000.0000 100000.0000    146.9142
   672.7500    701.5716   2000.0000   2000.0000 100000.0000    146.2354
   673.0000    702.8456   2000.0000   2000.0000 100000.0000    143.3912
   673.2500    704.1001   2000.0000   2000.0000 100000.0000    140.4522
   673.5000    704.1273   2000.0000   2000.0000 100000.0000    135.3650
   673.7500    702.1193   2000.0000   2000.0000 100000.0000    132.1612
   674.0000    698.7540   2000.0000   2000.0000     30.4191    128.4992
   674.2500    696.1992   2000.0000   2000.0000     19.5773    127.0831
   674.5000    696.2694   2000.0000   2000.0000     17.4866    126.7406
   674.7500    698.8691   2000.0000   2000.0000     17.7216    127.7199
   675.0000    702.5863   2000.0000   2000.0000     19.1201    130.3167
   675.2500    706.1909   2000.0000   2000.0000     21.7253    131.9315
   675.5000    709.1620   2000.0000   2000.0000     26.6425    132.7874
   675.7500    711.4473   2000.0000   2000.0000     36.9999    132.1834
   676.0000    713.2113   2000.0000   2000.0000     61.6368    130.6206
   676.2500    714.3768   2000.0000   2000.0000    119.4692    130.0399
   676.5000    714.2167   2000.0000   2000.0000    141.7680    130.5438
   676.7500    712.0228   2000.0000   2000.0000     67.9037    131.4274
   677.0000    708.3509   2000.0000   2000.0000     31.6103    132.3541
   677.2500    704.9402   2000.0000   2000.0000     18.0762    132.3561
   677.5000    703.2031   2000.0000   2000.0000     12.2933    132.0184
   677.7500    703.2859   2000.0000   2000.0000      9.5189    132.1531
   678.0000    704.6487   2000.0000   2000.0000      8.1083    133.0925
   678.2500    706.9833   2000.0000   2000.0000      7.3927    133.6962
   678.5000    710.2560   2000.0000   2000.0000      7.0626    133.4119
   678.7500    714.0095   2000.0000   2000.0000      6.9678    132.0591
