~Version Information
VERS.                      2.0: CWLS Log ASCII Standard - VERSION 2.0
WRAP.                       NO: One line per depth step
~Well Information Block
STRT.FT                -4.7500: 
STOP.FT              1784.7500: 
STEP.FT                 0.2500: 
NULL.                -999.2500: 
COMP.          Pioneer Natural Resources: COMPANY
WELL.          Buckeye 11-13 Tr: WELL
FLD.           Purgatorie River: FIELD
LOC.           211' FNL & 1054' FWL--: LOCATION
STAT.                       CO: State
CNTY.               Las Animas: COUNTY
CTRY. USA : Country
SECT. 13 : Section
TOWN. 33S : Township
RANG. 67W : range
SRVC.          Patterson Wireline: SERVICE COMPANY
DATE.          Wed Mar 16 09:19:21 2005: LOG DATE
API.           05 071 08317 00: UNIQUE WELL ID
~Curve Information Block
DEPT.FT            0 000 00 00: Depth
CCL.                          : Casing Collar Locator
TT3.usec                      : CBL 3' Travel Time
AMP3.mV                       : CBL 3' Amplitude
GR.GAPI                       : Gamma Ray
~Parameter Information Block
~A  Depth       CCL         TT3         AMP3         GR     
# ...
    95.7500      0.0000    269.8100     66.7050     84.3540
    96.0000      0.0000    273.6339     61.2898     83.0153
    96.2500      0.0000    277.7072     55.6320     82.7886
    96.5000      0.0000    280.4281     51.0291     81.9884
    96.7500      0.0000    280.8544     48.2227     80.0927
    97.0000      0.0000    279.4980     47.0557     77.7859
    97.2500      0.0000    277.6899     46.8144     76.0136
    97.5000      0.0000    276.3881     46.8329     75.3820
    97.7500     -2.0000    275.7372     46.8831     75.9855
    98.0000      0.0000    275.4150     47.2496     77.2405
    98.2500      0.0000    275.0440     48.5730     77.8501
    98.5000      0.0000    274.3537     51.4344     76.3687
    98.7500      0.0000    273.2213     55.7822     72.3347
    99.0000      0.0000    271.6983     60.7083     66.8420
    99.2500      0.0000    269.9855     65.0004     61.7817
    99.5000      0.0000    268.3492     68.0095     58.6042
    99.7500      0.0000    267.0158     69.8848     57.7480
   100.0000      0.0000    266.1021     71.0734     58.7343
   100.2500      0.0000    265.5963     71.8735     60.6454
   100.5000      0.0000    265.3920     72.4503     62.9268
   100.7500      0.0000    265.3542     72.9702     65.8677
   101.0000      0.0000    265.3756     73.5636     70.0778
   101.2500      0.0000    265.3977     74.2321     75.5447
   101.5000      0.0000    265.3999     74.8697     81.4516
   101.7500      0.0000    265.3803     75.3644     86.8248
   102.0000      0.0000    265.3400     75.6713     90.9528
   102.2500      0.0000    265.2795     75.8152     93.1654
   102.5000      0.0000    265.2050     75.8516     92.8358
   102.7500      0.0000    265.1324     75.8298     90.0440
   103.0000      0.0000    265.0800     75.7816     85.9986
   103.2500      0.0000    265.0573     75.7308     82.3685
   103.5000      0.0000    265.0625     75.7048     79.9619
   103.7500      0.0000    265.0888     75.7281     78.1501
   104.0000      0.0000    265.1297     75.8050     75.8325
   104.2500      0.0000    265.1779     75.9157     72.8836
   104.5000      0.0000    265.2233     76.0329     70.3481
   104.7500      0.0000    265.2544     76.1418     69.2434
   105.0000      0.0000    265.2635     76.2391     69.4784
   105.2500      0.0000    265.2515     76.3117     70.1005
   105.5000      0.0000    265.2280     76.3293     70.4069
   105.7500      0.0000    265.2060     76.2659     70.5830
   106.0000      0.0000    265.1931     76.1274     71.2279
   106.2500      0.0000    265.1880     75.9564     72.4360
   106.5000      0.0000    265.1855     75.8171     73.4661
   106.7500      0.0000    265.1855     75.7699     73.2923
   107.0000      0.0000    265.1955     75.8385     71.4818
   107.2500      0.0000    265.2237     76.0001     68.6386
   107.5000      0.0000    265.2708     76.2136     66.1207
   107.7500      0.0000    265.3265     76.4518     65.3447
   108.0000      0.0000    265.3748     76.7010     67.1224
   108.2500      0.0000    265.4031     76.9416     71.3045
   108.5000      0.0000    265.4092     77.1395     76.8849
   108.7500      0.0000    265.3992     77.2526     82.6047
   109.0000      0.0000    265.3798     77.2504     87.8049
   109.2500      0.0000    265.3521     77.1384     92.9352
   109.5000      0.0000    265.3143     76.9639     99.0115
   109.7500      0.0000    265.2706     76.7883    106.2674
   110.0000      0.0000    265.2335     76.6520    113.5927
   110.2500      0.0000    265.2162     76.5695    119.5397
   110.5000      0.0000    265.2230     76.5508    123.5584
   110.7500      0.0000    265.2475     76.6132    126.0089
   111.0000      0.0000    265.2785     76.7613    127.1967
   111.2500      0.0000    265.3082     76.9597    126.6271
   111.5000      0.0000    265.3349     77.1435    123.4017
   111.7500      0.0000    265.3607     77.2678    117.5921
   112.0000      0.0000    265.3853     77.3381    111.1583
   112.2500      0.0000    265.4047     77.3809    107.0365
   112.5000      0.0000    265.4150     77.3968    106.9204
   112.7500      0.0000    265.4163     77.3663    109.8117
   113.0000      0.0000    265.4108     77.2871    112.7939
   113.2500      0.0000    265.3998     77.1840    113.5705
   113.5000      0.0000    265.3849     77.0882    112.5870
   113.7500      0.0000    265.3708     77.0255    112.4613
   114.0000      0.0000    265.3635     77.0165    114.9665
   114.2500      0.0000    265.3641     77.0726    118.8785
   114.5000      0.0000    265.3640     77.1907    121.2424
   114.7500      0.0000    265.3517     77.3560    120.3610
   115.0000      0.0000    265.3240     77.5438    116.9616
   115.2500      0.0000    265.2893     77.7173    112.6481
   115.5000      0.0000    265.2610     77.8404    107.9291
   115.7500      0.0000    265.2479     77.9032    102.0244
   116.0000      0.0000    265.2491     77.9274     94.3409
   116.2500      0.0000    265.2564     77.9394     85.7805
   116.5000      0.0000    265.2594     77.9424     78.4511
   116.7500      0.0000    265.2521     77.9225     74.0974
   117.0000      0.0000    265.2383     77.8782     72.8334
   117.2500      0.0000    265.2290     77.8300     73.3207
   117.5000      0.0000    265.2326     77.7973     74.1224
   117.7500      0.0000    265.2485     77.7757     74.8217
   118.0000      0.0000    265.2708     77.7527     75.7656
   118.2500      0.0000    265.2975     77.7410     76.9816
   118.5000      0.0000    265.3320     77.7763     77.8827
   118.7500      0.0000    265.3747     77.8754     78.1067
   119.0000      0.0000    265.4163     78.0032     78.1286
   119.2500      0.0000    265.4432     78.0916     78.8367
   119.5000      0.0000    265.4509     78.0960     80.9343
   119.7500      0.0000    265.4482     78.0308     84.7971
   120.0000      0.0000    265.4471     77.9424     90.4242
   120.2500      0.0000    265.4495     77.8518     97.3424
   120.5000      0.0000    265.4460     77.7397    104.8217
   120.7500      0.0000    265.4275     77.5847    112.1843
   121.0000      0.0000    265.3957     77.3967    118.8044
   121.2500      0.0000    265.3615     77.1981    124.2412
   121.5000      0.0000    265.3350     76.9858    128.8879
   121.7500      0.0000    265.3163     76.7279    134.0990
   122.0000      0.0000    265.2975     76.4070    140.7185
   122.2500      0.0000    265.2731     76.0583    147.5304
   122.5000      0.0000    265.2476     75.7525    152.0774
   122.7500      0.0000    265.2322     75.5440    153.0407
   123.0000      0.0000    265.2337     75.4505    151.1786
   123.2500      0.0000    265.2491     75.4754    147.9729
   123.5000      0.0000    265.2705     75.6203    143.9333
   123.7500      0.0000    265.2916     75.8667    138.5002
   124.0000      0.0000    265.3100     76.1619    131.4680
   124.2500      0.0000    265.3254     76.4374    123.9901
   124.5000      0.0000    265.3377     76.6453    117.7584
   124.7500      0.0000    265.3481     76.7795    113.4761
   125.0000      0.0000    265.3613     76.8662    110.6343
   125.2500      0.0000    265.3831     76.9375    108.5988
   125.5000      0.0000    265.4134     77.0135    107.4177
   125.7500      0.0000    265.4423     77.1015    107.6357
   126.0000      0.0000    265.4570     77.1965    109.6536
   126.2500      0.0000    265.4502     77.2840    113.2932
   126.5000      0.0000    265.4231     77.3562    117.7442
   126.7500      0.0000    265.3851     77.4321    122.0252
   127.0000      0.0000    265.3521     77.5506    125.8681
   127.2500      0.0000    265.3392     77.7353    130.0554
   127.5000      0.0000    265.3508     77.9675    135.4660
   127.7500      0.0000    265.3788     78.2023    141.8861
   128.0000      0.0000    265.4078     78.4132    148.1041
   128.2500      0.0000    265.4214     78.6110    153.0288
   128.5000      0.0000    265.4085     78.8110    156.0654
   128.7500      0.0000    265.3695     78.9895    156.4465
   129.0000      0.0000    265.3154     79.0995    153.3619
