~Version Information
VERS.                      2.0: CWLS Log ASCII Standard - VERSION 2.0
WRAP.                       NO: One line per depth step
~Well Information Block
STRT.FT                -7.2500: 
STOP.FT              2827.7500: 
STEP.FT                 0.2500: 
NULL.                -999.2500: 
COMP.          Pioneer Natural Resources: COMPANY
WELL.           Ei-ei-oh 31-24: WELL
FLD.           Purgatorie River: FIELD
LOC.           235' FNL & 2001' FEL--: LOCATION
PROV.                       CO: PROVINCE
CNTY.               Las Animas: COUNTRY
SRVC.          Patterson Wireline: SERVICE COMPANY
DATE.          Tue Aug 23 12:06:00 2005: LOG DATE
UWI.           05 071 08403 00: UNIQUE WELL ID
~Curve Information Block
DEPT.FT            0 000 00 00: Depth
CCL.                          : Casing Collar Locator
TT3.usec                      : CBL 3' Travel Time
AMP3.mV                       : CBL 3' Amplitude
GR.GAPI                       : Gamma Ray
~Parameter Information Block
~A  Depth       CCL         TT3         AMP3         GR     
    -7.2500   -999.2500   -999.2500   -999.2500     71.5743
    -7.0000   -999.2500   -999.2500   -999.2500     70.1790
    -6.7500   -999.2500   -999.2500   -999.2500     70.0204
    -6.5000   -999.2500   -999.2500   -999.2500     71.4084
    -6.2500   -999.2500   -999.2500   -999.2500     73.1772
    -6.0000   -999.2500   -999.2500   -999.2500     73.2985
    -5.7500   -999.2500   -999.2500   -999.2500     70.9504
    -5.5000   -999.2500   -999.2500   -999.2500     67.7258
    -5.2500   -999.2500   -999.2500   -999.2500     66.2628
    -5.0000   -999.2500   -999.2500   -999.2500     67.8414
    -4.7500   -999.2500   -999.2500   -999.2500     71.5328
    -4.5000   -999.2500   -999.2500   -999.2500     75.2325
    -4.2500   -999.2500   -999.2500   -999.2500     77.1909
    -4.0000   -999.2500   -999.2500   -999.2500     76.9017
    -3.7500   -999.2500   -999.2500   -999.2500     74.9774
    -3.5000   -999.2500   -999.2500   -999.2500     72.3781
    -3.2500   -999.2500   -999.2500   -999.2500     69.8613
    -3.0000   -999.2500   -999.2500   -999.2500     67.9229
    -2.7500   -999.2500   -999.2500   -999.2500     66.7590
    -2.5000   -999.2500   -999.2500   -999.2500     66.2892
    -2.2500   -999.2500   1149.0000      1.9729     66.5770
    -2.0000   -999.2500   1149.0000      1.9805     68.1259
    -1.7500   -999.2500   1149.0000      1.9803     71.3709
    -1.5000   -999.2500   1149.0000      1.9712     75.9143
    -1.2500   -999.2500   1149.0000      1.9577     80.3868
    -1.0000   -999.2500   1149.0000      1.9457     83.0056
    -0.7500   -999.2500   1149.0000      1.9382     82.4034
    -0.5000   -999.2500   1149.0000      1.9343     78.1674
    -0.2500   -999.2500   1149.0000      1.9319     70.8876
     0.0000   -999.2500   1149.0000      1.9296     62.0425
     0.2500   -999.2500   1149.0000      1.9276     53.8094
     0.5000   -999.2500   1149.0000      1.9336     46.0725
     0.7500   -999.2500   1149.0000      1.9422     45.6367
     1.0000   -999.2500   1149.0000      1.9491     44.3933
     1.2500   -999.2500   1149.0000      1.9503     40.9986
     1.5000   -999.2500   1149.0000      1.9462     36.6432
     1.7500   -999.2500   1149.0000      1.9414     34.0201
     2.0000   -999.2500   1149.0000      1.9402     34.8017
     2.2500   -999.2500   1149.0000      1.9422     38.0816
     2.5000   -999.2500   1149.0000      1.9440     41.3323
     2.7500   -999.2500   1149.0000      1.9435     42.8212
     3.0000      0.0000   1149.0000      1.9431     42.9376
     3.2500      0.0000   1149.0000      1.9457     43.3183
     3.5000      0.0000   1149.0000      1.9500     45.1603
     3.7500      0.0000   1149.0000      1.9506     48.6201
     4.0000      0.0000   1149.0000      1.9438     53.3665
     4.2500      0.0000   1149.0000      1.9319     58.9961
     4.5000      0.0000   1149.0000      1.9216     64.9103
     4.7500      0.0000   1149.0000      1.9182     70.5307
     5.0000      0.0000   1149.0000      1.9212     76.0768
     5.2500      0.0000   1149.0000      1.9256     82.6085
     5.5000      0.0000   1149.0000      1.9273     90.7302
     5.7500      0.0000   1149.0000      1.9269     99.4271
     6.0000      0.0000   1149.0000      1.9287    106.6191
     6.2500      0.0000   1149.0000      1.9357    110.8227
     6.5000      0.0000   1149.0000      1.9454    112.0943
     6.7500      0.0000   1149.0000      1.9532    111.5832
     7.0000      0.0000   1149.0000      1.9580    110.4466
     7.2500      0.0000   1149.0000      1.9614    109.1524
     7.5000      0.0000   1149.0000      1.9639    107.6219
     7.7500      0.0000   1149.0000      1.9636    105.8534
     8.0000      0.0000   1149.0000      1.9607    104.2077
     8.2500      0.0000   1149.0000      1.9587    103.1734
     8.5000      0.0000   1149.0000      1.9606    103.1102
     8.7500      0.0000   1149.0000      1.9642    104.0847
     9.0000      0.0000   1149.0000      1.9635    105.6903
     9.2500      0.0000   1149.0000      1.9573    107.2689
     9.5000      0.0000   1149.0000      1.9521    108.5894
     9.7500      0.0000   1149.0000      1.9548    110.0045
    10.0000      0.0000   1149.0000      1.9643    111.7793
    10.2500      0.0000   1149.0000      1.9716    113.5805
    10.5000      0.0000   1149.0000      1.9690    114.7307
    10.7500      0.0000   1149.0000      1.9576    114.7313
    11.0000      0.0000   1149.0000      1.9439    113.5093
    11.2500      0.0000   1148.9432      1.9359    111.3251
    11.5000      0.0000   1148.5728      1.9458    108.5125
    11.7500      0.0000   1146.6915      2.0294    105.4414
    12.0000      0.0000   1139.2509      2.3818    102.6760
    12.2500      0.0000   1116.3315      3.4839    100.6932
    12.5000      0.0000   1061.3497      6.1433     99.2639
    12.7500      0.0000    958.6241     11.1385     97.7258
    13.0000      0.0000    809.1389     18.4617     96.0966
    13.2500      0.0000    639.6717     26.8647     95.1813
    13.5000      0.0000    489.8443     34.4569     95.3248
    13.7500      0.0000    386.0742     39.9471     95.8640
    14.0000      0.0000    328.6720     43.2693     96.1762
    14.2500      0.0000    301.3156     45.1496     96.6915
    14.5000      0.0000    287.4720     46.3553     98.4258
    14.7500      0.0000    278.3466     47.3302    101.6515
    15.0000      0.0000    271.5582     48.2135    105.3059
    15.2500      0.0000    267.0468     48.9749    107.8430
    15.5000      0.0000    264.6202     49.5471    108.4248
    15.7500      0.0000    263.5758     49.9279    107.2097
    16.0000      0.0000    263.2076     50.2026    105.0936
    16.2500      0.0000    263.0760     50.4873    103.4001
    16.5000      0.0000    262.9943     50.8527    103.1053
    16.7500      0.0000    262.9120     51.2875    103.9901
    17.0000      0.0000    262.8304     51.7163    104.9769
    17.2500      0.0000    262.7603     52.0600    105.4161
    17.5000      0.0000    262.7058     52.2934    105.4796
    17.7500      0.0000    262.6614     52.4547    105.2051
    18.0000      0.0000    262.6190     52.6052    104.0374
    18.2500      0.0000    262.5735     52.7834    101.8279
    18.5000      0.0000    262.5248     52.9894     99.6770
    18.7500      0.0000    262.4766     53.1991     99.1857
    19.0000      0.0000    262.4354     53.3864    100.9891
    19.2500      0.0000    262.4071     53.5380    104.2502
    19.5000      0.0000    262.3935     53.6541    107.5129
    19.7500      0.0000    262.3919     53.7441    109.9264
    20.0000      0.0000    262.3965     53.8219    111.3857
    20.2500      0.0000    262.4021     53.9000    111.4548
    20.5000      0.0000    262.4061     53.9819    108.9782
    20.7500      0.0000    262.4089     54.0550    103.4374
    21.0000      0.0000    262.4144     54.0932     96.2743
    21.2500      0.0000    262.4254     54.0751     90.1647
    21.5000      0.0000    262.4380     54.0106     86.8416
    21.7500      0.0000    262.4434     53.9427     85.7620
    22.0000      0.0000    262.4373     53.9113     84.8768
    22.2500      0.0000    262.4255     53.9153     82.6078
    22.5000      0.0000    262.4186     53.9148     79.1362
    22.7500      0.0000    262.4239     53.8686     75.9064
    23.0000      0.0000    262.4428     53.7646     74.0540
    23.2500      0.0000    262.4739     53.6156     73.4415
    23.5000      0.0000    262.5154     53.4386     73.2301
    23.7500      0.0000    262.5630     53.2516     73.2019
    24.0000      0.0000    262.6069     53.0886     74.1859
    24.2500      0.0000    262.6331     52.9946     77.1037
    24.5000      0.0000    262.6330     52.9937     81.8473
    24.7500      0.0000    262.6108     53.0675     87.1379
    25.0000      0.0000    262.5810     53.1726     91.2403
    25.2500      0.0000    262.5572     53.2667     92.8421
    25.5000      0.0000    262.5453     53.3193     91.5992
    25.7500      0.0000    262.5435     53.3193     88.0264
    26.0000      0.0000    262.5471     53.2810     82.8570
