~Version Information
VERS.                      2.0: CWLS Log ASCII Standard - VERSION 2.0
WRAP.                       NO: One line per depth step
~Well Information Block
STRT.FT               745.2500: 
STOP.FT              2003.5000: 
STEP.FT                 0.2500: 
NULL.                -999.2500: 
COMP.          Petrogulf Corporation: COMPANY
WELL.            Montoya 6-14V: WELL
FLD.           Purgatorie River: FIELD
LOC.           318' FSL & 882' FWL: LOCATION
CNTY.               Las Animas: COUNTY
SRVC.                         : SERVICE COMPANY
DATE.          Fri Aug 13 04:55:06 2004: LOG DATE
UWI.           05 071 08020 00: UNIQUE WELL ID
STAT.                 Colorado: STATE
~Curve Information Block
DEPT.FT            0 000 00 00: Depth
SP.mV                         : DIL Spontaneous Potential
RILD.Ohm-m                    : DIL Deep Resistivity
RILM.Ohm-m                    : DIL Medium Resistivity
RLL3.Ohm-m                    : DIL Shallow Resistivity
GR.GAPI                       : Gamma Ray
~Parameter Information Block
~A  Depth        SP         RILD        RILM        RLL3         GR     
# ...
  1081.2500    -14.2761     15.7785     16.7941     19.9870    126.4502
  1081.5000    -14.2436     15.5115     16.3925     19.5907    124.8490
  1081.7500    -14.2096     15.3650     16.0738     19.3516    125.1860
  1082.0000    -14.1671     15.3428     15.8490     19.2404    126.8344
  1082.2500    -14.1105     15.4449     15.7325     19.2022    128.0248
  1082.5000    -14.0361     15.6686     15.7427     19.2117    129.5005
  1082.7500    -13.9421     16.0106     15.9013     19.3722    130.4804
  1083.0000    -13.8274     16.4686     16.2340     20.0810    132.6208
  1083.2500    -13.6908     17.0431     16.7692     22.2897    134.6600
  1083.5000    -13.5302     17.7370     17.5379     27.9050    137.7691
  1083.7500    -13.3426     18.5520     18.5714     40.5506    138.7216
  1084.0000    -13.1248     19.4818     19.8979     66.1009    136.4264
  1084.2500    -12.8745     20.5061     21.5368    112.3169    131.8238
  1084.5000    -12.5911     21.5896     23.4903    186.1475    120.6807
  1084.7500    -12.2755     22.6909     25.7330    288.1136    111.1911
  1085.0000    -11.9292     23.7756     28.2018    405.9685     95.5308
  1085.2500    -11.5533     24.8248     30.7902    513.1826     85.1077
  1085.5000    -11.1469     25.8270     33.3512    577.2971     70.9630
  1085.7500    -10.7075     26.7592     35.7098    576.0630     63.3248
  1086.0000    -10.2311     27.5735     37.6848    510.6152     56.0490
  1086.2500     -9.7140     28.2036     39.1148    404.9023     54.8270
  1086.5000     -9.1548     28.5908     39.8853    291.5906     59.1168
  1086.7500     -8.5555     28.7101     39.9530    195.7737     65.6543
  1087.0000     -7.9225     28.5763     39.3596    127.5243     79.0770
  1087.2500     -7.2658     28.2284     38.2263     84.7337     89.0742
  1087.5000     -6.5979     27.7100     36.7267     60.1232    103.5108
  1087.7500     -5.9321     27.0612     35.0486     46.5477    111.7544
  1088.0000     -5.2822     26.3216     33.3576     38.9963    121.1135
  1088.2500     -4.6619     25.5354     31.7764     34.5402    125.4430
  1088.5000     -4.0850     24.7494     30.3787     31.6994    129.7908
  1088.7500     -3.5653     24.0036     29.1953     29.8608    131.5757
  1089.0000     -3.1165     23.3235     28.2228     28.7835    132.9026
  1089.2500     -2.7515     22.7187     27.4346     28.4031    133.1114
  1089.5000     -2.4807     22.1879     26.7891     28.6376    132.8880
  1089.7500     -2.3115     21.7244     26.2370     29.3528    132.6927
  1090.0000     -2.2465     21.3178     25.7284     30.3769    132.8971
  1090.2500     -2.2835     20.9532     25.2194     31.5159    133.5402
  1090.5000     -2.4151     20.6106     24.6789     32.5539    134.8466
  1090.7500     -2.6290     20.2706     24.0926     33.2573    135.3315
  1091.0000     -2.9099     19.9225     23.4638     33.4139    134.7703
  1091.2500     -3.2400     19.5693     22.8104     32.8996    133.9375
  1091.5000     -3.6014     19.2233     22.1584     31.7306    133.9363
  1091.7500     -3.9770     18.8944     21.5346     30.0586    135.6353
  1092.0000     -4.3520     18.5797     20.9606     28.1139    140.1078
  1092.2500     -4.7148     18.2619     20.4488     26.1433    143.0587
  1092.5000     -5.0579     17.9189     20.0010     24.3822    145.7406
  1092.7500     -5.3787     17.5376     19.6088     23.0460    146.3565
  1093.0000     -5.6789     17.1249     19.2564     22.2958    146.3064
  1093.2500     -5.9638     16.7068     18.9235     22.1680    145.8379
  1093.5000     -6.2410     16.3199     18.5899     22.5246    144.4465
  1093.7500     -6.5184     15.9987     18.2392     23.0882    143.2437
  1094.0000     -6.8030     15.7673     17.8618     23.5680    141.7183
  1094.2500     -7.0999     15.6348     17.4566     23.7902    141.0419
  1094.5000     -7.4117     15.5948     17.0308     23.7363    139.8827
  1094.7500     -7.7389     15.6268     16.5978     23.4677    138.4501
  1095.0000     -8.0791     15.6992     16.1748     23.0149    135.0357
  1095.2500     -8.4274     15.7753     15.7809     22.3387    132.3382
  1095.5000     -8.7764     15.8219     15.4343     21.3925    128.8976
  1095.7500     -9.1170     15.8178     15.1516     20.2146    127.6748
  1096.0000     -9.4394     15.7601     14.9469     18.9604    128.1224
  1096.2500     -9.7350     15.6648     14.8317     17.8439    129.9501
  1096.5000     -9.9979     15.5621     14.8149     17.0447    134.0542
  1096.7500    -10.2261     15.4883     14.9043     16.6519    136.6202
  1097.0000    -10.4217     15.4790     15.1069     16.6749    138.3017
  1097.2500    -10.5907     15.5626     15.4307     17.0968    137.4237
  1097.5000    -10.7418     15.7585     15.8857     17.9374    133.5804
  1097.7500    -10.8843     16.0774     16.4849     19.3113    130.2641
  1098.0000    -11.0269     16.5252     17.2452     21.4772    126.0748
  1098.2500    -11.1753     17.1076     18.1880     24.8704    124.4580
  1098.5000    -11.3320     17.8352     19.3399     30.0984    123.2237
  1098.7500    -11.4960     18.7247     20.7322     37.8881    122.1015
  1099.0000    -11.6638     19.7971     22.4014     48.9781    118.3114
  1099.2500    -11.8297     21.0721     24.3883     63.9393    114.1835
  1099.5000    -11.9872     22.5614     26.7361     82.9068    106.5490
  1099.7500    -12.1288     24.2602     29.4869    105.2830    101.3139
  1100.0000    -12.2460     26.1383     32.6742    129.5851     94.3262
  1100.2500    -12.3301     28.1296     36.3109    153.6290     90.6404
  1100.5000    -12.3717     30.1235     40.3711    175.0379     86.9009
  1100.7500    -12.3623     31.9663     44.7649    191.7824     85.4471
  1101.0000    -12.2948     33.4839     49.3113    202.4318     83.9094
  1101.2500    -12.1650     34.5301     53.7185    206.1159     82.7764
  1101.5000    -11.9713     35.0345     57.5888    202.5176     80.8436
  1101.7500    -11.7153     35.0146     60.4664    192.1097     79.8849
  1102.0000    -11.4011     34.5441     61.9333    176.4096     79.7463
  1102.2500    -11.0343     33.7011     61.7289    157.8042     80.4692
  1102.5000    -10.6225     32.5434     59.8384    138.8439     82.1054
  1102.7500    -10.1747     31.1179     56.5039    121.4507     83.4977
  1103.0000     -9.7014     29.4863     52.1500    106.5891     86.6870
  1103.2500     -9.2147     27.7380     47.2657     94.4712     89.5751
  1103.5000     -8.7270     25.9815     42.2970     84.8711     93.4562
  1103.7500     -8.2501     24.3204     37.5822     77.1981     94.5340
  1104.0000     -7.7938     22.8305     33.3332     70.4586     93.4234
  1104.2500     -7.3647     21.5473     29.6512     63.4873     91.7191
  1104.5000     -6.9661     20.4659     26.5555     55.5017     89.6574
  1104.7500     -6.5980     19.5524     24.0140     46.5718     89.3901
  1105.0000     -6.2579     18.7599     21.9686     37.5759     91.5162
  1105.2500     -5.9414     18.0460     20.3516     29.6622     95.0508
  1105.5000     -5.6434     17.3855     19.0965     23.6440    103.5860
  1105.7500     -5.3595     16.7748     18.1432     19.7249    110.5505
  1106.0000     -5.0864     16.2276     17.4399     17.6160    120.0581
  1106.2500     -4.8225     15.7659     16.9435     16.8333    124.2376
  1106.5000     -4.5681     15.4110     16.6191     16.9413    126.6618
  1106.7500     -4.3253     15.1771     16.4387     17.6449    126.7107
  1107.0000     -4.0976     15.0693     16.3801     18.7630    126.8647
  1107.2500     -3.8904     15.0851     16.4260     20.1602    127.6412
  1107.5000     -3.7103     15.2172     16.5625     21.6959    128.6925
  1107.7500     -3.5644     15.4586     16.7790     23.2107    128.1487
  1108.0000     -3.4588     15.8070     17.0677     24.5478    124.6329
  1108.2500     -3.3972     16.2661     17.4235     25.5939    121.1015
  1108.5000     -3.3797     16.8445     17.8434     26.3166    116.2007
  1108.7500     -3.4027     17.5496     18.3267     26.7687    114.3844
  1109.0000     -3.4598     18.3796     18.8737     27.0484    114.7016
