~Version Information
 VERS.                                  2.0 : CWLS LAS VERSION
 WRAP.                                   NO : WRAPING MODE
 SWARE .                 MController 2.5.0I : SOFTWARE VERSION
~Well Information
 WELL.                      Alexander 9-43R : WELL
 COMP.                       Petrogulf corp : COMPANY
 FLD.                      Purgatorie River : FIELD
 LOC.                 NE/SE Sec 9 T33s R67W : LOCATION
 DATE.                              9/03/04 : DATE(S) LOGGED
 SRVC.       Blanco Geological Services LLC : SERVICE COMPANY
 STAT.                                   CO : STATE
 CNTY.                           Las Animas : COUNTY
 CTRY.                                  USA : COUNTRY
 API.                       05-071-08036-00 : API NUMBER
 STRT.FT                             527.00 : START DEPTH
 STOP.FT                            1779.00 : STOP DEPTH
 STEP.FT                               1.00 : DEPTH INCREMENT
 NULL.                                -9999 : NULL VALUE
~Curve information
 DEPTH.FT                                   :
 ROP.MIN/FT                                 :
 GAS.UNITS                                  :
~ASCII Log data
       527.0      -9999.0          0.7 
       528.0         16.3          1.1 
       529.0         11.6          1.0 
       530.0          0.0          0.5 
       531.0          0.1          0.8 
       532.0          0.1          0.6 
       533.0          0.1          0.5 
       534.0          0.1          0.5 
       535.0          1.4          1.2 
       536.0          0.2          1.1 
       537.0          0.2          1.2 
       538.0          0.2          0.9 
       539.0          0.1          0.6 
       540.0          0.1          0.7 
       541.0          0.1          0.5 
       542.0          0.1          0.7 
       543.0          0.1          0.5 
       544.0          0.1          0.5 
       545.0          0.1          0.5 
       546.0          0.1          0.3 
       547.0          0.1          0.1 
       548.0          0.2         -0.1 
       549.0          0.2         -0.2 
       550.0          0.2          0.0 
       551.0          0.2         -0.2 
       552.0          0.2         -0.2 
       553.0          0.2          2.1 
       554.0          0.2          2.0 
       555.0          0.2          2.0 
       556.0          0.2          2.1 
       557.0          0.2          1.9 
       558.0          0.2          1.6 
       559.0          0.2          1.7 
       560.0          0.2          1.7 
       561.0          0.2          1.5 
       562.0          0.1          1.2 
       563.0          0.2          1.2 
       564.0          0.2          1.3 
       565.0          0.1          1.3 
       566.0          1.4          1.8 
       567.0          0.2          1.5 
       568.0          0.3          1.2 
       569.0          0.2          0.8 
       570.0          0.2          0.7 
       571.0          0.2          0.9 
       572.0          0.2          1.1 
       573.0          0.2          2.3 
       574.0          0.1          3.9 
       575.0          0.1          5.2 
       576.0          0.1          6.0 
       577.0          0.1          6.4 
       578.0          0.1          6.7 
       579.0          0.1          6.3 
       580.0          0.1          6.0 
       581.0          0.2          5.8 
       582.0          0.1          5.2 
       583.0          0.2          4.5 
       584.0          0.2          3.5 
       585.0          0.2          2.8 
       586.0          0.2          2.1 
       587.0          0.2          1.6 
       588.0          0.2          1.5 
       589.0          0.2          1.3 
       590.0          0.2          0.9 
       591.0          0.2          0.9 
       592.0          0.2          0.7 
       593.0          0.2          0.8 
       594.0          0.2          0.6 
       595.0          0.2          0.4 
       596.0          1.4          9.4 
       597.0          0.2         10.5 
       598.0          0.4          9.1 
       599.0          0.3          3.2 
       600.0          0.1          2.3 
       601.0          0.1          1.9 
       602.0          0.2          1.1 
       603.0          0.2          0.5 
       604.0          0.2          0.4 
       605.0          0.2          0.5 
       606.0          0.1          0.4 
       607.0          0.1          0.2 
       608.0          0.1          0.2 
       609.0          0.1          0.3 
       610.0          0.1         -0.2 
       611.0          0.1          0.0 
       612.0          0.1         -0.2 
       613.0          0.1         -0.3 
       614.0          0.1         -0.1 
       615.0          0.1         -0.4 
       616.0          0.1         -0.1 
       617.0          0.1          0.0 
       618.0          0.1          0.0 
       619.0          0.1          0.7 
       620.0          0.1          1.7 
       621.0          0.1          2.6 
       622.0          0.1          2.7 
       623.0          0.1          2.7 
       624.0          0.1          2.2 
       625.0          0.1          1.4 
       626.0          1.1          5.5 
       627.0          0.2          6.9 
       628.0          0.1          6.8 
       629.0          0.2          5.9 
       630.0          0.3          4.0 
       631.0          0.3          1.3 
       632.0          0.3          0.4 
       633.0          0.2          0.0 
       634.0          0.2          0.2 
       635.0          0.2          2.0 
       636.0          0.1          3.0 
       637.0          0.1          4.1 
       638.0          0.1          5.5 
       639.0          0.1          7.8 
       640.0          0.1          9.2 
       641.0          0.1         10.5 
       642.0          0.1         10.9 
       643.0          0.1         11.2 
       644.0          0.2         11.1 
       645.0          0.1         10.3 
       646.0          0.2          9.7 
       647.0          0.2          9.1 
       648.0          0.2          8.7 
       649.0          0.2          8.3 
       650.0          0.2          8.1 
       651.0          0.2          7.9 
       652.0          0.1          7.5 
       653.0          0.2          7.6 
       654.0          0.2          6.6 
       655.0          0.2          6.0 
       656.0          1.5         59.9 
       657.0          0.3         58.0 
       658.0          0.3         40.1 
       659.0          0.3         25.9 
       660.0          0.3         17.5 
       661.0          0.2         13.4 
       662.0          0.2         11.7 
       663.0          0.2         10.6 
       664.0          0.2          9.9 
       665.0          0.2          9.5 
       666.0          0.2          8.9 
       667.0          0.2          8.7 
       668.0          0.2          8.5 
       669.0          0.2          8.5 
       670.0          0.2          8.2 
       671.0          0.2          8.3 
       672.0          0.2          8.3 
       673.0          0.2          8.2 
       674.0          0.2          8.2 
       675.0          0.2          8.2 
       676.0          0.1          7.8 
       677.0          0.2          7.6 
       678.0          0.2          7.5 
       679.0          0.2          7.4 
       680.0          0.2          7.3 
       681.0          0.3          7.2 
       682.0          0.3          7.2 
       683.0          0.2          6.6 
       684.0          0.2          6.1 
       685.0          0.2          5.0 
       686.0          1.3         81.0 
       687.0          0.2         74.2 
       688.0          0.2         52.5 
       689.0          0.2         35.5 
       690.0          0.2         25.4 
       691.0          0.2         19.8 
       692.0          0.2         15.8 
       693.0          0.1         12.3 
       694.0          0.2         11.4 
       695.0          0.1          9.8 
       696.0          0.1          9.0 
       697.0          0.1          8.1 
       698.0          0.1          7.2 
       699.0          0.2          7.0 
       700.0          0.1          6.7 
       701.0          0.2          6.6 
       702.0          0.4          6.6 
       703.0          0.4          6.7 
       704.0          0.4          6.7 
       705.0          0.3          6.4 
       706.0          0.3          6.1 
       707.0          0.3          5.9 
       708.0          0.3          5.7 
       709.0          0.3          5.6 
       710.0          0.3          5.4 
       711.0          0.3          5.2 
       712.0          0.4          5.2 
       713.0          0.3          5.1 
       714.0          0.1          3.8 
       715.0          0.3          4.4 
       716.0          1.7        108.5 
       717.0          0.2         80.5 
       718.0          0.2         48.1 
       719.0          0.2         32.6 
       720.0          0.1         23.1 
       721.0          0.1         18.6 
       722.0          0.1         15.8 
       723.0          0.1         13.2 
       724.0          0.1         11.6 
       725.0          0.1          9.5 
       726.0          0.1          8.6 
