~Version Information
 VERS.                                  2.0 : CWLS LAS VERSION
 WRAP.                                   NO : WRAPING MODE
 SWARE .                 MController 2.5.0E : SOFTWARE VERSION
~Well Information
 WELL.                       Montoya 12 44v : WELL
 COMP.                       Petrogulf Corp : COMPANY
 FLD.                      Purgatorie River : FIELD
 LOC.               SE/SE Sec 12 T33S R66W  : LOCATION
 DATE.                             8/7 8/04 : DATE(S) LOGGED
 SRVC.       Blanco Geological Services LLC : SERVICE COMPANY
 STAT.                                   CO : STATE
 CNTY.                           Las Animas : COUNTY
 CTRY.                                  USA : COUNTRY
 API.                       05 071 08094 00 : API NUMBER
 STRT.FT                             804.00 : START DEPTH
 STOP.FT                            2469.00 : STOP DEPTH
 STEP.FT                               1.00 : DEPTH INCREMENT
 NULL.                                 9999 : NULL VALUE
~Curve information
 DEPTH.FT                                   :
 ROP.MIN/FT                                 :
 GAS.UNITS                                  :
~ASCII Log data
# ...
     1804.00        0.467          4.0 
     1805.00        0.467          3.5 
     1806.00        0.333          3.1 
     1807.00        0.383          3.6 
     1808.00        0.333          3.2 
     1809.00        0.367          3.3 
     1810.00        0.400          2.6 
     1811.00        0.333          2.8 
     1812.00        0.400          2.1 
     1813.00        0.333          2.4 
     1814.00        0.300          2.3 
     1815.00        0.300          2.0 
     1816.00        0.350          1.7 
     1817.00        0.333          1.8 
     1818.00        0.267          1.8 
     1819.00        0.300          1.6 
     1820.00        0.400          1.6 
     1821.00        0.400          1.6 
     1822.00        0.400          1.8 
     1823.00        0.400          1.6 
     1824.00        0.400          1.8 
     1825.00        0.483          1.9 
     1826.00        0.367          1.5 
     1827.00        0.400          1.7 
     1828.00        0.400          1.4 
     1829.00        0.367          1.3 
     1830.00        5.400          5.1 
     1831.00        0.367          4.6 
     1832.00        0.467          4.1 
     1833.00        0.433          3.3 
     1834.00        0.400          3.6 
     1835.00        0.233          3.4 
     1836.00        0.200          3.8 
     1837.00        0.267          3.5 
     1838.00        0.333          3.6 
     1839.00        0.383          3.5 
     1840.00        0.400          3.3 
     1841.00        0.333          3.2 
     1842.00        0.300          3.3 
     1843.00        0.300          3.1 
     1844.00        0.267          3.0 
     1845.00        0.267          2.8 
     1846.00        0.267          1.9 
     1847.00        0.267          2.2 
     1848.00        0.267          2.8 
     1849.00        0.233          1.8 
     1850.00        0.267          2.4 
     1851.00        0.317          2.5 
     1852.00        0.300          2.7 
     1853.00        0.267          2.3 
     1854.00        0.300          2.6 
     1855.00        0.300          2.6 
     1856.00        0.300          2.6 
     1857.00        0.267          2.4 
     1858.00        0.300          2.8 
     1859.00        0.200          3.0 
     1860.00        0.333          3.2 
     1861.00        0.333          4.0 
     1862.00        4.100          6.2 
     1863.00        0.300          5.4 
     1864.00        0.267          4.3 
     1865.00        0.433          3.9 
     1866.00        0.300          3.1 
     1867.00        0.333          3.5 
     1868.00        0.300          3.4 
     1869.00        0.367          3.6 
     1870.00        0.433          4.2 
     1871.00        0.450          3.8 
     1872.00        0.433          3.2 
     1873.00        0.533          2.6 
     1874.00        0.433          2.4 
     1875.00        0.333          2.0 
     1876.00        0.267          1.8 
     1877.00        0.367          1.6 
     1878.00        0.367          1.6 
     1879.00        0.350          1.5 
     1880.00        0.333          1.5 
     1881.00        0.433          1.6 
     1882.00        0.500          1.7 
     1883.00        0.533          1.9 
     1884.00        0.433          1.7 
     1885.00        0.267          1.8 
     1886.00        0.233          1.2 
     1887.00        0.267          1.8 
     1888.00        0.283          1.8 
     1889.00        0.267          1.8 
     1890.00        0.233          1.4 
     1891.00        0.233          1.4 
     1892.00        4.417          3.5 
     1893.00        0.367          2.7 
     1894.00        0.367          3.0 
     1895.00        0.333          3.2 
     1896.00        0.333          3.4 
     1897.00        0.350          3.8 
     1898.00        0.433          3.7 
     1899.00        0.333          3.7 
     1900.00        0.333          3.3 
     1901.00        0.300          3.1 
     1902.00        0.267          2.9 
     1903.00        0.300          2.5 
     1904.00        0.267          2.7 
     1905.00        0.300          2.5 
     1906.00        0.233          1.9 
     1907.00        0.283          2.4 
     1908.00        0.200          2.3 
     1909.00        0.233          2.2 
     1910.00        0.200          2.2 
     1911.00        0.200          2.0 
     1912.00        0.200          2.0 
     1913.00        0.200          1.8 
     1914.00        0.233          1.4 
     1915.00        0.300          1.9 
     1916.00        0.233          2.1 
     1917.00        0.233          2.2 
     1918.00        0.233          2.1 
     1919.00        0.233          2.3 
     1920.00        0.233          2.3 
     1921.00        0.233          2.5 
     1922.00        3.867          3.8 
     1923.00        0.400          4.7 
     1924.00        0.400          4.7 
     1925.00        0.333          4.4 
     1926.00        0.367          4.2 
     1927.00        0.367          4.2 
     1928.00        0.367          4.8 
     1929.00        0.333          5.1 
     1930.00        0.333          5.3 
     1931.00        0.283          5.2 
     1932.00        0.300          4.9 
     1933.00        0.300          4.6 
     1934.00        0.267          4.2 
     1935.00        0.267          3.6 
     1936.00        0.300          3.6 
     1937.00        0.267          3.2 
     1938.00        0.267          2.7 
     1939.00        0.267          3.1 
     1940.00        0.300          2.8 
     1941.00        0.233          2.7 
     1942.00        0.283          2.7 
     1943.00        0.267          2.4 
     1944.00        0.267          2.6 
     1945.00        0.233          2.6 
     1946.00        0.267          2.6 
     1947.00        0.233          2.5 
     1948.00        0.200          2.3 
     1949.00        0.200          2.3 
     1950.00        0.233          2.3 
     1951.00        0.267          2.2 
     1952.00        4.500          3.9 
     1953.00        0.400          3.8 
     1954.00        0.400          3.6 
     1955.00        0.400          3.5 
     1956.00        0.400          3.2 
     1957.00        0.400          4.4 
     1958.00        0.333          4.6 
     1959.00        0.333          4.1 
     1960.00        0.367          4.1 
     1961.00        0.350          3.9 
     1962.00        0.400          3.2 
     1963.00        0.367          3.3 
     1964.00        0.367          3.1 
     1965.00        0.433          2.9 
     1966.00        0.367          2.8 
     1967.00        0.367          2.7 
     1968.00        0.233          2.1 
     1969.00        0.267          2.4 
     1970.00        0.233          2.3 
     1971.00        0.250          2.0 
     1972.00        0.300          1.8 
     1973.00        0.233          2.0 
     1974.00        0.200          2.2 
     1975.00        0.233          2.3 
     1976.00        0.300          1.8 
     1977.00        0.267          2.1 
     1978.00        0.300          2.2 
     1979.00        0.367          2.4 
     1980.00        0.267          2.3 
     1981.00        0.200          2.8 
     1982.00        4.967          3.8 
     1983.00        0.133          3.0 
     1984.00        0.200          3.1 
     1985.00        0.233          3.0 
     1986.00        0.400          3.3 
     1987.00        0.300          3.9 
     1988.00        0.333          3.7 
     1989.00        0.333          3.9 
     1990.00        0.300          3.2 
     1991.00        0.317          3.5 
     1992.00        0.267          3.3 
     1993.00        0.300          3.1 
     1994.00        0.267          2.8 
     1995.00        0.267          2.7 
     1996.00        0.233          2.5 
     1997.00        0.233          2.6 
     1998.00        0.233          1.9 
     1999.00        0.233          2.2 
     2000.00        0.300          2.1 
     2001.00        0.233          1.6 
     2002.00        0.233          1.6 
     2003.00        0.233          2.0 
