~Version Information
VERS.                      2.0: CWLS Log ASCII Standard - VERSION 2.0
WRAP.                       NO: One line per depth step
~Well Information Block
STRT.FT               582.2500: 
STOP.FT              2642.5000: 
STEP.FT                 0.2500: 
NULL.                -999.2500: 
COMP.          Petrogulf Corporation: COMPANY
WELL.           Montoya 12-41V: WELL
FLD.           Purgatorie River: FIELD
LOC.           1081' FNL & 605' FEL: LOCATION
CNTY.               Las Animas: COUNTY
SRVC.                         : SERVICE COMPANY
DATE.          Tue Aug 10 10:59:28 2004: LOG DATE
UWI.           05 071 08094 00: UNIQUE WELL ID
STAT.                 Colorado: STATE
~Curve Information Block
DEPT.FT            0 000 00 00: Depth
SP.mV                         : DIL Spontaneous Potential
RILD.Ohm-m                    : DIL Deep Resistivity
RILM.Ohm-m                    : DIL Medium Resistivity
RLL3.Ohm-m                    : DIL Shallow Resistivity
GR.GAPI                       : Gamma Ray
~Parameter Information Block
~A  Depth        SP         RILD        RILM        RLL3         GR     
# ...
  1954.2500     -8.9760     15.3055     13.1559     15.9523    152.4254
  1954.5000     -9.3683     15.6435     13.4096     16.4563    153.6738
  1954.7500     -9.9334     15.9469     13.7158     17.1223    153.5984
  1955.0000    -10.6069     16.2474     14.0786     17.9290    154.4575
  1955.2500    -11.3544     16.5750     14.5007     18.8666    156.6911
  1955.5000    -12.1728     16.9575     14.9859     19.9418    162.6415
  1955.7500    -13.0725     17.4254     15.5433     21.1794    167.3183
  1956.0000    -14.0479     18.0138     16.1900     22.6287    172.7254
  1956.2500    -15.0613     18.7524     16.9534     24.3813    174.2942
  1956.5000    -16.0371     19.6490     17.8704     26.6016    174.3709
  1956.7500    -16.8805     20.6725     18.9833     29.5462    174.0876
  1957.0000    -17.4988     21.7504     20.3336     33.5395    173.7077
  1957.2500    -17.8252     22.7871     21.9515     38.8891    172.4608
  1957.5000    -17.8360     23.6942     23.8443     45.7465    167.0975
  1957.7500    -17.5576     24.4101     25.9801     53.9577    161.1848
  1958.0000    -17.0589     24.8975     28.2758     62.9648    150.8112
  1958.2500    -16.4380     25.1330     30.5922     71.8215    144.2972
  1958.5000    -15.7992     25.1094     32.7469     79.3588    136.8172
  1958.7500    -15.2318     24.8567     34.5469     84.4740    134.0081
  1959.0000    -14.7980     24.4555     35.8300     86.4517    133.7220
  1959.2500    -14.5257     24.0226     36.5064     85.1717    135.8806
  1959.5000    -14.4130     23.6761     36.5765     81.0976    140.5497
  1959.7500    -14.4341     23.5030     36.1300     75.0572    143.0289
  1960.0000    -14.5413     23.5443     35.3239     67.9486    144.5672
  1960.2500    -14.6728     23.7953     34.3494     60.5378    144.9059
  1960.5000    -14.7554     24.2126     33.3977     53.4201    147.0756
  1960.7500    -14.7202     24.7301     32.6310     47.0916    150.7392
  1961.0000    -14.5234     25.2782     32.1702     42.0182    159.0838
  1961.2500    -14.1629     25.8070     32.0921     38.6404    164.9944
  1961.5000    -13.6906     26.3048     32.4305     37.3176    171.0299
  1961.7500    -13.2018     26.7993     33.1794     38.2531    171.6232
  1962.0000    -12.8077     27.3423     34.2935     41.4196    166.2595
  1962.2500    -12.6045     27.9800     35.6906     46.4999    158.9071
  1962.5000    -12.6474     28.7247     37.2602     52.8684    144.3638
  1962.7500    -12.9503     29.5387     38.8832     59.6560    133.9324
  1963.0000    -13.4982     30.3406     40.4582     65.9287    119.6817
  1963.2500    -14.2722     31.0352     41.9215     70.9262    112.3304
  1963.5000    -15.2569     31.5487     43.2528     74.2550    106.0250
  1963.7500    -16.4286     31.8492     44.4618     75.9409    104.9498
  1964.0000    -17.7281     31.9456     45.5668     76.3231    105.7465
  1964.2500    -19.0425     31.8876     46.5831     75.8628    105.8562
  1964.5000    -20.2135     31.7648     47.5173     74.9678    103.1287
  1964.7500    -21.0759     31.7023     48.3781     73.8990     99.4411
  1965.0000    -21.5095     31.8273     49.1812     72.7665     92.6514
  1965.2500    -21.4830     32.2184     49.9549     71.5790     88.1299
  1965.5000    -21.0614     32.8604     50.7356     70.3137     81.9994
  1965.7500    -20.3852     33.6322     51.5587     68.9802     78.3651
  1966.0000    -19.6258     34.3471     52.4568     67.6664     73.2406
  1966.2500    -18.9411     34.8489     53.4567     66.5590     69.6959
  1966.5000    -18.4412     35.1093     54.5878     65.9292     63.7988
  1966.7500    -18.1702     35.2496     55.8807     66.0772     59.6427
  1967.0000    -18.1051     35.4688     57.3611     67.2395     53.8827
  1967.2500    -18.1743     35.9380     59.0333     69.4756     50.7373
  1967.5000    -18.2887     36.7178     60.8528     72.5714     47.0420
  1967.7500    -18.3805     37.7181     62.7085     76.0193     45.0181
  1968.0000    -18.4287     38.6978     64.4208     79.1155     42.3914
  1968.2500    -18.4641     39.3231     65.7776     81.1654     40.9091
  1968.5000    -18.5496     39.3050     66.5902     81.7139     39.0611
  1968.7500    -18.7434     38.5532     66.7642     80.6927     38.0159
  1969.0000    -19.0655     37.2277     66.3225     78.4100     36.6729
  1969.2500    -19.4877     35.6373     65.3727     75.3970     35.9568
  1969.5000    -19.9414     34.0866     64.0373     72.1962     35.3567
  1969.7500    -20.3440     32.7809     62.4097     69.1953     35.5584
  1970.0000    -20.6248     31.8226     60.5318     66.5627     37.3725
  1970.2500    -20.7442     31.2519     58.4241     64.2832     39.7074
  1970.5000    -20.6949     31.0813     56.1211     62.2468     44.1694
  1970.7500    -20.4973     31.3160     53.6982     60.3354     46.8475
  1971.0000    -20.1828     31.9466     51.2673     58.4739     48.8464
  1971.2500    -19.7786     32.9387     48.9552     56.6399     48.6049
  1971.5000    -19.2934     34.2229     46.8751     54.8489     46.9999
  1971.7500    -18.7147     35.6932     45.1058     53.1354     46.0384
  1972.0000    -18.0196     37.2085     43.6904     51.5422     45.5197
  1972.2500    -17.2003     38.5977     42.6379     50.1161     45.6341
  1972.5000    -16.2879     39.6747     41.9297     48.9062     45.9813
  1972.7500    -15.3640     40.2880     41.5231     47.9589     46.2363
  1973.0000    -14.5465     40.4051     41.3561     47.3106     46.7257
  1973.2500    -13.9530     40.1677     41.3464     46.9761     47.0662
  1973.5000    -13.6556     39.8580     41.4020     46.9331     47.3933
  1973.7500    -13.6508     39.7914     41.4350     47.1086     47.5674
  1974.0000    -13.8557     40.2153     41.3822     47.3822     48.4243
  1974.2500    -14.1306     41.2704     41.2233     47.6150     49.7591
  1974.5000    -14.3193     42.9909     40.9816     47.7011     52.6193
  1974.7500    -14.2932     45.3185     40.7138     47.6211     54.3448
  1975.0000    -13.9891     48.0935     40.4829     47.4746     55.5070
  1975.2500    -13.4282     51.0223     40.3324     47.4750     55.3894
  1975.5000    -12.7086     53.6578     40.2684     47.9112     55.0286
  1975.7500    -11.9731     55.4683     40.2493     49.0853     55.2266
  1976.0000    -11.3645     56.0314     40.1901     51.2352     56.0677
  1976.2500    -10.9827     55.2504     39.9743     54.4502     56.5289
  1976.5000    -10.8672     53.3818     39.4815     58.5854     56.7239
  1976.7500    -11.0051     50.8672     38.6248     63.2011     56.8885
  1977.0000    -11.3593     48.1190     37.3827     67.5662     58.4024
  1977.2500    -11.8912     45.4137     35.8151     70.7648     60.9095
  1977.5000    -12.5654     42.8894     34.0473     71.9131     67.5944
  1977.7500    -13.3358     40.5913     32.2322     70.4299     74.2140
  1978.0000    -14.1271     38.5237     30.5112     66.2589     87.5973
  1978.2500    -14.8352     36.6926     28.9899     59.9329     98.7675
  1978.5000    -15.3422     35.1272     27.7299     52.4431    117.8648
  1978.7500    -15.5573     33.8759     26.7594     44.9671    130.8685
  1979.0000    -15.4470     32.9889     26.0810     38.5852    148.4298
  1979.2500    -15.0439     32.4988     25.6837     34.0992    158.1828
  1979.5000    -14.4328     32.4080     25.5488     31.9949    169.6325
  1979.7500    -13.7197     32.6809     25.6530     32.4923    174.6271
  1980.0000    -13.0022     33.2450     25.9683     35.5994    176.5150
  1980.2500    -12.3540     34.0031     26.4600     41.1110    173.5649
  1980.5000    -11.8209     34.8621     27.0864     48.5566    163.7938
  1980.7500    -11.4252     35.7769     27.7984     57.1480    155.0365
  1981.0000    -11.1647     36.7797     28.5429     65.7890    141.3283
  1981.2500    -11.0132     37.9800     29.2674     73.1909    133.3915
  1981.5000    -10.9247     39.5260     29.9277     78.1082    125.1797
  1981.7500    -10.8457     41.5439     30.4937     79.6575    122.6899
  1982.0000    -10.7343     44.0725     30.9552     77.6194    123.8092
