~Version Information
VERS.                      2.0: CWLS Log ASCII Standard - VERSION 2.0
WRAP.                       NO: One line per depth step
~Well Information Block
STRT.FT                 0.5000: 
STOP.FT              1575.0000: 
STEP.FT                 0.2500: 
NULL.                -999.2500: 
COMP.          Evergreen Operating Corporation: COMPANY
WELL.                Eric 42-9: WELL
FLD.           Purgatorie River: FIELD
LOC.           2050' FNL & 850' FEL: LOCATION
PROV.                 Colorado: PROVINCE
CNTY.               Las Animas: COUNTRY
SRVC.                         : SERVICE COMPANY
DATE.          Tue Nov 09 16:28:59 2004: LOG DATE
UWI.           05 071 07999 00: UNIQUE WELL ID
~Curve Information Block
DEPT.FT            0 000 00 00: Depth
LTEN.lb                       : Surface Line Tension
TT3.usec                      : CBL 3' Travel Time
AMP3.mV                       : CBL 3' Amplitude
ATT3.db/ft                    : CBL 3' Attenuation
GR.GAPI                       : Gamma Ray
CCL.                          : Casing Collar Locator
~Parameter Information Block
~A  Depth       LTEN        TT3         AMP3        ATT3         GR         CCL     
# ...
   816.5000    573.6854    741.9581      6.0325     -7.9757     96.2757      0.0000
   816.7500    577.5198    728.1630      6.0493     -7.9677    100.4050      0.0000
   817.0000    581.6550    714.9404      6.0260     -7.9788    104.9873      0.0000
   817.2500    584.3638    704.4915      5.9833     -7.9994    109.2738      0.0000
   817.5000    585.0607    698.3587      5.9304     -8.0252    112.8969      0.0000
   817.7500    584.2605    697.3911      5.8692     -8.0552    115.2530      0.0000
   818.0000    582.9359    701.7404      5.8099     -8.0846    115.2910      0.0000
   818.2500    581.8106    710.1785      5.7806     -8.0992    112.5584      0.0000
   818.5000    581.2043    719.9936      5.8147     -8.0822    108.2302      0.0000
   818.7500    581.4030    728.7127      5.9148     -8.0328    104.3392      0.0000
   819.0000    582.7689    735.9133      6.0252     -7.9792    102.1464      0.0000
   819.2500    585.2505    742.7816      6.0581     -7.9635    101.9463      0.0000
   819.5000    587.8904    750.1122      5.9652     -8.0082    104.1553      0.0000
   819.7500    589.1131    757.3236      5.7818     -8.0986    109.5108      0.0000
   820.0000    587.8791    763.4614      5.5946     -8.1939    117.7375      0.0000
   820.2500    584.7267    768.4639      5.4734     -8.2573    126.5827      0.0000
   820.5000    581.4099    772.9338      5.4300     -8.2804    132.8533      0.0000
   820.7500    579.3080    777.0845      5.4255     -8.2828    134.3927      0.0000
   821.0000    578.3708    780.5416      5.4113     -8.2904    130.7141      0.0000
   821.2500    577.6132    782.9775      5.3753     -8.3097    122.2283      0.0000
   821.5000    576.2898    784.4257      5.3504     -8.3231    109.9607      0.0000
   821.7500    574.5543    785.0665      5.3680     -8.3136     96.0444      0.0000
   822.0000    573.3138    785.0384      5.4111     -8.2905     83.4031      0.0000
   822.2500    573.5063    784.4812      5.4273     -8.2818     74.3845      0.0000
   822.5000    575.2745    783.6115      5.3875     -8.3031     69.8782      0.0000
   822.7500    577.7859    782.6929      5.3154     -8.3421     69.5743      0.0000
   823.0000    580.1175    781.8699      5.2613     -8.3718     72.5538      0.0000
   823.2500    582.2816    780.9232      5.2587     -8.3732     77.4930      0.0000
   823.5000    584.8629    778.9527      5.3073     -8.3466     82.7249      0.0000
   823.7500    587.7486    773.9861      5.3801     -8.3071     86.7360      0.0000
   824.0000    590.1037    762.8323      5.4412     -8.2744     89.0616      0.0000
   824.2500    591.6835    742.1152      5.4638     -8.2624     90.6539      0.0000
   824.5000    593.1193    711.2504      5.4436     -8.2732     93.1145      0.0000
   824.7500    594.6504    675.4756      5.3969     -8.2981     97.5262      0.0000
   825.0000    595.4980    644.3209      5.3462     -8.3254    103.9134      0.0000
   825.2500    594.7251    624.5173      5.3099     -8.3451    111.5198      0.0000
   825.5000    592.0724    614.8813      5.2999     -8.3506    119.5106      0.0000
   825.7500    588.0225    610.2062      5.3176     -8.3409    127.4754      0.0000
   826.0000    583.6783    608.9266      5.3492     -8.3238    134.9861      0.0000
   826.2500    580.3276    614.4642      5.3741     -8.3103    140.6492      0.0000
   826.5000    578.4890    629.6475      5.3819     -8.3062    142.3942      0.0000
   826.7500    577.4650    651.5230      5.3820     -8.3061    139.1668      0.0000
   827.0000    576.1071    671.3997      5.3966     -8.2982    131.9111      0.0000
   827.2500    573.9331    679.6647      5.4402     -8.2750    122.7343      0.0000
   827.5000    571.5985    671.4727      5.5024     -8.2420    113.5102      0.0000
   827.7500    570.4327    649.4012      5.5531     -8.2154    105.1421      0.0000
   828.0000    571.3895    622.4879      5.5692     -8.2071     97.7102      0.0000
   828.2500    574.3344    602.7025      5.5545     -8.2147     91.2859      0.0000
   828.5000    578.2111    599.3593      5.5312     -8.2269     86.5503      0.0000
   828.7500    581.7139    613.8315      5.5142     -8.2358     84.2205      0.0000
   829.0000    583.9670    638.9129      5.5016     -8.2424     83.8664      0.0000
   829.2500    584.9781    663.8718      5.4861     -8.2506     83.7688      0.0000
   829.5000    585.4717    680.7109      5.4684     -8.2600     82.2283      0.0000
   829.7500    586.0286    686.2405      5.4576     -8.2657     79.0307      0.0000
   830.0000    586.4670    679.8599      5.4612     -8.2638     75.5338      0.0000
   830.2500    586.1304    661.6738      5.4784     -8.2547     73.3665      0.0000
   830.5000    584.5057    633.6931      5.5029     -8.2418     73.3130      0.0000
   830.7500    581.5317    601.5526      5.5293     -8.2279     75.3422      0.0000
   831.0000    577.7549    572.7515      5.5527     -8.2157     79.0315      0.0000
   831.2500    574.3624    552.3441      5.5645     -8.2095     83.6423      0.0000
   831.5000    572.6919    540.6937      5.5571     -8.2134     88.1959      0.0000
   831.7500    573.4506    535.0736      5.5339     -8.2255     91.9563      0.0000
   832.0000    576.4087    532.4996      5.5086     -8.2388     94.8540      0.0000
   832.2500    580.6562    531.1179      5.4935     -8.2467     97.0613      0.0000
   832.5000    585.0373    530.1068      5.4920     -8.2475     98.0874      0.0000
   832.7500    588.8079    529.1943      5.5025     -8.2420     96.8874      0.0000
   833.0000    592.2455    528.5369      5.5262     -8.2295     93.2288      0.0000
   833.2500    596.0695    528.9730      5.5680     -8.2077     88.2672      0.0000
   833.5000    599.7336    532.3466      5.6278     -8.1768     83.1945      0.0000
   833.7500    600.9252    540.8236      5.6915     -8.1442     78.0241      0.0000
   834.0000    597.6346    554.5085      5.7335     -8.1229     72.3650      0.0000
   834.2500    590.5199    569.4258      5.7323     -8.1235     66.7776      0.0000
   834.5000    582.5333    580.2440      5.6867     -8.1466     62.5789      0.0000
   834.7500    576.2458    586.8846      5.6156     -8.1831     60.5364      0.0000
   835.0000    572.0968    596.0172      5.5468     -8.2188     60.3157      0.0000
   835.2500    569.1752    612.4513      5.5083     -8.2389     61.1434      0.0000
   835.5000    566.9782    630.3848      5.5250     -8.2302     62.4832      0.0000
   835.7500    566.0960    637.4420      5.6107     -8.1856     63.9377      0.0000
   836.0000    567.4243    628.6400      5.7535     -8.1128     64.9409      0.0000
   836.2500    570.8563    614.1844      5.9092     -8.0355     64.9226      0.0000
   836.5000    574.7676    611.6445      6.0266     -7.9786     63.7499      0.0000
   836.7500    577.2386    630.5087      6.0921     -7.9473     61.9705      0.0000
   837.0000    577.9936    664.5717      6.1416     -7.9238     60.6696      0.0000
   837.2500    578.5183    697.6946      6.2132     -7.8903     60.8837      0.0000
   837.5000    580.0090    715.0741      6.2939     -7.8529     62.8763      0.0000
   837.7500    581.9379    710.4930      6.3298     -7.8364     66.1664      0.0000
   838.0000    582.9562    688.2290      6.2887     -7.8553     70.5527      0.0000
   838.2500    582.5487    661.4409      6.1982     -7.8973     76.8249      0.0000
   838.5000    581.5002    645.5374      6.1196     -7.9342     85.9479      0.0000
   838.7500    581.1157    648.0269      6.0988     -7.9441     97.5157      0.0000
   839.0000    582.0551    664.3782      6.1445     -7.9225    109.3760      0.0000
   839.2500    583.6751    685.3140      6.2277     -7.8835    118.9637      0.0000
   839.5000    584.7071    706.2424      6.2926     -7.8535    124.9898      0.0000
   839.7500    584.8188    727.3115      6.2852     -7.8569    128.0863      0.0000
   840.0000    585.0038    747.5437      6.1922     -7.9001    130.2484      0.0000
   840.2500    585.9879    763.4608      6.0514     -7.9667    133.5912      0.0000
