~Version Information
VERS.                      2.0: CWLS Log ASCII Standard - VERSION 2.0
WRAP.                       NO: One line per depth step
~Well Information Block
STRT.FT                -7.6500: 
STOP.FT              3097.2500: 
STEP.FT                 0.0500: 
NULL.                -999.2500: 
COMP.          Pioneer Natural Resources: COMPANY
WELL.            Paradise 13-8: WELL
FLD.           Purgatoire River: FIELD
LOC.           1896' FSL & 1120' FWL--: LOCATION
PROV.                 Colorado: PROVINCE
CNTY.               Las Animas: COUNTRY
SRVC.                Patterson: SERVICE COMPANY
DATE.          Fri Feb 04 16:52:25 2005: LOG DATE
UWI.           05 071 07946 00: UNIQUE WELL ID
~Curve Information Block
DEPT.FT            0 000 00 00: Depth
CCL.                          : Casing Collar Locator
TT3.usec                      : CBL 3' Travel Time
AMP3.mV                       : CBL 3' Amplitude
GR.GAPI                       : Gamma Ray
~Parameter Information Block
~A  Depth       CCL         TT3         AMP3         GR     
# ...
  2256.9500      0.0000    533.1619      2.3285     81.7389
  2257.0000      0.0000    533.0027      2.3547     75.3999
  2257.0500      0.0000    533.0027      2.3547     75.3999
  2257.1000      0.0000    533.0027      2.3547     75.3999
  2257.1500      0.0000    533.0027      2.3547     75.3999
  2257.2000      0.0000    533.0027      2.3547     75.3999
  2257.2500      0.0000    532.8253      2.3722     70.8732
  2257.3000      0.0000    532.8253      2.3722     70.8732
  2257.3500      0.0000    532.8253      2.3722     70.8732
  2257.4000      0.0000    532.8253      2.3722     70.8732
  2257.4500      0.0000    532.8253      2.3722     70.8732
  2257.5000      0.0000    532.7102      2.3728     68.3967
  2257.5500      0.0000    532.7102      2.3728     68.3967
  2257.6000      0.0000    532.7102      2.3728     68.3967
  2257.6500      0.0000    532.7102      2.3728     68.3967
  2257.7000      0.0000    532.7102      2.3728     68.3967
  2257.7500      0.0000    532.6854      2.3536     67.2948
  2257.8000      0.0000    532.6854      2.3536     67.2948
  2257.8500      0.0000    532.6854      2.3536     67.2948
  2257.9000      0.0000    532.6854      2.3536     67.2948
  2257.9500      0.0000    532.6854      2.3536     67.2948
  2258.0000      0.0000    532.7033      2.3210     66.6038
  2258.0500      0.0000    532.7033      2.3210     66.6038
  2258.1000      0.0000    532.7033      2.3210     66.6038
  2258.1500      0.0000    532.7033      2.3210     66.6038
  2258.2000      0.0000    532.7033      2.3210     66.6038
  2258.2500      0.0000    532.6875      2.2914     65.7625
  2258.3000      0.0000    532.6875      2.2914     65.7625
  2258.3500      0.0000    532.6875      2.2914     65.7625
  2258.4000      0.0000    532.6875      2.2914     65.7625
  2258.4500      0.0000    532.6875      2.2914     65.7625
  2258.5000      0.0000    532.5970      2.2834     64.8115
  2258.5500      0.0000    532.5970      2.2834     64.8115
  2258.6000      0.0000    532.5970      2.2834     64.8115
  2258.6500      0.0000    532.5970      2.2834     64.8115
  2258.7000      0.0000    532.5970      2.2834     64.8115
  2258.7500      0.0000    532.4475      2.3073     64.2991
  2258.8000      0.0000    532.4475      2.3073     64.2991
  2258.8500      0.0000    532.4475      2.3073     64.2991
  2258.9000      0.0000    532.4475      2.3073     64.2991
  2258.9500      0.0000    532.4475      2.3073     64.2991
  2259.0000      0.0000    532.2903      2.3590     65.0530
  2259.0500      0.0000    532.2903      2.3590     65.0530
  2259.1000      0.0000    532.2903      2.3590     65.0530
  2259.1500      0.0000    532.2903      2.3590     65.0530
  2259.2000      0.0000    532.2903      2.3590     65.0530
  2259.2500      0.0000    532.1890      2.4251     67.4414
  2259.3000      0.0000    532.1890      2.4251     67.4414
  2259.3500      0.0000    532.1890      2.4251     67.4414
  2259.4000      0.0000    532.1890      2.4251     67.4414
  2259.4500      0.0000    532.1890      2.4251     67.4414
  2259.5000      0.0000    532.2355      2.4896     70.3204
  2259.5500      0.0000    532.2355      2.4896     70.3204
  2259.6000      0.0000    532.2355      2.4896     70.3204
  2259.6500      0.0000    532.2355      2.4896     70.3204
  2259.7000      0.0000    532.2355      2.4896     70.3204
  2259.7500      0.0000    532.6280      2.5405     71.2622
  2259.8000      0.0000    532.6280      2.5405     71.2622
  2259.8500      0.0000    532.6280      2.5405     71.2622
  2259.9000      0.0000    532.6280      2.5405     71.2622
  2259.9500      0.0000    532.6280      2.5405     71.2622
  2260.0000      0.0000    533.7785      2.5731     68.9969
  2260.0500      0.0000    533.7785      2.5731     68.9969
  2260.1000      0.0000    533.7785      2.5731     68.9969
  2260.1500      0.0000    533.7785      2.5731     68.9969
  2260.2000      0.0000    533.7785      2.5731     68.9969
  2260.2500      0.0000    536.2643      2.5913     65.4284
  2260.3000      0.0000    536.2643      2.5913     65.4284
  2260.3500      0.0000    536.2643      2.5913     65.4284
  2260.4000      0.0000    536.2643      2.5913     65.4284
  2260.4500      0.0000    536.2643      2.5913     65.4284
  2260.5000      0.0000    540.3372      2.6052     64.0084
  2260.5500      0.0000    540.3372      2.6052     64.0084
  2260.6000      0.0000    540.3372      2.6052     64.0084
  2260.6500      0.0000    540.3372      2.6052     64.0084
  2260.7000      0.0000    540.3372      2.6052     64.0084
  2260.7500      0.0000    545.1416      2.6236     66.1136
  2260.8000      0.0000    545.1416      2.6236     66.1136
  2260.8500      0.0000    545.1416      2.6236     66.1136
  2260.9000      0.0000    545.1416      2.6236     66.1136
  2260.9500      0.0000    545.1416      2.6236     66.1136
  2261.0000      0.0000    548.6279      2.6468     69.8851
  2261.0500      0.0000    548.6279      2.6468     69.8851
  2261.1000      0.0000    548.6279      2.6468     69.8851
  2261.1500      0.0000    548.6279      2.6468     69.8851
  2261.2000      0.0000    548.6279      2.6468     69.8851
  2261.2500      0.0000    548.9001      2.6668     72.3093
  2261.3000      0.0000    548.9001      2.6668     72.3093
  2261.3500      0.0000    548.9001      2.6668     72.3093
  2261.4000      0.0000    548.9001      2.6668     72.3093
  2261.4500      0.0000    548.9001      2.6668     72.3093
  2261.5000      0.0000    545.9042      2.6770     71.5739
  2261.5500      0.0000    545.9042      2.6770     71.5739
  2261.6000      0.0000    545.9042      2.6770     71.5739
  2261.6500      0.0000    545.9042      2.6770     71.5739
  2261.7000      0.0000    545.9042      2.6770     71.5739
  2261.7500      0.0000    541.4777      2.6782     67.6897
  2261.8000      0.0000    541.4777      2.6782     67.6897
  2261.8500      0.0000    541.4777      2.6782     67.6897
  2261.9000      0.0000    541.4777      2.6782     67.6897
  2261.9500      0.0000    541.4777      2.6782     67.6897
  2262.0000      0.0000    537.6795      2.6750     61.9998
  2262.0500      0.0000    537.6795      2.6750     61.9998
  2262.1000      0.0000    537.6795      2.6750     61.9998
  2262.1500      0.0000    537.6795      2.6750     61.9998
  2262.2000      0.0000    537.6795      2.6750     61.9998
  2262.2500      0.0000    535.3536      2.6691     56.4948
  2262.3000      0.0000    535.3536      2.6691     56.4948
  2262.3500      0.0000    535.3536      2.6691     56.4948
  2262.4000      0.0000    535.3536      2.6691     56.4948
  2262.4500      0.0000    535.3536      2.6691     56.4948
  2262.5000      0.0000    534.1616      2.6580     52.9013
  2262.5500      0.0000    534.1616      2.6580     52.9013
  2262.6000      0.0000    534.1616      2.6580     52.9013
  2262.6500      0.0000    534.1616      2.6580     52.9013
  2262.7000      0.0000    534.1616      2.6580     52.9013
  2262.7500      0.0000    533.4481      2.6405     51.7869
  2262.8000      0.0000    533.4481      2.6405     51.7869
  2262.8500      0.0000    533.4481      2.6405     51.7869
  2262.9000      0.0000    533.4481      2.6405     51.7869
  2262.9500      0.0000    533.4481      2.6405     51.7869
  2263.0000      0.0000    532.8911      2.6214     52.4411
  2263.0500      0.0000    532.8911      2.6214     52.4411
  2263.1000      0.0000    532.8911      2.6214     52.4411
  2263.1500      0.0000    532.8911      2.6214     52.4411
  2263.2000      0.0000    532.8911      2.6214     52.4411
  2263.2500      0.0000    532.7272      2.6088     53.6076
  2263.3000      0.0000    532.7272      2.6088     53.6076
  2263.3500      0.0000    532.7272      2.6088     53.6076
  2263.4000      0.0000    532.7272      2.6088     53.6076
  2263.4500      0.0000    532.7272      2.6088     53.6076
  2263.5000      0.0000    533.8839      2.6076     54.3639
  2263.5500      0.0000    533.8839      2.6076     54.3639
  2263.6000      0.0000    533.8839      2.6076     54.3639
