~Version Information
VERS.                      2.0: CWLS Log ASCII Standard - VERSION 2.0
WRAP.                       NO: One line per depth step
~Well Information Block
STRT.FT                -6.5000: 
STOP.FT              1719.0000: 
STEP.FT                 0.5000: 
NULL.                -999.2500: 
COMP.          Pioneer Natural Resources: COMPANY
WELL.             Tami J 23-18: WELL
FLD.           Purgatorie River: FIELD
LOC.           2250' FSL & 2400' FWL: LOCATION
PROV.                 Colorado: PROVINCE
CNTY.               Las Animas: COUNTRY
SRVC.          Patterson Wireline: SERVICE COMPANY
DATE.          Fri Dec 17 13:50:12 2004: LOG DATE
UWI.           05-071-08073-00: UNIQUE WELL ID
~Curve Information Block
DEPT.FT            0 000 00 00: Depth
CCL.                          : Casing Collar Locator
TT3.usec                      : CBL 3' Travel Time
AMP3.mV                       : CBL 3' Amplitude
GR.GAPI                       : Gamma Ray
~Parameter Information Block
~A  Depth       CCL         TT3         AMP3         GR     
# ...
   797.5000      0.0000    712.2332      6.6184    128.6912
   798.0000      0.0000    712.5546      6.7721    108.5629
   798.5000      0.0000    717.0321      6.6209     93.7983
   799.0000      0.0000    724.1052      6.1728     93.3033
   799.5000      0.0000    722.2902      5.8145    104.2676
   800.0000      0.0000    701.3726      5.7465    115.4468
   800.5000      0.0000    690.1295      5.6526    118.4645
   801.0000      0.0000    715.3755      5.3640    115.6545
   801.5000      0.0000    764.9387      5.3886    116.3247
   802.0000      0.0000    813.3724      5.4651    122.2225
   802.5000      0.0000    834.8928      5.3148    125.2582
   803.0000      0.0000    828.8621      5.4037    124.0805
   803.5000      0.0000    797.6624      5.6468    126.1274
   804.0000      0.0000    762.1967      5.6298    128.5302
   804.5000      0.0000    742.9487      5.6688    126.8990
   805.0000      0.0000    738.3359      5.7760    127.8814
   805.5000      0.0000    738.9540      5.7798    133.8425
   806.0000      0.0000    737.5292      5.6982    134.9238
   806.5000      0.0000    728.9373      5.7289    122.6093
   807.0000      0.0000    714.6747      6.0022    100.6535
   807.5000      0.0000    707.9434      6.3118     75.7690
   808.0000      0.0000    719.8976      6.3621     66.0042
   808.5000      0.0000    731.5446      6.1591     83.7015
   809.0000      0.0000    730.5190      5.8463    112.0165
   809.5000      0.0000    732.6306      5.5128    131.0141
   810.0000      0.0000    740.6213      5.2179    137.5086
   810.5000      0.0000    743.7635      5.1095    136.5281
   811.0000      0.0000    749.4662      5.2285    128.8591
   811.5000      0.0000    758.1637      5.2788    124.6424
   812.0000      0.0000    758.3887      5.0819    126.1410
   812.5000      0.0000    757.1160      4.8285    121.3394
   813.0000      0.0000    758.2922      4.6383     96.4914
   813.5000      0.0000    754.5133      4.5787     68.0632
   814.0000      0.0000    755.0204      4.6748     58.1094
   814.5000      0.0000    763.8323      4.7005     67.8901
   815.0000      0.0000    770.8746      4.6051     85.5619
   815.5000      0.0000    777.5904      4.6107    100.1390
   816.0000      0.0000    782.0676      4.8528    114.8531
   816.5000      0.0000    781.9337      5.2386    129.5012
   817.0000      0.0000    780.8361      5.5330    134.9656
   817.5000      0.0000    777.9468      5.6506    134.2896
   818.0000      0.0000    776.8434      5.7032    140.9617
   818.5000      0.0000    777.0567      5.7253    151.6869
   819.0000      0.0000    773.1684      5.6557    149.8734
   819.5000      0.0000    760.8950      5.5405    142.5535
   820.0000      0.0000    747.5835      5.5716    142.8829
   820.5000      0.0000    747.8548      5.8454    146.5059
   821.0000      0.0000    761.1375      6.1601    142.4438
   821.5000      0.0000    772.2209      6.3294    121.8274
   822.0000      0.0000    773.7811      6.2321     89.2152
   822.5000      0.0000    766.5615      5.9294     66.1507
   823.0000      0.0000    752.2094      5.8446     59.1700
   823.5000      0.0000    741.5462      6.1140     55.3137
   824.0000      0.0000    741.6110      6.3679     53.8267
   824.5000      0.0000    747.3550      6.3616     62.0478
   825.0000      0.0000    752.5335      6.1635     70.1764
   825.5000      0.0000    752.2755      6.1422     66.1226
   826.0000      0.0000    746.8363      6.4793     58.9135
   826.5000      0.0000    750.0112      6.8468     60.0026
   827.0000      0.0000    756.9779      6.8230     69.3062
   827.5000      0.0000    758.9304      6.4749     84.7764
   828.0000      0.0000    758.0304      6.2419     99.9137
   828.5000      0.0000    748.1577      6.4205    112.0523
   829.0000      0.0000    742.4823      6.7918    116.2014
   829.5000      0.0000    749.2512      6.9540    113.8493
   830.0000      0.0000    754.4966      6.8411    116.5410
   830.5000      0.0000    751.5627      6.5330    117.8007
   831.0000      0.0000    749.2625      6.2018    116.0706
   831.5000      0.0000    749.5975      6.1435    122.7640
   832.0000      0.0000    754.6228      6.2051    128.1271
   832.5000      0.0000    757.7950      5.9623    126.2158
   833.0000      0.0000    756.5602      5.6203    130.9662
   833.5000      0.0000    752.0780      5.5651    139.3305
   834.0000      0.0000    747.2331      5.6058    135.2225
   834.5000      0.0000    752.9694      5.4543    121.5980
   835.0000      0.0000    771.4067      5.3986    112.8717
   835.5000      0.0000    784.2026      5.4667    113.7612
   836.0000      0.0000    781.9967      5.4746    122.9465
   836.5000      0.0000    776.0738      5.6867    131.3925
   837.0000      0.0000    774.8737      6.0071    132.0164
   837.5000      0.0000    774.3533      6.2177    130.2525
   838.0000      0.0000    767.4821      6.2058    127.4957
   838.5000      0.0000    754.2989      5.9470    120.8947
   839.0000      0.0000    749.9948      5.7493    118.3224
   839.5000      0.0000    755.7098      5.6616    116.9845
   840.0000      0.0000    752.3209      5.8178    114.2312
   840.5000      0.0000    743.2566      6.1111    114.1201
   841.0000      0.0000    740.1682      6.1819    116.6292
   841.5000      0.0000    742.9834      6.1886    119.8415
   842.0000      0.0000    746.7269      6.2138    118.8140
   842.5000      0.0000    746.2980      6.1288    111.9142
   843.0000      0.0000    743.6709      6.1730     99.7624
   843.5000      0.0000    739.1411      6.3171     83.1955
   844.0000      0.0000    739.2964      6.1516     71.9042
   844.5000      0.0000    757.0938      5.8390     69.8621
   845.0000      0.0000    797.5996      5.5291     79.0442
   845.5000      0.0000    822.2756      5.3643    100.5264
   846.0000      0.0000    824.9320      5.7207    120.2235
   846.5000      0.0000    810.5452      6.1783    124.7590
   847.0000      0.0000    787.8800      6.1748    121.1663
   847.5000      0.0000    774.8458      5.9381    118.5932
   848.0000      0.0000    770.1760      5.8795    116.5037
   848.5000      0.0000    769.4182      5.8915    115.3724
   849.0000      0.0000    764.6101      5.7609    122.4769
   849.5000      0.0000    763.8278      5.6466    132.0350
   850.0000      0.0000    773.0866      5.5298    132.6855
   850.5000      0.0000    776.4330      5.4247    121.2924
   851.0000      0.0000    775.5601      5.4054    102.6759
   851.5000      0.0000    774.5735      5.2985     90.1777
   852.0000      0.0000    771.0453      5.1180     92.2018
   852.5000      0.0000    770.5643      5.0889    101.8817
   853.0000      0.0000    772.0799      5.2734    110.2523
   853.5000      0.0000    774.9966      5.5157    113.7358
   854.0000      0.0000    789.4922      5.5418    114.7381
   854.5000      0.0000    805.5346      5.3868    121.3106
   855.0000      0.0000    800.7990      5.3107    129.1711
   855.5000      0.0000    784.2576      5.2873    129.0532
   856.0000      0.0000    776.8515      5.2206    122.5405
   856.5000      0.0000    769.6833      5.2070    115.6466
   857.0000      0.0000    755.3829      5.3095    114.1842
   857.5000      0.0000    743.5074      5.4936    122.3656
   858.0000      0.0000    739.1746      5.6191    134.4490
   858.5000      0.0000    738.4510      5.6408    136.3111
   859.0000      0.0000    738.5092      5.6370    129.0034
   859.5000      0.0000    738.5208      5.6362    130.4472
   860.0000      0.0000    737.8469      5.6873    142.4809
   860.5000      0.0000    736.8668      5.8537    148.8775
   861.0000      0.0000    736.4554      6.0053    144.9328
   861.5000      0.0000    736.6210      6.0924    136.8223
   862.0000      0.0000    737.3073      6.0785    139.2745
   862.5000      0.0000    738.4668      6.0633    147.6307
   863.0000      0.0000    739.1355      6.0205    146.9247
   863.5000      0.0000    738.3273      5.9787    141.5777
   864.0000      0.0000    737.2094      5.9889    137.1098
