~Version Information
 VERS.                                  2.0 : CWLS LAS VERSION
 WRAP.                                   NO : WRAPING MODE
 SWARE .                 MController 2.5.0J : SOFTWARE VERSION
~Well Information
 WELL.                  Great Plains 22-21V : WELL
 COMP.                Petrogulf Corporation : COMPANY
 FLD.                      Purgatoire River : FIELD
 LOC.                NE/NW Sec 22 T33S R67W : LOCATION
 DATE.                          08/29-30/05 : DATE(S) LOGGED
 SRVC.       Blanco Geological Services LLC : SERVICE COMPANY
 STAT.                                   CO : STATE
 CNTY.                           Las Animas : COUNTY
 CTRY.                                  USA : COUNTRY
 API.                       05-071-08346-00 : API NUMBER
 STRT.FT                              -2.00 : START DEPTH
 STOP.FT                            2090.00 : STOP DEPTH
 STEP.FT                               1.00 : DEPTH INCREMENT
 NULL.                                -9999 : NULL VALUE
~Curve information
 DEPTH.FT                                   :
 ROP.MIN/FT                                 :
 GAS.UNITS                                  :
~ASCII Log data
# ...
       798.0         0.20         13.1 
       799.0         0.23         13.9 
       800.0         0.27         13.6 
       801.0         0.17         13.9 
       802.0         0.20         14.2 
       803.0         0.13         14.6 
       804.0         0.13         15.0 
       805.0         0.13         15.9 
       806.0         0.10         17.0 
       807.0         0.10         19.3 
       808.0         1.35         29.7 
       809.0         0.17         16.7 
       810.0         0.17         16.5 
       811.0         0.10         15.5 
       812.0         0.10         14.9 
       813.0         0.13         14.9 
       814.0         0.20         15.0 
       815.0         0.17         18.8 
       816.0         0.13         22.8 
       817.0         0.13         24.8 
       818.0         0.13         26.6 
       819.0         0.13         27.4 
       820.0         0.17         27.8 
       821.0         0.27         27.2 
       822.0         0.25         25.8 
       823.0         0.13         24.4 
       824.0         0.10         23.9 
       825.0         0.13         22.8 
       826.0         0.10         22.8 
       827.0         0.17         22.3 
       828.0         0.17         21.8 
       829.0         0.17         20.7 
       830.0         0.20         20.0 
       831.0         0.20         19.0 
       832.0         0.13         19.3 
       833.0         0.20         21.6 
       834.0         0.20         25.2 
       835.0         0.13         29.4 
       836.0         0.17         34.7 
       837.0         0.13         36.9 
       838.0         1.15         37.6 
       839.0         0.27         22.2 
       840.0         0.40         20.3 
       841.0         0.30         18.6 
       842.0         0.37         18.1 
       843.0         0.27         17.5 
       844.0         0.20         17.4 
       845.0         0.13         17.2 
       846.0         0.17         16.8 
       847.0         0.22         16.8 
       848.0         0.17         16.5 
       849.0         0.20         16.5 
       850.0         0.17         16.3 
       851.0         0.20         16.3 
       852.0         0.17         15.4 
       853.0         0.23         16.4 
       854.0         0.20         16.7 
       855.0         0.17         18.9 
       856.0         0.20         21.6 
       857.0         0.20         24.8 
       858.0         0.23         26.7 
       859.0         0.27         26.0 
       860.0         0.23         23.7 
       861.0         0.22         23.0 
       862.0         0.13         23.7 
       863.0         0.10         24.7 
       864.0         0.10         27.5 
       865.0         0.10         28.7 
       866.0         0.07         30.8 
       867.0         0.10         31.4 
       868.0         1.23         34.6 
       869.0         0.10         22.0 
       870.0         0.17         21.4 
       871.0         0.27         21.1 
       872.0         0.20         20.1 
       873.0         0.22         18.2 
       874.0         0.20         17.3 
       875.0         0.17         17.1 
       876.0         0.13         16.5 
       877.0         0.17         17.0 
       878.0         0.13         16.9 
       879.0         0.13         16.6 
       880.0         0.13         17.0 
       881.0         0.10         17.0 
       882.0         0.13         18.0 
       883.0         0.13         17.8 
       884.0         0.17         18.2 
       885.0         0.17         18.5 
       886.0         0.17         18.6 
       887.0         0.17         18.1 
       888.0         0.13         16.7 
       889.0         0.17         16.3 
       890.0         0.17         15.8 
       891.0         0.10         16.3 
       892.0         0.10         15.8 
       893.0         0.10         16.2 
       894.0         0.10         16.9 
       895.0         0.12         18.7 
       896.0         0.10         20.0 
       897.0         0.13         22.6 
       898.0         1.47         25.0 
       899.0         0.13         17.7 
       900.0         0.27         18.3 
       901.0         0.23         18.9 
       902.0         0.27         19.5 
       903.0         0.20         18.7 
       904.0         0.13         18.4 
       905.0         0.13         18.0 
       906.0         0.13         18.0 
       907.0         0.15         18.1 
       908.0         0.10         18.1 
       909.0         0.10         18.0 
       910.0         0.10         18.0 
       911.0         0.10         17.9 
       912.0         0.13         17.8 
       913.0         0.13         16.8 
       914.0         0.17         16.9 
       915.0         0.17         16.8 
       916.0         0.20         16.6 
       917.0         0.13         16.3 
       918.0         0.10         16.1 
       919.0         0.20         15.9 
       920.0         0.13         15.4 
       921.0         0.10         14.7 
       922.0         0.17         16.0 
       923.0         0.13         16.0 
       924.0         0.13         17.8 
       925.0         0.17         19.8 
       926.0         0.13         22.2 
       927.0         0.17         25.4 
       928.0         1.45         27.9 
       929.0         0.33         31.2 
       930.0         0.17         33.5 
       931.0         0.17         34.6 
       932.0         0.17         34.5 
       933.0         0.13         33.2 
       934.0         0.13         32.1 
       935.0         0.10         30.7 
       936.0         0.17         29.1 
       937.0         0.13         28.0 
       938.0         0.10         27.1 
       939.0         0.10         26.7 
       940.0         0.13         26.6 
       941.0         0.10         26.5 
       942.0         0.15         26.5 
       943.0         0.23         25.9 
       944.0         0.20         25.1 
       945.0         0.20         24.4 
       946.0         0.17         22.4 
       947.0         0.10         21.1 
       948.0         0.13         20.2 
       949.0         0.07         19.0 
       950.0         0.13         18.7 
       951.0         0.13         17.5 
       952.0         0.13         17.1 
       953.0         0.17         17.1 
       954.0         0.20         18.6 
       955.0         0.17         20.1 
       956.0         0.20         24.9 
       957.0         0.13         29.6 
       958.0         1.92         33.8 
       959.0         0.17         25.1 
       960.0         0.17         23.4 
       961.0         0.17         22.9 
       962.0         0.17         22.2 
       963.0         0.27         20.9 
       964.0         0.30         19.7 
       965.0         0.30         18.0 
       966.0         0.30         17.9 
       967.0         0.32         17.6 
       968.0         0.33         18.5 
       969.0         0.27         22.2 
       970.0         0.27         26.2 
       971.0         0.17         26.5 
       972.0         0.17         26.4 
       973.0         0.17         26.0 
       974.0         0.17         25.2 
       975.0         0.13         23.9 
       976.0         0.10         23.4 
       977.0         0.10         22.2 
       978.0         0.10         21.2 
       979.0         0.10         20.5 
       980.0         0.13         19.7 
       981.0         0.13         18.1 
       982.0         0.17         19.3 
       983.0         0.10         19.5 
       984.0         0.13         21.7 
       985.0         0.10         23.4 
       986.0         0.13         26.2 
       987.0         0.13         29.3 
       988.0         1.75         48.5 
       989.0         0.23         30.1 
       990.0         0.20         25.3 
       991.0         0.23         23.7 
       992.0         0.30         22.0 
       993.0         0.40         20.4 
       994.0         0.35         18.4 
       995.0         0.20         17.7 
       996.0         0.20         17.5 
       997.0         0.23         17.0 
