~Version Information
VERS.                      2.0: CWLS Log ASCII Standard - VERSION 2.0
WRAP.                       NO: One line per depth step
~Well Information Block
STRT.FT               -11.0000: 
STOP.FT              1896.2500: 
STEP.FT                 0.2500: 
NULL.                -999.2500: 
COMP.          Pioneer Natural Resources: COMPANY
WELL.            Summers 21-19: WELL
FLD.           Purgatoire River: FIELD
LOC.           900' FNL & 1950' FWL--: LOCATION
PROV.                 Colorado: PROVINCE
CNTY.               Las Animas: COUNTRY
SRVC.                Patterson: SERVICE COMPANY
DATE.          Thu Oct 20 15:06:00 2005: LOG DATE
UWI.           05 071 08315 00: UNIQUE WELL ID
~Curve Information Block
DEPT.FT            0 000 00 00: Depth
GR.GAPI                       : Gamma Ray
CCL.                          : Casing Collar Locator
TT3.usec                      : CBL 3' Travel Time
AMP3.mV                       : CBL 3' Amplitude
~Parameter Information Block
~A  Depth        GR         CCL         TT3         AMP3    
   -11.0000   -999.2500   -999.2500   -999.2500   -999.2500
   -10.7500   -999.2500   -999.2500   -999.2500   -999.2500
   -10.5000   -999.2500   -999.2500   -999.2500   -999.2500
   -10.2500   -999.2500   -999.2500   1443.0000     -0.0695
   -10.0000   -999.2500   -999.2500   1443.0000     -0.0575
    -9.7500   -999.2500   -999.2500   1443.0000     -0.0426
    -9.5000   -999.2500   -999.2500   1443.0000     -0.0320
    -9.2500   -999.2500   -999.2500   1443.0000     -0.0283
    -9.0000   -999.2500   -999.2500   1443.0000     -0.0298
    -8.7500   -999.2500   -999.2500   1443.0000     -0.0324
    -8.5000   -999.2500   -999.2500   1443.0000     -0.0321
    -8.2500   -999.2500   -999.2500   1443.0000     -0.0258
    -8.0000   -999.2500   -999.2500   1443.0000     -0.0136
    -7.7500   -999.2500   -999.2500   1443.0000      0.0003
    -7.5000   -999.2500      0.0000   1443.0000      0.0100
    -7.2500   -999.2500      0.0000   1443.0000      0.0129
    -7.0000   -999.2500      0.0000   1443.0000      0.0100
    -6.7500   -999.2500      0.0000   1443.0000      0.0030
    -6.5000   -999.2500      0.0000   1443.0000     -0.0086
    -6.2500   -999.2500      0.0000   1443.0000     -0.0249
    -6.0000   -999.2500      0.0000   1443.0000     -0.0421
    -5.7500   -999.2500      0.0000   1443.0000     -0.0518
    -5.5000   -999.2500      0.0000   1443.0000     -0.0460
    -5.2500   -999.2500      0.0000   1443.0000     -0.0238
    -5.0000   -999.2500      0.0000   1443.0000      0.0054
    -4.7500   -999.2500      0.0000   1443.0000      0.0271
    -4.5000   -999.2500      0.0000   1443.0000      0.0314
    -4.2500   -999.2500      0.0000   1443.0000      0.0187
    -4.0000   -999.2500      0.0000   1443.0000     -0.0007
    -3.7500   -999.2500      0.0000   1443.0000     -0.0162
    -3.5000   -999.2500      0.0000   1443.0000     -0.0255
    -3.2500   -999.2500      0.0000   1443.0000     -0.0350
    -3.0000   -999.2500      0.0000   1443.0000     -0.0523
    -2.7500   -999.2500      0.0000   1443.0000     -0.0765
    -2.5000   -999.2500      0.0000   1443.0000     -0.0971
    -2.2500   -999.2500      0.0000   1443.0000     -0.1020
    -2.0000     85.9145      0.0000   1443.0000     -0.0883
    -1.7500     82.6878      0.0000   1443.0000     -0.0646
    -1.5000     79.5278      0.0000   1443.0000     -0.0455
    -1.2500     77.2110      0.0000   1443.0000     -0.0422
    -1.0000     76.0708      0.0000   1443.0000     -0.0568
    -0.7500     76.0663      0.0000   1443.0000     -0.0804
    -0.5000     76.8658      0.0000   1443.0000     -0.0974
    -0.2500     77.9350      0.0000   1443.0000     -0.0964
     0.0000     78.9538      0.0000   1443.0000     -0.0804
     0.2500     81.5660      0.0000   1443.0000     -0.0580
     0.5000     82.7200      0.0000   1443.0000     -0.0637
     0.7500     82.6572      0.0000   1443.0000     -0.0719
     1.0000     81.2108      0.0000   1443.0000     -0.0741
     1.2500     79.0914      0.0000   1443.0000     -0.0677
     1.5000     76.9309     -2.0000   1443.0000     -0.0562
     1.7500     74.6276     -2.0000   1443.0000     -0.0449
     2.0000     71.6126      2.0000   1443.0000     -0.0355
     2.2500     67.3884     -2.0000   1443.0000     -0.0249
     2.5000     61.8346      2.0000   1443.0000     -0.0099
     2.7500     55.4194     -2.0000   1443.0000      0.0062
     3.0000     49.1663      0.0000   1443.0000      0.0144
     3.2500     44.1298      0.0000   1443.0000      0.0084
     3.5000     40.8616      0.0000   1443.0000     -0.0094
     3.7500     39.5108      0.0000   1443.0000     -0.0303
     4.0000     40.2301      0.0000   1443.0000     -0.0480
     4.2500     43.1384      0.0000   1443.0000     -0.0610
     4.5000     47.8076      0.0000   1443.0000     -0.0681
     4.7500     52.9920      0.0000   1443.0000     -0.0667
     5.0000     57.1294      0.0000   1443.0000     -0.0565
     5.2500     59.3290      0.0000   1443.0000     -0.0424
     5.5000     59.9329      0.0000   1443.0000     -0.0312
     5.7500     59.9651      0.0000   1443.0000     -0.0264
     6.0000     59.9922      0.0000   1443.0000     -0.0286
     6.2500     59.7339      0.0000   1443.0000     -0.0375
     6.5000     58.7562      0.0000   1443.0000     -0.0516
     6.7500     57.1480      0.0000   1443.0000     -0.0657
     7.0000     55.4468      0.0000   1443.0000     -0.0719
     7.2500     54.2514      0.0000   1443.0000     -0.0651
     7.5000     53.9301      0.0000   1443.0000     -0.0494
     7.7500     54.3739      0.0000   1443.0000     -0.0362
     8.0000     54.9815      0.0000   1443.0000     -0.0354
     8.2500     55.0779      0.0000   1443.0000     -0.0471
     8.5000     54.3376      0.0000   1443.0000     -0.0628
     8.7500     52.8288      0.0000   1443.0000     -0.0736
     9.0000     50.9308      0.0000   1443.0000     -0.0763
     9.2500     49.2696      0.0000   1443.0000     -0.0727
     9.5000     48.4006      0.0000   1443.0000     -0.0642
     9.7500     48.4615      0.0000   1443.0000     -0.0517
    10.0000     49.4516      0.0000   1443.0000     -0.0397
    10.2500     51.9171      0.0000   1443.0000     -0.0357
    10.5000     56.8296      0.0000   1443.0000     -0.0441
    10.7500     64.4223      0.0000   1443.0000     -0.0606
    11.0000     73.3870      0.0000   1443.0000     -0.0756
    11.2500     81.4343      0.0000   1443.0000     -0.0824
    11.5000     86.4900      0.0000   1443.0000     -0.0828
    11.7500     87.5659      0.0000   1443.0000     -0.0853
    12.0000     85.2518      0.0000   1443.0000     -0.0997
    12.2500     81.5924      0.0000   1443.0000     -0.1289
    12.5000     78.9101      0.0000   1443.0000     -0.1646
    12.7500     78.4022      0.0000   1442.9719     -0.1935
    13.0000     79.9820      0.0000   1442.7380     -0.2032
    13.2500     83.1630      0.0000   1441.4762     -0.1752
    13.5000     87.4625      0.0000   1436.1115     -0.0275
    13.7500     91.9143      0.0000   1418.1067      0.5238
    14.0000     94.9096      0.0000   1370.3575      2.1676
    14.2500     95.0393      0.0000   1270.2255      6.0272
    14.5000     92.0840      0.0000   1104.1506     13.0992
    14.7500     87.0835      0.0000    886.4038     23.1313
    15.0000     81.4705      0.0000    661.0203     34.0334
    15.2500     76.2288      0.0000    477.4211     42.8954
    15.5000     71.8163      0.0000    360.5519     47.8523
    15.7500     68.4567      0.0000    303.4016     48.9224
    16.0000     66.0571      0.0000    282.6983     47.3898
    16.2500     64.0394      0.0000    277.2313     44.8503
    16.5000     61.7967      0.0000    275.3566     42.5877
    16.7500     59.3907      0.0000    273.4226     41.2254
    17.0000     57.4760     -2.0000    271.5221     40.7229
    17.2500     56.4148     -1.5076    270.3969     40.7402
    17.5000     55.6895      0.0000    270.3880     41.0145
    17.7500     54.3853      0.0000    271.5014     41.5394
    18.0000     52.2137      0.0000    273.3195     42.6124
    18.2500     49.8653      0.0000    274.7468     44.6900
    18.5000     48.2563      0.0000    274.4014     47.9796
    18.7500     47.5668      0.0000    271.7678     52.1010
    19.0000     47.2584      0.0000    267.8003     56.2652
    19.2500     46.9765      0.0000    264.1028     59.7744
    19.5000     47.0609      0.0000    261.6567     62.3008
    19.7500     48.0005      0.0000    260.4608     63.8397
    20.0000     49.6566      0.0000    260.0360     64.5609
    20.2500     51.2752      0.0000    259.9568     64.6241
    20.5000     52.1622      0.0000    260.0263     63.9870
    20.7500     52.1927      0.0000    260.2615     62.3587
    21.0000     51.8167      0.0000    260.8920     59.3884
    21.2500     51.8012      0.0000    262.4453     54.9716
    21.5000     52.8533      0.0000    265.8069     49.4213
    21.7500     55.1420      0.0000    272.3234     43.3537
    22.0000     58.0811      0.0000    284.3479     37.3846
    22.2500     60.7194      0.0000    306.7795     31.9129
