~Version Information
VERS.                      2.0: CWLS Log ASCII Standard - VERSION 2.0
WRAP.                       NO: One line per depth step
~Well Information Block
STRT.FT               550.0000: 
STOP.FT              1577.7000: 
STEP.FT                 0.1000: 
NULL.                -999.2500: 
COMP.          Pioneer Natural Resources: COMPANY
WELL.          Kristin 22-23 Tr: WELL
FLD.           Purgatoire River: FIELD
LOC.           2273' FNL & 2029' FWL: LOCATION
PROV.                 Colorado: PROVINCE
CNTY.               Las Animas: COUNTRY
SRVC.                Patterson: SERVICE COMPANY
DATE.          Fri Jan 21 06:58:50 2005: LOG DATE
UWI.           05 071 08259 00: UNIQUE WELL ID
~Curve Information Block
DEPT.FT            0 000 00 00: Depth
DCAL.in                       : CDL Caliper
RHOB.g/cc                     : CDL Bulk Density
RHOC.g/cc                     : CDL Density Correction
DPOR.pu                       : CDL Density Porosity
NPOR.pu                       : Neutron Porosity
GR.GAPI                       : Gamma Ray
~Parameter Information Block
~A  Depth       DCAL        RHOB        RHOC        DPOR        NPOR         GR     
# ...
  1346.8000      8.0350      2.3990      0.1262     15.2135     24.1509    152.7579
  1346.9000      8.0350      2.4325      0.1506     13.1800     23.9370    160.3276
  1347.0000      8.0350      2.4607      0.1367     11.4730     24.3690    168.1319
  1347.1000      8.0350      2.4871      0.0747      9.8749     24.4409    170.5043
  1347.2000      8.0350      2.5096      0.1225      8.5089     23.7824    167.1096
  1347.3000      8.0279      2.5111      0.0928      8.4154     23.0125    164.3860
  1347.4000      8.0279      2.4938      0.0128      9.4642     22.8779    164.8488
  1347.5000      8.0204      2.4831      0.0382     10.1129     23.4307    166.2325
  1347.6000      8.0204      2.4929      0.0297      9.5220     24.3602    167.1743
  1347.7000      8.0204      2.5200     -0.0185      7.8763     25.1702    163.0785
  1347.8000      8.0167      2.5403      0.1085      6.6460     25.1978    154.2866
  1347.9000      8.0167      2.5275      0.0091      7.4259     24.8011    154.6066
  1348.0000      8.0166      2.5010     -0.0271      9.0280     24.5989    166.9625
  1348.1000      8.0166      2.4930     -0.0047      9.5138     24.3897    175.4843
  1348.2000      8.0166      2.5017     -0.0028      8.9871     24.1222    171.0180
  1348.3000      8.0190      2.5102      0.0303      8.4731     24.2797    166.0816
  1348.4000      8.0190      2.5085      0.0774      8.5777     24.8792    170.0320
  1348.5000      8.0193      2.4961      0.0556      9.3243     25.3719    171.8615
  1348.6000      8.0193      2.4833      0.0170     10.1048     25.6595    165.4451
  1348.7000      8.0193      2.4852      0.0074      9.9872     26.0034    161.2587
  1348.8000      8.0178      2.5015      0.0378      8.9977     26.0686    165.7947
  1348.9000      8.0178      2.5138      0.0521      8.2568     25.9440    171.3577
  1349.0000      8.0165      2.5085      0.0525      8.5778     26.0347    170.4432
  1349.1000      8.0165      2.4860      0.0447      9.9405     25.8657    168.2370
  1349.2000      8.0165      2.4564      0.0400     11.7322     25.4485    169.2260
  1349.3000      8.0189      2.4361      0.0064     12.9657     25.3595    169.8677
  1349.4000      8.0189      2.4395     -0.0058     12.7573     25.5001    168.6417
  1349.5000      8.0351      2.4651      0.0701     11.2071     25.2018    168.1957
  1349.6000      8.0351      2.4964      0.0559      9.3065     24.6117    172.2569
  1349.7000      8.0351      2.5182      0.0751      7.9850     24.8557    181.9050
  1349.8000      8.0644      2.5195      0.1033      7.9092     25.9387    193.2484
  1349.9000      8.0644      2.5051      0.0906      8.7830     26.3895    198.8147
  1350.0000      8.0866      2.4951      0.0512      9.3889     25.8717    193.5945
  1350.1000      8.0866      2.4995      0.0709      9.1218     25.4267    184.9858
  1350.2000      8.0866      2.5144      0.1131      8.2153     25.3366    180.7465
  1350.3000      8.1001      2.5350      0.0912      6.9687     24.9223    176.9079
  1350.4000      8.1001      2.5504      0.1395      6.0370     24.0111    171.8981
  1350.5000      8.1198      2.5494      0.1291      6.0992     23.3221    166.8056
  1350.6000      8.1198      2.5424      0.0784      6.5194     23.1016    161.1010
  1350.7000      8.1198      2.5521      0.0435      5.9329     22.9884    155.3175
  1350.8000      8.1298      2.5759      0.1362      4.4910     22.8590    152.6136
  1350.9000      8.1298      2.5914      0.1045      3.5487     22.3663    155.3997
  1351.0000      8.0878      2.5965      0.0621      3.2426     21.2172    156.6173
  1351.1000      8.0878      2.6037      0.0580      2.8073     19.9906    148.8476
  1351.2000      8.0878      2.6138      0.0568      2.1941     19.1455    133.1941
  1351.3000      8.0104      2.6225      0.0358      1.6678     18.2253    115.4286
  1351.4000      8.0104      2.6293      0.0532      1.2558     17.1226    103.3141
  1351.5000      7.9555      2.6332      0.0582      1.0173     16.4318     97.5126
  1351.6000      7.9555      2.6336      0.0402      0.9958     16.3974     93.4360
  1351.7000      7.9555      2.6245      0.0961      1.5459     16.7500     91.0408
  1351.8000      7.9510      2.5961      0.0651      3.2641     16.9717     93.2463
  1351.9000      7.9510      2.5606      0.0133      5.4177     16.7037     98.0757
  1352.0000      7.9609      2.5520     -0.0470      5.9403     16.1618     97.9108
  1352.1000      7.9609      2.5777      0.0440      4.3834     16.0345     91.4554
  1352.2000      7.9609      2.6050      0.0451      2.7293     16.5183     86.6642
  1352.3000      7.9617      2.6141      0.0536      2.1754     16.8545     87.2492
  1352.4000      7.9617      2.6118      0.0613      2.3159     16.7348     88.9896
  1352.5000      7.9601      2.6020      0.0741      2.9081     16.5488     89.0109
  1352.6000      7.9601      2.5802      0.0654      4.2318     16.0426     88.7552
  1352.7000      7.9601      2.5573     -0.0057      5.6210     15.0304     89.4849
  1352.8000      7.9615      2.5582     -0.0175      5.5650     14.1550     88.7853
  1352.9000      7.9615      2.5741      0.0386      4.5988     13.7852     85.4072
  1353.0000      7.9635      2.5779      0.0222      4.3726     13.7392     83.7697
  1353.1000      7.9635      2.5745      0.0080      4.5737     13.9342     84.8502
  1353.2000      7.9635      2.5783      0.0147      4.3429     14.1971     85.2341
  1353.3000      7.9636      2.5811      0.0410      4.1781     14.2844     89.1233
  1353.4000      7.9636      2.5749      0.0344      4.5499     14.4996     97.9717
  1353.5000      7.9631      2.5697      0.0281      4.8653     15.2027    102.0410
  1353.6000      7.9631      2.5772      0.0430      4.4138     15.8855     97.7864
  1353.7000      7.9631      2.5935      0.0568      3.4233     16.1705     90.9846
  1353.8000      7.9632      2.6064      0.0620      2.6400     16.4563     87.6885
  1353.9000      7.9632      2.6078      0.0745      2.5571     17.0509     89.8137
  1354.0000      7.9631      2.6041      0.0224      2.7819     17.9866     93.3877
  1354.1000      7.9631      2.6110      0.0443      2.3654     19.0774     96.6552
  1354.2000      7.9631      2.6270      0.0254      1.3965     19.9999    104.0320
  1354.3000      7.9639      2.6331      0.0700      1.0238     20.7171    115.6560
  1354.4000      7.9639      2.6189      0.0632      1.8841     21.3619    126.0633
  1354.5000      7.9660      2.5926      0.0752      3.4772     22.2039    134.9616
  1354.6000      7.9660      2.5678      0.0136      4.9829     23.3438    142.8435
  1354.7000      7.9660      2.5514      0.0500      5.9785     24.3883    148.4394
  1354.8000      7.9653      2.5460      0.0095      6.3012     25.0144    155.2983
  1354.9000      7.9653      2.5510      0.0286      6.0016     25.3517    164.1789
  1355.0000      7.9627      2.5528      0.0559      5.8909     25.4450    170.4903
  1355.1000      7.9627      2.5437      0.0211      6.4396     25.1831    172.6431
  1355.2000      7.9627      2.5357      0.0097      6.9298     24.9360    171.2818
  1355.3000      7.9618      2.5420      0.0023      6.5426     25.1110    165.4645
  1355.4000      7.9618      2.5617      0.0930      5.3513     25.2266    158.5177
  1355.5000      7.9642      2.5807      0.0702      4.1995     25.0010    158.8980
  1355.6000      7.9642      2.5970      0.0594      3.2106     24.6861    168.1643
  1355.7000      7.9642      2.6121      0.0733      2.2959     24.0835    174.2843
  1355.8000      7.9673      2.6167      0.0907      2.0210     23.4001    169.0338
  1355.9000      7.9673      2.6109      0.0821      2.3683     23.2537    162.9872
  1356.0000      7.9663      2.6074      0.0740      2.5821     23.5477    168.4447
  1356.1000      7.9663      2.6105      0.0607      2.3920     23.7654    181.7865
  1356.2000      7.9663      2.6083      0.0901      2.5269     23.6481    188.1314
  1356.3000      7.9642      2.5898      0.0720      3.6500     23.4904    178.9281
