~Version Information
VERS.                      2.0: CWLS Log ASCII Standard - VERSION 2.0
WRAP.                       NO: One line per depth step
~Well Information Block
STRT.FT               577.0000: 
STOP.FT              2643.2000: 
STEP.FT                 0.1000: 
NULL.                -999.2500: 
COMP.          Petrogulf Corporation: COMPANY
WELL.           Montoya 12-41V: WELL
FLD.           Purgatorie River: FIELD
LOC.           1081' FNL & 605' FEL: LOCATION
CNTY.               Las Animas: COUNTY
SRVC.                         : SERVICE COMPANY
DATE.          Tue Aug 10 14:17:12 2004: LOG DATE
UWI.           05 071 08094 00: UNIQUE WELL ID
STAT.                 Colorado: STATE
~Curve Information Block
DEPT.FT            0 000 00 00: Depth
DCAL.in                       : CDL Caliper
RHOB.g/cc                     : CDL Bulk Density
RHOC.g/cc                     : CDL Density Correction
DPOR.pu                       : CDL Density Porosity
GR.GAPI                       : Gamma Ray
NPOR.pu                       : Neutron Porosity
~Parameter Information Block
~A  Depth       DCAL        RHOB        RHOC        DPOR         GR         NPOR    
# ...
   855.4000      8.2223      2.5641      0.0523      5.2068    147.3161     23.2741
   855.5000      8.2211      2.5293      0.0284      7.3157    142.5197     22.1911
   855.6000      8.2211      2.4673     -0.0245     11.0707    136.8046     20.8473
   855.7000      8.2211      2.3860      0.0106     16.0005    129.1412     19.0658
   855.8000      8.2212      2.2786     -0.0389     22.5087    126.6993     17.6379
   855.9000      8.2212      2.1500     -0.1411     30.3030    132.2117     17.1941
   856.0000      8.2209      2.0249     -0.1235     37.8825    134.6627     17.5195
   856.1000      8.2209      1.9227     -0.1249     44.0760    125.4671     18.1487
   856.2000      8.2209      1.8437     -0.1257     48.8687    114.3957     18.6457
   856.3000      8.2232      1.7849     -0.1061     52.4299    111.8722     18.9429
   856.4000      8.2232      1.7597     -0.0700     53.9605    112.8417     19.4722
   856.5000      8.2273      1.7883     -0.0335     52.2253    112.5502     20.5434
   856.6000      8.2273      1.8742      0.0599     47.0164    113.5667     21.9165
   856.7000      8.2273      1.9886      0.1934     40.0836    117.2192     23.0764
   856.8000      8.2333      2.0922      0.2037     33.8073    122.7822     23.8453
   856.9000      8.2333      2.1806      0.1839     28.4482    129.1883     24.6231
   857.0000      8.2606      2.2771      0.1867     22.6017    135.8218     25.6366
   857.1000      8.2606      2.3800      0.1781     16.3622    139.3175     26.5141
   857.2000      8.2606      2.4595      0.1415     11.5429    137.5811     27.1749
   857.3000      8.2136      2.5028      0.0209      8.9190    137.1633     27.9423
   857.4000      8.2136      2.5246     -0.0031      7.6006    142.9853     28.6225
   857.5000      8.1977      2.5402      0.0198      6.6569    150.9468     28.7074
   857.6000      8.1977      2.5559      0.0360      5.7035    152.8405     28.3276
   857.7000      8.1977      2.5732      0.0155      4.6557    147.2271     27.8452
   857.8000      8.1895      2.5931      0.0086      3.4462    144.3750     27.3035
   857.9000      8.1895      2.6117      0.0251      2.3210    147.7075     26.7424
   858.0000      8.1868      2.6142      0.0293      2.1711    149.5417     26.3376
   858.1000      8.1868      2.5963      0.0148      3.2535    146.8561     26.2294
   858.2000      8.1868      2.5758      0.0024      4.4952    142.3375     26.1870
   858.3000      8.1874      2.5643      0.0212      5.1915    139.3486     26.0043
   858.4000      8.1874      2.5564      0.0035      5.6717    137.0522     25.8169
   858.5000      8.1849      2.5480     -0.0306      6.1828    134.1676     25.6518
   858.6000      8.1849      2.5390      0.0009      6.7252    129.0285     25.4752
   858.7000      8.1849      2.5311      0.0055      7.2069    122.6393     25.3703
   858.8000      8.1851      2.5302     -0.0020      7.2626    119.9953     25.5018
   858.9000      8.1851      2.5356      0.0379      6.9340    120.2902     25.7909
   859.0000      8.1849      2.5364      0.0310      6.8828    120.0330     25.7865
   859.1000      8.1849      2.5345      0.0073      7.0006    118.5458     25.2731
   859.2000      8.1849      2.5426      0.0140      6.5063    115.5662     24.5009
   859.3000      8.1850      2.5558      0.0490      5.7109    112.6508     23.7987
   859.4000      8.1850      2.5577      0.0438      5.5931    110.9927     23.4129
   859.5000      8.1837      2.5535      0.0088      5.8510    106.9694     23.3100
   859.6000      8.1837      2.5552      0.0313      5.7425     98.2803     23.1965
   859.7000      8.1837      2.5576      0.0327      5.6013     90.0393     22.9936
   859.8000      8.1850      2.5534      0.0561      5.8547     87.0818     22.9809
   859.9000      8.1850      2.5454      0.0436      6.3364     89.0157     23.3017
   860.0000      8.1849      2.5337      0.0476      7.0456     92.3942     23.6544
   860.1000      8.1849      2.5106      0.0179      8.4484     96.9997     23.5789
   860.2000      8.1849      2.4814     -0.0279     10.2203    103.6975     23.1930
   860.3000      8.1848      2.4703     -0.0444     10.8894    108.4040     23.0658
   860.4000      8.1848      2.4851      0.0295      9.9945    108.0492     23.1935
   860.5000      8.1847      2.5042      0.0160      8.8358    101.8112     23.3188
   860.6000      8.1847      2.5110      0.0135      8.4251     93.7743     23.3425
   860.7000      8.1847      2.5039      0.0497      8.8575     91.3338     23.0562
   860.8000      8.1841      2.4807      0.0154     10.2580     92.5409     22.5437
   860.9000      8.1841      2.4457     -0.0090     12.3808     93.0194     22.2135
   861.0000      8.1840      2.4188     -0.0399     14.0099     94.9613     22.1324
   861.1000      8.1840      2.4079      0.0131     14.6756    100.0322     21.9289
   861.2000      8.1840      2.3932      0.0073     15.5637    103.1715     21.5793
   861.3000      8.1860      2.3685     -0.0077     17.0583    100.5556     21.5085
   861.4000      8.1860      2.3555     -0.0508     17.8484     97.6391     21.7228
   861.5000      8.1858      2.3646      0.0400     17.2966     96.4867     21.7138
   861.6000      8.1858      2.3871     -0.0095     15.9315     92.9252     21.4236
   861.7000      8.1858      2.4159      0.0623     14.1876     86.5066     21.3523
   861.8000      8.1867      2.4406      0.0872     12.6933     81.4882     21.5534
   861.9000      8.1867      2.4608      0.0658     11.4646     80.9623     21.6299
   862.0000      8.1868      2.4847      0.1335     10.0191     83.9853     21.6072
   862.1000      8.1868      2.5061      0.1259      8.7219     90.9891     21.9329
   862.2000      8.1868      2.5127      0.1199      8.3242    101.3147     22.4738
   862.3000      8.1868      2.5008      0.1171      9.0428    105.7153     22.8440
   862.4000      8.1868      2.4783      0.0575     10.4079     97.4338     23.0496
   862.5000      8.1844      2.4633     -0.0040     11.3140     85.4448     22.9859
   862.6000      8.1844      2.4722     -0.0159     10.7769     81.6020     22.5492
   862.7000      8.1844      2.4952      0.0020      9.3797     84.4328     22.0858
   862.8000      8.1865      2.5092     -0.0131      8.5324     85.4780     22.0515
   862.9000      8.1865      2.5128     -0.0136      8.3150     82.8631     22.3710
   863.0000      8.1843      2.5221     -0.0395      7.7538     81.3928     22.4615
   863.1000      8.1843      2.5389     -0.0216      6.7348     81.3484     22.0595
   863.2000      8.1843      2.5460      0.0245      6.3024     79.2806     21.5444
   863.3000      8.1817      2.5290     -0.0054      7.3349     77.9691     21.2866
   863.4000      8.1817      2.4906     -0.0036      9.6582     81.9220     21.2396
   863.5000      8.1844      2.4482     -0.0616     12.2321     88.1281     21.2531
   863.6000      8.1844      2.4151     -0.0346     14.2339     91.2409     21.2135
   863.7000      8.1844      2.3906     -0.0173     15.7241     89.2171     20.9480
   863.8000      8.1849      2.3786     -0.0197     16.4478     83.3304     20.3569
   863.9000      8.1849      2.3926      0.0351     15.6015     79.0086     19.7598
   864.0000      8.1859      2.4333      0.0829     13.1331     80.9524     19.7003
   864.1000      8.1859      2.4797      0.1763     10.3209     85.2578     20.1159
   864.2000      8.1859      2.5089      0.1486      8.5486     87.8580     20.4481
   864.3000      8.1901      2.5243      0.1535      7.6203     89.8319     20.4875
   864.4000      8.1901      2.5356      0.2209      6.9359     89.4559     20.2493
   864.5000      8.1974      2.5386      0.2183      6.7509     84.8089     19.6592
   864.6000      8.1974      2.5334      0.1399      7.0673     80.5354     19.0851
   864.7000      8.1974      2.5240      0.1517      7.6385     79.8431     19.0564
   864.8000      8.1778      2.5040      0.1373      8.8481     79.1991     19.4022
   864.9000      8.1778      2.4746      0.0437     10.6298     77.2484     19.6275
