~Version Information
VERS.                      2.0: CWLS Log ASCII Standard - VERSION 2.0
WRAP.                       NO: One line per depth step
~Well Information Block
STRT.FT               964.2000: 
STOP.FT              2596.7000: 
STEP.FT                 0.1000: 
NULL.                -999.2500: 
COMP.          Petrogulf Corporation: COMPANY
WELL.             Valejo 8-12V: WELL
FLD.           Purgatorie River: FIELD
LOC.           1510' FNL & 1460' FWL: LOCATION
CNTY.               Las Animas: COUNTY
SRVC.                         : SERVICE COMPANY
DATE.          Sat Nov 15 12:30:37 2003: LOG DATE
UWI.                          : UNIQUE WELL ID
STAT.                 Colorado: STATE
~Curve Information Block
DEPT.FT            0 000 00 00: Depth
DCAL.in                       : CDL Caliper
RHOB.g/cc                     : CDL Bulk Density
RHOC.g/cc                     : CDL Density Correction
DPOR.pu                       : CDL Density Porosity
GR.GAPI                       : Gamma Ray
NPOR.pu                       : Neutron Porosity
~Parameter Information Block
~A  Depth       DCAL        RHOB        RHOC        DPOR         GR         NPOR    
# ...
  1626.6000      8.8151      2.4255      0.0106     13.6061     52.7160      9.5121
  1626.7000      8.8151      2.4306      0.0025     13.2955     55.7485      9.0827
  1626.8000      8.8176      2.4375      0.0326     12.8780     55.6941      9.7038
  1626.9000      8.8176      2.4385      0.0345     12.8174     56.8717     11.0506
  1627.0000      8.8217      2.4372     -0.0024     12.8995     61.1118     12.7375
  1627.1000      8.8217      2.4461     -0.0045     12.3561     62.2768     13.8615
  1627.2000      8.8217      2.4621      0.0695     11.3850     58.7302     13.6310
  1627.3000      8.8270      2.4712      0.0432     10.8384     56.4193     12.4761
  1627.4000      8.8270      2.4691      0.0466     10.9623     56.5662     11.9046
  1627.5000      8.8324      2.4678     -0.0412     11.0409     54.8833     12.4651
  1627.6000      8.8324      2.4783      0.0371     10.4038     50.0614     13.1457
  1627.7000      8.8324      2.4869      0.0467      9.8851     44.4363     13.3171
  1627.8000      8.8370      2.4806      0.0366     10.2646     42.5834     13.5651
  1627.9000      8.8370      2.4688     -0.0009     10.9827     47.0461     14.2156
  1628.0000      8.8405      2.4604      0.0224     11.4918     52.9614     14.8482
  1628.1000      8.8405      2.4530      0.0016     11.9382     53.8953     14.9313
  1628.2000      8.8405      2.4458      0.0432     12.3767     51.5551     14.0212
  1628.3000      8.8428      2.4412      0.0202     12.6544     50.9558     12.7164
  1628.4000      8.8428      2.4411      0.0329     12.6632     54.1951     12.0030
  1628.5000      8.8440      2.4431      0.0326     12.5382     60.3173     12.1506
  1628.6000      8.8440      2.4425      0.0097     12.5748     63.3832     12.6692
  1628.7000      8.8440      2.4376      0.0334     12.8726     59.2584     12.3916
  1628.8000      8.8443      2.4312      0.0359     13.2583     52.4919     11.1822
  1628.9000      8.8443      2.4318      0.0005     13.2255     50.3360     10.5018
  1629.0000      8.8440      2.4450      0.0192     12.4263     54.3213     10.6395
  1629.1000      8.8440      2.4603      0.0435     11.4964     60.1678     10.8996
  1629.2000      8.8440      2.4678      0.0336     11.0438     62.2623     11.2340
  1629.3000      8.8438      2.4741     -0.0022     10.6628     61.1665     11.0698
  1629.4000      8.8438      2.4858      0.0260      9.9526     58.9651      9.9798
  1629.5000      8.8447      2.4941      0.0569      9.4458     55.9683      9.2599
  1629.6000      8.8447      2.4909      0.0162      9.6441     54.5700      9.8330
  1629.7000      8.8447      2.4815      0.0602     10.2091     54.5384     11.0655
  1629.8000      8.8478      2.4767      0.0409     10.5012     54.0483     11.2382
  1629.9000      8.8478      2.4817      0.0468     10.2008     54.2255     10.5351
  1630.0000      8.8537      2.4887      0.0569      9.7738     54.3823     10.7241
  1630.1000      8.8537      2.4903      0.0654      9.6761     51.0353     11.9443
  1630.2000      8.8537      2.4945      0.0469      9.4218     46.9298     13.1561
  1630.3000      8.8627      2.5051      0.0781      8.7795     44.9052     13.7148
  1630.4000      8.8627      2.5065      0.0769      8.6984     42.5528     13.4784
  1630.5000      8.8736      2.4953      0.0285      9.3768     42.5443     12.6171
  1630.6000      8.8736      2.4842      0.0671     10.0464     48.6073     12.5198
  1630.7000      8.8736      2.4753      0.0304     10.5850     53.7939     14.1600
  1630.8000      8.8848      2.4638      0.0436     11.2852     51.8142     15.6612
  1630.9000      8.8848      2.4521      0.0039     11.9941     47.0452     15.1390
  1631.0000      8.8959      2.4511      0.0432     12.0558     43.4839     14.1963
  1631.1000      8.8959      2.4614      0.0884     11.4303     41.9131     14.6265
  1631.2000      8.8959      2.4693      0.0584     10.9507     42.4781     15.4407
  1631.3000      8.9107      2.4667      0.0550     11.1117     43.4789     14.9470
  1631.4000      8.9107      2.4584      0.0479     11.6100     43.0121     13.6774
  1631.5000      8.9430      2.4508      0.0476     12.0750     42.4875     13.1013
  1631.6000      8.9430      2.4402      0.0547     12.7160     42.9148     13.9693
  1631.7000      8.9430      2.4278      0.0345     13.4675     41.9357     15.8923
  1631.8000      9.0222      2.4256      0.0321     13.6001     39.3724     17.5124
  1631.9000      9.0222      2.4327      0.0364     13.1672     38.3101     17.7173
  1632.0000      9.1893      2.4294      0.0981     13.3677     39.3936     17.3626
  1632.1000      9.1893      2.4032      0.0380     14.9587     40.9417     17.8058
  1632.2000      9.1893      2.3686      0.0059     17.0557     42.5416     19.1546
  1632.3000      9.4738      2.3538     -0.0159     17.9536     43.9482     20.7623
  1632.4000      9.4738      2.3710     -0.0096     16.9088     45.8688     21.6072
  1632.5000      9.8534      2.4048      0.0594     14.8614     48.9064     21.5541
  1632.6000      9.8534      2.4347      0.0700     13.0486     50.7996     21.3028
  1632.7000      9.8534      2.4524      0.1119     11.9774     50.5698     21.3672
  1632.8000     10.2337      2.4558      0.0821     11.7723     49.9141     21.8157
  1632.9000     10.2337      2.4506      0.1081     12.0822     48.7718     23.1997
  1633.0000     10.4817      2.4386      0.1486     12.8146     45.3851     24.6935
  1633.1000     10.4817      2.4143      0.1190     14.2865     40.9682     24.1911
  1633.2000     10.4817      2.3842      0.0878     16.1085     38.5898     23.2930
  1633.3000     10.5059      2.3583      0.0735     17.6777     39.8057     23.9235
  1633.4000     10.5059      2.3368      0.0302     18.9835     45.0737     24.3336
  1633.5000     10.3137      2.3191      0.0256     20.0542     51.8749     23.4977
  1633.6000     10.3137      2.3093     -0.0097     20.6482     54.8940     22.9129
  1633.7000     10.3137      2.3123      0.0163     20.4656     52.8810     23.1342
  1633.8000      9.9942      2.3343     -0.0009     19.1310     47.6050     23.8125
  1633.9000      9.9942      2.3706      0.0373     16.9354     42.1734     24.6658
  1634.0000      9.6516      2.3994      0.0858     15.1909     40.4530     24.4275
  1634.1000      9.6516      2.4105      0.0939     14.5127     42.6270     22.8837
  1634.2000      9.6516      2.4104      0.1327     14.5187     46.0043     22.0685
  1634.3000      9.3570      2.4021      0.1041     15.0262     50.3795     23.0893
  1634.4000      9.3570      2.3848      0.1297     16.0727     56.3164     23.9968
  1634.5000      9.1411      2.3620      0.1080     17.4516     60.0117     22.7804
  1634.6000      9.1411      2.3404      0.1106     18.7635     57.5845     20.3695
  1634.7000      9.1411      2.3208      0.0305     19.9493     52.8888     18.5248
  1634.8000      9.0065      2.2984      0.0020     21.3083     50.5282     17.9426
  1634.9000      9.0065      2.2688     -0.0124     23.1034     48.0553     18.1330
  1635.0000      8.9376      2.2386     -0.0094     24.9313     43.1010     17.9083
  1635.1000      8.9376      2.2202      0.0248     26.0472     38.6210     16.9252
  1635.2000      8.9376      2.2138      0.0573     26.4375     38.3979     16.5299
  1635.3000      8.9110      2.2228      0.0308     25.8933     41.7925     17.2673
  1635.4000      8.9110      2.2649      0.0846     23.3371     45.3594     17.3346
  1635.5000      8.9053      2.3315      0.2534     19.3059     46.6672     15.9845
  1635.6000      8.9053      2.3835      0.2742     16.1545     46.8096     14.5438
  1635.7000      8.9053      2.4065      0.2395     14.7587     49.7973     13.3598
  1635.8000      8.9075      2.4123      0.2534     14.4073     52.8983     12.8060
  1635.9000      8.9075      2.4096      0.1940     14.5720     50.4971     13.1660
  1636.0000      8.9117      2.4076      0.1673     14.6939     47.3493     13.7964
  1636.1000      8.9117      2.4161      0.1180     14.1746     48.7403     14.8700
