~Version Information
VERS.                      2.0: CWLS Log ASCII Standard - VERSION 2.0
WRAP.                       NO: One line per depth step
~Well Information Block
STRT.FT               -10.8000: 
STOP.FT              2238.7000: 
STEP.FT                 0.1000: 
NULL.                -999.2500: 
COMP.          Petrogulf Corporation: COMPANY
WELL.             McLeod 9-42V: WELL
FLD.           Purgatorie River: FIELD
LOC.           1658' FNL & 415' FEL----: LOCATION
CNTY.               Las Animas: COUNTY
SRVC.                         : SERVICE COMPANY
DATE.          Wed Nov 17 12:01:16 2004: LOG DATE
UWI.                          : UNIQUE WELL ID
STAT.                       CO: STATE
~Curve Information Block
DEPT.FT            0 000 00 00: Depth
GR.GAPI                       : Gamma Ray
CCL.                          : Casing Collar Locator
TT3.usec                      : CBL 3' Travel Time
AMP3.mV                       : CBL 3' Amplitude
~Parameter Information Block
~A  Depth        GR         CCL         TT3         AMP3    
# ...
  2066.2000     65.2304      0.0000    718.6771      5.4422
  2066.3000     68.0801      0.0000    723.7816      5.6549
  2066.4000     68.0801      0.0000    723.7816      5.6549
  2066.5000     71.0109      0.0000    730.1914      5.8046
  2066.6000     71.0109      0.0000    730.1914      5.8046
  2066.7000     71.0109      0.0000    730.1914      5.8046
  2066.8000     73.7972      0.0000    735.9099      5.8902
  2066.9000     73.7972      0.0000    735.9099      5.8902
  2067.0000     76.6419      0.0000    739.6432      5.9387
  2067.1000     76.6419      0.0000    739.6432      5.9387
  2067.2000     76.6419      0.0000    739.6432      5.9387
  2067.3000     79.8419      0.0000    741.4842      5.9868
  2067.4000     79.8419      0.0000    741.4842      5.9868
  2067.5000     82.8688      0.0000    742.1841      6.0479
  2067.6000     82.8688      0.0000    742.1841      6.0479
  2067.7000     82.8688      0.0000    742.1841      6.0479
  2067.8000     84.1873      0.0000    742.3501      6.0965
  2067.9000     84.1873      0.0000    742.3501      6.0965
  2068.0000     82.5423      0.0000    742.2346      6.0761
  2068.1000     82.5423      0.0000    742.2346      6.0761
  2068.2000     82.5423      0.0000    742.2346      6.0761
  2068.3000     78.4776      0.0000    741.8046      5.9258
  2068.4000     78.4776      0.0000    741.8046      5.9258
  2068.5000     74.1866      0.0000    740.7622      5.6137
  2068.6000     74.1866      0.0000    740.7622      5.6137
  2068.7000     74.1866      0.0000    740.7622      5.6137
  2068.8000     71.5997      0.0000    738.4906      5.1641
  2068.9000     71.5997      0.0000    738.4906      5.1641
  2069.0000     70.8517      0.0000    734.2485      4.6551
  2069.1000     70.8517      0.0000    734.2485      4.6551
  2069.2000     70.8517      0.0000    734.2485      4.6551
  2069.3000     70.9144      0.0000    728.0305      4.1880
  2069.4000     70.9144      0.0000    728.0305      4.1880
  2069.5000     71.4039      0.0000    721.8939      3.8515
  2069.6000     71.4039      0.0000    721.8939      3.8515
  2069.7000     71.4039      0.0000    721.8939      3.8515
  2069.8000     73.2896      0.0000    720.0477      3.6964
  2069.9000     73.2896      0.0000    720.0477      3.6964
  2070.0000     77.8900      0.0000    725.9944      3.7181
  2070.1000     77.8900      0.0000    725.9944      3.7181
  2070.2000     77.8900      0.0000    725.9944      3.7181
  2070.3000     85.4101      0.0000    738.5089      3.8574
  2070.4000     85.4101      0.0000    738.5089      3.8574
  2070.5000     94.3336      0.0000    751.9548      4.0294
  2070.6000     94.3336      0.0000    751.9548      4.0294
  2070.7000     94.3336      0.0000    751.9548      4.0294
  2070.8000    102.0182      0.0000    762.4939      4.1672
  2070.9000    102.0182      0.0000    762.4939      4.1672
  2071.0000    106.1196      0.0000    772.7395      4.2467
  2071.1000    106.1196      0.0000    772.7395      4.2467
  2071.2000    106.1196      0.0000    772.7395      4.2467
  2071.3000    105.9686      0.0000    787.4034      4.2852
  2071.4000    105.9686      0.0000    787.4034      4.2852
  2071.5000    102.8697      0.0000    804.8041      4.3238
  2071.6000    102.8697      0.0000    804.8041      4.3238
  2071.7000    102.8697      0.0000    804.8041      4.3238
  2071.8000     98.9675      0.0000    815.9227      4.4053
  2071.9000     98.9675      0.0000    815.9227      4.4053
  2072.0000     95.5858      0.0000    812.9461      4.5544
  2072.1000     95.5858      0.0000    812.9461      4.5544
  2072.2000     95.5858      0.0000    812.9461      4.5544
  2072.3000     92.5367      0.0000    796.9917      4.7699
  2072.4000     92.5367      0.0000    796.9917      4.7699
  2072.5000     89.0377      0.0000    776.5732      5.0285
  2072.6000     89.0377      0.0000    776.5732      5.0285
  2072.7000     89.0377      0.0000    776.5732      5.0285
  2072.8000     85.1661      0.0000    759.9296      5.2959
  2072.9000     85.1661      0.0000    759.9296      5.2959
  2073.0000     82.2382      0.0000    749.8839      5.5348
  2073.1000     82.2382      0.0000    749.8839      5.5348
  2073.2000     82.2382      0.0000    749.8839      5.5348
  2073.3000     81.6859      0.0000    744.5341      5.7136
  2073.4000     81.6859      0.0000    744.5341      5.7136
  2073.5000     83.7286      0.0000    740.5347      5.8130
  2073.6000     83.7286      0.0000    740.5347      5.8130
  2073.7000     83.7286      0.0000    740.5347      5.8130
  2073.8000     87.3610      0.0000    735.4421      5.8271
  2073.9000     87.3610      0.0000    735.4421      5.8271
  2074.0000     91.4326      0.0000    728.6610      5.7560
  2074.1000     91.4326      0.0000    728.6610      5.7560
  2074.2000     91.4326      0.0000    728.6610      5.7560
  2074.3000     95.2583      0.0000    721.5026      5.5987
  2074.4000     95.2583      0.0000    721.5026      5.5987
  2074.5000     98.3382      0.0000    716.4787      5.3548
  2074.6000     98.3382      0.0000    716.4787      5.3548
  2074.7000     98.3382      0.0000    716.4787      5.3548
  2074.8000    100.2500      0.0000    716.1265      5.0368
  2074.9000    100.2500      0.0000    716.1265      5.0368
  2075.0000    100.9359      0.0000    722.1639      4.6834
  2075.1000    100.9359      0.0000    722.1639      4.6834
  2075.2000    100.9359      0.0000    722.1639      4.6834
  2075.3000    100.6201      0.0000    735.0154      4.3543
  2075.4000    100.6201      0.0000    735.0154      4.3543
  2075.5000     99.5105      0.0000    753.2137      4.0976
  2075.6000     99.5105      0.0000    753.2137      4.0976
  2075.7000     99.5105      0.0000    753.2137      4.0976
  2075.8000     97.9042      0.0000    773.0428      3.9199
  2075.9000     97.9042     -1.6125    773.0428      3.9199
  2076.0000     96.4617     -1.7603    789.9572      3.7880
  2076.1000     96.4617      2.0000    789.9572      3.7880
  2076.2000     96.4617     -2.0000    789.9572      3.7880
  2076.3000     96.0769      0.0000    801.3312      3.6567
  2076.4000     96.0769      0.0000    801.3312      3.6567
  2076.5000     97.2602      0.0000    807.1287      3.5001
  2076.6000     97.2602      0.0000    807.1287      3.5001
  2076.7000     97.2602      0.0000    807.1287      3.5001
  2076.8000     99.5269      0.0000    807.2998      3.3315
  2076.9000     99.5269      0.0000    807.2998      3.3315
  2077.0000    101.6307      0.0000    800.1678      3.1909
  2077.1000    101.6307      0.0000    800.1678      3.1909
  2077.2000    101.6307      0.0000    800.1678      3.1909
  2077.3000    102.5810      0.0000    784.5634      3.1017
  2077.4000    102.5810      0.0000    784.5634      3.1017
  2077.5000    102.2573      0.0000    761.9840      3.0458
  2077.6000    102.2573      0.0000    761.9840      3.0458
  2077.7000    102.2573      0.0000    761.9840      3.0458
  2077.8000    100.9788      0.0000    735.6305      2.9960
  2077.9000    100.9788      0.0000    735.6305      2.9960
  2078.0000     98.8669      0.0000    708.8829      2.9537
  2078.1000     98.8669      0.0000    708.8829      2.9537
  2078.2000     98.8669      0.0000    708.8829      2.9537
  2078.3000     95.7542      0.0000    685.4163      2.9340
  2078.4000     95.7542      0.0000    685.4163      2.9340
  2078.5000     91.3667      0.0000    668.9256      2.9312
  2078.6000     91.3667      0.0000    668.9256      2.9312
  2078.7000     91.3667      0.0000    668.9256      2.9312
  2078.8000     85.5196      0.0000    661.1044      2.9177
  2078.9000     85.5196      0.0000    661.1044      2.9177
  2079.0000     78.4750      0.0000    660.0334      2.8719
  2079.1000     78.4750      0.0000    660.0334      2.8719
  2079.2000     78.4750      0.0000    660.0334      2.8719
  2079.3000     71.1936      0.0000    661.2010      2.7930
  2079.4000     71.1936      0.0000    661.2010      2.7930
  2079.5000     65.1110      0.0000    660.7105      2.6968
