~Version Information
VERS.                      2.0: CWLS Log ASCII Standard - VERSION 2.0
WRAP.                       NO: One line per depth step
~Well Information Block
STRT.FT               260.0000: 
STOP.FT              2610.0000: 
STEP.FT                 0.1000: 
NULL.                -999.2500: 
COMP.          Pioneer Natural Resources: COMPANY
WELL.           Costello 44-24: WELL
FLD.           Purgatoire River: FIELD
LOC.           327' FSL & 378' FEL: LOCATION
PROV.                 Colorado: PROVINCE
CNTY.               Las Animas: COUNTRY
SRVC.                Patterson: SERVICE COMPANY
DATE.          Mon Jul 11 10:42:19 2005: LOG DATE
UWI.           05 071 08413 00: UNIQUE WELL ID
~Curve Information Block
DEPT.FT            0 000 00 00: Depth
DCAL.in                       : CDL Caliper
RHOB.g/cc                     : CDL Bulk Density
RHOC.g/cc                     : CDL Density Correction
DPOR.pu                       : CDL Density Porosity
GR.GAPI                       : Gamma Ray
NPOR.pu                       : Neutron Porosity
~Parameter Information Block
~A  Depth       DCAL        RHOB        RHOC        DPOR         GR         NPOR    
# ...
  2592.8000      7.8296      2.5843      0.1213      3.9838   -999.2500     16.5460
  2592.9000      7.8296      2.5925      0.1269      3.4849   -999.2500     17.5251
  2593.0000      7.8449      2.5767      0.1451      4.4444   -999.2500     18.4402
  2593.1000      7.8449      2.5501      0.1092      6.0563   -999.2500     18.7250
  2593.2000      7.8449      2.5372      0.0138      6.8353   -999.2500     18.8505
  2593.3000      7.8474      2.5498      0.0759      6.0742   -999.2500     19.3426
  2593.4000      7.8474      2.5665      0.0712      5.0611   -999.2500     19.7164
  2593.5000      7.8326      2.5661      0.1031      5.0853   -999.2500     19.3809
  2593.6000      7.8326      2.5503      0.0705      6.0409   -999.2500     18.7470
  2593.7000      7.8326      2.5380      0.0105      6.7889   -999.2500     18.3943
  2593.8000      7.8403      2.5388      0.0836      6.7364   -999.2500     18.0430
  2593.9000      7.8403      2.5427      0.1072      6.5012   -999.2500     17.4097
  2594.0000      7.8487      2.5471      0.1207      6.2386   -999.2500     16.5455
  2594.1000      7.8487      2.5536      0.1001      5.8400   -999.2500     15.8115
  2594.2000      7.8487      2.5562      0.0581      5.6863   -999.2500     15.7006
  2594.3000      7.8479      2.5497      0.0683      6.0793   -999.2500     15.9050
  2594.4000      7.8479      2.5401      0.0460      6.6636   -999.2500     15.6861
  2594.5000      7.8525      2.5315      0.0472      7.1832   -999.2500     15.3413
  2594.6000      7.8525      2.5161      0.0755      8.1149   -999.2500     15.9010
  2594.7000      7.8525      2.5018      0.0078      8.9826   -999.2500     17.4917
  2594.8000      7.8631      2.5049      0.0515      8.7932   -999.2500     18.7728
  2594.9000      7.8631      2.5169      0.0649      8.0697   -999.2500     18.8506
  2595.0000      7.8758      2.5306      0.0117      7.2383   -999.2500     18.9517
  2595.1000      7.8758      2.5504      0.0758      6.0336   -999.2500     21.7749
  2595.2000      7.8758      2.5696      0.0791      4.8754   -999.2500     30.2302
  2595.3000      7.8676      2.5810      0.1294      4.1819   -999.2500     42.1154
  2595.4000      7.8676      2.5881      0.1037      3.7500   -999.2500     49.9766
  2595.5000      7.8497      2.5955      0.1002      3.3055   -999.2500     52.6529
  2595.6000      7.8497      2.5971      0.1118      3.2068   -999.2500     53.1639
  2595.7000      7.8497      2.5815      0.0972      4.1514   -999.2500     53.2175
  2595.8000      7.8319      2.5458      0.0842      6.3125   -999.2500     53.2205
  2595.9000      7.8319      2.5032      0.0620      8.8961   -999.2500   -999.2500
  2596.0000      7.8357      2.4813      0.0741     10.2225   -999.2500   -999.2500
  2596.1000      7.8357      2.4948      0.0498      9.4066   -999.2500   -999.2500
  2596.2000      7.8357      2.5247      0.0761      7.5918   -999.2500   -999.2500
  2596.3000      7.8231      2.5536      0.0324      5.8429   -999.2500   -999.2500
  2596.4000      7.8231      2.5827      0.1251      4.0763   -999.2500   -999.2500
  2596.5000      7.7938      2.6011      0.1825      2.9625   -999.2500   -999.2500
  2596.6000      7.7938      2.6114      0.0978      2.3384   -999.2500   -999.2500
  2596.7000      7.7938      2.6349      0.1996      0.9144   -999.2500   -999.2500
  2596.8000      7.7904      2.6622      0.1854     -0.7397   -999.2500   -999.2500
  2596.9000      7.7904      2.6752      0.1937     -1.5285   -999.2500   -999.2500
  2597.0000      7.8074      2.6732      0.1422     -1.4086   -999.2500   -999.2500
  2597.1000      7.8074      2.6579      0.1199     -0.4817   -999.2500   -999.2500
  2597.2000      7.8074      2.6382      0.0997      0.7125   -999.2500   -999.2500
  2597.3000      7.7951      2.6273      0.0964      1.3747   -999.2500   -999.2500
  2597.4000      7.7951      2.6172      0.1238      1.9860   -999.2500   -999.2500
  2597.5000      7.8418      2.5935      0.0859      3.4265   -999.2500   -999.2500
  2597.6000      7.8418      2.5671      0.0339      5.0231   -999.2500   -999.2500
  2597.7000      7.8418      2.5584      0.0572      5.5504   -999.2500   -999.2500
  2597.8000      7.8562      2.5656      0.1005      5.1149   -999.2500   -999.2500
  2597.9000      7.8562      2.5756      0.0869      4.5104   -999.2500   -999.2500
  2598.0000      7.8427      2.5963      0.0138      3.2547   -999.2500   -999.2500
  2598.1000      7.8427      2.6368      0.1152      0.7978   -999.2500   -999.2500
  2598.2000      7.8427      2.6702      0.1536     -1.2236   -999.2500   -999.2500
  2598.3000      7.8423      2.6747      0.1251     -1.4995   -999.2500   -999.2500
  2598.4000      7.8423      2.6654      0.1120     -0.9309   -999.2500   -999.2500
  2598.5000      7.8439      2.6579      0.1142     -0.4813   -999.2500   -999.2500
  2598.6000      7.8439      2.6508      0.1149     -0.0468   -999.2500   -999.2500
  2598.7000      7.8439      2.6381      0.0994      0.7238   -999.2500   -999.2500
  2598.8000      7.8421      2.6186      0.0645      1.9042   -999.2500   -999.2500
  2598.9000      7.8421      2.6035      0.0634      2.8178   -999.2500   -999.2500
  2599.0000      7.8284      2.6030      0.0875      2.8493   -999.2500   -999.2500
  2599.1000      7.8284      2.6091      0.0759      2.4758   -999.2500   -999.2500
  2599.2000      7.8284      2.6111      0.0838      2.3559   -999.2500   -999.2500
  2599.3000      7.8295      2.6142      0.0487      2.1716   -999.2500   -999.2500
  2599.4000      7.8295      2.6222      0.1024      1.6862   -999.2500   -999.2500
  2599.5000      7.8379      2.6206      0.1153      1.7812   -999.2500   -999.2500
  2599.6000      7.8379      2.6001      0.0656      3.0242   -999.2500   -999.2500
  2599.7000      7.8379      2.5750      0.0528      4.5432   -999.2500   -999.2500
  2599.8000      7.8591      2.5692      0.0424      4.8977   -999.2500   -999.2500
  2599.9000      7.8591      2.5891      0.0860      3.6938   -999.2500   -999.2500
  2600.0000      7.8512      2.6164      0.0947      2.0358   -999.2500   -999.2500
  2600.1000      7.8512      2.6352      0.0951      0.8979   -999.2500   -999.2500
  2600.2000      7.8512      2.6428      0.0941      0.4373   -999.2500   -999.2500
  2600.3000      7.8350      2.6388      0.1336      0.6794   -999.2500   -999.2500
  2600.4000      7.8350      2.6241      0.0983      1.5682   -999.2500   -999.2500
  2600.5000      7.8505      2.6026      0.0959      2.8734   -999.2500   -999.2500
  2600.6000      7.8505      2.5836      0.0944      4.0251   -999.2500   -999.2500
  2600.7000      7.8505      2.5794      0.1158      4.2760   -999.2500   -999.2500
  2600.8000      7.8504      2.5879      0.1047      3.7636   -999.2500   -999.2500
  2600.9000      7.8504      2.5951      0.0853      3.3271   -999.2500   -999.2500
  2601.0000      7.7926      2.5963      0.0767      3.2544   -999.2500   -999.2500
  2601.1000      7.7926      2.5948      0.0863      3.3472   -999.2500   -999.2500
  2601.2000      7.7926      2.5873      0.0882      3.8019   -999.2500   -999.2500
  2601.3000      7.8606      2.5758      0.0364      4.4962   -999.2500   -999.2500
  2601.4000      7.8606      2.5785      0.0360      4.3342   -999.2500   -999.2500
  2601.5000      7.8613      2.5974      0.0865      3.1869   -999.2500   -999.2500
  2601.6000      7.8613      2.6063      0.1674      2.6489   -999.2500   -999.2500
  2601.7000      7.8613      2.5943      0.0861      3.3753   -999.2500   -999.2500
  2601.8000      7.8604      2.5840      0.1025      3.9976   -999.2500   -999.2500
  2601.9000      7.8604      2.5962      0.0761      3.2591   -999.2500   -999.2500
  2602.0000      7.8433      2.6171      0.1077      1.9924   -999.2500   -999.2500
  2602.1000      7.8433      2.6143      0.0946      2.1650   -999.2500   -999.2500
  2602.2000      7.8433      2.5952      0.0369      3.3194   -999.2500   -999.2500
  2602.3000      7.8195      2.5896      0.0899      3.6576   -999.2500   -999.2500
