~Version Information
VERS.                      2.0: CWLS Log ASCII Standard - VERSION 2.0
WRAP.                       NO: One line per depth step
~Well Information Block
STRT.FT                39.7500: 
STOP.FT              1484.0000: 
STEP.FT                 0.2500: 
NULL.                -999.2500: 
COMP.          Evergreen Operating Corporation: COMPANY
WELL.              Chase 21-10: WELL
FLD.           Purgatoire River: FIELD
LOC.           1122' FNL & 1544' FWL: LOCATION
PROV.                       CO: PROVINCE
CNTY.               Las Animas: COUNTRY
SRVC.                         : SERVICE COMPANY
DATE.          Fri May 28 15:54:16 2004: LOG DATE
UWI.           05 071 08006 00: UNIQUE WELL ID
~Curve Information Block
DEPT.FT            0 000 00 00: Depth
TT3.usec                      : CBL 3' Travel Time
AMP3.mV                       : CBL 3' Amplitude
GR.GAPI                       : Gamma Ray
CCL.                          : Casing Collar Locator
~Parameter Information Block
~A  Depth       TT3         AMP3         GR         CCL     
# ...
   508.7500    768.0000     10.4856     92.0548      0.0000
   509.0000    768.0000     10.4550     86.1459      0.0000
   509.2500    768.0000     10.3976     81.5818      0.0000
   509.5000    768.0000     10.3110     80.1691      0.0000
   509.7500    768.0000     10.2120     82.3642      0.0000
   510.0000    768.0000     10.1220     87.6459      0.0000
   510.2500    768.0000     10.0427     94.7337      0.0000
   510.5000    768.0000      9.9521    101.5497      0.0000
   510.7500    768.0000      9.8316    105.9992      0.0000
   511.0000    768.0000      9.6958    107.4154      0.0000
   511.2500    767.9991      9.5859    106.9255      0.0000
   511.5000    767.9934      9.5283    106.2033      0.0000
   511.7500    767.9650      9.5065    106.1097      0.0000
   512.0000    767.8549      9.4750    106.5182      0.0000
   512.2500    767.5262      9.3951    106.9484      0.0000
   512.5000    766.7805      9.2585    107.0042      0.0000
   512.7500    765.5223      9.0857    106.4391      0.0000
   513.0000    764.0228      8.9093    105.2968      0.0000
   513.2500    762.9517      8.7539    104.0334      0.0000
   513.5000    762.9312      8.6267    103.2168      0.0000
   513.7500    763.9747      8.5213    103.0520      0.0000
   514.0000    765.4732      8.4316    103.3712      0.0000
   514.2500    766.7474      8.3607    104.0407      0.0000
   514.5000    767.5103      8.3222    105.1575      0.0000
   514.7500    767.8492      8.3293    106.6984      0.0000
   515.0000    767.9635      8.3794    108.0630      0.0000
   515.2500    767.9930      8.4473    108.1588      0.0000
   515.5000    767.9991      8.4953    106.2096      0.0000
   515.7500    768.0000      8.4905    102.5585      0.0000
   516.0000    768.0000      8.4164     98.6620      0.0000
   516.2500    768.0000      8.2751     96.3308      0.0000
   516.5000    768.0000      8.0845     96.7815      0.0000
   516.7500    768.0000      7.8698     99.8858      0.0000
   517.0000    768.0000      7.6571    104.1600      0.0000
   517.2500    768.0000      7.4698    107.9392      0.0000
   517.5000    768.0000      7.3275    110.7710      0.0000
   517.7500    768.0000      7.2409    113.2402      0.0000
   518.0000    768.0000      7.2065    115.3597      0.0000
   518.2500    768.0000      7.2022    115.8398      0.0000
   518.5000    768.0000      7.1914    113.4113      0.0000
   518.7500    768.0000      7.1412    108.4518      0.0000
   519.0000    768.0000      7.0471    102.7960      0.0000
   519.2500    768.0000      6.9380     98.2110      0.0000
   519.5000    767.9984      6.8547     95.5460      0.0000
   519.7500    767.9774      6.8243     94.9952      0.0000
   520.0000    767.8667      6.8536     96.4122      0.0000
   520.2500    767.3829      6.9407     99.1726      0.0000
   520.5000    765.7390      7.0844    102.0519      0.0000
   520.7500    761.4485      7.2813    103.4940      0.0000
   521.0000    752.9996      7.5199    102.3041      0.0000
   521.2500    740.8681      7.7835     98.4633      0.0000
   521.5000    729.2042      8.0578     93.2774      0.0000
   521.7500    723.9954      8.3368     88.4359      0.0000
   522.0000    727.9924      8.6269     84.7636      0.0000
   522.2500    738.0124      8.9406     82.0106      0.0000
   522.5000    747.9335      9.2729     80.0282      0.0000
   522.7500    753.1192      9.5886     79.7298     -3.0000
   523.0000    751.1165      9.8534     82.1265      3.0000
   523.2500    740.5427     10.0721     86.4560      3.0000
   523.5000    722.7457     10.2686     90.2353      0.0000
   523.7500    704.5770     10.4303     91.5969      0.0000
   524.0000    695.8087     10.4952     90.9441      0.0000
   524.2500    701.1691     10.3999     89.8272      0.0000
   524.5000    716.3486     10.1241     88.7015      0.0000
   524.7500    732.9428      9.6984     86.4866      0.0000
   525.0000    745.2927      9.1931     82.3080      0.0000
   525.2500    752.1000      8.6928     77.1881      0.0000
   525.5000    754.6710      8.2605     73.6609      0.0000
   525.7500    755.4471      7.9233     73.8079      0.0000
   526.0000    756.7460      7.6901     77.8741      0.0000
   526.2500    759.4161      7.5615     84.5308      0.0000
   526.5000    762.6469      7.5304     91.9486      0.0000
   526.7500    765.1663      7.6025     98.5578      0.0000
   527.0000    766.2799      7.8301    103.3786      0.0000
   527.2500    765.9916      8.3066    106.2208      0.0000
   527.5000    764.7532      9.0975    107.6543      0.0000
   527.7500    763.3708     10.1548    108.4001      0.0000
   528.0000    762.7687     11.2949    108.5110      0.0000
   528.2500    763.3851     12.2744    107.3680      0.0000
   528.5000    764.8282     12.9165    104.7586      0.0000
   528.7500    766.3022     13.1937    101.7484      0.0000
   529.0000    767.2923     13.2071    100.0163      0.0000
   529.2500    767.7703     13.0978    100.2917      0.0000
   529.5000    767.9419     12.9691    101.6645      0.0000
   529.7500    767.9886     12.8627    102.4784      0.0000
   530.0000    767.9982     12.7714    101.8118      0.0000
   530.2500    768.0000     12.6678    100.2266      0.0000
   530.5000    768.0000     12.5350     99.3711      0.0000
   530.7500    768.0000     12.3831    100.7581      0.0000
   531.0000    768.0000     12.2370    104.5074      0.0000
   531.2500    768.0000     12.1141    109.1480      0.0000
   531.5000    767.9988     12.0209    112.8280      0.0000
   531.7500    767.9922     11.9661    114.6894      0.0000
   532.0000    767.9607     11.9623    114.8648      0.0000
   532.2500    767.8433     12.0080    113.4127      0.0000
   532.5000    767.5109     12.0722    109.9052      0.0000
   532.7500    766.7963     12.1033    104.1069      0.0000
   533.0000    765.6232     12.0560     96.4971      0.0000
   533.2500    764.1170     11.9148     88.0378      0.0000
   533.5000    762.4773     11.6993     79.8495      0.0000
   533.7500    760.7362     11.4483     73.2180      0.0000
   534.0000    758.8416     11.1955     69.3784      0.0000
   534.2500    756.9830     10.9534     68.7704      0.0000
   534.5000    755.5450     10.7196     70.5427      0.0000
   534.7500    754.6771     10.4931     73.0459      0.0000
   535.0000    754.1167     10.2825     74.8584      0.0000
   535.2500    753.3618     10.1002     75.3333      0.0000
   535.5000    751.8683      9.9602     74.4141      0.0000
   535.7500    749.2668      9.8839     72.3250      0.0000
   536.0000    745.6168      9.8992     69.6054      0.0000
   536.2500    741.5460     10.0233     67.1318      0.0000
   536.5000    738.2387     10.2406     65.5559      0.0000
   536.7500    737.1097     10.4975     64.5503      0.0000
   537.0000    739.0040     10.7297     62.9928      0.0000
   537.2500    743.5046     10.9051     60.1246      0.0000
   537.5000    749.0793     11.0437     56.4318      0.0000
   537.7500    753.8894     11.1896     53.4340      0.0000
   538.0000    756.5474     11.3650     52.6683      0.0000
   538.2500    756.4824     11.5501     54.5983      0.0000
   538.5000    754.1057     11.7044     58.2823      0.0000
   538.7500    750.9850     11.7985     62.1228      0.0000
   539.0000    749.4766     11.8259     64.8904      0.0000
   539.2500    751.2180     11.7923     66.1252      0.0000
   539.5000    755.7078     11.7044     66.1477      0.0000
   539.7500    760.8098     11.5689     65.9224      0.0000
   540.0000    764.6584     11.3940     66.3385      0.0000
   540.2500    766.7690     11.1870     67.3146      0.0000
   540.5000    767.6412     10.9490     67.9432      0.0000
   540.7500    767.9172     10.6691     67.5785      0.0000
   541.0000    767.9836     10.3270     66.3936      0.0000
   541.2500    767.9880      9.9118     64.9069      0.0000
   541.5000    767.9455      9.4415     63.4876      0.0000
   541.7500    767.7728      8.9601     62.4182      0.0000
   542.0000    767.2538      8.5092     62.0279      0.0000
