~Version Information
VERS.                      2.0: CWLS Log ASCII Standard - VERSION 2.0
WRAP.                       NO: One line per depth step
~Well Information Block
STRT.FT               710.0000: 
STOP.FT              2922.5000: 
STEP.FT                 0.2500: 
NULL.                -999.2500: 
COMP.          Petrogulf Corporation: COMPANY
WELL.            Montoya 1-41V: WELL
FLD.           Purgatorie River: FIELD
LOC.           610' FNL & 1205' FEL: LOCATION
PROV.                 Colorado: PROVINCE
CNTY.               Las Animas: COUNTRY
SRVC.                Patterson: SERVICE COMPANY
DATE.          Mon Aug 22 08:00:56 2005: LOG DATE
UWI.                          : UNIQUE WELL ID
~Curve Information Block
DEPT.FT            0 000 00 00: Depth
SP.mV                         : DIL Spontaneous Potential
RILD.Ohm-m                    : DIL Deep Resistivity
RILM.Ohm-m                    : DIL Medium Resistivity
RLL3.Ohm-m                    : DIL Shallow Resistivity
GR.GAPI                       : Gamma Ray
~Parameter Information Block
~A  Depth        SP         RILD        RILM        RLL3         GR     
# ...
  2306.0000     48.0546     10.7996      9.7855     13.0817    158.3585
  2306.2500     46.3985     10.9461     10.3976     14.2970    147.5648
  2306.5000     44.2444     11.3117     11.2563     15.4838    157.2011
  2306.7500     42.2207     11.9639     11.9001     16.5499    151.1681
  2307.0000     40.6727     12.6049     12.6508     17.3053    134.8869
  2307.2500     39.4843     13.2127     14.2181     18.6328    135.2670
  2307.5000     38.7379     13.3410     15.9076     25.2276    122.9391
  2307.7500     38.7660     13.6811     17.5741     44.1252    102.9928
  2308.0000     39.4916     14.1754     19.0982     79.8821     87.4041
  2308.2500     41.0357     14.6052     21.0638     96.6614     88.3037
  2308.5000     42.8927     15.2149     20.9118     72.0466    112.6619
  2308.7500     45.2425     15.0550     19.9527     41.4843    124.6360
  2309.0000     47.2951     15.0255     19.9578     27.4319    145.3064
  2309.2500     49.0134     14.8687     19.1688     23.8080    143.3341
  2309.5000     50.2436     14.5319     18.6821     24.7337    133.1241
  2309.7500     51.2119     14.4624     17.0847     27.6639    140.4922
  2310.0000     51.9796     14.4717     15.6997     27.0653    141.5086
  2310.2500     52.4888     13.6099     14.4860     20.1331    149.8576
  2310.5000     52.3584     12.7754     13.2802     15.0570    181.3632
  2310.7500     51.6004     12.8475     12.2423     13.7126    172.5658
  2311.0000     50.5257     12.6439     11.5151     13.8460    162.5079
  2311.2500     49.5262     12.4743     11.2711     14.0976    180.1095
  2311.5000     48.6490     12.2965     11.1335     14.2010    183.8308
  2311.7500     47.8059     12.3900     11.1100     14.4257    186.1942
  2312.0000     46.9060     12.0663     11.1544     14.6896    183.9874
  2312.2500     46.0528     12.5152     11.3084     15.2211    168.7078
  2312.5000     45.2676     12.7179     11.7561     16.6809    156.2300
  2312.7500     44.5178     13.3811     12.3584     18.2239    164.4626
  2313.0000     43.7911     14.0975     13.1432     19.6280    149.2972
  2313.2500     43.3171     14.7692     14.4881     21.0140    141.4333
  2313.5000     43.1911     14.9031     15.7760     23.7154    138.3701
  2313.7500     43.0961     16.1952     17.1205     29.9327    124.8007
  2314.0000     42.7589     17.8726     19.2516     35.2039    114.0308
  2314.2500     42.2289     19.2733     22.1436     33.3630    104.3830
  2314.5000     41.2235     20.1199     24.0406     34.6597     90.3666
  2314.7500     39.8071     21.5630     27.0270     47.9012     89.0702
  2315.0000     38.3790     22.9366     29.2856     76.6905     66.5839
  2315.2500     37.2756     23.6187     33.0979    117.5582     58.6923
  2315.5000     36.6473     26.3944     32.7978    149.7351     57.0575
  2315.7500     36.2540     27.4730     34.9748    139.4419     64.1471
  2316.0000     35.7597     28.2578     30.8978     98.3021     72.5742
  2316.2500     35.0193     30.8990     29.5831     55.6591     88.1533
  2316.5000     34.2220     32.0754     29.2788     33.1793    113.3893
  2316.7500     33.3754     32.7236     30.2070     25.7045    138.1845
  2317.0000     32.5371     35.1276     29.9386     24.0048    143.3753
  2317.2500     31.7750     33.8183     32.8069     25.0717     98.9385
  2317.5000     31.3443     33.5024     36.2696     31.2205     91.7036
  2317.7500     31.4311     34.2523     39.2985     48.4856     71.7936
  2318.0000     32.0606     35.0021     41.7240     72.0832     56.5905
  2318.2500     33.1528     33.0953     46.6950     81.7106     51.9022
  2318.5000     34.3999     28.9727     48.7500     86.5041     45.0345
  2318.7500     35.8543     31.7393     50.6682     91.0093     49.9717
  2319.0000     37.4209     30.5930     49.4822     92.8810     40.2731
  2319.2500     38.9325     29.1245     41.9393     91.6632     48.2535
  2319.5000     40.9020     30.0776     38.4088     87.2949     66.9020
  2319.7500     42.9090     29.8571     36.5462     75.6475     65.3941
  2320.0000     44.9061     29.7734     32.4354     55.3707    107.7529
  2320.2500     46.7359     29.0407     29.9300     39.6312    113.4831
  2320.5000     48.1069     27.9084     29.6767     30.9672    132.0120
  2320.7500     49.0115     27.6446     27.1636     26.3472    154.7258
  2321.0000     49.4684     27.7446     26.2740     24.8234    147.6151
  2321.2500     49.5211     27.2766     26.3662     25.9411    134.2025
  2321.5000     49.1817     25.9777     24.5307     26.6253    134.4881
  2321.7500     48.3271     26.3414     23.3782     26.1804    135.3387
  2322.0000     47.2395     26.6753     23.5141     26.8104    117.2223
  2322.2500     46.2195     25.2666     25.5181     29.4463    106.7011
  2322.5000     45.3693     24.9077     24.8350     29.6992    122.9879
  2322.7500     44.9016     26.0825     25.1302     28.5631    105.6241
  2323.0000     44.8161     25.5514     27.4017     33.9533    105.0083
  2323.2500     45.1063     26.1089     27.5040     42.8664    106.9760
  2323.5000     45.7050     26.1723     27.9374     46.6805     94.9643
  2323.7500     46.2503     28.2500     29.1374     45.2082     80.2023
  2324.0000     46.6718     28.6109     28.7259     42.3456    100.3987
  2324.2500     47.0005     28.0827     28.5734     40.8083    107.5780
  2324.5000     47.1274     28.9862     29.6168     40.4806     94.1684
  2324.7500     46.8980     30.7154     30.5503     40.6012     91.9996
  2325.0000     46.3160     32.5330     32.4418     41.9601     72.0274
  2325.2500     45.4140     33.9201     33.1904     44.6017     72.5913
  2325.5000     44.2108     35.9083     34.1706     46.8396     88.7223
  2325.7500     42.7551     37.1219     35.9715     46.6848     78.5431
  2326.0000     41.1365     36.8302     38.7510     45.3062     69.9427
  2326.2500     39.5251     37.2013     43.0161     45.3832     73.1836
  2326.5000     38.2122     38.3876     40.0086     47.6189     81.6455
  2326.7500     37.3049     37.3218     41.6396     48.3852     70.0844
  2327.0000     37.0524     37.5125     41.2830     43.2340     69.8115
  2327.2500     37.4759     37.8409     43.8935     38.7566     70.1015
  2327.5000     38.3036     34.8116     42.1208     41.0207     72.8112
  2327.7500     39.6548     32.7220     43.5088     50.4042     76.2608
  2328.0000     41.5330     29.8695     45.0212     65.5463     61.0098
  2328.2500     44.0396     27.6244     41.2443     83.7497     61.2972
  2328.5000     47.3352     24.3410     36.4030    101.2224     67.1758
  2328.7500     50.9801     24.6381     28.4510     98.4459     72.8950
  2329.0000     54.7415     23.2592     23.9205     68.4236     89.2212
  2329.2500     58.1966     22.3916     19.9162     30.8121    110.1011
  2329.5000     60.7482     21.7366     18.0635     16.8259    148.7050
  2329.7500     61.6468     22.8026     16.8476     14.4651    150.5521
  2330.0000     61.6890     22.9041     16.3830     15.3361    151.0503
  2330.2500     61.3443     22.4320     16.8566     16.8357    127.7456
  2330.5000     61.0113     21.3656     17.9502     17.9618    126.4945
  2330.7500     60.8957     20.7420     18.4298     19.5254    116.0202
  2331.0000     61.0510     20.0781     19.4127     24.0050     96.3113
  2331.2500     61.3892     19.8704     20.6488     33.6333     71.9807
  2331.5000     62.0223     19.6289     20.8697     43.7610     61.8118
  2331.7500     62.7659     20.0033     20.7006     43.6228     54.2352
  2332.0000     63.4591     20.1355     20.7478     39.2207     51.7031
  2332.2500     63.7943     20.9032     21.3111     35.0252     57.4605
  2332.5000     63.7053     21.4644     21.4994     33.1177     44.0482
  2332.7500     63.3196     22.6299     22.5414     33.0853     55.6382
  2333.0000     62.5243     24.6606     24.0458     32.5942     74.3832
  2333.2500     61.3743     24.1494     26.0515     31.1319     67.5291
  2333.5000     59.8854     25.8000     25.7542     29.0907     56.4202
  2333.7500     58.1983     27.8539     27.0089     28.0559     57.6126
