~Version Information
 VERS.                      2.0: CWLS Log ASCII Standard - VERSION 2.0
 WRAP.                       NO: One line per depth step
 ~Well Information Block
 STRT.FT               465.6000: 
 STOP.FT              1777.2000: 
 STEP.FT                 0.1000: 
 NULL.                -999.2500: 
 COMP.          Petrogulf Corporation: COMPANY
 WELL.          Alexander 9-43R: WELL
 FLD.           Purgatorie River: FIELD
 LOC.           1652' FSL & 1049' FEL: LOCATION
 CNTY.               Las Animas: COUNTY
 SRVC.                         : SERVICE COMPANY
 DATE.          Fri Sep 03 15:08:45 2004: LOG DATE
 UWI.           05 071 08036 00: UNIQUE WELL ID
 STAT.                 Colorado: STATE
 PROV.                         :Province
 ~Curve Information Block
 DEPT.FT            0 000 00 00: Depth
 DCAL.in                       : CDL Caliper
 RHOB.g/cc                     : CDL Bulk Density
 RHOC.g/cc                     : CDL Density Correction
 DPOR.pu                       : CDL Density Porosity
 GR.GAPI                       : Gamma Ray
 NPOR.pu                       : Neutron Porosity
 ~Parameter Information Block
 ~A  Depth       DCAL        RHOB        RHOC        DPOR         GR         NPOR    
# ...
  1003.2000      8.3307      2.5468      0.3344      6.2573    145.4321     25.8519
  1003.3000      8.3352      2.5315      0.2148      7.1816    156.3143     26.1723
  1003.4000      8.3352      2.5353      0.2207      6.9516    159.2891     26.7003
  1003.5000      8.3148      2.5449      0.2255      6.3686    152.9133     27.4355
  1003.6000      8.3148      2.5560      0.1928      5.6949    150.0262     28.3885
  1003.7000      8.3148      2.5703      0.2634      4.8319    153.6048     29.2634
  1003.8000      8.3270      2.5749      0.2468      4.5487    152.8342     29.6986
  1003.9000      8.3270      2.5781      0.1443      4.3574    144.4400     29.8984
  1004.0000      8.2050      2.6028      0.1779      2.8582    136.4645     30.3662
  1004.1000      8.2050      2.6327      0.2318      1.0456    131.6304     30.7909
  1004.2000      8.2050      2.6339      0.1503      0.9757    126.7623     30.7731
  1004.3000      8.1391      2.6166      0.0703      2.0241    119.4556     30.6958
  1004.4000      8.1391      2.6213      0.0606      1.7369    110.0499     30.8551
  1004.5000      8.0682      2.6648      0.0890     -0.8967    103.2446     31.0019
  1004.6000      8.0682      2.7216      0.0977     -4.3420    102.0587     30.8864
  1004.7000      8.0682      2.7475      0.1896     -5.9068    102.9562     30.6110
  1004.8000      8.0546      2.7248      0.1111     -4.5309    101.6469     30.4429
  1004.9000      8.0546      2.6785      0.0733     -1.7272     98.1991     30.5952
  1005.0000      8.0341      2.6381      0.0434      0.7226     94.9491     31.0529
  1005.1000      8.0341      2.6157      0.0025      2.0809     94.0079     31.5884
  1005.2000      8.0341      2.6100     -0.0274      2.4228     96.4626     31.8524
  1005.3000      8.0665      2.6165      0.0391      2.0276    101.7034     31.5923
  1005.4000      8.0665      2.6393      0.0110      0.6510    106.2127     31.0451
  1005.5000      8.1084      2.6908      0.0171     -2.4727    104.3036     30.7778
  1005.6000      8.1084      2.7693      0.0864     -7.2300     95.9504     30.8545
  1005.7000      8.1084      2.8437      0.1486    -11.7381     88.0333     30.5204
  1005.8000      8.1011      2.8813      0.1805    -14.0205     85.0123     29.5615
  1005.9000      8.1011      2.8790      0.1916    -13.8793     86.7014     28.5575
  1006.0000      7.9665      2.8555      0.1110    -12.4559     93.3898     27.7637
  1006.1000      7.9665      2.8224      0.1185    -10.4478    103.4995     27.2233
  1006.2000      7.9665      2.7743      0.0423     -7.5308    113.0274     27.0729
  1006.3000      7.9834      2.7211     -0.0676     -4.3103    119.3348     27.0547
  1006.4000      7.9834      2.6794     -0.0539     -1.7819    120.1283     26.8464
  1006.5000      7.9846      2.6329      0.0145      1.0382    116.9953     26.5855
  1006.6000      7.9846      2.5718      0.0308      4.7407    116.0091     26.5625
  1006.7000      7.9846      2.5330      0.0161      7.0886    116.4468     26.8288
  1006.8000      7.9910      2.5407      0.0980      6.6213    115.3689     27.1730
  1006.9000      7.9910      2.5697      0.1263      4.8681    115.2920     27.4881
  1007.0000      8.0404      2.5918      0.1461      3.5281    117.4869     27.7506
  1007.1000      8.0404      2.6033      0.0991      2.8285    121.7420     27.6342
  1007.2000      8.0404      2.6026      0.1665      2.8701    129.6687     27.0882
  1007.3000      8.0576      2.5852      0.0934      3.9296    136.9524     26.9070
  1007.4000      8.0576      2.5680      0.0905      4.9727    135.7570     27.4868
  1007.5000      8.0350      2.5722      0.0904      4.7177    128.6485     28.1151
  1007.6000      8.0350      2.5944      0.1080      3.3674    124.7853     28.1371
  1007.7000      8.0350      2.6087      0.1372      2.5049    124.5835     27.6273
  1007.8000      8.0488      2.5942      0.1330      3.3810    124.2792     27.1629
  1007.9000      8.0488      2.5668      0.0277      5.0414    123.6940     27.1209
  1008.0000      8.0524      2.5544      0.0976      5.7948    122.6009     27.2629
  1008.1000      8.0524      2.5568      0.1035      5.6458    118.3315     27.3901
  1008.2000      8.0524      2.5651      0.1231      5.1437    111.3716     27.6318
  1008.3000      8.0244      2.5765      0.1611      4.4567    106.3617     28.1889
  1008.4000      8.0244      2.5904      0.1595      3.6136    103.9655     28.9861
  1008.5000      8.0250      2.6116      0.1419      2.3281     99.5722     29.4148
  1008.6000      8.0250      2.6386      0.1718      0.6879     93.3083     29.2380
  1008.7000      8.0250      2.6627      0.1514     -0.7712     88.1006     28.9147
  1008.8000      8.0294      2.6828      0.0998     -1.9900     83.1214     28.5728
  1008.9000      8.0294      2.6977      0.1402     -2.8935     77.0144     27.9770
  1009.0000      8.0221      2.6995      0.1667     -2.9970     72.9833     27.4206
  1009.1000      8.0221      2.6880      0.1261     -2.3009     75.4103     27.0621
  1009.2000      8.0221      2.6654      0.1297     -0.9336     83.1698     26.3400
  1009.3000      8.0380      2.6266      0.0977      1.4154     91.4570     24.9321
  1009.4000      8.0380      2.5816      0.0290      4.1459    100.7315     23.3770
  1009.5000      8.0314      2.5482      0.0444      6.1667    110.4939     22.3786
  1009.6000      8.0314      2.5277      0.0138      7.4100    116.8123     22.0459
  1009.7000      8.0314      2.5146      0.0150      8.2077    123.6582     21.9158
  1009.8000      8.0391      2.4969      0.0740      9.2764    133.9999     21.5736
  1009.9000      8.0391      2.4671      0.0700     11.0876    140.7868     21.1514
  1010.0000      8.0542      2.4445      0.0508     12.4538    141.8047     21.1049
  1010.1000      8.0542      2.4482      0.0757     12.2280    144.1087     21.3272
  1010.2000      8.0542      2.4690      0.1381     10.9710    150.2089     21.5392
  1010.3000      8.0694      2.4908      0.1097      9.6469    155.0322     21.5913
  1010.4000      8.0694      2.5074      0.1472      8.6444    151.8348     21.0926
  1010.5000      8.1396      2.5030      0.1981      8.9090    140.5388     20.1774
  1010.6000      8.1396      2.4524      0.2160     11.9734    131.0201     19.2539
  1010.7000      8.1396      2.3510      0.1867     18.1227    131.7403     18.0793
  1010.8000      8.2478      2.2211      0.0900     25.9950    137.6255     16.4675
  1010.9000      8.2478      2.0776      0.0623     34.6937    137.0755     14.8572
  1011.0000      8.2692      1.9181     -0.0201     44.3603    130.7453     13.6734
  1011.1000      8.2692      1.7634     -0.1248     53.7358    125.0191     12.9464
  1011.2000      8.2692      1.6541     -0.0812     60.3600    117.2737     12.7941
  1011.3000      8.1999      1.6036     -0.0458     63.4185    108.1649     13.4273
  1011.4000      8.1999      1.5992      0.0185     63.6862    107.1049     14.6502
  1011.5000      8.2052      1.6285      0.1013     61.9071    116.1243     16.1210
  1011.6000      8.2052      1.6858      0.2014     58.4383    124.8339     17.4517
  1011.7000      8.2052      1.7648      0.3191     53.6513    126.5903     18.3725
  1011.8000      8.3560      1.8632      0.2967     47.6872    126.4886     19.1938
  1011.9000      8.3560      1.9753      0.3245     40.8881    127.3165     20.6109
  1012.0000      8.5036      2.0711      0.3597     35.0834    123.9655     22.7213
  1012.1000      8.5036      2.1373      0.2005     31.0721    119.1078     24.7874
  1012.2000      8.5036      2.2079      0.2036     26.7936    122.3717     26.3207
  1012.3000      8.3760      2.2957      0.2309     21.4726    132.9156     27.3485
  1012.4000      8.3760      2.3649      0.2286     17.2794    141.2956     28.0221
  1012.5000      8.2099      2.3913      0.1604     15.6799    142.9479     28.3091
  1012.6000      8.2099      2.3945      0.1216     15.4831    143.0764     27.9784
  1012.7000      8.2099      2.4071      0.1302     14.7212    148.0092     27.3195
