~Version Information
VERS.                      2.0: CWLS Log ASCII Standard - VERSION 2.0
WRAP.                       NO: One line per depth step
~Well Information Block
STRT.FT               265.0000: 
STOP.FT              1214.0000: 
STEP.FT                 0.2500: 
NULL.                -999.2500: 
COMP.          Pioneer Natural Resources: COMPANY
WELL.          Pacheco 33-27 Tr: WELL
FLD.           Purgatoire River: FIELD
LOC.           2251' FSL & 2342' FEL: LOCATION
PROV.                 Colorado: PROVINCE
CNTY.               Las Animas: COUNTRY
SRVC.                Patterson: SERVICE COMPANY
DATE.          Fri Jun 10 13:29:04 2005: LOG DATE
UWI.           05 071 08384 00: UNIQUE WELL ID
~Curve Information Block
DEPT.FT            0 000 00 00: Depth
SN.Ohm-m                      : IEL Short Normal
SP.mV                         : IEL Spontaneous Potential
DIR.Ohm-m                     : IEL Induction Resistivity
GR.GAPI                       : Gamma Ray
~Parameter Information Block
~A  Depth        SN          SP         DIR          GR     
# ...
   332.0000   2000.0000   2000.0000     41.1673    106.4467
   332.2500   2000.0000   2000.0000     41.0509    109.5670
   332.5000   2000.0000   2000.0000     40.6074    113.0978
   332.7500   2000.0000   2000.0000     39.7238    114.5740
   333.0000   2000.0000   2000.0000     38.6634    115.3148
   333.2500   2000.0000   2000.0000     37.8438    114.7264
   333.5000   2000.0000   2000.0000     37.5406    112.5211
   333.7500   2000.0000   2000.0000     37.7601    110.8883
   334.0000   2000.0000   2000.0000     38.2901    109.7088
   334.2500   2000.0000   2000.0000     38.8552    109.9918
   334.5000   2000.0000   2000.0000     39.2912    110.8773
   334.7500   2000.0000   2000.0000     39.6272    111.0038
   335.0000   2000.0000   2000.0000     40.0055    110.4614
   335.2500   2000.0000   2000.0000     40.5392    110.1166
   335.5000   2000.0000   2000.0000     41.2387    109.9564
   335.7500   2000.0000   2000.0000     42.0414    109.7899
   336.0000   2000.0000   2000.0000     42.8917    109.0851
   336.2500   2000.0000   2000.0000     43.7708    108.5273
   336.5000   2000.0000   2000.0000     44.6484    108.1598
   336.7500   2000.0000   2000.0000     45.4307    108.2760
   337.0000   2000.0000   2000.0000     45.9897    108.4611
   337.2500   2000.0000   2000.0000     46.2649    108.2561
   337.5000   2000.0000   2000.0000     46.3304    107.4760
   337.7500   2000.0000   2000.0000     46.3564    106.9469
   338.0000   2000.0000   2000.0000     46.5046    106.4230
   338.2500   2000.0000   2000.0000     46.8344    106.0676
   338.5000   2000.0000   2000.0000     47.2700    105.0984
   338.7500   2000.0000   2000.0000     47.6315    104.2788
   339.0000   2000.0000   2000.0000     47.7139    103.6590
   339.2500   2000.0000   2000.0000     47.3647    104.0916
   339.5000   2000.0000   2000.0000     46.5323    105.7878
   339.7500   2000.0000   2000.0000     45.2971    106.9639
   340.0000   2000.0000   2000.0000     43.8619    107.7226
   340.2500   2000.0000   2000.0000     42.4786    107.4629
   340.5000   2000.0000   2000.0000     41.3229    106.9295
   340.7500   2000.0000   2000.0000     40.4213    107.4409
   341.0000   2000.0000   2000.0000     39.6841    110.6274
   341.2500   2000.0000   2000.0000     39.0096    114.2076
   341.5000   2000.0000   2000.0000     38.3752    120.3797
   341.7500   2000.0000   2000.0000     37.8420    124.1938
   342.0000   2000.0000   2000.0000     37.4760    128.6717
   342.2500   2000.0000   2000.0000     37.2628    130.5763
   342.5000   2000.0000   2000.0000     37.0831    131.3438
   342.7500   2000.0000   2000.0000     36.7742    130.2713
   343.0000   2000.0000   2000.0000     36.2394    126.5789
   343.2500   2000.0000   2000.0000     35.5029    123.2758
   343.5000   2000.0000   2000.0000     34.6526    118.1686
   343.7500   2000.0000   2000.0000     33.7413    115.2502
   344.0000   2000.0000   2000.0000     32.7628    112.6498
   344.2500   2000.0000   2000.0000     31.7162    112.6862
   344.5000   2000.0000   2000.0000     30.6680    115.8015
   344.7500   2000.0000   2000.0000     29.7348    119.7168
   345.0000   2000.0000   2000.0000     29.0122    127.7252
   345.2500   2000.0000   2000.0000     28.5265    133.9908
   345.5000   2000.0000   2000.0000     28.2420    143.1186
   345.7500   2000.0000   2000.0000     28.1045    147.6547
   346.0000   2000.0000   2000.0000     28.0862    150.3691
   346.2500   2000.0000   2000.0000     28.2063    149.2914
   346.5000   2000.0000   2000.0000     28.5131    143.9792
   346.7500   2000.0000   2000.0000     29.0354    138.1376
   347.0000   2000.0000   2000.0000     29.7309    125.4445
   347.2500   2000.0000   2000.0000     30.4730    114.1948
   347.5000   2000.0000   2000.0000     31.0976     94.1840
   347.7500   2000.0000   2000.0000     31.4854     80.1023
   348.0000   2000.0000   2000.0000     31.6101     60.4169
   348.2500   2000.0000   2000.0000     31.5085     49.3970
   348.5000   2000.0000   2000.0000     31.2259     37.2217
   348.7500   2000.0000   2000.0000     30.7915     32.3457
   349.0000   2000.0000   2000.0000     30.2274     30.0091
   349.2500   2000.0000   2000.0000     29.5529     31.7214
   349.5000   2000.0000   2000.0000     28.7769     39.3633
   349.7500   2000.0000   2000.0000     27.8987     48.1128
   350.0000   2000.0000   2000.0000     26.9285     66.7307
   350.2500   2000.0000   2000.0000     25.9044     81.9693
   350.5000   2000.0000   2000.0000     24.8785    105.8166
   350.7500   2000.0000   2000.0000     23.8844    119.9243
   351.0000   2000.0000   2000.0000     22.9284    135.1722
   351.2500   2000.0000   2000.0000     22.0126    140.9720
   351.5000   2000.0000   2000.0000     21.1653    144.9177
   351.7500   2000.0000   2000.0000     20.4399    145.9920
   352.0000   2000.0000   2000.0000     19.8814    147.0839
   352.2500   2000.0000   2000.0000     19.4953    147.5814
   352.5000   2000.0000   2000.0000     19.2529    147.3705
   352.7500   2000.0000   2000.0000     19.1329    146.4572
   353.0000   2000.0000   2000.0000     19.1591    144.3569
   353.2500   2000.0000   2000.0000     19.3943    142.6639
   353.5000   2000.0000   2000.0000     19.8974    139.3439
   353.7500   2000.0000   2000.0000     20.6810    136.2507
   354.0000   2000.0000   2000.0000     21.7011    130.1911
   354.2500   2000.0000   2000.0000     22.8770    125.5713
   354.5000   2000.0000   2000.0000     24.1224    118.6933
   354.7500   2000.0000   2000.0000     25.3664    114.4997
   355.0000   2000.0000   2000.0000     26.5603    108.8050
   355.2500   2000.0000   2000.0000     27.6836    105.2186
   355.5000   2000.0000   2000.0000     28.7565    100.0949
   355.7500   2000.0000   2000.0000     29.8457     97.1353
   356.0000   2000.0000   2000.0000     31.0409     94.0913
   356.2500   2000.0000   2000.0000     32.3975     93.1650
   356.5000   2000.0000   2000.0000     33.8745     92.8634
   356.7500   2000.0000   2000.0000     35.3157     92.6050
   357.0000   2000.0000   2000.0000     36.5216     90.5290
   357.2500   2000.0000   2000.0000     37.3827     87.3371
   357.5000   2000.0000   2000.0000     37.9592     79.7906
   357.7500   2000.0000   2000.0000     38.4331     73.6361
   358.0000   2000.0000   2000.0000     38.9969     64.5619
   358.2500   2000.0000   2000.0000     39.7892     59.5015
   358.5000   2000.0000   2000.0000     40.8891     54.0368
   358.7500   2000.0000   2000.0000     42.3204     51.7927
   359.0000   2000.0000   2000.0000     44.0135     50.2926
   359.2500   2000.0000   2000.0000     45.7587     50.3768
   359.5000   2000.0000   2000.0000     47.2305     51.6779
   359.7500   2000.0000   2000.0000     48.1476     52.9188
   360.0000   2000.0000   2000.0000     48.4719     54.5419
   360.2500   2000.0000   2000.0000     48.4562     55.0523
   360.5000   2000.0000   2000.0000     48.4721     54.5171
   360.7500   2000.0000   2000.0000     48.7655     53.3748
   361.0000   2000.0000   2000.0000     49.3139     51.4653
   361.2500   2000.0000   2000.0000     49.8589     50.8209
   361.5000   2000.0000   2000.0000     50.1020     51.2740
   361.7500   2000.0000   2000.0000     49.9191     52.0981
   362.0000   2000.0000   2000.0000     49.4032     53.0107
   362.2500   2000.0000   2000.0000     48.7209     53.0518
   362.5000   2000.0000   2000.0000     47.9790     52.2600
   362.7500   2000.0000   2000.0000     47.2159     51.2824
   363.0000   2000.0000   2000.0000     46.4491     49.4495
   363.2500   2000.0000   2000.0000     45.6907     48.3750
   363.5000   2000.0000   2000.0000     44.9262     48.0657
   363.7500   2000.0000   2000.0000     44.1127     49.2708
   364.0000   2000.0000   2000.0000     43.2232     53.2020
   364.2500   2000.0000   2000.0000     42.2981     56.6688
   364.5000   2000.0000   2000.0000     41.4413     61.9851
   364.7500   2000.0000   2000.0000     40.7697     65.3456
   365.0000   2000.0000   2000.0000     40.3513     70.5957
   365.2500   2000.0000   2000.0000     40.1885     74.7066
