~Version Information
VERS.                      2.0: CWLS Log ASCII Standard - VERSION 2.0
WRAP.                       NO: One line per depth step
~Well Information Block
STRT.FT                -8.2500: 
STOP.FT               836.2500: 
STEP.FT                 0.2500: 
NULL.                -999.2500: 
COMP.          Pioneer Natural Res.: COMPANY
WELL.            Hustler 12-17: WELL
FLD.           Purgatorie River: FIELD
LOC.           2150' FNL & 450' FWL----------: LOCATION
PROV.                       CO: PROVINCE
CNTY.               Las Animas: COUNTRY
SRVC.                Patterson: SERVICE COMPANY
DATE.          Wed Dec 29 13:37:10 2004: LOG DATE
UWI.           05 071 08236 00: UNIQUE WELL ID
~Curve Information Block
DEPT.FT            0 000 00 00: Depth
AMP3.mV                       : CBL 3' Amplitude
CCL.                          : Casing Collar Locator
GR.GAPI                       : Gamma Ray
TT3.usec                      : CBL 3' Travel Time
~Parameter Information Block
~A  Depth       AMP3        CCL          GR         TT3     
# ...
   695.2500     31.3252      0.0000     82.0030    312.0363
   695.5000     31.4736      0.0000     85.3469    312.1691
   695.7500     31.6930      0.0000     88.4648    312.2164
   696.0000     31.9750      0.0000     90.2080    312.1785
   696.2500     32.3121      0.0000     89.7263    312.0699
   696.5000     32.7146      0.0000     86.6807    311.9127
   696.7500     33.1744      0.0000     81.3634    311.7415
   697.0000     33.6287      0.0000     74.7201    311.5965
   697.2500     33.9806      0.0000     68.0812    311.5042
   697.5000     34.1600      0.0000     62.7561    311.4640
   697.7500     34.1677      0.0000     59.7340    311.4569
   698.0000     34.0667      0.0000     59.5745    311.4604
   698.2500     33.9309      0.0000     62.4141    311.4598
   698.5000     33.7958      0.0000     67.7648    311.4525
   698.7500     33.6545      0.0000     74.1287    311.4461
   699.0000     33.4925      0.0000     79.3347    311.4506
   699.2500     33.3231      0.0000     81.8327    311.4702
   699.5000     33.1862      0.0000     81.4795    311.4992
   699.7500     33.1071      0.0000     78.9690    311.5268
   700.0000     33.0544      0.0000     75.1583    311.5458
   700.2500     32.9499      0.0000     71.2797    311.5579
   700.5000     32.7355      0.0000     69.0343    311.5702
   700.7500     32.4198      0.0000     69.7038    311.5854
   701.0000     32.0564      0.0000     73.0735    311.5970
   701.2500     31.6944      0.0000     77.3573    311.5959
   701.5000     31.3538      0.0000     80.2131    311.5822
   701.7500     31.0347      0.0000     80.1945    311.5695
   702.0000     30.7554      0.0000     77.6720    311.5717
   702.2500     30.5897      0.0000     74.4891    311.5866
   702.5000     30.6394      0.0000     72.7646    311.5960
   702.7500     30.9361      0.0000     73.8858    311.5862
   703.0000     31.3701      0.0000     78.0466    311.5670
   703.2500     31.7436      0.0000     84.1318    311.5656
   703.5000     31.9119      0.0000     89.9805    311.6014
   703.7500     31.8788      0.0000     93.2169    311.6678
   704.0000     31.7716      0.0000     92.5122    311.7409
   704.2500     31.7410      0.0000     88.5406    311.7982
   704.5000     31.8808      0.0000     83.5748    311.8261
   704.7500     32.2082      0.0000     79.7879    311.8161
   705.0000     32.6783      0.0000     77.8001    311.7652
   705.2500     33.2038      0.0000     76.8169    311.6843
   705.5000     33.6841      0.0000     75.8900    311.6001
   705.7500     34.0460      0.0000     74.8694    311.5440
   706.0000     34.2597      0.0000     74.2769    311.5353
   706.2500     34.3124      0.0000     74.6800    311.5746
   706.5000     34.1790      0.0000     76.5027    311.6548
   706.7500     33.8338      0.0000     80.1422    311.7745
   707.0000     33.3000      0.0000     85.4184    311.9362
   707.2500     32.7015      0.0000     90.6870    312.1237
   707.5000     32.2606      0.0000     93.2897    312.2865
   707.7500     32.1936      0.0000     91.5949    312.3608
   708.0000     32.5527      0.0000     86.5155    312.3161
   708.2500     33.1670      0.0000     80.8245    312.1808
   708.5000     33.7692      0.0000     77.1523    312.0217
   708.7500     34.1806      0.0000     76.5764    311.9023
   709.0000     34.3795      0.0000     78.4082    311.8545
   709.2500     34.4449      0.0000     80.7141    311.8730
   709.5000     34.4798      0.0000     81.3415    311.9221
   709.7500     34.5493      0.0000     79.2411    311.9566
   710.0000     34.6347      0.0000     75.1479    311.9537
   710.2500     34.6476      0.0000     70.8847    311.9280
   710.5000     34.5241      0.0000     68.0512    311.9123
   710.7500     34.2993      0.0000     67.3683    311.9264
   711.0000     34.0630      0.0000     68.6502    311.9643
   711.2500     33.8600      0.0000     70.8564    312.0063
   711.5000     33.6624      0.0000     72.5152    312.0341
   711.7500     33.4319      0.0000     72.6409    312.0344
   712.0000     33.1802      0.0000     71.3070    311.9948
   712.2500     32.9614      0.0000     69.3665    311.9038
   712.5000     32.8084      0.0000     67.8736    311.7652
   712.7500     32.6708      0.0000     67.7144    311.6172
   713.0000     32.4112      0.0000     69.2940    311.5330
   713.2500     31.8815      0.0000     72.2043    311.5881
   713.5000     31.0402      0.0000     75.3716    311.8117
   713.7500     30.0129      0.0000     77.8945    312.1605
   714.0000     29.0247      0.0000     79.7557    312.5396
   714.2500     28.2502      0.0000     81.4656    312.8526
   714.5000     27.7269      0.0000     83.0186    313.0427
   714.7500     27.4124      0.0000     83.5827    313.0984
   715.0000     27.2969      0.0000     82.4022    313.0366
   715.2500     27.4247      0.0000     79.7330    312.8904
   715.5000     27.8059      0.0000     76.7642    312.7129
   715.7500     28.3394      0.0000     74.9347    312.5767
   716.0000     28.8597      0.0000     75.3722    312.5422
   716.2500     29.2654      0.0000     78.4015    312.6138
   716.5000     29.5819      0.0000     83.0192    312.7336
   716.7500     29.8809      0.0000     87.0591    312.8301
   717.0000     30.1605      0.0000     88.5943    312.8776
   717.2500     30.3345      0.0000     87.3852    312.9044
   717.5000     30.3332      0.0000     84.7602    312.9511
   717.7500     30.1971      0.0000     82.3156    313.0228
   718.0000     30.0843      0.0000     80.9975    313.0809
   718.2500     30.1897      0.0000     81.0630    313.0702
   718.5000     30.6146      0.0000     82.3139    312.9600
   718.7500     31.2699      0.0000     84.3142    312.7726
   719.0000     31.9126      0.0000     86.6786    312.5760
   719.2500     32.3084      0.0000     89.1145    312.4387
   719.5000     32.3714      0.0000     91.0704    312.3887
   719.7500     32.1513      0.0000     91.7121    312.4190
   720.0000     31.7293      0.0000     90.6846    312.5166
   720.2500     31.1613      0.0000     88.7328    312.6737
   720.5000     30.4934      0.0000     87.0840    312.8770
   720.7500     29.7954      0.0000     86.1602    313.0992
   721.0000     29.1933      0.0000     85.2292    313.2969
   721.2500     28.8670      0.0000     83.4116    313.4145
   721.5000     28.9533      0.0000     80.8441    313.4101
   721.7500     29.4142      0.0000     78.7263    313.3277
   722.0000     30.0430      0.0000     78.2905    313.3734
   722.2500     30.6172      0.0000     79.7431    314.2329
   722.5000     30.9812      0.0000     81.9890    317.9681
   722.7500     30.9561      0.0000     83.2888    329.2479
   723.0000     30.2847      0.0000     82.4337    354.7587
   723.2500     28.8189      0.0000     79.4555    397.8600
   723.5000     26.7691      0.0000     75.2866    450.6805
   723.7500     24.6391      0.0000     70.9978    494.5764
   724.0000     22.8325      0.0000     67.4179    514.8528
   724.2500     21.4058      0.0000     65.0080    515.3969
   724.5000     20.2556      0.0000     63.7712    514.5311
   724.7500     19.3798      0.0000     63.4060    527.4640
   725.0000     18.8295      0.0000     63.7230    556.1372
   725.2500     18.5478      0.0000     64.8951    591.6407
   725.5000     18.4001     -2.0000     67.2436    620.8166
   725.7500     18.3179     -2.0000     70.7128    632.5554
   726.0000     18.4024      0.0000     74.5708    622.0433
   726.2500     18.9543      0.0000     77.7113    590.0823
   726.5000     20.3493      0.0000     79.4095    540.0091
   726.7500     22.7261      0.0000     79.8907    478.2784
   727.0000     25.7764      0.0000     80.0888    416.4097
   727.2500     28.9359      0.0000     80.6063    366.9593
   727.5000     31.7456      0.0000     81.0046    335.8915
   727.7500     33.9918      0.0000     80.4738    320.6197
   728.0000     35.6456      0.0000     79.1423    314.7216
   728.2500     36.8086      0.0000     78.1485    312.8966
   728.5000     37.6629      0.0000     78.2725    312.4059
