~Version Information
VERS.                      2.0: CWLS Log ASCII Standard - VERSION 2.0
WRAP.                       NO: One line per depth step
~Well Information Block
STRT.FT               750.0000: 
STOP.FT              2431.5000: 
STEP.FT                 0.1000: 
NULL.                -999.2500: 
COMP.          Petrogulf Corporation: COMPANY
WELL.           McDaniel 9-34V: WELL
FLD.           Purgatorie River: FIELD
LOC.           620' FSL & 1800' FEL: LOCATION
PROV.                 Colorado: PROVINCE
CNTY.               Las Animas: COUNTRY
SRVC.                Patterson: SERVICE COMPANY
DATE.          Wed Sep 28 07:18:04 2005: LOG DATE
UWI.                          : UNIQUE WELL ID
~Curve Information Block
DEPT.FT            0 000 00 00: Depth
DCAL.in                       : CDL Caliper
RHOB.g/cc                     : CDL Bulk Density
RHOC.g/cc                     : CDL Density Correction
DPOR.pu                       : CDL Density Porosity
GR.GAPI                       : Gamma Ray
NPOR.pu                       : Neutron Porosity
~Parameter Information Block
~A  Depth       DCAL        RHOB        RHOC        DPOR         GR         NPOR    
# ...
   970.8000      8.1338      2.6151      0.0523      2.1167    139.9615     25.5713
   970.9000      8.1338      2.6156      0.0071      2.0846    140.2671     25.5982
   971.0000      8.1382      2.6128     -0.0156      2.2536    137.8208     25.6775
   971.1000      8.1382      2.6092      0.0188      2.4721    132.8672     25.7326
   971.2000      8.1382      2.6034      0.0073      2.8242    129.7836     25.7560
   971.3000      8.1389      2.5918      0.0678      3.5287    131.3422     25.7115
   971.4000      8.1389      2.5695      0.0248      4.8794    134.1908     25.6940
   971.5000      8.1570      2.5519     -0.0237      5.9467    134.3003     25.8046
   971.6000      8.1570      2.5553      0.0119      5.7374    131.2962     26.0471
   971.7000      8.1570      2.5679      0.0204      4.9766    129.1051     26.3896
   971.8000      8.1761      2.5731      0.0059      4.6621    128.1966     26.6155
   971.9000      8.1761      2.5715      0.0068      4.7565    124.2694     26.6187
   972.0000      8.2036      2.5685      0.0194      4.9370    120.6757     26.6011
   972.1000      8.2036      2.5659      0.0240      5.0968    123.4761     26.7321
   972.2000      8.2036      2.5625      0.0033      5.3022    129.7592     26.9182
   972.3000      8.2050      2.5496     -0.0035      6.0825    132.4130     26.9119
   972.4000      8.2050      2.5273     -0.0413      7.4336    131.6687     26.6907
   972.5000      8.1460      2.5184     -0.0702      7.9732    133.4607     26.4748
   972.6000      8.1460      2.5329      0.0401      7.0968    139.5275     26.5026
   972.7000      8.1460      2.5521      0.0218      5.9329    146.1021     26.8959
   972.8000      8.1395      2.5617      0.0434      5.3490    147.6321     27.4364
   972.9000      8.1395      2.5578      0.0432      5.5894    143.2426     27.6597
   973.0000      8.1428      2.5434      0.0409      6.4615    139.9523     27.4193
   973.1000      8.1428      2.5260      0.0144      7.5126    143.3563     27.0372
   973.2000      8.1428      2.4964      0.0460      9.3114    148.4960     26.8726
   973.3000      8.1368      2.4381     -0.0102     12.8433    149.9809     27.0030
   973.4000      8.1368      2.3619     -0.0254     17.4614    147.7257     27.1643
   973.5000      8.1410      2.2876     -0.0446     21.9639    143.0471     27.3065
   973.6000      8.1410      2.2202     -0.0708     26.0481    137.0238     27.5877
   973.7000      8.1410      2.1587     -0.0715     29.7762    131.1025     27.8607
   973.8000      8.1414      2.1007     -0.0708     33.2881    129.2097     28.0494
   973.9000      8.1414      2.0462     -0.0968     36.5926    131.9992     28.3784
   974.0000      8.1427      2.0033     -0.0455     39.1913    133.3346     28.9885
   974.1000      8.1427      1.9817     -0.0438     40.5049    130.6376     29.9215
   974.2000      8.1427      1.9749      0.0596     40.9154    127.6186     31.0771
   974.3000      8.1678      1.9672      0.0780     41.3823    124.6246     32.1222
   974.4000      8.1678      1.9642      0.0457     41.5657    120.6596     32.7998
   974.5000      8.1739      1.9800      0.0935     40.6083    117.9176     33.0789
   974.6000      8.1739      2.0103      0.0607     38.7677    117.8989     33.0276
   974.7000      8.1739      2.0511      0.0205     36.2973    120.4934     32.8747
   974.8000      8.1626      2.1006      0.0912     33.2995    122.9622     32.8253
   974.9000      8.1626      2.1524      0.0647     30.1558    125.5344     32.7136
   975.0000      8.1502      2.2167      0.0643     26.2615    131.6383     32.5066
   975.1000      8.1502      2.2990      0.1625     21.2744    136.3510     32.5828
   975.2000      8.1502      2.3745      0.1227     16.6990    134.2892     32.8621
   975.3000      8.1540      2.4218      0.1182     13.8283    133.2222     32.9233
   975.4000      8.1540      2.4471      0.0596     12.2960    138.9314     32.5998
   975.5000      8.1699      2.4691      0.0031     10.9620    145.0300     32.0303
   975.6000      8.1699      2.5009      0.0057      9.0366    147.1499     31.3570
   975.7000      8.1699      2.5394      0.0571      6.7045    145.8547     30.5508
   975.8000      8.1574      2.5713      0.0746      4.7672    142.3411     29.7251
   975.9000      8.1574      2.5925      0.0251      3.4864    138.8715     29.0446
   976.0000      8.1077      2.6064      0.0535      2.6401    138.7516     28.5105
   976.1000      8.1077      2.6101      0.0622      2.4159    142.9039     28.0492
   976.2000      8.1077      2.6045     -0.0004      2.7562    147.1242     27.6917
   976.3000      8.0934      2.5958      0.0337      3.2868    148.0219     27.5675
   976.4000      8.0934      2.5867     -0.0197      3.8336    145.6227     27.6330
   976.5000      8.0859      2.5831      0.0676      4.0569    141.8352     27.6422
   976.6000      8.0859      2.5842      0.0483      3.9877    139.8228     27.6077
   976.7000      8.0859      2.5796      0.0595      4.2643    139.8284     27.5788
   976.8000      8.0668      2.5596     -0.0066      5.4789    139.8860     27.2522
   976.9000      8.0668      2.5328     -0.0059      7.1031    139.2999     26.6225
   977.0000      8.0569      2.5114      0.0086      8.4003    139.1824     26.2113
   977.1000      8.0569      2.4917     -0.0033      9.5969    140.6832     26.2705
   977.2000      8.0569      2.4725     -0.0176     10.7585    142.6904     26.6927
   977.3000      8.0543      2.4680     -0.0324     11.0323    142.5251     27.4354
   977.4000      8.0543      2.4795      0.0205     10.3319    140.0599     28.2747
   977.5000      8.0562      2.4845      0.0756     10.0326    136.4279     28.7004
   977.6000      8.0562      2.4761      0.0156     10.5403    134.2088     28.6065
   977.7000      8.0562      2.4702      0.0602     10.8946    137.6923     28.4759
   977.8000      8.0499      2.4729      0.0216     10.7315    145.0382     28.5561
   977.9000      8.0499      2.4844      0.0434     10.0367    150.0033     28.6054
   978.0000      8.0446      2.5059      0.0709      8.7332    149.7868     28.6140
   978.1000      8.0446      2.5325      0.0570      7.1240    148.1093     28.8479
   978.2000      8.0446      2.5549      0.0763      5.7606    150.0829     29.1532
   978.3000      8.0426      2.5708      0.0531      4.7970    154.4896     29.1446
   978.4000      8.0426      2.5833      0.0810      4.0398    155.8477     28.8043
   978.5000      8.0461      2.5887      0.1068      3.7141    151.5670     28.4079
   978.6000      8.0461      2.5893      0.0357      3.6789    145.4317     28.2027
   978.7000      8.0461      2.5979      0.0777      3.1580    140.7859     28.2595
   978.8000      8.0444      2.6081      0.0897      2.5399    136.1817     28.4984
   978.9000      8.0444      2.6067      0.0716      2.6250    132.1861     28.6623
   979.0000      8.0427      2.6023      0.0147      2.8919    130.8889     28.6715
   979.1000      8.0427      2.6087      0.0485      2.5025    131.5243     28.6184
   979.2000      8.0427      2.6192      0.0647      1.8647    132.8733     28.2343
   979.3000      8.0477      2.6183      0.0684      1.9226    133.7980     27.3489
   979.4000      8.0477      2.6057      0.0698      2.6855    132.7654     26.3180
   979.5000      8.0493      2.5919      0.0459      3.5209    129.9401     25.5249
   979.6000      8.0493      2.5838      0.0617      4.0118    127.9622     25.1207
   979.7000      8.0493      2.5827      0.0439      4.0790    126.5562     25.0332
   979.8000      8.0490      2.5870      0.0142      3.8197    124.4865     24.7969
   979.9000      8.0490      2.5915      0.0578      3.5450    124.7658     24.3174
   980.0000      8.0526      2.5874      0.0980      3.7935    128.8464     23.9065
   980.1000      8.0526      2.5775      0.0503      4.3917    134.1815     23.8159
   980.2000      8.0526      2.5760      0.1041      4.4870    137.9778     24.2797
   980.3000      8.0505      2.5880      0.0809      3.7571    139.3652     25.1797
