~Version Information
 VERS.                      2.0: CWLS Log ASCII Standard - VERSION 2.0
 WRAP.                       NO: One line per depth step
 ~Well Information Block
 STRT.FT               886.1000: 
 STOP.FT              2599.0000: 
 STEP.FT                 0.1000: 
 NULL.                -999.2500: 
 COMP.          Petrogulf Corporation: COMPANY
 WELL.               YWAM 7-23V: WELL
 FLD.           Purgatorie River: FIELD
 LOC.           230' FSL & 225' FWL: LOCATION
 CNTY.               Las Animas: COUNTY
 SRVC.                         : SERVICE COMPANY
 DATE.          Sat Oct 30 10:42:52 2004: LOG DATE
 UWI.           05 071 08227 00: UNIQUE WELL ID
 STAT.                 Colorado: STATE
 PROV.                         :Province
 ~Curve Information Block
 DEPT.FT            0 000 00 00: Depth
 DCAL.in                       : CDL Caliper
 RHOB.g/cc                     : CDL Bulk Density
 RHOC.g/cc                     : CDL Density Correction
 DPOR.pu                       : CDL Density Porosity
 GR.GAPI                       : Gamma Ray
 NPOR.pu                       : Neutron Porosity
 ~Parameter Information Block
 ~A  Depth       DCAL        RHOB        RHOC        DPOR         GR         NPOR    
# ...
  1126.1000      7.9763      2.7102      0.1293     -3.6465    133.2693     23.7364
  1126.2000      7.9763      2.6408      0.0460      0.5566    137.4482     24.5913
  1126.3000      8.0129      2.5547     -0.1086      5.7741    143.4545     25.5340
  1126.4000      8.0129      2.5015     -0.1405      8.9992    149.8825     26.9110
  1126.5000      8.1326      2.4978     -0.0654      9.2242    150.8338     28.2328
  1126.6000      8.1326      2.5198      0.0048      7.8934    146.4024     28.7071
  1126.7000      8.1326      2.5415      0.0955      6.5728    141.8403     28.5088
  1126.8000      8.1925      2.5608      0.1329      5.4056    137.6569     28.0621
  1126.9000      8.1925      2.5805      0.1600      4.2095    133.8958     27.6498
  1127.0000      8.2306      2.5930      0.1484      3.4520    133.0510     27.5526
  1127.1000      8.2306      2.5900      0.1783      3.6388    136.5946     27.6687
  1127.2000      8.2306      2.5715      0.1580      4.7594    143.7559     27.6782
  1127.3000      8.2613      2.5581      0.0450      5.5713    148.5991     27.3883
  1127.4000      8.2613      2.5728      0.0509      4.6807    145.6264     26.9201
  1127.5000      8.3032      2.6041      0.0673      2.7797    139.3193     26.8551
  1127.6000      8.3032      2.6212      0.1052      1.7454    137.1328     27.2833
  1127.7000      8.3032      2.6194      0.0561      1.8525    139.9581     27.5551
  1127.8000      8.2714      2.6179      0.0773      1.9446    143.6544     27.0397
  1127.9000      8.2714      2.6228      0.0430      1.6466    145.3573     25.8252
  1128.0000      8.2608      2.6261      0.0648      1.4463    145.1551     24.9836
  1128.1000      8.2608      2.6203      0.0721      1.7984    143.7981     25.1614
  1128.2000      8.2608      2.6117      0.0317      2.3208    140.9836     25.9927
  1128.3000      8.2317      2.6110      0.0742      2.3663    138.2511     26.7164
  1128.4000      8.2317      2.6187      0.0196      1.8990    136.3514     26.9230
  1128.5000      8.2189      2.6378      0.0456      0.7377    132.7636     26.8205
  1128.6000      8.2189      2.6693      0.0363     -1.1686    128.4510     26.1809
  1128.7000      8.2189      2.7056      0.0679     -3.3724    125.3808     24.9450
  1128.8000      8.2325      2.7394      0.0752     -5.4206    122.5520     23.8909
  1128.9000      8.2325      2.7689      0.0613     -7.2034    121.7958     23.6349
  1129.0000      8.2385      2.7979      0.0757     -8.9638    125.3935     24.0900
  1129.1000      8.2385      2.8218      0.0872    -10.4140    131.2165     24.8962
  1129.2000      8.2385      2.8224      0.0180    -10.4511    135.4489     25.6953
  1129.3000      8.2245      2.7961     -0.0354     -8.8564    134.3737     25.9492
  1129.4000      8.2245      2.7606     -0.0531     -6.7006    128.7915     25.6449
  1129.5000      8.2056      2.7270     -0.0321     -4.6652    123.7068     25.3821
  1129.6000      8.2056      2.6922     -0.0330     -2.5587    123.0633     25.0649
  1129.7000      8.2056      2.6539     -0.0081     -0.2375    129.3580     24.4609
  1129.8000      8.1731      2.6212     -0.0375      1.7481    138.1354     23.6268
  1129.9000      8.1731      2.6061     -0.0839      2.6591    140.8741     22.7627
  1130.0000      8.1758      2.6059     -0.0120      2.6713    136.3971     22.4452
  1130.1000      8.1758      2.6048      0.0117      2.7374    131.4134     22.0728
  1130.2000      8.1758      2.5960      0.0627      3.2710    129.7350     20.7996
  1130.3000      8.1769      2.5857      0.0230      3.8961    129.6083     19.6292
  1130.4000      8.1769      2.5832     -0.0092      4.0507    131.8936     19.7525
  1130.5000      8.1881      2.5806      0.0650      4.2032    135.2132     20.8345
  1130.6000      8.1881      2.5678     -0.0073      4.9841    136.0021     21.8243
  1130.7000      8.1881      2.5504      0.0482      6.0355    138.2191     21.8631
  1130.8000      8.1796      2.5289     -0.0180      7.3401    143.9851     20.9244
  1130.9000      8.1796      2.5070     -0.0051      8.6664    144.6195     19.9990
  1131.0000      8.1022      2.5017     -0.0115      8.9865    136.8381     19.9885
  1131.1000      8.1022      2.5173      0.1109      8.0432    129.0172     20.6418
  1131.2000      8.1022      2.5426      0.0492      6.5074    124.5288     21.5601
  1131.3000      8.0173      2.5723      0.0653      4.7103    120.8517     22.7381
  1131.4000      8.0173      2.5954      0.0993      3.3110    119.0706     23.1509
  1131.5000      8.0231      2.5946      0.0641      3.3593    119.3662     22.1283
  1131.6000      8.0231      2.5683      0.0734      4.9490    122.1320     21.1850
  1131.7000      8.0231      2.5421     -0.0083      6.5364    126.7821     21.7057
  1131.8000      8.0241      2.5440      0.0469      6.4229    130.6783     22.8647
  1131.9000      8.0241      2.5752      0.0441      4.5360    132.3220     23.0506
  1132.0000      8.0601      2.6211      0.0751      1.7520    128.5049     22.2899
  1132.1000      8.0601      2.6531      0.1666     -0.1850    119.0879     21.4326
  1132.2000      8.0601      2.6445      0.0953      0.3345    108.4490     20.6459
  1132.3000      8.0716      2.6097      0.0411      2.4395     97.9388     19.8065
  1132.4000      8.0716      2.5876     -0.0036      3.7848     87.2238     18.6047
  1132.5000      8.0719      2.5965      0.0379      3.2444     78.9069     16.9096
  1132.6000      8.0719      2.6173      0.0875      1.9844     74.2667     15.4946
  1132.7000      8.0719      2.6287      0.0371      1.2924     70.7221     15.4957
  1132.8000      8.0691      2.6418      0.0961      0.4992     67.7026     16.3768
  1132.9000      8.0691      2.6672      0.0359     -1.0402     68.0184     16.4767
  1133.0000      8.0256      2.6874      0.1160     -2.2670     72.1222     15.9549
  1133.1000      8.0256      2.6726      0.1011     -1.3688     75.0074     15.6427
  1133.2000      8.0256      2.6235      0.0558      1.6055     74.3637     15.0707
  1133.3000      7.9995      2.5730      0.0043      4.6669     74.0123     14.0009
  1133.4000      7.9995      2.5411      0.0295      6.6001     73.9252     13.0655
  1133.5000      7.9874      2.5222      0.0730      7.7483     72.7575     12.8830
  1133.6000      7.9874      2.5122      0.0043      8.3541     72.4680     13.1171
  1133.7000      7.9874      2.5143      0.0327      8.2220     71.7577     13.0352
  1133.8000      7.9873      2.5228      0.0316      7.7100     68.3909     12.9284
  1133.9000      7.9873      2.5262      0.0577      7.5052     63.7257     12.9573
  1134.0000      7.9930      2.5175      0.0591      8.0301     60.3564     12.9106
  1134.1000      7.9930      2.5061      0.0394      8.7207     59.5110     12.9309
  1134.2000      7.9930      2.5111      0.0352      8.4212     58.8993     12.8267
  1134.3000      7.9951      2.5330      0.0771      7.0899     56.4375     12.3189
  1134.4000      7.9951      2.5564      0.0663      5.6716     55.6929     11.7369
  1134.5000      7.9887      2.5636      0.1290      5.2343     59.2544     11.5150
  1134.6000      7.9887      2.5481      0.0492      6.1744     62.2014     11.7732
  1134.7000      7.9887      2.5255      0.0632      7.5436     61.3192     12.2927
  1134.8000      7.9916      2.5040      0.0954      8.8465     59.0899     12.6436
  1134.9000      7.9916      2.4827     -0.0010     10.1410     56.6892     12.6513
  1135.0000      7.9926      2.4726      0.0170     10.7489     54.9796     12.3370
  1135.1000      7.9926      2.4787      0.0103     10.3845     55.1454     11.4258
  1135.2000      7.9926      2.4928      0.0481      9.5249     55.0247     10.1297
  1135.3000      7.9963      2.5096      0.0386      8.5111     53.2992      9.2823
  1135.4000      7.9963      2.5297      0.0061      7.2899     52.6969      9.1445
  1135.5000      8.0001      2.5514      0.0621      5.9769     53.6436      9.2991
  1135.6000      8.0001      2.5583      0.1391      5.5547     52.1113      9.4496
