~Version Information
VERS.                      2.0: CWLS Log ASCII Standard - VERSION 2.0
WRAP.                       NO: One line per depth step
~Well Information Block
STRT.FT                 0.5000: 
STOP.FT              1575.0000: 
STEP.FT                 0.2500: 
NULL.                -999.2500: 
COMP.          Evergreen Operating Corporation: COMPANY
WELL.                Eric 42-9: WELL
FLD.           Purgatorie River: FIELD
LOC.           2050' FNL & 850' FEL: LOCATION
PROV.                 Colorado: PROVINCE
CNTY.               Las Animas: COUNTRY
SRVC.                         : SERVICE COMPANY
DATE.          Tue Nov 09 16:28:59 2004: LOG DATE
UWI.           05 071 07999 00: UNIQUE WELL ID
~Curve Information Block
DEPT.FT            0 000 00 00: Depth
LTEN.lb                       : Surface Line Tension
TT3.usec                      : CBL 3' Travel Time
AMP3.mV                       : CBL 3' Amplitude
ATT3.db/ft                    : CBL 3' Attenuation
GR.GAPI                       : Gamma Ray
CCL.                          : Casing Collar Locator
~Parameter Information Block
~A  Depth       LTEN        TT3         AMP3        ATT3         GR         CCL     
# ...
   408.5000    462.2441    769.5414      5.9362     -8.0223    136.7822      0.0000
   408.7500    464.0600    760.4076      5.8950     -8.0425    140.9182      0.0000
   409.0000    465.7008    747.2440      5.9569     -8.0122    144.4342      0.0000
   409.2500    465.7417    732.8094      6.1069     -7.9402    146.9223      0.0000
   409.5000    464.1247    722.3975      6.2877     -7.8558    147.9079      0.0000
   409.7500    462.1830    721.4106      6.4357     -7.7884    147.2309      0.0000
   410.0000    461.5645    732.2267      6.5153     -7.7528    145.2961      0.0000
   410.2500    463.2321    752.1960      6.5195     -7.7509    142.9297      0.0000
   410.5000    467.0243    774.2625      6.4520     -7.7811    140.7686      0.0000
   410.7500    471.5184    789.7359      6.3264     -7.8380    138.8200      0.0000
   411.0000    474.3216    791.2757      6.1791     -7.9062    136.8576      0.0000
   411.2500    473.3033    776.1447      6.0631     -7.9611    135.1075      0.0000
   411.5000    468.3004    750.0811      6.0224     -7.9806    134.2272      0.0000
   411.7500    461.7051    727.1273      6.0681     -7.9587    134.5074      0.0000
   412.0000    457.1393    720.8444      6.1685     -7.9112    135.2207      0.0000
   412.2500    457.3708    733.5117      6.2611     -7.8680    135.1515      0.0000
   412.5000    462.8640    755.4949      6.2906     -7.8544    134.0966      0.0000
   412.7500    471.5174    775.1118      6.2450     -7.8755    133.4443      0.0000
   413.0000    479.6992    787.0518      6.1520     -7.9189    134.7259      0.0000
   413.2500    484.1591    792.3934      6.0488     -7.9679    137.8522      0.0000
   413.5000    483.6340    794.2512      5.9634     -8.0091    141.2364      0.0000
   413.7500    479.2003    794.8997      5.9199     -8.0303    143.4650      0.0000
   414.0000    473.3149    795.4700      5.9408     -8.0201    144.4718      0.0000
   414.2500    468.2398    796.5831      6.0309     -7.9765    145.1176      0.0000
   414.5000    465.1422    798.7029      6.1588     -7.9157    145.8607      0.0000
   414.7500    464.5181    801.8960      6.2692     -7.8643    146.0134      0.0000
   415.0000    466.6720    805.4904      6.3245     -7.8388    144.4935      0.0000
   415.2500    470.9848    808.3757      6.3284     -7.8371    141.2897      0.0000
   415.5000    475.2290    809.7966      6.3010     -7.8497    137.7575      0.0000
   415.7500    476.8623    809.6324      6.2468     -7.8747    135.2614      0.0000
   416.0000    475.2162    808.0107      6.1627     -7.9139    133.8792      0.0000
   416.2500    471.7862    805.2116      6.0585     -7.9633    132.6187      0.0000
   416.5000    468.4576    801.9485      5.9497     -8.0157    130.4483      0.0000
   416.7500    466.1043    799.1525      5.8464     -8.0665    126.8109      0.0000
   417.0000    464.8293    797.3395      5.7599     -8.1096    121.7366      0.0000
   417.2500    464.7195    796.4017      5.7055     -8.1371    116.1422      0.0000
   417.5000    465.8157    795.8759      5.6863     -8.1469    111.7293      0.0000
   417.7500    467.6417    795.2119      5.6848     -8.1476    109.9730      0.0000
   418.0000    469.3432    793.9111      5.6806     -8.1497    111.2573      0.0000
   418.2500    470.3472    791.8922      5.6701     -8.1551    115.1834      0.0000
   418.5000    470.6138    790.2716      5.6654     -8.1575    121.2647      0.0000
   418.7500    470.3619    791.5607      5.6768     -8.1517    128.7036      0.0000
   419.0000    470.0883    797.7903      5.7039     -8.1379    135.6441      0.0000
   419.2500    470.8162    807.6053      5.7479     -8.1156    139.5305      0.0000
   419.5000    473.4687    816.2498      5.8232     -8.0780    138.7990      0.0000
   419.7500    477.5833    819.4598      5.9409     -8.0200    134.1668      0.0000
   420.0000    481.2408    816.8600      6.0780     -7.9540    128.1543      0.0000
   420.2500    482.7315    811.4484      6.1720     -7.9095    123.4041      0.0000
   420.5000    481.9230    806.9757      6.1606     -7.9149    121.1502     -3.0000
   420.7500    479.7584    806.1736      6.0281     -7.9778    120.7278     -3.0000
   421.0000    477.0699    810.0824      5.8128     -8.0831    120.3121      0.0000
   421.2500    474.4105    817.6670      5.5816     -8.2006    118.2584      0.0000
   421.5000    472.5598    826.1033      5.4039     -8.2943    114.1215      0.0000
   421.7500    472.4313    832.5507      5.3301     -8.3341    108.8009      0.0000
   422.0000    474.3094    836.0304      5.3776     -8.3085    103.7808      0.0000
   422.2500    477.2398    836.9521      5.5357     -8.2245     99.9938      0.0000
   422.5000    479.3857    835.0645      5.7746     -8.1022     97.4160      0.0000
   422.7500    479.4451    829.3088      6.0330     -7.9755     95.8740      0.0000
   423.0000    477.9459    820.0147      6.2172     -7.8884     95.9798      0.0000
   423.2500    476.9134    809.7863      6.2512     -7.8726     98.8360      0.0000
   423.5000    478.0805    801.4138      6.1377     -7.9257    104.7821      0.0000
   423.7500    481.2797    795.6935      5.9594     -8.0110    112.6221      0.0000
   424.0000    484.4405    791.7383      5.8195     -8.0798    120.1083      0.0000
   424.2500    485.3190    788.5227      5.7771     -8.1010    125.1863      0.0000
   424.5000    483.5420    785.3366      5.8135     -8.0828    127.0595      0.0000
   424.7500    480.9564    781.5500      5.8492     -8.0651    126.4195      0.0000
   425.0000    479.7988    777.0153      5.8086     -8.0852    124.7593      0.0000
   425.2500    480.4356    772.4675      5.6862     -8.1469    123.4360      0.0000
   425.5000    481.0164    768.7831      5.5453     -8.2196    123.3050      0.0000
   425.7500    479.5114    765.9439      5.4567     -8.2662    124.7783      0.0000
   426.0000    475.9609    763.0170      5.4512     -8.2691    127.6450      0.0000
   426.2500    472.3762    759.1185      5.5211     -8.2322    130.9844      0.0000
   426.5000    470.6061    754.3783      5.6428     -8.1691    133.7572      0.0000
   426.7500    470.7367    750.1549      5.7878     -8.0956    135.4116      0.0000
   427.0000    471.3451    748.5928      5.9195     -8.0305    135.6591      0.0000
   427.2500    470.7422    752.4395      5.9920     -7.9952    133.9492      0.0000
   427.5000    468.1794    765.2073      5.9655     -8.0081    129.6848      0.0000
   427.7500    464.5868    790.0886      5.8348     -8.0722    123.0132      0.0000
   428.0000    462.1187    826.7857      5.6465     -8.1672    115.2556      0.0000
   428.2500    462.3844    868.8427      5.4788     -8.2545    108.5350      0.0000
   428.5000    465.1296    905.0240      5.3926     -8.3004    104.7348      0.0000
   428.7500    468.8672    925.2675      5.3915     -8.3010    104.2918      0.0000
   429.0000    472.3607    928.2860      5.4295     -8.2806    105.9074      0.0000
   429.2500    475.0776    925.3630      5.4581     -8.2654    107.8151      0.0000
   429.5000    476.8044    934.1291      5.4648     -8.2619    109.3714      0.0000
   429.7500    477.6685    963.6634      5.4621     -8.2633    111.1873      0.0000
   430.0000    478.3280   1003.7309      5.4484     -8.2706    113.9826      0.0000
   430.2500    479.3604   1030.1200      5.4001     -8.2964    117.9279      0.0000
   430.5000    480.4626   1022.8291      5.3043     -8.3482    123.0108      0.0000
   430.7500    480.6957    981.3694      5.1828     -8.4153    129.2502      0.0000
   431.0000    479.4303    923.7690      5.0742     -8.4766    136.1038      0.0000
   431.2500    476.7329    871.0861      5.0016     -8.5183    142.1454      0.0000
   431.5000    473.0945    832.9451      4.9637     -8.5403    145.9183      0.0000
   431.7500    469.2144    806.5423      4.9457     -8.5508    147.0495      0.0000
   432.0000    465.8013    785.8066      4.9325     -8.5586    146.3298      0.0000
   432.2500    463.1536    769.2809      4.9171     -8.5676    144.8570      0.0000
