~Version Information
VERS.                      2.0: CWLS Log ASCII Standard - VERSION 2.0
WRAP.                       NO: One line per depth step
~Well Information Block
STRT.FT               800.0000: 
STOP.FT              1933.5000: 
STEP.FT                 0.2500: 
NULL.                -999.2500: 
COMP.          Pioneer Natural Resources: COMPANY
WELL.            Nova 11-14 Tr: WELL
FLD.           Purgatoire River: FIELD
LOC.           706' FNL & 1109' FWL: LOCATION
PROV.                 Colorado: PROVINCE
CNTY.               Las Animas: COUNTRY
SRVC.                Patterson: SERVICE COMPANY
DATE.          Wed Jul 20 23:28:11 2005: LOG DATE
UWI.           05 071 08434 00: UNIQUE WELL ID
~Curve Information Block
DEPT.FT            0 000 00 00: Depth
SN.Ohm-m                      : IEL Short Normal
SP.mV                         : IEL Spontaneous Potential
DIR.Ohm-m                     : IEL Induction Resistivity
GR.GAPI                       : Gamma Ray
~Parameter Information Block
~A  Depth        SN          SP         DIR          GR     
# ...
  1302.5000     27.2062   -242.0263 100000.0000     58.3083
  1302.7500     29.8940   -240.5868      9.8590     59.3105
  1303.0000     28.4502   -234.6630      2.5147     59.7234
  1303.2500     23.3625   -223.5695      1.1372     59.6499
  1303.5000     16.3170   -207.6728      0.6240     59.9349
  1303.7500      9.5853   -188.4663      0.3767     61.1320
  1304.0000      4.8527   -168.1147      0.2404     66.1276
  1304.2500      2.4027   -148.7077      0.1605     72.3716
  1304.5000      1.4512   -131.6819      0.1120     85.7238
  1304.7500      1.1223   -117.6578      0.0811     95.9131
  1305.0000      1.0286   -106.6048      0.0608    110.2872
  1305.2500      1.1261    -98.1267      0.0474    118.1881
  1305.5000      1.3837    -91.7165      0.0395    126.8577
  1305.7500      1.8017    -86.9105      0.0364    130.5334
  1306.0000      2.5191    -83.3345      0.0389    133.5504
  1306.2500      3.6384    -80.6853      0.0500    134.6966
  1306.5000      5.0364    -78.7062      0.0781    136.5851
  1306.7500      6.4652    -77.1853      0.1435    138.3939
  1307.0000      7.7528    -75.9633      0.2857    141.7081
  1307.2500      8.8210    -74.9322      0.5840    143.8244
  1307.5000      9.6166    -74.0266      1.3113    145.7738
  1307.7500     10.1431    -73.2086      4.0532    145.6797
  1308.0000     10.4928    -72.4608 100000.0000    143.0942
  1308.2500     10.7728    -71.7943 100000.0000    140.0831
  1308.5000     11.0594    -71.2578 100000.0000    134.6936
  1308.7500     11.4405    -70.9138 100000.0000    130.8321
  1309.0000     11.9910    -70.7878 100000.0000    124.1084
  1309.2500     12.6984    -70.8413 100000.0000    118.4914
  1309.5000     13.4807    -71.0002 100000.0000    108.6532
  1309.7500     14.2730    -71.2059 100000.0000    102.3460
  1310.0000     15.1253    -71.4387 100000.0000     95.9277
  1310.2500     16.2372    -71.7005 100000.0000     94.5835
  1310.5000     17.8371    -71.9855 100000.0000     96.5622
  1310.7500     19.9428    -72.2657 100000.0000     99.4126
  1311.0000     22.2670    -72.4988 100000.0000    103.4810
  1311.2500     24.5167    -72.6485 100000.0000    104.7962
  1311.5000     26.7038    -72.7022 100000.0000    103.8175
  1311.7500     28.9225    -72.6752 100000.0000    101.6436
  1312.0000     31.0052    -72.5987 100000.0000     97.7544
  1312.2500     32.6253    -72.5006 100000.0000     95.5690
  1312.5000     33.5832    -72.3914 100000.0000     93.5020
  1312.7500     33.8638    -72.2615 100000.0000     92.9915
  1313.0000     33.5015    -72.0906 100000.0000     93.7940
  1313.2500     32.5300    -71.8689 100000.0000     95.7908
  1313.5000     31.0675    -71.6170 100000.0000    101.7066
  1313.7500     29.3583    -71.3866 100000.0000    107.5587
  1314.0000     27.6810    -71.2352     36.3296    117.7942
  1314.2500     26.2013    -71.1936     19.7490    124.1574
  1314.5000     24.9101    -71.2521     15.2559    130.5606
  1314.7500     23.6915    -71.3734     13.5155    131.9675
  1315.0000     22.4533    -71.5191     12.7986    130.2504
  1315.2500     21.2212    -71.6699     12.5522    127.6843
  1315.5000     20.0929    -71.8266     12.5728    124.0531
  1315.7500     19.1181    -71.9901     12.7988    122.7955
  1316.0000     18.2957    -72.1419     13.2257    123.2624
  1316.2500     17.6387    -72.2468     13.8583    124.8882
  1316.5000     17.1774    -72.2829     14.6790    128.2186
  1316.7500     16.9187    -72.2702     15.6284    130.2517
  1317.0000     16.8403    -72.2668     16.6029    131.8384
  1317.2500     16.9360    -72.3354     17.4773    131.6017
  1317.5000     17.2151    -72.5073     18.1487    129.7296
  1317.7500     17.6285    -72.7672     18.5763    128.0862
  1318.0000     18.0529    -73.0649     18.7884    125.7786
  1318.2500     18.3826    -73.3437     18.8508    124.3289
  1318.5000     18.6071    -73.5661     18.8268    121.9728
  1318.7500     18.7778    -73.7224     18.7569    120.4146
  1319.0000     18.9235    -73.8223     18.6627    118.9761
  1319.2500     19.0243    -73.8846     18.5608    119.0909
  1319.5000     19.0372    -73.9321     18.4671    121.0145
  1319.7500     18.9019    -73.9844     18.3897    123.2971
  1320.0000     18.5686    -74.0520     18.3211    128.0041
  1320.2500     18.0556    -74.1354     18.2421    131.8923
  1320.5000     17.4379    -74.2327     18.1354    138.3168
  1320.7500     16.7901    -74.3477     17.9957    142.3837
  1321.0000     16.1782    -74.4915     17.8292    146.9005
  1321.2500     15.6759    -74.6815     17.6437    148.4050
  1321.5000     15.3562    -74.9380     17.4450    148.7064
  1321.7500     15.2701    -75.2760     17.2412    148.1252
  1322.0000     15.3864    -75.6939     17.0472    146.5156
  1322.2500     15.5669    -76.1671     16.8830    144.9949
  1322.5000     15.6804    -76.6582     16.7620    142.7467
  1322.7500     15.7073    -77.1359     16.6811    141.9226
  1323.0000     15.7141    -77.5847     16.6204    141.7325
  1323.2500     15.7512    -77.9972     16.5542    141.3760
  1323.5000     15.7616    -78.3566     16.4667    138.5404
  1323.7500     15.6492    -78.6298     16.3611    134.6730
  1324.0000     15.3724    -78.7839     16.2559    126.9916
  1324.2500     14.9104    -78.8131     16.1737    121.9676
  1324.5000     14.3344    -78.7487     16.1296    116.8518
  1324.7500     13.8560    -78.6410     16.1263    115.8614
  1325.0000     13.6166    -78.5338     16.1555    118.2481
  1325.2500     13.5827    -78.4549     16.2019    121.9724
  1325.5000     13.6685    -78.4197     16.2454    129.1617
  1325.7500     13.7774    -78.4350     16.2590    133.7280
  1326.0000     13.8167    -78.4978     16.2082    137.8050
  1326.2500     13.8496    -78.5975     16.0527    137.6128
  1326.5000     14.0875    -78.7238     15.7514    132.6964
  1326.7500     14.6603    -78.8712     15.2753    127.1227
  1327.0000     15.4878    -79.0356     14.6279    117.4585
  1327.2500     16.3577    -79.2097     13.8620    111.4726
  1327.5000     17.0955    -79.3890     13.0724    105.1948
  1327.7500     17.6501    -79.5864     12.3642    103.5261
  1328.0000     18.0222    -79.8361     11.8191    104.7257
  1328.2500     18.1376    -80.1813     11.4764    107.3815
  1328.5000     17.8756    -80.6510     11.3314    113.0767
  1328.7500     17.3058    -81.2392     11.3459    117.6688
  1329.0000     16.7312    -81.8999     11.4679    125.3830
  1329.2500     16.3939    -82.5661     11.6625    130.7279
  1329.5000     16.2924    -83.1858     11.9457    138.1676
  1329.7500     16.2685    -83.7496     12.4144    142.2387
  1330.0000     16.1396    -84.2867     13.2736    146.5313
  1330.2500     15.8143    -84.8388     14.8937    148.1654
  1330.5000     15.3616    -85.4376     17.9867    148.8997
  1330.7500     14.9242    -86.0994     24.1621    148.2859
  1331.0000     14.5644    -86.8316     38.0312    146.2272
  1331.2500     14.2074    -87.6428     79.4830    144.9557
  1331.5000     13.7657    -88.5498    497.8238    144.9012
  1331.7500     13.3145    -89.5818 100000.0000    146.3042
  1332.0000     13.0417    -90.7847 100000.0000    149.0513
  1332.2500     13.0308    -92.2255 100000.0000    150.2332
  1332.5000     13.2130    -93.9933 100000.0000    150.7501
  1332.7500     13.4713    -96.2021 100000.0000    150.8666
  1333.0000     13.7097    -99.0006 100000.0000    151.2503
  1333.2500     13.8815   -102.5839 100000.0000    151.3848
  1333.5000     13.9905   -107.1921 100000.0000    151.1804
  1333.7500     14.1009   -113.0882 100000.0000    151.0918
  1334.0000     14.3069   -120.5160 100000.0000    151.1943
  1334.2500     14.6478   -129.6522 100000.0000    150.8265
  1334.5000     15.0743   -140.5642 100000.0000    148.3728
  1334.7500     15.4498   -153.1849 100000.0000    145.4176
  1335.0000     15.6133   -167.3162 100000.0000    140.0334
  1335.2500     15.5002   -182.6608 100000.0000    136.3609
  1335.5000     15.1691   -198.8810 100000.0000    130.8501
  1335.7500     14.6880   -215.7023 100000.0000    127.0573
