~Version Information
 VERS.                                  2.0 : CWLS LAS VERSION
 WRAP.                                   NO : WRAPING MODE
 SWARE .                 MController 2.5.0J : SOFTWARE VERSION
~Well Information
 WELL.                      Robinson 15-12R : WELL
 COMP.                Petrogulf Corporation : COMPANY
 FLD.                      Purgatoire River : FIELD
 LOC.                SW/NW Sec 15 T33S R67W : LOCATION
 DATE.                          09/12-13/05 : DATE(S) LOGGED
 SRVC.       BLANCO Geological Services LLC : SERVICE COMPANY
 STAT.                                   CO : STATE
 CNTY.                           Las Animas : COUNTY
 CTRY.                                  USA : COUNTRY
 API.                       05-071-08307-00 : API NUMBER
 STRT.FT                               1.00 : START DEPTH
 STOP.FT                            1460.00 : STOP DEPTH
 STEP.FT                               1.00 : DEPTH INCREMENT
 NULL.                                -9999 : NULL VALUE
~Curve information
 DEPTH.FT                                   :
 ROP.MIN/FT                                 :
 GAS.UNITS                                  :
~ASCII Log data
# ...
       201.0         0.37         16.6 
       202.0         0.37         17.0 
       203.0         0.35         16.7 
       204.0         0.30         17.3 
       205.0         0.27         17.3 
       206.0         1.40         17.6 
       207.0         0.27         17.5 
       208.0         0.20         17.8 
       209.0         0.20         18.0 
       210.0         0.17         18.2 
       211.0         0.17         17.6 
       212.0         0.18         17.9 
       213.0         0.13         17.6 
       214.0         0.17         17.4 
       215.0         0.17         17.6 
       216.0         0.20         17.3 
       217.0         0.23         17.2 
       218.0         0.17         17.2 
       219.0         0.10         16.3 
       220.0         0.13         16.1 
       221.0         0.13         16.2 
       222.0         0.20         16.9 
       223.0         0.23         16.8 
       224.0         0.20         16.9 
       225.0         0.20         16.7 
       226.0         0.17         16.4 
       227.0         0.23         16.4 
       228.0         0.23         16.1 
       229.0         0.20         15.4 
       230.0         0.28         15.9 
       231.0         0.20         15.8 
       232.0         0.27         16.0 
       233.0         0.23         16.0 
       234.0         0.23         16.1 
       235.0         0.23         16.3 
       236.0         1.30         16.2 
       237.0         0.27         15.4 
       238.0         0.27         15.3 
       239.0         0.25         15.1 
       240.0         0.27         15.5 
       241.0         0.27         16.1 
       242.0         0.23         16.1 
       243.0         0.23         16.0 
       244.0         0.23         15.9 
       245.0         0.23         15.9 
       246.0         0.23         15.8 
       247.0         0.27         15.5 
       248.0         0.17         15.6 
       249.0         0.20         15.6 
       250.0         0.23         15.2 
       251.0        19.30         16.6 
       252.0         0.40         17.7 
       253.0         0.20         19.8 
       254.0         0.23         20.8 
       255.0         0.17         22.2 
       256.0         0.13         21.8 
       257.0         0.13         22.8 
       258.0         0.17         22.7 
       259.0         0.22         23.0 
       260.0         0.30         22.9 
       261.0         0.20         23.1 
       262.0         0.20         22.9 
       263.0         0.20         22.8 
       264.0         0.20         22.8 
       265.0         0.23         22.9 
       266.0         0.23         22.7 
       267.0       620.72         48.6 
       268.0         0.20         98.1 
       269.0         0.17        100.8 
       270.0         0.17         91.5 
       271.0         0.17         69.8 
       272.0         0.17         49.5 
       273.0         0.20         34.1 
       274.0         0.18         21.9 
       275.0         0.13         14.3 
       276.0         0.10         11.0 
       277.0         0.10          9.9 
       278.0         0.17         10.1 
       279.0         0.17         11.9 
       280.0         0.17         14.6 
       281.0         0.20         18.5 
       282.0         0.17         21.9 
       283.0         0.13         24.7 
       284.0         0.13         27.7 
       285.0         0.13         30.3 
       286.0         0.13         32.3 
       287.0         0.15         35.1 
       288.0         0.20         38.7 
       289.0         0.17         42.6 
       290.0         0.17         44.4 
       291.0         0.23         43.7 
       292.0         0.20         45.4 
       293.0         0.17         51.6 
       294.0         0.17         62.1 
       295.0         0.17         75.1 
       296.0         1.42        279.2 
       297.0         0.33        124.1 
       298.0         0.20         99.3 
       299.0         0.25         90.7 
       300.0         0.20         84.1 
       301.0         0.20         80.8 
       302.0         0.20         78.0 
       303.0         0.20         75.8 
       304.0         0.17         76.2 
       305.0         0.17         76.5 
       306.0         0.17         76.4 
       307.0         0.10         76.3 
       308.0         0.08         76.0 
       309.0         0.10         75.6 
       310.0         0.10         75.5 
       311.0         0.13         75.0 
       312.0         0.20         74.8 
       313.0         0.17         74.3 
       314.0         0.20         73.8 
       315.0         0.17         73.8 
       316.0         0.17         74.4 
       317.0         0.13         74.2 
       318.0         0.13         74.3 
       319.0         0.17         74.0 
       320.0         0.15         72.6 
       321.0         0.13         70.2 
       322.0         0.13         67.4 
       323.0         0.13         68.9 
       324.0         0.13         74.7 
       325.0         0.10         81.5 
       326.0         1.02        241.5 
       327.0         0.20        163.4 
       328.0         0.13        131.8 
       329.0         0.30        116.7 
       330.0         0.20         95.7 
       331.0         0.23         88.0 
       332.0         0.25         82.9 
       333.0         0.20         60.1 
       334.0         0.27         25.9 
       335.0         0.20          8.8 
       336.0         0.17          4.9 
       337.0         0.20          2.6 
       338.0         0.17          1.6 
       339.0         0.17          1.5 
       340.0         0.13          2.1 
       341.0         0.10          2.3 
       342.0         0.17          3.4 
       343.0         0.15          4.1 
       344.0         0.07          4.0 
       345.0         0.10          4.1 
       346.0         0.07          4.0 
       347.0         0.13          4.1 
       348.0         0.13          4.0 
       349.0         0.17         12.3 
       350.0         0.20         57.3 
       351.0         0.20         79.9 
       352.0         0.20         85.8 
       353.0         0.20         85.6 
       354.0         0.20         85.0 
       355.0         0.20         93.9 
       356.0         1.65        293.8 
       357.0         0.20        136.5 
       358.0         0.10        122.6 
       359.0         0.13        117.6 
       360.0         0.13        112.6 
       361.0         0.35        108.5 
       362.0         0.40         99.2 
       363.0         0.27         92.3 
       364.0         0.17         91.4 
       365.0         0.10         91.8 
       366.0         0.10         91.3 
       367.0         0.10         91.1 
       368.0         0.13         90.5 
       369.0         0.13         89.5 
       370.0         0.13         88.1 
       371.0         0.17         85.8 
       372.0         0.13         83.3 
       373.0         0.17         81.7 
       374.0         0.17         80.4 
       375.0         0.17         79.9 
       376.0         0.17         80.4 
       377.0         0.20         80.9 
       378.0         0.20         79.8 
       379.0         0.20         74.0 
       380.0         0.22         65.1 
       381.0         0.17         55.7 
       382.0         0.20         56.5 
       383.0         0.17         68.8 
       384.0         0.10         79.5 
       385.0         0.10         91.4 
       386.0         1.33        302.6 
       387.0         0.17        149.7 
       388.0         0.10        134.7 
       389.0         0.13        127.1 
       390.0         0.20        118.9 
       391.0         0.10        110.9 
       392.0         0.10        108.2 
       393.0         0.07        106.6 
       394.0         0.13        105.4 
       395.0         0.13        103.9 
       396.0         0.22        102.4 
       397.0         0.10        100.3 
       398.0         0.17        100.1 
       399.0         0.23        101.2 
       400.0         0.17        101.4 
