~Version Information
VERS.                      2.0: CWLS Log ASCII Standard - VERSION 2.0
WRAP.                       NO: One line per depth step
~Well Information Block
STRT.FT               234.0000: 
STOP.FT              1773.2000: 
STEP.FT                 0.1000: 
NULL.                -999.2500: 
COMP.          Pioneer Natural Resources: COMPANY
WELL.             Tami J 23-18: WELL
FLD.           Purgatorie River: FIELD
LOC.           2250' FSL & 2400' FWL: LOCATION
PROV.                 Colorado: PROVINCE
CNTY.               Las Animas: COUNTRY
SRVC.                         : SERVICE COMPANY
DATE.          Mon Dec 13 07:02:50 2004: LOG DATE
UWI.           05 071 08073 00: UNIQUE WELL ID
~Curve Information Block
DEPT.FT            0 000 00 00: Depth
LTEN.lb                       : Surface Line Tension
DCAL.in                       : CDL Caliper
RHOB.g/cc                     : CDL Bulk Density
RHOC.g/cc                     : CDL Density Correction
DPOR.pu                       : CDL Density Porosity
GR.GAPI                       : Gamma Ray
NPOR.pu                       : Neutron Porosity
~Parameter Information Block
~A  Depth       LTEN        DCAL        RHOB        RHOC        DPOR         GR         NPOR    
# ...
  1048.8000    930.8405      7.9173      2.5288      0.0318      7.3479    152.3118     27.3026
  1048.9000    930.8405      7.9173      2.5330      0.0531      7.0885    154.3947     27.3636
  1049.0000    961.4446      7.9114      2.5506      0.0821      6.0257    158.7354     27.4368
  1049.1000    961.4446      7.9114      2.5736      0.0864      4.6274    163.6890     27.5483
  1049.2000    961.4446      7.9114      2.5898      0.1331      3.6494    169.9441     27.5680
  1049.3000   1001.3575      7.9004      2.5829      0.0975      4.0648    178.1288     27.2605
  1049.4000   1001.3575      7.9004      2.5519      0.0404      5.9466    188.5221     26.7998
  1049.5000    981.4567      7.8938      2.5209      0.0237      7.8214    196.6914     26.6843
  1049.6000    981.4567      7.8938      2.5096      0.0275      8.5089    197.3912     27.1021
  1049.7000    981.4567      7.8938      2.5154      0.0425      8.1583    192.4706     27.7069
  1049.8000    997.9913      7.8970      2.5304      0.0199      7.2457    187.8979     28.0122
  1049.9000    997.9913      7.8970      2.5455      0.0466      6.3316    186.4403     27.8720
  1050.0000   1046.7898      7.9054      2.5523      0.0082      5.9196    185.9985     27.6037
  1050.1000   1046.7898      7.9054      2.5557      0.0240      5.7161    185.7480     27.5559
  1050.2000   1046.7898      7.9054      2.5608      0.0432      5.4076    185.3898     27.6765
  1050.3000    985.2665      7.9084      2.5667      0.0765      5.0494    186.1425     27.8515
  1050.4000    985.2665      7.9084      2.5732      0.1004      4.6567    190.7512     28.0727
  1050.5000    952.8859      7.9052      2.5790      0.1034      4.3030    196.5472     28.0899
  1050.6000    952.8859      7.9052      2.5845      0.1092      3.9695    197.5968     27.6410
  1050.7000    952.8859      7.9052      2.5904      0.1105      3.6106    191.1631     26.9162
  1050.8000    936.9514      7.9166      2.5934      0.1080      3.4320    180.3354     26.2826
  1050.9000    936.9514      7.9166      2.5919      0.0952      3.5203    173.7871     25.7872
  1051.0000   1013.2641      7.9462      2.5912      0.0593      3.5648    175.1479     25.2818
  1051.1000   1013.2641      7.9462      2.5959      0.0589      3.2775    180.6389     24.7588
  1051.2000   1013.2641      7.9462      2.6037      0.0507      2.8086    185.0280     24.2354
  1051.3000    955.0766      7.9741      2.6017      0.0384      2.9260    184.6226     23.9708
  1051.4000    955.0766      7.9741      2.5737      0.0332      4.6213    181.0861     24.2036
  1051.5000    921.7108      7.9864      2.5212     -0.0215      7.8054    178.0267     24.6365
  1051.6000    921.7108      7.9864      2.4671     -0.0283     11.0828    176.8450     24.9343
  1051.7000    921.7108      7.9864      2.4307     -0.0390     13.2924    178.9128     25.0073
  1051.8000    943.8724      7.9928      2.4166     -0.0120     14.1455    182.8843     25.0543
  1051.9000    943.8724      7.9928      2.4194      0.0148     13.9734    183.1811     25.3719
  1052.0000    943.0978      7.9980      2.4249      0.0227     13.6407    180.3950     25.7431
  1052.1000    943.0978      7.9980      2.4206      0.0109     13.9058    179.9545     25.7130
  1052.2000    943.0978      7.9980      2.4092      0.0214     14.5969    183.1680     25.2790
  1052.3000    953.9983      7.9923      2.4041      0.0096     14.9057    189.1669     25.0119
  1052.4000    953.9983      7.9923      2.4065      0.0792     14.7585    195.8632     25.3343
  1052.5000    912.9001      7.9875      2.4086      0.0620     14.6277    195.6786     26.0277
  1052.6000    912.9001      7.9875      2.4145      0.0292     14.2756    186.4346     26.5229
  1052.7000    912.9001      7.9875      2.4317      0.0291     13.2316    176.9572     26.6210
  1052.8000    945.4767      7.9943      2.4574      0.0480     11.6731    174.0474     26.5142
  1052.9000    945.4767      7.9943      2.4782      0.1256     10.4102    176.0248     26.4898
  1053.0000    989.5616      8.0015      2.4909      0.0900      9.6423    178.5867     26.8417
  1053.1000    989.5616      8.0015      2.5121      0.0976      8.3599    179.4993     27.2524
  1053.2000    989.5616      8.0015      2.5509      0.1711      6.0035    177.0775     27.2292
  1053.3000    958.0375      7.9950      2.5992      0.1679      3.0811    173.3437     26.9562
  1053.4000    958.0375      7.9950      2.6421      0.1894      0.4788    172.0224     26.6945
  1053.5000    900.6219      7.9858      2.6642      0.2265     -0.8587    171.9516     26.2831
  1053.6000    900.6219      7.9858      2.6599      0.1603     -0.6014    172.4146     25.7037
  1053.7000    900.6219      7.9858      2.6365      0.1645      0.8160    173.5497     25.3645
  1053.8000    978.3601      7.9824      2.6029      0.1269      2.8547    173.7854     25.3857
  1053.9000    978.3601      7.9824      2.5652      0.1077      5.1400    169.8067     25.5220
  1054.0000    987.2515      7.9851      2.5253      0.0570      7.5602    161.7579     25.4735
  1054.1000    987.2515      7.9851      2.4890      0.0130      9.7574    155.8683     25.2109
  1054.2000    987.2515      7.9851      2.4637      0.0437     11.2935    154.4321     25.0022
  1054.3000    966.9610      7.9955      2.4425      0.0337     12.5741    156.4188     24.9418
  1054.4000    966.9610      7.9955      2.4220      0.0235     13.8208    163.9878     24.8524
  1054.5000   1013.4489      8.0031      2.4175      0.0457     14.0902    172.9721     24.7165
  1054.6000   1013.4489      8.0031      2.4457      0.0750     12.3833    177.0186     24.6887
  1054.7000   1013.4489      8.0031      2.5049      0.1535      8.7938    177.2923     24.9330
  1054.8000    920.9181      7.9977      2.5753      0.2152      4.5246    176.8584     25.5087
  1054.9000    920.9181      7.9977      2.6295      0.2723      1.2434    176.9545     26.2364
  1055.0000    944.6483      7.9865      2.6524      0.2639     -0.1445    175.1900     26.8632
  1055.1000    944.6483      7.9865      2.6549      0.2246     -0.2949    170.6587     27.2484
  1055.2000    944.6483      7.9865      2.6572      0.1684     -0.4379    167.0864     27.2084
  1055.3000   1003.4915      7.9724      2.6611      0.2092     -0.6745    163.0987     26.6478
  1055.4000   1003.4915      7.9724      2.6567      0.1805     -0.4045    156.3825     25.8658
  1055.5000    962.6998      7.9513      2.6505      0.1224     -0.0330    150.7887     25.2173
  1055.6000    962.6998      7.9513      2.6517      0.1245     -0.1022    145.7993     24.8679
  1055.7000    962.6998      7.9513      2.6524      0.1112     -0.1448    137.8566     24.7501
  1055.8000    926.7791      7.9241      2.6461      0.0649      0.2361    129.1822     24.6583
  1055.9000    926.7791      7.9241      2.6332      0.0470      1.0179    120.5497     24.6179
  1056.0000   1025.5155      7.9073      2.6146      0.0491      2.1440    110.6563     24.7052
  1056.1000   1025.5155      7.9073      2.5946      0.0592      3.3548    101.8989     24.6505
  1056.2000   1025.5155      7.9073      2.5795      0.0545      4.2749     96.0190     24.3427
  1056.3000    986.9593      7.9019      2.5764      0.0355      4.4607     90.3679     24.0288
  1056.4000    986.9593      7.9019      2.5884      0.0409      3.7334     84.0429     23.9028
  1056.5000    962.0659      7.8960      2.6066      0.0678      2.6300     81.2074     24.0415
  1056.6000    962.0659      7.8960      2.6165      0.0691      2.0310     84.4219     24.3940
  1056.7000    962.0659      7.8960      2.6149      0.0483      2.1290     91.9360     24.7206
  1056.8000   1023.8438      7.9016      2.6139      0.0568      2.1851     99.4089     24.9222
  1056.9000   1023.8438      7.9016      2.6210      0.0892      1.7564    105.5941     25.1925
  1057.0000    953.5416      7.9152      2.6296      0.0746      1.2371    112.8612     25.4243
  1057.1000    953.5416      7.9152      2.6415      0.0452      0.5168    118.2706     25.3740
