~Version Information
VERS.                      2.0: CWLS Log ASCII Standard - VERSION 2.0
WRAP.                       NO: One line per depth step
~Well Information Block
STRT.FT               720.0000: 
STOP.FT              2265.7000: 
STEP.FT                 0.1000: 
NULL.                -999.2500: 
COMP.          Pioneer Natural Resources: COMPANY
WELL.          Casablanca 11-28 Tr: WELL
FLD.           Purgatoire River: FIELD
LOC.           422' FNL & 215' FWL----: LOCATION
PROV.                 Colorado: PROVINCE
CNTY.               Las Animas: COUNTRY
SRVC.                Patterson: SERVICE COMPANY
DATE.          Mon Mar 07 07:16:34 2005: LOG DATE
UWI.           05 071 08314 00: UNIQUE WELL ID
~Curve Information Block
DEPT.FT            0 000 00 00: Depth
DCAL.in                       : CDL Caliper
RHOB.g/cc                     : CDL Bulk Density
RHOC.g/cc                     : CDL Density Correction
DPOR.pu                       : CDL Density Porosity
NPOR.pu                       : Neutron Porosity
GR.GAPI                       : Gamma Ray
~Parameter Information Block
~A  Depth       DCAL        RHOB        RHOC        DPOR        NPOR         GR     
# ...
  1430.4000      8.0971      2.6006      0.0503      2.9950     32.1469     95.2589
  1430.5000      8.0897      2.5720      0.0015      4.7253     31.8100     99.1154
  1430.6000      8.0897      2.5505     -0.0077      6.0322     31.0776    103.4319
  1430.7000      8.0897      2.5431     -0.0123      6.4810     30.3526    108.4445
  1430.8000      8.0886      2.5473      0.0475      6.2268     29.9457    111.3203
  1430.9000      8.0886      2.5425      0.0448      6.5131     29.8520    111.8706
  1431.0000      8.0899      2.5183      0.0027      7.9808     29.5906    114.0438
  1431.1000      8.0899      2.4942     -0.0041      9.4454     28.7209    118.5378
  1431.2000      8.0899      2.4946      0.0116      9.4153     27.5945    120.5168
  1431.3000      8.0905      2.5136      0.0637      8.2665     26.6215    119.9835
  1431.4000      8.0905      2.5252      0.0009      7.5613     25.7144    118.8956
  1431.5000      8.0909      2.5257      0.0457      7.5304     25.0076    115.7581
  1431.6000      8.0909      2.5375      0.0105      6.8175     24.5601    112.6640
  1431.7000      8.0909      2.5627      0.1477      5.2901     23.9239    112.8130
  1431.8000      8.0904      2.5713      0.1114      4.7709     22.7545    115.5073
  1431.9000      8.0904      2.5604      0.1082      5.4332     21.4460    119.5577
  1432.0000      8.0903      2.5624      0.0859      5.3113     20.6552    121.3172
  1432.1000      8.0903      2.5945      0.1558      3.3639     20.5279    118.4310
  1432.2000      8.0903      2.6391      0.1362      0.6601     20.7746    115.9184
  1432.3000      8.0910      2.6689      0.1492     -1.1456     21.2518    119.1983
  1432.4000      8.0910      2.6759      0.1220     -1.5683     22.3486    124.7079
  1432.5000      8.0907      2.6760      0.0794     -1.5763     24.1455    125.1313
  1432.6000      8.0907      2.6744      0.1195     -1.4762     25.7836    119.7404
  1432.7000      8.0907      2.6547      0.0800     -0.2859     26.9013    111.7810
  1432.8000      8.0900      2.6183      0.0110      1.9231     27.9989    106.4090
  1432.9000      8.0900      2.5862     -0.0132      3.8686     29.1227    105.8674
  1433.0000      8.0903      2.5707     -0.0133      4.8071     29.7215    108.7180
  1433.1000      8.0903      2.5706     -0.0308      4.8120     29.6146    115.5197
  1433.2000      8.0903      2.5741      0.0132      4.6015     29.1261    125.3999
  1433.3000      8.0911      2.5624      0.0516      5.3090     28.3503    132.8357
  1433.4000      8.0911      2.5362      0.0130      6.8988     27.2296    133.4944
  1433.5000      8.0916      2.5103      0.0575      8.4695     26.0509    130.5438
  1433.6000      8.0916      2.4913      0.0019      9.6186     24.9992    127.7652
  1433.7000      8.0916      2.4869      0.0121      9.8870     24.0901    124.6997
  1433.8000      8.0914      2.5045      0.0429      8.8177     23.4323    121.8529
  1433.9000      8.0914      2.5349      0.0734      6.9752     22.9528    125.0123
  1434.0000      8.0908      2.5554      0.0928      5.7344     22.4654    134.2219
  1434.1000      8.0908      2.5644      0.0366      5.1908     22.0938    138.5679
  1434.2000      8.0908      2.5862      0.0834      3.8689     22.1312    131.9093
  1434.3000      8.0898      2.6254      0.1295      1.4931     22.2984    120.4240
  1434.4000      8.0898      2.6617      0.1236     -0.7066     22.2099    112.7032
  1434.5000      8.0884      2.6805      0.1666     -1.8490     22.2245    114.6045
  1434.6000      8.0884      2.6790      0.1026     -1.7585     22.8561    123.6436
  1434.7000      8.0884      2.6576      0.1009     -0.4581     23.8898    126.9636
  1434.8000      8.0869      2.6198      0.0503      1.8274     24.6479    119.3094
  1434.9000      8.0869      2.5902     -0.0562      3.6261     24.9264    111.9040
  1435.0000      8.0862      2.5955      0.0204      3.3054     25.0153    111.9872
  1435.1000      8.0862      2.6226      0.0612      1.6614     25.0440    114.7354
  1435.2000      8.0862      2.6415      0.0785      0.5170     25.1053    118.8270
  1435.3000      8.0891      2.6468      0.0404      0.1946     25.5379    123.8129
  1435.4000      8.0891      2.6452      0.0870      0.2914     26.3320    125.0942
  1435.5000      8.0952      2.6321      0.0365      1.0853     26.7329    124.3540
  1435.6000      8.0952      2.6106      0.0190      2.3870     26.2314    123.6115
  1435.7000      8.0952      2.5886      0.0057      3.7194     25.3947    120.4831
  1435.8000      8.1005      2.5645     -0.0250      5.1842     25.0039    116.6241
  1435.9000      8.1005      2.5423     -0.0225      6.5278     25.3379    115.4785
  1436.0000      8.1052      2.5248     -0.0217      7.5889     26.0381    116.0865
  1436.1000      8.1052      2.5044     -0.0534      8.8237     26.6416    116.8737
  1436.2000      8.1052      2.4806     -0.0188     10.2648     26.9480    117.7639
  1436.3000      8.1074      2.4701     -0.0283     10.9046     26.6043    120.2549
  1436.4000      8.1074      2.4861      0.0121      9.9355     25.6908    125.3248
  1436.5000      8.1045      2.5163      0.0492      8.1036     24.7041    129.0168
  1436.6000      8.1045      2.5415      0.0359      6.5741     23.8225    130.3330
  1436.7000      8.1045      2.5490      0.0846      6.1221     23.2016    131.1509
  1436.8000      8.1009      2.5375      0.0424      6.8175     23.0294    128.6239
  1436.9000      8.1009      2.5275      0.0241      7.4241     23.0911    124.1431
  1437.0000      8.0988      2.5359      0.0444      6.9177     23.0383    126.8445
  1437.1000      8.0988      2.5550      0.0815      5.7584     22.7873    136.1426
  1437.2000      8.0988      2.5664      0.0917      5.0644     22.6580    138.3138
  1437.3000      8.0962      2.5707      0.0633      4.8038     23.0793    130.5259
  1437.4000      8.0962      2.5833      0.0823      4.0402     23.7555    123.4137
  1437.5000      8.0935      2.5994      0.0877      3.0669     24.0527    121.4778
  1437.6000      8.0935      2.5993      0.0586      3.0752     23.9593    121.7394
  1437.7000      8.0935      2.5812      0.0216      4.1723     23.6046    123.1853
  1437.8000      8.0912      2.5594      0.0570      5.4895     23.1862    126.9375
  1437.9000      8.0912      2.5430      0.0355      6.4846     23.2476    130.3490
  1438.0000      8.0895      2.5368      0.0197      6.8610     23.9370    127.3136
  1438.1000      8.0895      2.5439      0.0469      6.4315     24.7873    118.3918
  1438.2000      8.0895      2.5629      0.0165      5.2791     25.2886    112.8710
  1438.3000      8.0896      2.5811      0.0826      4.1740     25.2493    114.0692
  1438.4000      8.0896      2.5805      0.0689      4.2102     24.8544    117.6429
  1438.5000      8.0924      2.5780     -0.0267      4.3665     24.3762    121.7586
  1438.6000      8.0924      2.5977      0.0674      3.1704     24.0752    126.2884
  1438.7000      8.0924      2.6221      0.0388      1.6918     24.2432    127.1127
  1438.8000      8.0955      2.6398      0.0089      0.6186     24.8740    122.7692
  1438.9000      8.0955      2.6626      0.0691     -0.7620     25.6596    118.8969
  1439.0000      8.0961      2.6790      0.0980     -1.7604     26.1632    122.4805
  1439.1000      8.0961      2.6626      0.0655     -0.7626     26.2006    130.3908
  1439.2000      8.0961      2.6143      0.0067      2.1623     26.1060    133.7842
  1439.3000      8.0947      2.5691     -0.0901      4.9010     26.1820    132.9720
  1439.4000      8.0947      2.5542     -0.0546      5.8039     26.0834    132.5152
  1439.5000      8.0936      2.5568     -0.0454      5.6462     25.3832    130.8161
  1439.6000      8.0936      2.5516     -0.0216      5.9654     24.5763    127.3539
  1439.7000      8.0936      2.5288     -0.0020      7.3450     24.4679    128.5870
  1439.8000      8.0935      2.5017     -0.0631      8.9890     24.8060    133.1099
  1439.9000      8.0935      2.4916     -0.0085      9.5989     24.6387    134.6057
