~Version Information
VERS.                      2.0: CWLS Log ASCII Standard - VERSION 2.0
WRAP.                       NO: One line per depth step
~Well Information Block
STRT.FT                 6.5000: 
STOP.FT              1054.0000: 
STEP.FT                 0.2500: 
NULL.                -999.2500: 
COMP.          Pioneer Natural Resources: COMPANY
WELL.            Galileo 21-11: WELL
FLD.           Purgatoire River: FIELD
LOC.           407' FNL & 2394' FWL: LOCATION
PROV.                 Colorado: PROVINCE
CNTY.               Las Animas: COUNTRY
SRVC.                Patterson: SERVICE COMPANY
DATE.          Sat Apr 16 10:31:00 2005: LOG DATE
UWI.           05 071 08353 00: UNIQUE WELL ID
~Curve Information Block
DEPT.FT            0 000 00 00: Depth
GR.GAPI                       : Gamma Ray
CCL.                          : Casing Collar Locator
TT3.usec                      : CBL 3' Travel Time
AMP3.mV                       : CBL 3' Amplitude
~Parameter Information Block
~A  Depth        GR         CCL         TT3         AMP3    
# ...
   341.5000    123.2798      0.0000   1313.9731      9.4426
   341.7500    130.0032      0.0000   1331.4886      9.3236
   342.0000    137.2508      0.0000   1340.0320      9.2847
   342.2500    143.4686      0.0000   1343.9865      9.2825
   342.5000    146.6987      0.0000   1346.4150      9.2828
   342.7500    146.1001      0.0000   1348.1652      9.2755
   343.0000    142.6816      0.0000   1349.2491      9.2726
   343.2500    138.2991      0.0000   1349.7562      9.2973
   343.5000    134.0779      0.0000   1349.9384      9.3671
   343.7500    129.7965      0.0000   1349.9879      9.4819
   344.0000    124.5150      0.0000   1349.9982      9.6273
   344.2500    117.7484      0.0000   1350.0000      9.7882
   344.5000    110.0673      0.0000   1350.0000      9.9581
   344.7500    102.4745      0.0000   1350.0000     10.1372
   345.0000     95.2507      0.0000   1350.0000     10.3294
   345.2500     87.8430      0.0000   1350.0000     10.5420
   345.5000     80.1724      0.0000   1350.0000     10.7876
   345.7500     73.6047      0.0000   1350.0000     11.0805
   346.0000     69.8858      0.0000   1350.0000     11.4273
   346.2500     69.0570      0.0000   1350.0000     11.8187
   346.5000     68.9760      0.0000   1350.0000     12.2330
   346.7500     67.2263      0.0000   1350.0000     12.6487
   347.0000     63.2829      0.0000   1350.0000     13.0480
   347.2500     58.6271      0.0000   1350.0000     13.4082
   347.5000     55.0615      0.0000   1350.0000     13.6968
   347.7500     53.3700      0.0000   1350.0000     13.8842
   348.0000     53.4370      0.0000   1350.0000     13.9604
   348.2500     55.0560      0.0000   1350.0000     13.9444
   348.5000     58.3895      0.0000   1350.0000     13.8780
   348.7500     63.7185      0.0000   1350.0000     13.7999
   349.0000     70.7382      0.0000   1350.0000     13.7151
   349.2500     78.2386      0.0000   1350.0000     13.5969
   349.5000     84.7077      0.0000   1350.0000     13.4171
   349.7500     89.2131      0.0000   1350.0000     13.1660
   350.0000     91.7402      0.0000   1350.0000     12.8430
   350.2500     93.1276      0.0000   1350.0000     12.4487
   350.5000     94.6947      0.0000   1350.0000     11.9969
   350.7500     97.2993      0.0000   1350.0000     11.5247
   351.0000    100.5376      0.0000   1350.0000     11.0842
   351.2500    103.2036      0.0000   1350.0000     10.7154
   351.5000    104.5245      0.0000   1349.9713     10.4237
   351.7500    104.7488      0.0000   1349.7897     10.1822
   352.0000    104.7667      0.0000   1348.8695      9.9528
   352.2500    105.3669      0.0000   1345.2578      9.7068
   352.5000    106.5750      0.0000   1334.2231      9.4379
   352.7500    107.4612      0.0000   1307.9639      9.1637
   353.0000    106.7248      0.0000   1259.2072      8.9155
   353.2500    103.7099      0.0000   1188.3420      8.7219
   353.5000     99.0845      0.0000   1107.2418      8.6076
   353.7500     94.5536      0.0000   1033.4476      8.6001
   354.0000     91.6747      0.0000    979.3133      8.7215
   354.2500     90.7514      0.0000    946.8622      8.9603
   354.5000     90.8414      0.0000    931.4670      9.2571
   354.7500     90.8177      0.0000    928.5580      9.5322
   355.0000     90.4967      0.0000    938.2026      9.7362
   355.2500     90.9428      0.0000    965.7645      9.8778
   355.5000     93.7583      0.0000   1017.1349     10.0022
   355.7500     99.9082      0.0000   1089.3560     10.1508
   356.0000    108.9474      0.0000   1164.4543     10.3405
   356.2500    119.1965      0.0000   1216.0188     10.5696
   356.5000    128.6357      0.0000   1227.1117     10.8241
   356.7500    135.6402      0.0000   1205.3275     11.0739
   357.0000    138.9274      0.0000   1180.0935     11.2754
   357.2500    137.3590      0.0000   1180.9362     11.3929
   357.5000    130.6588      0.0000   1214.7219     11.4218
   357.7500    120.4727      0.0000   1264.1621     11.3943
   358.0000    110.0546      0.0000   1306.9952     11.3622
   358.2500    102.3313      0.0000   1333.0227     11.3685
   358.5000     98.0809      0.0000   1344.7284     11.4201
   358.7500     95.9389      0.0000   1348.7145     11.4806
   359.0000     94.0627      0.0000   1349.7306     11.4904
   359.2500     91.6362      0.0000   1349.7653     11.4014
   359.5000     88.9818      0.0000   1348.8716     11.1961
   359.7500     86.7652      0.0000   1345.0876     10.8824
   360.0000     85.3114      0.0000   1332.9784     10.4775
   360.2500     84.4416      0.0000   1302.8712      9.9981
   360.5000     83.7295      0.0000   1245.4097      9.4652
   360.7500     82.9827      0.0000   1163.2162      8.9139
   361.0000     82.5209      0.0000   1080.2988      8.3711
   361.2500     82.8049      0.0000   1032.3414      7.8157
   361.5000     83.6566      0.0000   1038.5988      7.2066
   361.7500     84.0367      0.0000   1083.9302      6.5820
   362.0000     82.8786      0.0000   1134.2428      6.0748
   362.2500     80.0381     -2.1021   1168.2682      5.7949
   362.5000     76.0990      0.0000   1190.1776      5.7380
   362.7500     71.4613      0.0000   1215.1741      5.8331
   363.0000     66.2203      0.0000   1250.0182      6.0405
   363.2500     60.9812      0.0000   1288.1738      6.4068
   363.5000     57.1690      0.0000   1319.0004      7.0337
   363.7500     56.0256      0.0000   1337.5919      7.9485
   364.0000     57.4775      0.0000   1346.0698      8.9704
   364.2500     60.3119      0.0000   1349.0214      9.7825
   364.5000     63.2928      0.0000   1349.8119     10.2042
   364.7500     65.8167      0.0000   1349.9712     10.3334
   365.0000     67.7730      0.0000   1350.0000     10.3824
   365.2500     69.2782      0.0000   1350.0000     10.4582
   365.5000     70.4621      0.0000   1350.0000     10.5448
   365.7500     71.2187      0.0000   1350.0000     10.6117
   366.0000     71.3345      0.0000   1350.0000     10.6668
   366.2500     71.0070      0.0000   1350.0000     10.7308
   366.5000     70.9311      0.0000   1350.0000     10.8058
   366.7500     71.8009      0.0000   1350.0000     10.8769
   367.0000     73.9833      0.0000   1350.0000     10.9330
   367.2500     77.4555      0.0000   1350.0000     10.9826
   367.5000     81.6187      0.0000   1350.0000     11.0414
   367.7500     85.3441      0.0000   1350.0000     11.1012
   368.0000     87.5562      0.0000   1349.9663     11.1156
   368.2500     87.6816      0.0000   1349.7806     11.0275
   368.5000     85.6122      0.0000   1348.8862     10.8154
   368.7500     81.7700      0.0000   1345.5721     10.5138
   369.0000     77.3535      0.0000   1336.2823     10.1898
   369.2500     73.9651      0.0000   1316.6904      9.9016
   369.5000     72.5363      0.0000   1286.1732      9.6746
   369.7500     72.6662      0.0000   1252.1698      9.5036
   370.0000     73.0893      0.0000   1227.0453      9.3698
   370.2500     72.5979      0.0000   1218.0651      9.2532
   370.5000     70.5301      0.0000   1222.2950      9.1348
   370.7500     66.8636      0.0000   1231.0876      8.9958
   371.0000     62.1953      0.0000   1235.2098      8.8240
   371.2500     57.6009      0.0000   1227.7379      8.6217
   371.5000     54.3531      0.0000   1210.1603      8.4102
   371.7500     53.4425      0.0000   1196.0382      8.2251
   372.0000     54.9573      0.0000   1201.3916      8.0958
   372.2500     57.8477      0.0000   1229.3860      8.0202
   372.5000     60.5287      0.0000   1267.8768      7.9635
   372.7500     61.9679      0.0000   1301.5854      7.8868
   373.0000     62.2786      0.0000   1323.0774      7.7779
   373.2500     62.3015      0.0000   1333.3541      7.6532
   373.5000     62.7343      0.0000   1336.5479      7.5361
   373.7500     63.7208      0.0000   1335.3372      7.4397
   374.0000     65.0324      0.0000   1328.9395      7.3669
   374.2500     66.3673      0.0000   1313.9434      7.3237
   374.5000     67.5054      0.0000   1288.7747      7.3260
   374.7500     68.2862      0.0000   1258.5293      7.3831
