~Version Information
VERS.                      2.0: CWLS Log ASCII Standard - VERSION 2.0
WRAP.                       NO: One line per depth step
~Well Information Block
STRT.FT                 0.7500: 
STOP.FT              2144.0000: 
STEP.FT                 0.2500: 
NULL.                -999.2500: 
COMP.          Petrogulf Corporation: COMPANY
WELL.            Montoya 1-44R: WELL
FLD.           Purgatorie River: FIELD
LOC.           658' FSL & 1052' FWL: LOCATION
CNTY.               Las Animas: COUNTY
SRVC.                         : SERVICE COMPANY
DATE.          Tue Nov 30 08:31:55 2004: LOG DATE
UWI.           05 071 08239 00: UNIQUE WELL ID
STAT.                 Colorado: STATE
~Curve Information Block
DEPT.FT            0 000 00 00: Depth
TT3.usec                      : CBL 3' Travel Time
AMP3.mV                       : CBL 3' Amplitude
GR.GAPI                       : Gamma Ray
CCL.                          : Casing Collar Locator
~Parameter Information Block
~A  Depth       TT3         AMP3         GR         CCL     
# ...
  2111.2500    502.4207      8.4866    126.6896      0.0000
  2111.5000    530.1480      8.1344    126.2051      0.0000
  2111.7500    579.2267      7.6948    124.7905      0.0000
  2112.0000    638.4634      7.1994    122.7239      0.0000
  2112.2500    693.8257      6.6774    120.3061      0.0000
  2112.5000    735.4878      6.1499    117.7651      0.0000
  2112.7500    761.9829      5.6465    115.2860      0.0000
  2113.0000    777.6763      5.2159    113.1312      0.0000
  2113.2500    787.1620      4.9033    111.5901      0.0000
  2113.5000    792.1402      4.7105    110.7212      0.0000
  2113.7500    792.2618      4.5816    110.1990      0.0000
  2114.0000    787.4103      4.4280    109.5252      0.0000
  2114.2500    778.5747      4.1815    108.4425      0.0000
  2114.5000    766.9533      3.8381    107.1329      0.0000
  2114.7500    753.2054      3.4564    105.9843      0.0000
  2115.0000    738.0303      3.1121    105.1915      0.0000
  2115.2500    722.8804      2.8494    104.5673      0.0000
  2115.5000    709.4823      2.6684    103.6827      0.0000
  2115.7500    698.9476      2.5453    102.1457      0.0000
  2116.0000    691.4711      2.4553     99.8000      0.0000
  2116.2500    686.2433      2.3843     96.7695      0.0000
  2116.5000    681.5701      2.3278     93.3815      0.0000
  2116.7500    675.8508      2.2859     90.0115      0.0000
  2117.0000    668.4973      2.2561     86.9152      0.0000
  2117.2500    659.9075      2.2294     84.1336      0.0000
  2117.5000    651.6060      2.1979     81.5488      0.0000
  2117.7500    646.7481      2.1655     79.0611      0.0000
  2118.0000    649.1980      2.1506     76.7374      0.0000
  2118.2500    661.0256      2.1759     74.7929      0.0000
  2118.5000    680.8792      2.2563     73.4330      0.0000
  2118.7500    704.9612      2.3938     72.6660      0.0000
  2119.0000    729.3640      2.5777     72.2323      0.0000
  2119.2500    751.0998      2.7847     71.7025      0.0000
  2119.5000    767.2397      2.9787     70.6963      0.0000
  2119.7500    774.6213      3.1183     69.1169      0.0000
  2120.0000    771.6146      3.1773     67.2582      0.0000
  2120.2500    760.0972      3.1632     65.7229      0.0000
  2120.5000    745.2365      3.1215     65.1958      0.0000
  2120.7500    733.3283      3.1324     66.1536      0.0000
  2121.0000    728.7988      3.3027     68.6408      0.0000
  2121.2500    731.1954      3.7274     72.2127      0.0000
  2121.5000    734.1631      4.4143     76.0978      0.0000
  2121.7500    729.3972      5.2249     79.5117      0.0000
  2122.0000    714.8074      5.9101     81.9537      0.0000
  2122.2500    699.3565      6.2440     83.3321      0.0000
  2122.5000    696.5674      6.1614     83.8795      0.0000
  2122.7500    710.4175      5.7865     83.9482      0.0000
  2123.0000    729.8463      5.3462     83.7880      0.0000
  2123.2500    740.1783      5.0535     83.4062      0.0000
  2123.5000    738.2130      5.0375     82.5484      0.0000
  2123.7500    733.3936      5.3274     80.7935      0.0000
  2124.0000    735.9561      5.8619     77.7503      0.0000
  2124.2500    747.4550      6.5050     73.3022      0.0000
  2124.5000    762.4524      7.0766     67.8328      0.0000
  2124.7500    775.6195      7.4256     62.2722      0.0000
  2125.0000    785.2164      7.5246     57.8484      0.0000
  2125.2500    791.7288      7.5077     55.6466      0.0000
  2125.5000    795.9337      7.5967     56.2442      0.0000
  2125.7500    798.6149      7.9590     59.6143      0.0000
  2126.0000    799.6581      8.6097     65.2705      0.0000
  2126.2500    794.8547      9.4345     72.3975      0.0000
  2126.5000    774.1410     10.3029     79.8474      0.0000
  2126.7500    726.5040     11.1756     86.0932      0.0000
  2127.0000    650.2589     12.1306     89.3663      0.0000
  2127.2500    558.7828     13.3040     88.0745   -999.2500
  2127.5000    473.6906     14.7793     81.3763   -999.2500
  2127.7500    411.0309     16.4972     69.6545   -999.2500
  2128.0000    373.8928     18.2575     54.6032   -999.2500
  2128.2500    355.9318     19.8160     38.7709   -999.2500
  2128.5000    348.8190     20.9900     24.6788   -999.2500
  2128.7500    346.5836     21.6940     13.9518   -999.2500
  2129.0000    346.1185     21.9178      6.9495   -999.2500
  2129.2500    346.1530     21.7041      3.0291   -999.2500
  2129.5000    346.2795     21.1544      1.1486   -999.2500
  2129.7500    346.4039     20.4297      0.3769   -999.2500
  2130.0000    346.5349     19.7077      0.1061   -999.2500
  2130.2500    346.6983     19.1036      0.0250   -999.2500
  2130.5000    346.9255     18.6200      0.0045   -999.2500
  2130.7500    347.2609     18.1905      0.0000   -999.2500
  2131.0000    347.7978     17.7774   -999.2500   -999.2500
  2131.2500    349.0473     17.4107   -999.2500   -999.2500
  2131.5000    352.9489     17.1256   -999.2500   -999.2500
  2131.7500    364.3610     16.8976   -999.2500   -999.2500
  2132.0000    391.3140     16.6624   -999.2500   -999.2500
  2132.2500    440.9889     16.3773   -999.2500   -999.2500
  2132.5000    511.7638     16.0369   -999.2500   -999.2500
  2132.7500    588.8953     15.6653   -999.2500   -999.2500
  2133.0000    651.8532     15.3395   -999.2500   -999.2500
  2133.2500    688.8806     15.2042   -999.2500   -999.2500
  2133.5000    703.7264     15.3829   -999.2500   -999.2500
  2133.7500    706.8316     15.8086   -999.2500   -999.2500
  2134.0000    699.3433     16.1161   -999.2500   -999.2500
  2134.2500    666.2117     15.7263   -999.2500   -999.2500
  2134.5000    587.5774     14.1477   -999.2500   -999.2500
  2134.7500    460.5212     11.3662   -999.2500   -999.2500
  2135.0000    309.8752      7.9962   -999.2500   -999.2500
  2135.2500    174.3537      4.9431   -999.2500   -999.2500
  2135.5000     80.4546      2.8214   -999.2500   -999.2500
  2135.7500     30.0201      1.6800   -999.2500   -999.2500
  2136.0000      8.9660      1.2031   -999.2500   -999.2500
  2136.2500      2.1235      1.0481   -999.2500   -999.2500
  2136.5000      0.3931      1.0089   -999.2500   -999.2500
  2136.7500      0.0523      1.0012   -999.2500   -999.2500
  2137.0000   -999.2500   -999.2500   -999.2500   -999.2500
  2137.2500   -999.2500   -999.2500   -999.2500   -999.2500
  2137.5000   -999.2500   -999.2500   -999.2500   -999.2500
  2137.7500   -999.2500   -999.2500   -999.2500   -999.2500
  2138.0000   -999.2500   -999.2500   -999.2500   -999.2500
  2138.2500   -999.2500   -999.2500   -999.2500   -999.2500
  2138.5000   -999.2500   -999.2500   -999.2500   -999.2500
  2138.7500   -999.2500   -999.2500   -999.2500   -999.2500
  2139.0000   -999.2500   -999.2500   -999.2500   -999.2500
  2139.2500   -999.2500   -999.2500   -999.2500   -999.2500
  2139.5000   -999.2500   -999.2500   -999.2500   -999.2500
  2139.7500   -999.2500   -999.2500   -999.2500   -999.2500
  2140.0000   -999.2500   -999.2500   -999.2500   -999.2500
  2140.2500   -999.2500   -999.2500   -999.2500   -999.2500
  2140.5000   -999.2500   -999.2500   -999.2500   -999.2500
  2140.7500   -999.2500   -999.2500   -999.2500   -999.2500
  2141.0000   -999.2500   -999.2500   -999.2500   -999.2500
  2141.2500   -999.2500   -999.2500   -999.2500   -999.2500
  2141.5000   -999.2500   -999.2500   -999.2500   -999.2500
  2141.7500   -999.2500   -999.2500   -999.2500   -999.2500
  2142.0000   -999.2500   -999.2500   -999.2500   -999.2500
  2142.2500   -999.2500   -999.2500   -999.2500   -999.2500
  2142.5000   -999.2500   -999.2500   -999.2500   -999.2500
  2142.7500   -999.2500   -999.2500   -999.2500   -999.2500
  2143.0000   -999.2500   -999.2500   -999.2500   -999.2500
  2143.2500   -999.2500   -999.2500   -999.2500   -999.2500
  2143.5000   -999.2500   -999.2500   -999.2500   -999.2500
  2143.7500   -999.2500   -999.2500   -999.2500   -999.2500
  2144.0000   -999.2500   -999.2500   -999.2500   -999.2500
