~Version Information
VERS.                      2.0: CWLS Log ASCII Standard - VERSION 2.0
WRAP.                       NO: One line per depth step
~Well Information Block
STRT.FT               275.0000: 
STOP.FT               811.2000: 
STEP.FT                 0.1000: 
NULL.                -999.2500: 
COMP.          Pioneer Natural Resources: COMPANY
WELL.          Barrelman 41-27: WELL
FLD.           Purgatoire River: FIELD
LOC.           371' FNL & 493' FEL--: LOCATION
PROV.                 Colorado: PROVINCE
CNTY.               Las Animas: COUNTRY
SRVC.                Patterson: SERVICE COMPANY
DATE.          Fri May 20 11:50:01 2005: LOG DATE
UWI.           05 071 08334 00: UNIQUE WELL ID
~Curve Information Block
DEPT.FT            0 000 00 00: Depth
DCAL.in                       : CDL Caliper
RHOB.g/cc                     : CDL Bulk Density
RHOC.g/cc                     : CDL Density Correction
DPOR.pu                       : CDL Density Porosity
NPOR.pu                       : Neutron Porosity
GR.GAPI                       : Gamma Ray
~Parameter Information Block
~A  Depth       DCAL        RHOB        RHOC        DPOR        NPOR         GR     
# ...
   716.6000      7.9847      2.3568      0.0737     17.7718     24.9493    100.0473
   716.7000      7.9847      2.3625      0.0657     17.4247     25.1422    105.1819
   716.8000      7.9834      2.3508      0.0640     18.1345     24.7123    111.3391
   716.9000      7.9834      2.3256      0.0205     19.6625     24.0389    114.8549
   717.0000      7.9835      2.3051      0.0125     20.9011     23.5858    116.7021
   717.1000      7.9835      2.3027      0.0003     21.0492     23.3078    118.0759
   717.2000      7.9835      2.3153      0.0111     20.2830     23.3490    119.1902
   717.3000      7.9842      2.3338      0.0721     19.1652     23.7045    119.5213
   717.4000      7.9842      2.3545      0.0408     17.9065     24.0134    117.8728
   717.5000      7.9838      2.3737      0.0691     16.7447     24.2812    116.8477
   717.6000      7.9838      2.3788      0.0576     16.4343     24.5436    114.1080
   717.7000      7.9838      2.3680      0.0469     17.0934     24.5868    106.3653
   717.8000      7.9830      2.3549      0.0414     17.8843     24.3073     98.9806
   717.9000      7.9830      2.3485      0.0411     18.2747     24.0237     95.8284
   718.0000      7.9828      2.3450      0.0551     18.4877     24.1233     99.3918
   718.1000      7.9828      2.3447      0.0106     18.5018     24.4107    106.8543
   718.2000      7.9828      2.3551      0.0374     17.8697     24.2764    107.9525
   718.3000      7.9813      2.3693      0.0517     17.0138     23.8988    104.2779
   718.4000      7.9813      2.3734      0.0462     16.7641     24.0622    106.8969
   718.5000      7.9812      2.3693      0.0366     17.0141     24.4890    112.9843
   718.6000      7.9812      2.3680      0.0431     17.0929     24.5652    112.1758
   718.7000      7.9812      2.3786      0.0152     16.4463     24.5283    105.6669
   718.8000      7.9832      2.3990      0.0886     15.2135     24.5863    100.9003
   718.9000      7.9832      2.4115      0.0655     14.4533     24.6339     98.7631
   719.0000      7.9856      2.4116      0.0212     14.4512     24.7494     96.6408
   719.1000      7.9856      2.4084      0.0773     14.6451     25.0850     93.7046
   719.2000      7.9856      2.4063      0.0428     14.7712     25.2921     91.5887
   719.3000      7.9876      2.4095      0.0640     14.5754     25.1393     93.8810
   719.4000      7.9876      2.4192      0.0321     13.9886     25.0103     99.1648
   719.5000      7.9877      2.4270      0.0611     13.5128     25.0845    104.9070
   719.6000      7.9877      2.4249      0.0375     13.6430     24.9421    110.7903
   719.7000      7.9877      2.4202      0.0446     13.9300     24.4537    112.1977
   719.8000      7.9845      2.4250      0.0499     13.6363     24.1206    107.3336
   719.9000      7.9845      2.4356      0.0958     12.9944     24.3530    103.1958
   720.0000      7.9802      2.4361      0.0890     12.9656     24.9692    101.8711
   720.1000      7.9802      2.4233      0.0549     13.7406     25.5523     99.0453
   720.2000      7.9802      2.4093      0.0453     14.5899     25.9817     96.0587
   720.3000      7.9784      2.3942      0.0729     15.5053     26.3425     95.4931
   720.4000      7.9784      2.3719      0.0462     16.8566     26.3792     94.7764
   720.5000      7.9800      2.3557      0.0238     17.8373     25.9984     92.0450
   720.6000      7.9800      2.3586      0.0402     17.6614     25.8071     90.2122
   720.7000      7.9800      2.3726      0.0642     16.8105     25.9848     93.5509
   720.8000      7.9831      2.3851      0.0427     16.0520     26.0104    101.2782
   720.9000      7.9831      2.3938      0.0386     15.5281     25.6603    108.9678
   721.0000      7.9836      2.3986      0.0953     15.2354     25.2125    113.5554
   721.1000      7.9836      2.3977      0.0674     15.2904     24.9509    116.4056
   721.2000      7.9836      2.3921      0.0372     15.6292     24.9398    118.5390
   721.3000      7.9813      2.3802      0.0749     16.3518     25.1373    118.3795
   721.4000      7.9813      2.3637      0.0504     17.3523     25.1252    117.0543
   721.5000      7.9751      2.3514      0.0462     18.0985     24.6109    113.6659
   721.6000      7.9751      2.3447      0.0452     18.5057     24.1076    103.5189
   721.7000      7.9751      2.3421      0.0283     18.6580     23.9559     90.0996
   721.8000      7.9648      2.3463      0.0393     18.4081     24.0290     83.0451
   721.9000      7.9648      2.3559      0.0269     17.8266     24.3915     85.2225
   722.0000      7.9583      2.3668      0.0513     17.1646     25.1177     90.2790
   722.1000      7.9583      2.3758      0.0734     16.6175     26.0648     92.9034
   722.2000      7.9583      2.3844      0.0770     16.0984     26.7036     92.2437
   722.3000      7.9571      2.3973      0.0505     15.3131     26.7395     89.5364
   722.4000      7.9571      2.4174      0.0713     14.0994     26.3850     87.7411
   722.5000      7.9561      2.4363      0.1028     12.9512     25.8548     87.3463
   722.6000      7.9561      2.4394      0.1050     12.7627     25.5693     88.2215
   722.7000      7.9561      2.4264      0.0629     13.5541     25.7522     93.4976
   722.8000      7.9553      2.4113      0.0614     14.4657     25.8765    100.8423
   722.9000      7.9553      2.4020      0.0776     15.0328     25.6373    103.5249
   723.0000      7.9566      2.3975      0.0524     15.3033     25.4884    102.8428
   723.1000      7.9566      2.3950      0.0971     15.4547     25.6637    103.8252
   723.2000      7.9566      2.3873      0.0705     15.9231     25.6252    104.8561
   723.3000      7.9576      2.3709      0.0476     16.9181     25.1476    102.0396
   723.4000      7.9576      2.3515      0.0559     18.0895     24.7706     97.7493
   723.5000      7.9563      2.3393      0.0138     18.8275     25.0347     98.7364
   723.6000      7.9563      2.3415      0.0336     18.6997     25.6824    106.0728
   723.7000      7.9563      2.3545      0.0240     17.9082     25.7820    111.2831
   723.8000      7.9531      2.3664      0.0748     17.1855     25.2485    109.8949
   723.9000      7.9531      2.3676      0.0601     17.1147     24.8966    105.5303
   724.0000      7.9470      2.3656      0.0426     17.2337     24.9606    100.1844
   724.1000      7.9470      2.3746      0.0182     16.6920     25.1949     96.8161
   724.2000      7.9470      2.3913      0.1005     15.6783     25.3579    101.0041
   724.3000      7.9392      2.4047      0.0552     14.8673     25.3512    111.0096
   724.4000      7.9392      2.4129      0.0706     14.3704     25.3648    116.5936
   724.5000      7.9337      2.4121      0.0897     14.4152     25.2839    114.0512
   724.6000      7.9337      2.4002      0.0383     15.1392     24.8165    111.9703
   724.7000      7.9337      2.3852      0.0688     16.0462     24.0784    111.9286
   724.8000      7.9326      2.3783      0.0303     16.4656     23.4166    105.8276
   724.9000      7.9326      2.3856      0.0612     16.0260     23.0137     99.5202
   725.0000      7.9319      2.3959      0.0827     15.3975     22.8047    104.9389
   725.1000      7.9319      2.3942      0.0635     15.5014     22.8674    118.2571
   725.2000      7.9319      2.3818      0.0636     16.2530     23.1534    125.5449
   725.3000      7.9293      2.3697      0.0260     16.9897     23.1033    121.3616
   725.4000      7.9293      2.3662      0.0428     17.1992     22.6193    113.2936
   725.5000      7.9271      2.3742      0.0254     16.7147     22.2487    107.2529
   725.6000      7.9271      2.3910      0.0473     15.6965     22.4587    104.5633
   725.7000      7.9271      2.4053      0.0731     14.8273     23.1836    107.8288
   725.8000      7.9261      2.4088      0.0672     14.6173     23.8049    111.8768
   725.9000      7.9261      2.4085      0.0614     14.6388     23.8713    110.9420
   726.0000      7.9276      2.4147      0.0464     14.2615     23.3816    108.9129
   726.1000      7.9276      2.4270      0.0393     13.5133     22.8328    109.7774
