~Version Information
VERS.                      2.0: CWLS Log ASCII Standard - VERSION 2.0
WRAP.                       NO: One line per depth step
~Well Information Block
STRT.FT                 3.5000: 
STOP.FT              1971.5000: 
STEP.FT                 0.2500: 
NULL.                -999.2500: 
COMP.          Evergreen Operating Corporation: COMPANY
WELL.          McCullough 34-32 Tr: WELL
FLD.           Purgatorie River: FIELD
LOC.           394' FSL & 2077' FEL: LOCATION
PROV.                 Colorado: PROVINCE
CNTY.               Las Animas: COUNTRY
SRVC.                         : SERVICE COMPANY
DATE.          Fri Sep 24 11:00:22 2004: LOG DATE
UWI.           05 071 08157 00: UNIQUE WELL ID
~Curve Information Block
DEPT.FT            0 000 00 00: Depth
GR.GAPI                       : Gamma Ray
CCL.                          : Casing Collar Locator
TT3.usec                      : CBL 3' Travel Time
AMP3.mV                       : CBL 3' Amplitude
~Parameter Information Block
~A  Depth        GR         CCL         TT3         AMP3    
# ...
  1176.0000    114.5435      0.0000    695.5729      6.6409
  1176.2500    113.2989      0.0000    680.7480      6.7188
  1176.5000    113.0612      0.0000    663.6770      6.7394
  1176.7500    114.1008      0.0000    653.3619      6.7704
  1177.0000    116.2154      0.0000    653.8658      6.8238
  1177.2500    118.5391      0.0000    659.8221      6.8746
  1177.5000    119.9220      0.0000    661.6748      6.9018
  1177.7500    119.9586      0.0000    654.5524      6.9054
  1178.0000    119.3063      0.0000    641.2700      6.8944
  1178.2500    118.5324      0.0000    627.3065      6.8746
  1178.5000    117.1931      0.0000    614.5601      6.8456
  1178.7500    114.7665      0.0000    601.3796      6.8004
  1179.0000    111.9841      0.0000    588.2035      6.7232
  1179.2500    110.3139      0.0000    581.2018      6.5902
  1179.5000    110.1779      0.0000    588.7278      6.3855
  1179.7500    110.3527      0.0000    613.8103      6.1262
  1180.0000    109.2531      0.0000    650.5047      5.8642
  1180.2500    106.4218      0.0000    687.9816      5.6545
  1180.5000    102.8452      0.0000    718.0716      5.5201
  1180.7500    100.4470      0.0000    738.7147      5.4489
  1181.0000    101.1407      0.0000    751.5744      5.4152
  1181.2500    105.3403      0.0000    758.4775      5.4001
  1181.5000    111.0149      0.0000    760.3723      5.3953
  1181.7500    114.9353      0.0000    758.1566      5.3981
  1182.0000    115.2760      0.0000    753.1703      5.4080
  1182.2500    112.8674      0.0000    746.4630      5.4361
  1182.5000    110.2031      0.0000    737.8421      5.5084
  1182.7500    109.6910      0.0000    726.5820      5.6494
  1183.0000    112.4693      0.0000    713.4432      5.8557
  1183.2500    117.9650      0.0000    701.1159      6.0894
  1183.5000    124.1645      0.0000    692.1176      6.2986
  1183.7500    128.7168      0.0000    686.8428      6.4439
  1184.0000    130.3809      0.0000    683.8155      6.5105
  1184.2500    129.6649      0.0000    681.1098      6.5113
  1184.5000    128.0908      0.0000    677.1938      6.4813
  1184.7500    126.8630      0.0000    670.7815      6.4584
  1185.0000    126.0991      0.0000    660.4147      6.4562
  1185.2500    125.0168      0.0000    645.3192      6.4593
  1185.5000    122.7281      0.0000    628.1020      6.4487
  1185.7500    119.0668      0.0000    615.9537      6.4258
  1186.0000    115.0156      0.0000    616.1034      6.4092
  1186.2500    112.4888      0.0000    628.5866      6.4168
  1186.5000    113.3017      0.0000    644.8978      6.4526
  1186.7500    117.7601      0.0000    654.3799      6.5037
  1187.0000    124.0445      0.0000    651.1982      6.5456
  1187.2500    129.2108      0.0000    636.4261      6.5573
  1187.5000    131.1924      0.0000    616.0212      6.5354
  1187.7500    130.0692      0.0000    597.1713      6.4927
  1188.0000    127.3949      0.0000    585.1180      6.4416
  1188.2500    124.4524      0.0000    582.4153      6.3834
  1188.5000    121.4922      0.0000    590.2003      6.3139
  1188.7500    118.4599      0.0000    608.1644      6.2357
  1189.0000    115.6977      0.0000    632.4526      6.1631
  1189.2500    113.6242      0.0000    655.8983      6.1129
  1189.5000    112.0756      0.0000    673.1740      6.0923
  1189.7500    110.1766      0.0000    684.8558      6.0975
  1190.0000    106.9131      0.0000    693.6168      6.1167
  1190.2500    102.1582      0.0000    697.4135      6.1304
  1190.5000     97.4104      0.0000    689.8989      6.1211
  1190.7500     95.2099      0.0000    668.3279      6.0956
  1191.0000     97.1648      0.0000    638.7925      6.0899
  1191.2500    102.3119      0.0000    611.6204      6.1335
  1191.5000    107.7441      0.0000    591.8885      6.2151
  1191.7500    111.0820      0.0000    576.4800      6.2982
  1192.0000    112.0556      0.0000    560.7454      6.3665
  1192.2500    111.7798      0.0000    545.7081      6.4365
  1192.5000    111.3522      0.0000    537.1999      6.5284
  1192.7500    111.4029      0.0000    538.9489      6.6361
  1193.0000    112.1092      0.0000    547.7100      6.7241
  1193.2500    113.1313      0.0000    555.1972      6.7498
  1193.5000    113.9991      0.0000    554.9256      6.6971
  1193.7500    114.6838      0.0000    547.1924      6.5937
  1194.0000    115.2266      0.0000    537.2181      6.4915
  1194.2500    114.9548      0.0000    529.1518      6.4294
  1194.5000    112.9092      0.0000    522.7811      6.4112
  1194.7500    109.1376      0.0000    515.9703      6.4140
  1195.0000    104.9269      0.0000    509.2840      6.4171
  1195.2500    101.6794      0.0000    507.2903      6.4248
  1195.5000     99.9381      0.0000    515.3793      6.4609
  1195.7500     99.3412      0.0000    536.2033      6.5398
  1196.0000     99.1256      0.0000    568.9841      6.6475
  1196.2500     98.9255      0.0000    609.9323      6.7528
  1196.5000     99.3391      0.0000    651.7399      6.8316
  1196.7500    101.3014      0.0000    684.9241      6.8651
  1197.0000    104.8250      0.0000    703.1528      6.8225
  1197.2500    108.9235      0.0000    708.0068      6.6785
  1197.5000    112.7371      0.0000    707.4519      6.4623
  1197.7500    115.9799      0.0000    709.2335      6.2569
  1198.0000    118.2837      0.0000    715.5672      6.1267
  1198.2500    119.0728      0.0000    723.1902      6.0593
  1198.5000    118.5271      0.0000    727.5870      5.9828
  1198.7500    118.0557      0.0000    727.1126      5.8266
  1199.0000    119.2925      0.0000    723.8828      5.5613
  1199.2500    122.6956      0.0000    721.9137      5.2039
  1199.5000    126.9355      0.0000    724.5892      4.8021
  1199.7500    129.3403      0.0000    732.6570      4.4123
  1200.0000    127.4704      0.0000    743.7758      4.0742
  1200.2500    121.1320      0.0000    754.2148      3.7983
  1200.5000    112.8808      0.0000    761.3282      3.5771
  1200.7500    106.1525      0.0000    764.5446      3.4075
  1201.0000    102.8710      0.0000    764.6154      3.3007
  1201.2500    102.7759      0.0000    762.6569      3.2774
  1201.5000    104.5369      0.0000    759.7649      3.3618
  1201.7500    107.0350      0.0000    756.4285      3.5785
  1202.0000    109.7727      0.0000    751.6202      3.9387
  1202.2500    112.8439      0.0000    743.1081      4.4175
  1202.5000    116.9201      0.0000    729.8054      4.9556
  1202.7500    122.6896      0.0000    713.7988      5.4892
  1203.0000    129.7136      0.0000    699.2746      5.9755
  1203.2500    136.1621      0.0000    689.3402      6.3931
  1203.5000    140.2524      0.0000    684.2525      6.7378
  1203.7500    141.9447      0.0000    682.3339      7.0242
  1204.0000    142.9559      0.0000    681.6351      7.2704
  1204.2500    145.0743      0.0000    680.5326      7.4720
  1204.5000    148.5730      0.0000    677.3792      7.6049
  1204.7500    152.1907      0.0000    670.6434      7.6526
  1205.0000    154.2689      0.0000    660.5212      7.6234
  1205.2500    153.7186      0.0000    650.5835      7.5449
  1205.5000    150.4260      0.0000    646.2311      7.4531
  1205.7500    145.3828      0.0000    649.8793      7.3837
  1206.0000    140.4473      0.0000    658.4072      7.3593
  1206.2500    137.4711      0.0000    666.7025      7.3759
  1206.5000    137.0180      0.0000    673.1493      7.4050
  1206.7500    137.5943      0.0000    680.6186      7.4157
  1207.0000    136.5227      0.0000    692.4885      7.3993
  1207.2500    132.2463      0.0000    708.3276      7.3694
  1207.5000    125.8138      0.0000    723.3457      7.3407
  1207.7500    119.7317      0.0000    732.1340      7.3126
  1208.0000    115.4139      0.0000    733.4362      7.2760
  1208.2500    112.1606      0.0000    731.3505      7.2362
  1208.5000    108.5521      0.0000    731.4688      7.2197
  1208.7500    104.2019      0.0000    735.9568      7.2530
  1209.0000     99.8676      0.0000    742.4996      7.3366
  1209.2500     96.3682      0.0000    747.2718      7.4414
