~Version Information
VERS.                      2.0: CWLS Log ASCII Standard - VERSION 2.0
WRAP.                       NO: One line per depth step
~Well Information Block
STRT.FT               -11.0000: 
STOP.FT              1523.2500: 
STEP.FT                 0.2500: 
NULL.                -999.2500: 
COMP.          Petrogulf Corporation: COMPANY
WELL.             State 16-43R: WELL
FLD.           Purgatorie River: FIELD
LOC.           2538' FSL & 716' FEL--: LOCATION
PROV.                       CO: PROVINCE
CNTY.               Las Animas: COUNTRY
SRVC.          Patterson Wireline: SERVICE COMPANY
DATE.          Fri Sep 09 13:13:52 2005: LOG DATE
UWI.           05 071 08338 00: UNIQUE WELL ID
~Curve Information Block
DEPT.FT            0 000 00 00: Depth
CCL.                          : Casing Collar Locator
TT3.usec                      : CBL 3' Travel Time
AMP3.mV                       : CBL 3' Amplitude
GR.GAPI                       : Gamma Ray
~Parameter Information Block
~A  Depth       CCL         TT3         AMP3         GR     
   -11.0000   -999.2500   -999.2500   -999.2500    119.3404
   -10.7500   -999.2500   -999.2500   -999.2500    119.7161
   -10.5000   -999.2500   -999.2500   -999.2500    120.9544
   -10.2500   -999.2500   -999.2500   -999.2500    121.5365
   -10.0000   -999.2500   -999.2500   -999.2500    120.2395
    -9.7500   -999.2500   -999.2500   -999.2500    117.4243
    -9.5000   -999.2500   -999.2500   -999.2500    114.5473
    -9.2500   -999.2500   -999.2500   -999.2500    112.5194
    -9.0000   -999.2500   -999.2500   -999.2500    111.0093
    -8.7500   -999.2500   -999.2500   -999.2500    109.2194
    -8.5000   -999.2500   -999.2500   -999.2500    106.8744
    -8.2500   -999.2500   -999.2500   -999.2500    104.3940
    -8.0000   -999.2500   -999.2500   -999.2500    102.3167
    -7.7500   -999.2500   -999.2500   -999.2500    100.6889
    -7.5000   -999.2500   -999.2500   -999.2500     99.1373
    -7.2500   -999.2500   -999.2500   -999.2500     97.6499
    -7.0000   -999.2500   -999.2500   -999.2500     97.1602
    -6.7500   -999.2500   -999.2500   -999.2500     98.8951
    -6.5000   -999.2500   -999.2500   -999.2500    102.7115
    -6.2500   -999.2500   -999.2500   -999.2500    106.2925
    -6.0000   -999.2500   1149.0000      1.9780    106.6196
    -5.7500   -999.2500   1149.0000      1.9769    102.6648
    -5.5000   -999.2500   1149.0000      1.9724     96.5195
    -5.2500   -999.2500   1149.0000      1.9646     91.5774
    -5.0000   -999.2500   1149.0000      1.9538     89.4843
    -4.7500   -999.2500   1149.0000      1.9415     88.8844
    -4.5000   -999.2500   1149.0000      1.9312     87.0152
    -4.2500   -999.2500   1149.0000      1.9265     82.3609
    -4.0000   -999.2500   1149.0000      1.9271     75.7937
    -3.7500   -999.2500   1149.0000      1.9287     69.4519
    -3.5000   -999.2500   1149.0000      1.9273     64.7331
    -3.2500   -999.2500   1149.0000      1.9223     61.3131
    -3.0000   -999.2500   1149.0000      1.9156     57.7760
    -2.7500   -999.2500   1149.0000      1.9096     52.9057
    -2.5000   -999.2500   1149.0000      1.9069     46.4799
    -2.2500   -999.2500   1149.0000      1.9094     39.3466
    -2.0000   -999.2500   1149.0000      1.9165     33.1325
    -1.7500   -999.2500   1149.0000      1.9244     29.7273
    -1.5000   -999.2500   1149.0000      1.9284     30.6135
    -1.2500   -999.2500   1149.0000      1.9265     36.3065
    -1.0000   -999.2500   1149.0000      1.9199     46.1068
    -0.7500      0.0000   1149.0000      1.9119     58.1708
    -0.5000      0.0000   1149.0000      1.9060     69.9650
    -0.2500      0.0000   1149.0000      1.9041     79.1772
     0.0000      0.0000   1149.0000      1.9057     85.9184
     0.2500      0.0000   1149.0000      1.9047     84.0042
     0.5000      0.0000   1149.0000      1.9030     80.5104
     0.7500      0.0000   1149.0000      1.9024     77.7743
     1.0000      0.0000   1149.0000      1.9023     76.9407
     1.2500      0.0000   1149.0000      1.8997     76.6363
     1.5000      0.0000   1149.0000      1.8928     74.4054
     1.7500      0.0000   1149.0000      1.8839     69.4467
     2.0000      0.0000   1148.9406      1.8823     63.4662
     2.2500      0.0000   1148.5527      1.9106     59.2525
     2.5000      0.0000   1146.5833      2.0572     58.9320
     2.7500      0.0000   1138.7938      2.6136     62.9471
     3.0000      0.0000   1114.8008      4.2875     69.5688
     3.2500      0.0000   1057.2446      8.2512     75.2615
     3.5000      0.0000    949.7159     15.5986     76.5844
     3.7500      0.0000    793.2633     26.2375     72.6857
     4.0000      0.0000    615.9811     38.2612     65.9978
     4.2500      0.0000    459.5333     48.8666     60.2765
     4.5000      0.0000    352.0132     56.1733     57.9300
     4.7500      0.0000    294.4682     60.1132     59.0357
     5.0000      0.0000    270.4875     61.7796     62.2095
     5.2500      0.0000    262.7099     62.3259     65.8119
     5.5000      0.0000    260.7510     62.4459     68.4597
     5.7500      0.0000    260.3727     62.4358     69.3401
     6.0000      0.0000    260.3227     62.4006     68.7771
     6.2500      0.0000    260.3333     62.3797     68.2410
     6.5000      0.0000    260.3435     62.3919     69.1375
     6.7500      0.0000    260.3499     62.4394     71.5097
     7.0000      0.0000    260.3488     62.5067     74.1870
     7.2500      0.0000    260.3403     62.5692     76.0959
     7.5000      0.0000    260.3278     62.6136     77.1241
     7.7500      0.0000    260.3158     62.6496     77.7353
     8.0000      0.0000    260.3074     62.6997     78.0027
     8.2500      0.0000    260.3029     62.7803     77.2160
     8.5000      0.0000    260.3020     62.8903     74.5599
     8.7500      0.0000    260.3045     63.0135     70.3576
     9.0000      0.0000    260.3098     63.1308     66.4986
     9.2500      0.0000    260.3152     63.2324     65.1159
     9.5000      0.0000    260.3172     63.3189     66.4613
     9.7500      0.0000    260.3133     63.3936     68.4421
    10.0000      0.0000    260.3028     63.4604     68.6699
    10.2500      0.0000    260.2883     63.5228     66.8122
    10.5000      0.0000    260.2759     63.5812     64.6713
    10.7500      0.0000    260.2729     63.6307     64.2237
    11.0000      0.0000    260.2818     63.6640     65.9153
    11.2500      0.0000    260.2987     63.6779     68.6304
    11.5000      0.0000    260.3150     63.6787     70.8377
    11.7500      0.0000    260.3233     63.6798     71.5197
    12.0000      0.0000    260.3233     63.6875     70.1772
    12.2500      0.0000    260.3223     63.6888     66.5312
    12.5000      0.0000    260.3291     63.6586     60.8483
    12.7500      0.0000    260.3467     63.5801     54.5598
    13.0000      0.0000    260.3705     63.4616     49.9302
    13.2500      0.0000    260.3916     63.3363     48.6520
    13.5000      0.0000    260.4037     63.2414     50.7191
    13.7500      0.0000    260.4069     63.1930     54.6338
    14.0000      0.0000    260.4062     63.1820     58.6464
    14.2500      0.0000    260.4061     63.1947     61.8175
    14.5000      0.0000    260.4062     63.2288     63.9467
    14.7500      0.0000    260.4037     63.2860     64.8182
    15.0000      0.0000    260.3967     63.3606     64.1369
    15.2500      0.0000    260.3867     63.4450     62.2345
    15.5000      0.0000    260.3756     63.5408     60.1102
    15.7500      0.0000    260.3647     63.6556     58.3781
    16.0000      0.0000    260.3542     63.7869     56.7657
    16.2500      0.0000    260.3455     63.9144     55.0104
    16.5000      0.0000    260.3405     64.0114     53.6620
    16.7500      0.0000    260.3402     64.0671     53.6094
    17.0000      0.0000    260.3430     64.0970     55.1868
    17.2500      0.0000    260.3476     64.1285     57.9413
    17.5000      0.0000    260.3548     64.1772     60.9718
    17.7500      0.0000    260.3650     64.2403     63.3247
    18.0000      0.0000    260.3757     64.3114     64.4440
    18.2500      0.0000    260.3826     64.3910     64.7598
    18.5000      0.0000    260.3835     64.4781     65.7772
    18.7500      0.0000    260.3813     64.5601     68.9216
    19.0000      0.0000    260.3807     64.6188     73.8641
    19.2500      0.0000    260.3847     64.6429     78.2566
    19.5000      0.0000    260.3948     64.6289     79.6054
    19.7500      0.0000    260.4140     64.5654     77.4234
    20.0000      0.0000    260.4486     64.4222     73.4238
    20.2500      0.0000    260.5070     64.1668     69.8922
    20.5000      0.0000    260.5957     63.7945     68.1718
    20.7500      0.0000    260.7177     63.3317     68.4201
    21.0000      0.0000    260.8746     62.7998     70.3736
    21.2500      0.0000    261.0768     62.1568     74.1325
    21.5000      0.0000    261.3785     61.2515     79.8771
    21.7500      0.0000    261.9622     59.8464     86.5524
    22.0000      0.0000    263.2584     57.7474     91.3933
    22.2500      0.0000    265.9623     54.9477     91.7744
