~Version Information
VERS.                      2.0: CWLS Log ASCII Standard - VERSION 2.0
WRAP.                       NO: One line per depth step
~Well Information Block
STRT.FT               620.0000: 
STOP.FT              2663.2500: 
STEP.FT                 0.2500: 
NULL.                -999.2500: 
COMP.          Evergreen Operating Corporation: COMPANY
WELL.             Carbon 34-21: WELL
FLD.           Purgatoire River: FIELD
LOC.           56' FSL & 2304' FEL: LOCATION
PROV.                 Colorado: PROVINCE
CNTY.               Las Animas: COUNTRY
SRVC.                Patterson: SERVICE COMPANY
DATE.          Mon Sep 13 11:41:04 2004: LOG DATE
UWI.           05 071 08117 00: UNIQUE WELL ID
~Curve Information Block
DEPT.FT            0 000 00 00: Depth
DIR.Ohm-m                     : IEL Induction Resistivity
SN.Ohm-m                      : IEL Short Normal
SP.mV                         : IEL Spontaneous Potential
GR.GAPI                       : Gamma Ray
~Parameter Information Block
~A  Depth       DIR          SN          SP          GR     
# ...
  1156.0000     15.2758   2000.0000   2000.0000    123.1580
  1156.2500     15.3976   2000.0000   2000.0000    121.1068
  1156.5000     15.5107   2000.0000   2000.0000    118.8172
  1156.7500     15.6313   2000.0000   2000.0000    117.9931
  1157.0000     15.7826   2000.0000   2000.0000    117.6434
  1157.2500     15.9882   2000.0000   2000.0000    117.7939
  1157.5000     16.2646   2000.0000   2000.0000    118.0060
  1157.7500     16.6177   2000.0000   2000.0000    117.6209
  1158.0000     17.0428   2000.0000   2000.0000    115.5288
  1158.2500     17.5302   2000.0000   2000.0000    113.1354
  1158.5000     18.0732   2000.0000   2000.0000    108.9027
  1158.7500     18.6724   2000.0000   2000.0000    106.3334
  1159.0000     19.3343   2000.0000   2000.0000    103.6854
  1159.2500     20.0646   2000.0000   2000.0000    102.8040
  1159.5000     20.8591   2000.0000   2000.0000    102.1672
  1159.7500     21.6930   2000.0000   2000.0000    101.5481
  1160.0000     22.5080   2000.0000   2000.0000     99.5518
  1160.2500     23.2028   2000.0000   2000.0000     97.7095
  1160.5000     23.6423   2000.0000   2000.0000     95.6837
  1160.7500     23.6992   2000.0000   2000.0000     95.8734
  1161.0000     23.3156   2000.0000   2000.0000     99.4034
  1161.2500     22.5376   2000.0000   2000.0000    103.6703
  1161.5000     21.4909   2000.0000   2000.0000    111.4927
  1161.7500     20.3203   2000.0000   2000.0000    116.6657
  1162.0000     19.1436   2000.0000   2000.0000    123.0894
  1162.2500     18.0362   2000.0000   2000.0000    126.0936
  1162.5000     17.0380   2000.0000   2000.0000    128.5966
  1162.7500     16.1646   2000.0000   2000.0000    129.2447
  1163.0000     15.4161   2000.0000   2000.0000    129.6098
  1163.2500     14.7834   2000.0000   2000.0000    129.7565
  1163.5000     14.2532   2000.0000   2000.0000    129.2811
  1163.7500     13.8132   2000.0000   2000.0000    127.8617
  1164.0000     13.4570   2000.0000   2000.0000    123.9171
  1164.2500     13.1875   2000.0000   2000.0000    120.8389
  1164.5000     13.0152   2000.0000   2000.0000    117.2218
  1164.7500     12.9525   2000.0000   2000.0000    115.9526
  1165.0000     13.0057   2000.0000   2000.0000    115.5832
  1165.2500     13.1693   2000.0000   2000.0000    115.9405
  1165.5000     13.4211   2000.0000   2000.0000    116.1970
  1165.7500     13.7216   2000.0000   2000.0000    115.2684
  1166.0000     14.0169   2000.0000   2000.0000    111.2657
  1166.2500     14.2523   2000.0000   2000.0000    107.3043
  1166.5000     14.3909   2000.0000   2000.0000    101.7433
  1166.7500     14.4303   2000.0000   2000.0000     99.5961
  1167.0000     14.4000   2000.0000   2000.0000     99.3984
  1167.2500     14.3436   2000.0000   2000.0000    100.8879
  1167.5000     14.2955   2000.0000   2000.0000    104.8228
  1167.7500     14.2680   2000.0000   2000.0000    108.5121
  1168.0000     14.2524   2000.0000   2000.0000    115.5821
  1168.2500     14.2306   2000.0000   2000.0000    120.8271
  1168.5000     14.1916   2000.0000   2000.0000    127.9855
  1168.7500     14.1434   2000.0000   2000.0000    131.5128
  1169.0000     14.1146   2000.0000   2000.0000    134.2844
  1169.2500     14.1469   2000.0000   2000.0000    134.4582
  1169.5000     14.2829   2000.0000   2000.0000    132.9333
  1169.7500     14.5576   2000.0000   2000.0000    131.3959
  1170.0000     14.9931   2000.0000   2000.0000    128.8894
  1170.2500     15.5955   2000.0000   2000.0000    126.7927
  1170.5000     16.3493   2000.0000   2000.0000    122.1074
  1170.7500     17.2107   2000.0000   2000.0000    117.8324
  1171.0000     18.1058   2000.0000   2000.0000    110.7775
  1171.2500     18.9465   2000.0000   2000.0000    106.7640
  1171.5000     19.6611   2000.0000   2000.0000    103.2466
  1171.7500     20.2204   2000.0000   2000.0000    102.6885
  1172.0000     20.6416   2000.0000   2000.0000    103.9476
  1172.2500     20.9686   2000.0000   2000.0000    105.9007
  1172.5000     21.2466   2000.0000   2000.0000    110.1376
  1172.7500     21.5059   2000.0000   2000.0000    113.3490
  1173.0000     21.7549   2000.0000   2000.0000    117.3719
  1173.2500     21.9808   2000.0000   2000.0000    118.7349
  1173.5000     22.1565   2000.0000   2000.0000    118.1730
  1173.7500     22.2554   2000.0000   2000.0000    116.3336
  1174.0000     22.2711   2000.0000   2000.0000    112.7675
  1174.2500     22.2302   2000.0000   2000.0000    110.7018
  1174.5000     22.1838   2000.0000   2000.0000    108.5773
  1174.7500     22.1795   2000.0000   2000.0000    107.4884
  1175.0000     22.2316   2000.0000   2000.0000    105.5438
  1175.2500     22.3102   2000.0000   2000.0000    103.9132
  1175.5000     22.3563   2000.0000   2000.0000    101.7022
  1175.7500     22.3130   2000.0000   2000.0000    101.2252
  1176.0000     22.1493   2000.0000   2000.0000    103.3045
  1176.2500     21.8613   2000.0000   2000.0000    106.6475
  1176.5000     21.4576   2000.0000   2000.0000    113.2598
  1176.7500     20.9503   2000.0000   2000.0000    117.4847
  1177.0000     20.3579   2000.0000   2000.0000    121.7412
  1177.2500     19.7097   2000.0000   2000.0000    122.7420
  1177.5000     19.0429   2000.0000   2000.0000    121.9799
  1177.7500     18.3931   2000.0000   2000.0000    120.7606
  1178.0000     17.7857   2000.0000   2000.0000    119.0103
  1178.2500     17.2322   2000.0000   2000.0000    118.0410
  1178.5000     16.7309   2000.0000   2000.0000    116.8938
  1178.7500     16.2706   2000.0000   2000.0000    116.7645
  1179.0000     15.8351   2000.0000   2000.0000    118.6596
  1179.2500     15.4095   2000.0000   2000.0000    121.4436
  1179.5000     14.9854   2000.0000   2000.0000    126.7726
  1179.7500     14.5633   2000.0000   2000.0000    130.2715
  1180.0000     14.1504   2000.0000   2000.0000    134.8546
  1180.2500     13.7557   2000.0000   2000.0000    137.4771
  1180.5000     13.3871   2000.0000   2000.0000    140.3828
  1180.7500     13.0525   2000.0000   2000.0000    141.0785
  1181.0000     12.7616   2000.0000   2000.0000    139.7282
  1181.2500     12.5236   2000.0000   2000.0000    137.6898
  1181.5000     12.3427   2000.0000   2000.0000    134.5914
  1181.7500     12.2144   2000.0000   2000.0000    133.1987
  1182.0000     12.1259   2000.0000   2000.0000    132.0775
  1182.2500     12.0625   2000.0000   2000.0000    131.5392
  1182.5000     12.0164   2000.0000   2000.0000    130.5840
  1182.7500     11.9922   2000.0000   2000.0000    129.8789
  1183.0000     12.0074   2000.0000   2000.0000    128.8473
  1183.2500     12.0864   2000.0000   2000.0000    128.1005
  1183.5000     12.2530   2000.0000   2000.0000    126.4997
  1183.7500     12.5254   2000.0000   2000.0000    124.8082
  1184.0000     12.9146   2000.0000   2000.0000    120.9249
  1184.2500     13.4255   2000.0000   2000.0000    117.4286
  1184.5000     14.0590   2000.0000   2000.0000    111.2008
  1184.7500     14.8139   2000.0000   2000.0000    106.6859
  1185.0000     15.6867   2000.0000   2000.0000     99.7231
  1185.2500     16.6685   2000.0000   2000.0000     95.0631
  1185.5000     17.7367   2000.0000   2000.0000     88.3163
  1185.7500     18.8456   2000.0000   2000.0000     84.4068
  1186.0000     19.9231   2000.0000   2000.0000     80.7130
  1186.2500     20.8802   2000.0000   2000.0000     80.4291
  1186.5000     21.6348   2000.0000   2000.0000     83.5509
  1186.7500     22.1401   2000.0000   2000.0000     87.4747
  1187.0000     22.4001   2000.0000   2000.0000     94.6856
  1187.2500     22.4634   2000.0000   2000.0000     99.5651
  1187.5000     22.4011   2000.0000   2000.0000    105.8189
  1187.7500     22.2876   2000.0000   2000.0000    108.8177
  1188.0000     22.1909   2000.0000   2000.0000    111.4819
  1188.2500     22.1681   2000.0000   2000.0000    112.3144
  1188.5000     22.2609   2000.0000   2000.0000    112.5656
  1188.7500     22.4919   2000.0000   2000.0000    112.1401
  1189.0000     22.8703   2000.0000   2000.0000    110.7894
  1189.2500     23.4010   2000.0000   2000.0000    109.6232
