~Version Information
VERS.                      2.0: CWLS Log ASCII Standard - VERSION 2.0
WRAP.                       NO: One line per depth step
~Well Information Block
STRT.FT                -3.0000: 
STOP.FT              1679.2500: 
STEP.FT                 0.2500: 
NULL.                -999.2500: 
COMP.          Evergreen Operating Corp.: COMPANY
WELL.            Rimrock 14-29: WELL
FLD.           Purgatorie River: FIELD
LOC.           945' FSL & 604' FWL--: LOCATION
PROV.                       CO: PROVINCE
CNTY.               Las Animas: COUNTRY
SRVC.                         : SERVICE COMPANY
DATE.          Mon Oct 04 13:02:21 2004: LOG DATE
UWI.           05 071 08136 00: UNIQUE WELL ID
~Curve Information Block
DEPT.FT            0 000 00 00: Depth
GR.GAPI                       : Gamma Ray
CCL.                          : Casing Collar Locator
TT3.usec                      : CBL 3' Travel Time
AMP3.mV                       : CBL 3' Amplitude
~Parameter Information Block
~A  Depth        GR         CCL         TT3         AMP3    
# ...
   533.0000     95.3950      0.0000    900.6847     10.5473
   533.2500     96.4621      0.0000    902.1478     10.6225
   533.5000     96.6510      0.0000    874.1710     10.7109
   533.7500     97.8245      0.0000    838.6862     10.8269
   534.0000    101.3535      0.0000    819.2835     10.9603
   534.2500    107.2294      0.0000    823.6494     11.0859
   534.5000    113.9645      0.0000    841.1569     11.1816
   534.7500    119.2566      0.0000    853.9772     11.2387
   535.0000    121.2571      0.0000    851.6809     11.2580
   535.2500    119.7909      0.0000    837.9339     11.2375
   535.5000    116.5535      0.0000    824.5789     11.1717
   535.7500    113.9891      0.0000    820.4927     11.0620
   536.0000    113.5099      0.0000    825.8572     10.9227
   536.2500    114.3339      0.0000    834.1382     10.7773
   536.5000    114.0451      0.0000    837.2050     10.6480
   536.7500    110.6933      0.0000    829.7002     10.5428
   537.0000    104.5238      0.0000    811.6371     10.4532
   537.2500     97.7170      0.0000    788.5393     10.3660
   537.5000     92.6786      0.0000    768.6185     10.2767
   537.7500     90.5471      0.0000    758.9568     10.1931
   538.0000     90.8932      0.0000    762.9147     10.1311
   538.2500     92.4633      0.0000    779.0085     10.1088
   538.5000     94.2390      0.0000    801.2963     10.1368
   538.7500     95.9320      0.0000    822.2823     10.2072
   539.0000     97.6283      0.0000    837.0347     10.2942
   539.2500     99.2167      0.0000    844.9565     10.3711
   539.5000    100.2578      0.0000    848.1687     10.4272
   539.7500    100.4383      0.0000    849.0086     10.4740
   540.0000    100.0246      0.0000    848.8821     10.5368
   540.2500     99.5985      0.0000    848.3237     10.6462
   540.5000     99.3156      0.0000    847.2397     10.8395
   540.7500     98.8322      0.0000    844.8027     11.1667
   541.0000     98.0987      0.0000    839.3478     11.6854
   541.2500     97.7705      0.0000    828.7800     12.4373
   541.5000     98.5249      0.0000    811.3172     13.4168
   541.7500    100.3391      0.0000    785.3764     14.5604
   542.0000    102.7243      0.0000    748.8526     15.7795
   542.2500    105.3210      0.0000    701.0849     17.0202
   542.5000    107.9340      0.0000    648.0732     18.2971
   542.7500    110.0758      0.0000    602.3569     19.6733
   543.0000    110.7787      0.0000    571.0369     21.2182
   543.2500    109.0951      0.0000    544.6782     22.9818
   543.5000    104.9775      0.0000    505.8029     24.9696
   543.7500     99.7388      0.0000    449.5239     27.0868
   544.0000     95.4064      0.0000    389.4300     29.0951
   544.2500     93.2377      0.0000    342.7460     30.6869
   544.5000     92.6691      0.0000    315.7677     31.6591
   544.7500     91.8870      0.0000    303.9707     32.0174
   545.0000     89.6413      0.0000    300.0663     31.9180
   545.2500     86.5023      0.0000    299.1627     31.5555
   545.5000     84.3242      0.0000    299.1270     31.1129
   545.7500     84.6970      0.0000    299.2578     30.7476
   546.0000     87.9980      0.0000    299.3674     30.5589
   546.2500     93.5456      0.0000    299.5205     30.5532
   546.5000    100.1731      0.0000    300.2070     30.6349
   546.7500    106.7107      0.0000    302.9738     30.6221
   547.0000    112.3968      0.0000    311.6143     30.2896
   547.2500    117.0766      0.0000    333.0780     29.4501
   547.5000    120.9496      0.0000    375.9103     28.0392
   547.7500    124.1040      0.0000    444.5688     26.1531
   548.0000    126.3623      0.0000    532.5844     24.0163
   548.2500    127.5206      0.0000    622.1510     21.8904
   548.5000    127.5878      0.0000    693.6900     19.9640
   548.7500    126.6440      0.0000    737.6793     18.2920
   549.0000    124.4591      0.0000    757.6070     16.8289
   549.2500    120.6271      0.0000    763.1654     15.5089
   549.5000    115.5771      0.0000    762.4979     14.2986
   549.7500    111.3425      0.0000    759.8776     13.1979
   550.0000    110.5679      0.0000    757.4055     12.2235
   550.2500    114.1912      0.0000    756.5190     11.3963
   550.5000    120.1742      0.0000    757.7888     10.7323
   550.7500    124.9767      0.0000    760.4812     10.2339
   551.0000    126.4000      0.0000    763.2166      9.8829
   551.2500    124.8576      0.0000    765.0740      9.6407
   551.5000    122.2303      0.0000    765.9056      9.4610
   551.7500    120.1438      0.0000    765.8453      9.3102
   552.0000    119.3212      0.0000    764.7651      9.1777
   552.2500    119.9481      0.0000    762.1995      9.0667
   552.5000    122.1161      0.0000    757.9308      8.9808
   552.7500    125.6680      0.0000    752.8932      8.9199
   553.0000    129.7393      0.0000    749.2442      8.8804
   553.2500    133.0314      0.0000    748.7861      8.8530
   553.5000    134.8430      0.0000    751.0062      8.8239
   553.7500    135.4701      0.0000    753.0477      8.7834
   554.0000    135.4836      0.0000    751.9153      8.7363
   554.2500    135.0912      0.0000    746.7515      8.6991
   554.5000    134.3191      0.0000    739.2072      8.6885
   554.7500    133.3815      0.0000    731.9277      8.7101
   555.0000    132.5279      0.0000    726.7048      8.7519
   555.2500    131.6302      0.0000    723.7907      8.7847
   555.5000    130.1772      0.0000    722.4863      8.7798
   555.7500    127.9606      0.0000    722.0106      8.7373
   556.0000    125.7318      0.0000    721.8966      8.6930
   556.2500    124.8334      0.0000    721.9849      8.6909
   556.5000    126.0742      0.0000    722.3541      8.7450
   556.7500    129.0607      0.0000    723.3365      8.8270
   557.0000    132.3690      0.0000    725.4700      8.8893
   557.2500    134.3200      0.0000    729.2040      8.8975
   557.5000    134.1906      0.0000    734.4659      8.8460
   557.7500    132.9721      0.0000    740.5014      8.7431
   558.0000    132.4266      0.0000    746.0339      8.5865
   558.2500    133.0826      0.0000    749.4294      8.3677
   558.5000    133.4134      0.0000    749.1130      8.1033
   558.7500    131.0498      0.0000    744.6348      7.8464
   559.0000    124.4844      0.0000    737.5153      7.6509
   559.2500    113.7566      0.0000    730.5547      7.5323
   559.5000    100.2801      0.0000    726.1353      7.4717
   559.7500     86.4181      0.0000    725.2274      7.4504
   560.0000     74.5778      0.0000    727.5538      7.4702
   560.2500     65.9519      0.0000    732.0543      7.5427
   560.5000     60.2006      0.0000    737.1569      7.6646
   560.7500     56.5886      0.0000    741.0758      7.8084
   561.0000     55.0843      0.0000    742.3426      7.9359
   561.2500     56.1242      0.0000    740.6918      8.0230
   561.5000     59.8081      0.0000    737.7457      8.0805
   561.7500     65.7225      0.0000    736.1972      8.1494
   562.0000     73.1255      0.0000    737.5719      8.2677
   562.2500     80.7991      0.0000    740.9584      8.4306
   562.5000     86.9493      0.0000    744.1959      8.5854
   562.7500     89.9447      0.0000    745.7611      8.6655
   563.0000     89.5721      0.0000    745.2444      8.6309
   563.2500     87.4352      0.0000    742.9035      8.4861
   563.5000     85.9537      0.0000    739.4741      8.2725
   563.7500     87.0361      0.0000    735.8098      8.0449
   564.0000     91.4255      0.0000    732.2341      7.8485
   564.2500     98.4947      0.0000    728.6720      7.7087
   564.5000    106.2549      0.0000    725.4946      7.6331
   564.7500    112.0257      0.0000    723.7622      7.6165
   565.0000    114.0533      0.0000    724.5540      7.6487
   565.2500    113.2257      0.0000    728.0900      7.7216
   565.5000    113.1188      0.0000    733.1492      7.8229
   565.7500    117.5460      0.0000    737.3454      7.9188
   566.0000    127.4836      0.0000    738.6097      7.9530
   566.2500    140.4766      0.0000    736.5651      7.8711
