~Version Information
VERS.                      2.0: CWLS Log ASCII Standard - VERSION 2.0
WRAP.                       NO: One line per depth step
~Well Information Block
STRT.FT                -8.0000: 
STOP.FT               973.2500: 
STEP.FT                 0.2500: 
NULL.                -999.2500: 
COMP.          Pioneer Natural Resources: COMPANY
WELL.              Oscar 41-31: WELL
FLD.           Purgatorie River: FIELD
LOC.           412' FNL & 1216' FEL--: LOCATION
PROV.                       CO: PROVINCE
CNTY.               Las Animas: COUNTRY
SRVC.          Patterson Wireline: SERVICE COMPANY
DATE.          Wed Mar 02 12:29:08 2005: LOG DATE
UWI.           05 071 08290 00: UNIQUE WELL ID
~Curve Information Block
DEPT.FT            0 000 00 00: Depth
CCL.                          : Casing Collar Locator
TT5.usec                      : CBL 5' Travel Time
AMP3.mV                       : CBL 3' Amplitude
GR.GAPI                       : Gamma Ray
~Parameter Information Block
~A  Depth       CCL         TT5         AMP3         GR     
    -8.0000   -999.2500   -999.2500   -999.2500   -999.2500
    -7.7500   -999.2500   -999.2500   -999.2500     90.6942
    -7.5000   -999.2500   -999.2500   -999.2500     92.1009
    -7.2500   -999.2500   -999.2500   -999.2500     93.4916
    -7.0000   -999.2500   -999.2500   -999.2500     94.0152
    -6.7500   -999.2500   -999.2500   -999.2500     93.0878
    -6.5000   -999.2500   -999.2500   -999.2500     90.8413
    -6.2500   -999.2500   -999.2500   -999.2500     88.1534
    -6.0000   -999.2500   -999.2500   -999.2500     86.1325
    -5.7500   -999.2500   -999.2500   -999.2500     85.1232
    -5.5000   -999.2500   1200.0000   -999.2500     84.2372
    -5.2500   -999.2500   1200.0000   -999.2500     82.2847
    -5.0000   -999.2500   1200.0000   -999.2500     79.2840
    -4.7500   -999.2500   1200.0000   -999.2500     76.7125
    -4.5000   -999.2500   1200.0000   -999.2500     76.1103
    -4.2500   -999.2500   1200.0000   -999.2500     77.6926
    -4.0000   -999.2500   1200.0000   -999.2500     80.5150
    -3.7500   -999.2500   1200.0000   -999.2500     83.7034
    -3.5000   -999.2500   1200.0000   -999.2500     87.1113
    -3.2500   -999.2500   1200.0000   -999.2500     90.8184
    -3.0000   -999.2500   1200.0000   -999.2500     94.3777
    -2.7500   -999.2500   1200.0000   -999.2500     96.8018
    -2.5000   -999.2500   1200.0000      1.2535     97.2105
    -2.2500   -999.2500   1200.0000      1.2475     95.4413
    -2.0000   -999.2500   1200.0000      1.2406     92.3615
    -1.7500   -999.2500   1200.0000      1.2346     89.6588
    -1.5000   -999.2500   1200.0000      1.2307     88.6519
    -1.2500   -999.2500   1200.0000      1.2284     88.8412
    -1.0000   -999.2500   1200.0000      1.2276     88.1491
    -0.7500   -999.2500   1200.0000      1.2284     84.9772
    -0.5000   -999.2500   1200.0000      1.2277     79.6237
    -0.2500   -999.2500   1200.0000      1.2229     73.5122
     0.0000   -999.2500   1200.0000      1.2178     67.6653
     0.2500   -999.2500   1200.0000      1.2170     62.3652
     0.5000   -999.2500   1200.0000      1.2095     57.7827
     0.7500   -999.2500   1200.0000      1.2004     54.1219
     1.0000   -999.2500   1200.0000      1.2029     51.0715
     1.2500   -999.2500   1200.0000      1.2220     47.7281
     1.5000   -999.2500   1200.0000      1.2460     43.4400
     1.7500   -999.2500   1200.0000      1.2604     38.6355
     2.0000   -999.2500   1200.0000      1.2645     34.6718
     2.2500   -999.2500   1200.0000      1.2676     32.8533
     2.5000   -999.2500   1200.0000      1.2739     33.6531
     2.7500      0.0000   1200.0000      1.2787     36.7730
     3.0000      0.0000   1200.0000      1.2779     41.5628
     3.2500      0.0000   1200.0000      1.2734     47.0894
     3.5000      0.0000   1200.0000      1.2683     52.1123
     3.7500      0.0000   1200.0000      1.2636     55.6324
     4.0000      0.0000   1200.0000      1.2595     57.6223
     4.2500      0.0000   1200.0000      1.2569     58.8607
     4.5000      0.0000   1200.0000      1.2630     59.8675
     4.7500      0.0000   1200.0000      1.3179     60.2563
     5.0000      0.0000   1200.0000      1.5572     59.4548
     5.2500      0.0000   1200.0000      2.2992     57.8909
     5.5000      0.0000   1200.0000      4.0471     56.9156
     5.7500      0.0000   1200.0000      7.2140     57.4766
     6.0000      0.0000   1200.0000     11.6060     59.2889
     6.2500      0.0000   1200.0000     16.1775     61.3033
     6.5000      0.0000   1200.0000     19.5464     62.6024
     6.7500      0.0000   1200.0000     20.9011     62.9330
     7.0000      0.0000   1200.0000     20.3973     62.7259
     7.2500      0.0000   1200.0000     18.7748     62.5641
     7.5000      0.0000   1200.0000     16.7623     62.4920
     7.7500      0.0000   1200.0000     14.7890     62.0349
     8.0000      0.0000   1200.0000     13.0124     60.8915
     8.2500      0.0000   1200.0000     11.4491     59.2416
     8.5000      0.0000   1200.0000     10.0786     57.3428
     8.7500      0.0000   1200.0000      8.9008     55.2388
     9.0000      0.0000   1200.0000      7.9462     53.0171
     9.2500      0.0000   1200.0000      7.2471     51.0895
     9.5000      0.0000   1200.0000      6.7980     50.0717
     9.7500      0.0000   1200.0000      6.5471     50.3802
    10.0000      0.0000   1200.0000      6.4240     51.8084
    10.2500      0.0000   1200.0000      6.3688     53.4525
    10.5000      0.0000   1200.0000      6.3451     54.3097
    10.7500      0.0000   1200.0000      6.3389     54.1082
    11.0000      0.0000   1200.0000      6.3515     53.5057
    11.2500      0.0000   1200.0000      6.3842     53.5961
    11.5000      0.0000   1200.0000      6.4246     55.2374
    11.7500      0.0000   1200.0000      6.4537     58.5644
    12.0000      0.0000   1200.0000      6.4652     62.9986
    12.2500      0.0000   1200.0000      6.4704     67.7878
    12.5000      0.0000   1200.0000      6.4801     72.4450
    12.7500      0.0000   1200.0000      6.4896     76.6246
    13.0000      0.0000   1200.0000      6.4851     79.8018
    13.2500      0.0000   1200.0000      6.4591     81.3949
    13.5000      0.0000   1200.0000      6.4135     81.3558
    13.7500      0.0000   1200.0000      6.3461     80.4871
    14.0000      0.0000   1200.0000      6.2439     79.8691
    14.2500      0.0000   1200.0000      6.0905     80.0144
    14.5000      0.0000   1200.0000      5.8753     80.8956
    14.7500      0.0000   1200.0000      5.5999     82.4889
    15.0000      0.0000   1200.0000      5.2964     84.5339
    15.2500      0.0000   1200.0000      5.0374     85.8897
    15.5000      0.0000   1200.0000      4.9010     84.9670
    15.7500      0.0000   1200.0000      4.9060     81.1399
    16.0000      0.0000   1200.0000      4.9919     75.5639
    16.2500     -2.0000   1200.0000      5.0678     70.6758
    16.5000      0.0000   1200.0000      5.0776     68.9087
    16.7500      0.0000   1200.0000      5.0294     71.3948
    17.0000      0.0000   1200.0000      4.9845     77.4615
    17.2500      0.0000   1200.0000      5.0194     85.3671
    17.5000      0.0000   1200.0000      5.1735     93.3930
    17.7500      0.0000   1200.0000      5.4185    100.1153
    18.0000      0.0000   1200.0000      5.6884    104.2628
    18.2500      0.0000   1200.0000      5.9385    105.1308
    18.5000      0.0000   1200.0000      6.1622    102.9912
    18.7500      0.0000   1200.0000      6.3631     98.5843
    19.0000      0.0000   1200.0000      6.5305     92.4782
    19.2500      0.0000   1200.0000      6.6437     85.3360
    19.5000      0.0000   1200.0000      6.6881     78.4356
    19.7500      0.0000   1200.0000      6.6686     73.3245
    20.0000      0.0000   1200.0000      6.6116     70.9020
    20.2500      0.0000   1200.0000      6.5530     71.0811
    20.5000      0.0000   1200.0000      6.5161     73.2340
    20.7500      0.0000   1200.0000      6.5022     76.5971
    21.0000      0.0000   1200.0000      6.4982     80.2149
    21.2500      0.0000   1200.0000      6.4900     83.0214
    21.5000      0.0000   1200.0000      6.4729     84.4863
    21.7500      0.0000   1200.0000      6.4540     85.0998
    22.0000      0.0000   1200.0000      6.4421     85.9192
    22.2500      0.0000   1200.0000      6.4372     87.5251
    22.5000      0.0000   1200.0000      6.4335     89.4971
    22.7500      0.0000   1200.0000      6.4330     91.0603
    23.0000      0.0000   1200.0000      6.4452     92.1108
    23.2500      0.0000   1200.0000      6.4739     93.1844
    23.5000      0.0000   1200.0000      6.5092     94.4743
    23.7500      0.0000   1200.0000      6.5335     95.4672
    24.0000      0.0000   1200.0000      6.5347     95.5904
    24.2500      0.0000   1200.0000      6.5146     94.7511
    24.5000      0.0000   1200.0000      6.4869     93.2002
    24.7500      0.0000   1200.0000      6.4671     91.2451
    25.0000      0.0000   1200.0000      6.4642     89.2504
    25.2500      0.0000   1200.0000      6.4799     87.9894
