~Version Information
VERS.                      2.0: CWLS Log ASCII Standard - VERSION 2.0
WRAP.                       NO: One line per depth step
~Well Information Block
STRT.FT               964.2000: 
STOP.FT              2596.7000: 
STEP.FT                 0.1000: 
NULL.                -999.2500: 
COMP.          Petrogulf Corporation: COMPANY
WELL.             Valejo 8-12V: WELL
FLD.           Purgatorie River: FIELD
LOC.           1510' FNL & 1460' FWL: LOCATION
CNTY.               Las Animas: COUNTY
SRVC.                         : SERVICE COMPANY
DATE.          Sat Nov 15 12:30:37 2003: LOG DATE
UWI.                          : UNIQUE WELL ID
STAT.                 Colorado: STATE
~Curve Information Block
DEPT.FT            0 000 00 00: Depth
DCAL.in                       : CDL Caliper
RHOB.g/cc                     : CDL Bulk Density
RHOC.g/cc                     : CDL Density Correction
DPOR.pu                       : CDL Density Porosity
GR.GAPI                       : Gamma Ray
NPOR.pu                       : Neutron Porosity
~Parameter Information Block
~A  Depth       DCAL        RHOB        RHOC        DPOR         GR         NPOR    
# ...
  1732.2000      8.1855      2.4941      0.0495      9.4469    102.9131     32.5666
  1732.3000      8.1856      2.4942      0.0742      9.4417    112.7418     31.9724
  1732.4000      8.1856      2.4829      0.0951     10.1259    124.7892     30.9987
  1732.5000      8.1849      2.4489      0.0730     12.1866    132.8003     31.0071
  1732.6000      8.1849      2.4072      0.0308     14.7132    132.7438     32.0680
  1732.7000      8.1849      2.3772      0.0354     16.5353    128.0542     33.1630
  1732.8000      8.1826      2.3596      0.0356     17.5996    125.7958     33.7348
  1732.9000      8.1826      2.3433      0.0524     18.5861    129.0034     34.4230
  1733.0000      8.1787      2.3170      0.0769     20.1795    132.9927     34.7174
  1733.1000      8.1787      2.2817      0.0347     22.3218    133.4554     33.9936
  1733.2000      8.1787      2.2510      0.0646     24.1830    132.0998     33.1478
  1733.3000      8.1741      2.2373      0.0394     25.0135    133.3464     32.5180
  1733.4000      8.1741      2.2419      0.0918     24.7326    137.5818     32.3821
  1733.5000      8.1708      2.2503      0.1172     24.2236    137.9975     33.0182
  1733.6000      8.1708      2.2514      0.1091     24.1578    130.4201     32.6455
  1733.7000      8.1708      2.2611      0.0813     23.5676    121.8468     29.8901
  1733.8000      8.1705      2.3061      0.1023     20.8408    122.2795     26.6249
  1733.9000      8.1705      2.3855      0.2151     16.0294    131.5299     24.7553
  1734.0000      8.1732      2.4665      0.2529     11.1198    143.5617     23.5660
  1734.1000      8.1732      2.5196      0.2408      7.9040    150.1276     22.2407
  1734.2000      8.1732      2.5384      0.2491      6.7653    142.9324     21.1581
  1734.3000      8.1769      2.5310      0.2058      7.2112    129.3709     20.5264
  1734.4000      8.1769      2.5093      0.1598      8.5287    122.2556     20.4083
  1734.5000      8.1797      2.4901      0.0611      9.6924    120.6372     20.4584
  1734.6000      8.1797      2.4907      0.0393      9.6569    119.9161     20.1669
  1734.7000      8.1797      2.5047      0.0528      8.8031    117.2139     19.9627
  1734.8000      8.1812      2.5139      0.0395      8.2474    113.7394     20.3709
  1734.9000      8.1812      2.5163      0.0300      8.1050    112.9217     20.8000
  1735.0000      8.1822      2.5196      0.0196      7.9034    112.8470     20.3525
  1735.1000      8.1822      2.5325      0.0364      7.1195    107.9917     19.8005
  1735.2000      8.1822      2.5514      0.0624      5.9763    101.0073     20.0653
  1735.3000      8.1838      2.5589      0.0740      5.5224     99.4449     20.0740
  1735.4000      8.1838      2.5486      0.0872      6.1476    103.0275     19.6025
  1735.5000      8.1861      2.5341      0.0446      7.0263    106.8414     20.0358
  1735.6000      8.1861      2.5324      0.0544      7.1252    108.2597     21.3816
  1735.7000      8.1861      2.5445      0.0654      6.3916    107.4283     22.6207
  1735.8000      8.1886      2.5622      0.0723      5.3190    108.7513     23.4323
  1735.9000      8.1886      2.5777      0.0790      4.3806    114.8238     23.4906
  1736.0000      8.1906      2.5850      0.0773      3.9400    120.7403     22.2936
  1736.1000      8.1906      2.5859      0.0916      3.8849    119.9708     20.3407
  1736.2000      8.1906      2.5892      0.0789      3.6825    113.1103     18.3948
  1736.3000      8.1915      2.5982      0.0999      3.1416    107.4518     16.8866
  1736.4000      8.1915      2.6006      0.1191      2.9951    105.0283     16.5118
  1736.5000      8.1915      2.5867      0.1178      3.8334    101.3842     16.9965
  1736.6000      8.1915      2.5682      0.0821      4.9567     93.5082     16.6393
  1736.7000      8.1915      2.5614      0.0616      5.3691     83.5139     15.5441
  1736.8000      8.1914      2.5635      0.0619      5.2421     78.1032     15.5080
  1736.9000      8.1914      2.5616      0.0736      5.3576     81.1894     16.6425
  1737.0000      8.1919      2.5591      0.0610      5.5120     89.1283     17.9558
  1737.1000      8.1919      2.5667      0.0524      5.0491     95.5847     18.8946
  1737.2000      8.1919      2.5798      0.0868      4.2564     97.9400     19.1707
  1737.3000      8.1932      2.5906      0.0361      3.5973     95.5528     18.9962
  1737.4000      8.1932      2.6042      0.0755      2.7734     91.4727     19.4155
  1737.5000      8.1943      2.6157      0.1165      2.0761     91.8531     20.7533
  1737.6000      8.1943      2.6135      0.0754      2.2146     94.8564     21.9936
  1737.7000      8.1943      2.6002      0.0806      3.0156     95.5470     22.2614
  1737.8000      8.1941      2.5819      0.0684      4.1261     95.0547     21.8053
  1737.9000      8.1941      2.5641      0.0322      5.2055     94.2815     21.7458
  1738.0000      8.1925      2.5554      0.0556      5.7352     93.8257     23.2325
  1738.1000      8.1925      2.5598      0.0423      5.4646     95.5155     24.8079
  1738.2000      8.1925      2.5759      0.0688      4.4939     96.1159     24.0051
  1738.3000      8.1902      2.5927      0.0741      3.4749     91.9196     21.6211
  1738.4000      8.1902      2.5977      0.0836      3.1703     85.8559     19.8429
  1738.5000      8.1885      2.5895      0.0545      3.6696     84.3119     19.5750
  1738.6000      8.1885      2.5795      0.0595      4.2721     88.1814     20.1622
  1738.7000      8.1885      2.5819      0.0466      4.1297     92.8756     19.5573
  1738.8000      8.1878      2.5930      0.0798      3.4552     99.7031     17.9172
  1738.9000      8.1878      2.5941      0.0830      3.3881    108.2334     17.6318
  1739.0000      8.1882      2.5801      0.0470      4.2337    112.3517     19.3667
  1739.1000      8.1882      2.5616      0.0497      5.3576    111.5200     22.0548
  1739.2000      8.1882      2.5410      0.0218      6.6089    108.0644     24.7351
  1739.3000      8.1892      2.5166      0.0327      8.0866    104.2392     25.8983
  1739.4000      8.1892      2.5001     -0.0123      9.0820    102.6865     24.8306
  1739.5000      8.1902      2.5050      0.0200      8.7890    102.7817     23.8168
  1739.6000      8.1902      2.5211      0.0549      7.8143    101.7631     24.3300
  1739.7000      8.1902      2.5316      0.0352      7.1754    100.2682     24.8892
  1739.8000      8.1908      2.5302      0.0658      7.2613    102.2837     25.1846
  1739.9000      8.1908      2.5175      0.0429      8.0297    109.3274     26.0150
  1740.0000      8.1907      2.5004      0.0569      9.0650    119.2270     26.7257
  1740.1000      8.1907      2.4798      0.0709     10.3168    127.6145     27.0281
  1740.2000      8.1907      2.4550      0.0315     11.8173    132.9352     27.4716
  1740.3000      8.1902      2.4333      0.0596     13.1346    135.2341     27.5184
  1740.4000      8.1902      2.4201      0.0315     13.9316    131.9168     26.6927
  1740.5000      8.1901      2.4194      0.0311     13.9740    122.9315     25.3733
  1740.6000      8.1901      2.4314      0.0377     13.2479    113.5890     24.1634
  1740.7000      8.1901      2.4519      0.0396     12.0085    108.6029     23.9837
  1740.8000      8.1910      2.4697      0.0893     10.9251    107.0499     25.5547
  1740.9000      8.1910      2.4756      0.0523     10.5691    106.8778     28.1970
  1741.0000      8.1925      2.4758      0.0691     10.5587    109.9698     29.9597
  1741.1000      8.1925      2.4756      0.0532     10.5726    117.3907     30.3145
  1741.2000      8.1925      2.4713      0.0499     10.8282    127.4757     30.3506
  1741.3000      8.1939      2.4667      0.0504     11.1098    136.5729     30.7168
  1741.4000      8.1939      2.4680      0.0893     11.0317    139.6620     31.1911
  1741.5000      8.1939      2.4713      0.1289     10.8322    137.0734     30.2839
  1741.6000      8.1939      2.4720      0.0799     10.7904    135.6194     27.4805
  1741.7000      8.1939      2.4723      0.0601     10.7687    136.6602     24.5641
