~Version Information
VERS.                      2.0: CWLS Log ASCII Standard - VERSION 2.0
WRAP.                       NO: One line per depth step
~Well Information Block
STRT.FT               675.0000: 
STOP.FT              2371.5000: 
STEP.FT                 0.1000: 
NULL.                -999.2500: 
COMP.          Pioneer Natural Resources: COMPANY
WELL.            Harrier 44-33: WELL
FLD.           Purgatoire River: FIELD
LOC.           456' FSL & 930' FEL: LOCATION
PROV.                 Colorado: PROVINCE
CNTY.               Las Animas: COUNTRY
SRVC.                Patterson: SERVICE COMPANY
DATE.          Mon Jun 20 10:36:59 2005: LOG DATE
UWI.           05 071 08398 00: UNIQUE WELL ID
~Curve Information Block
DEPT.FT            0 000 00 00: Depth
DCAL.in                       : CDL Caliper
RHOB.g/cc                     : CDL Bulk Density
RHOC.g/cc                     : CDL Density Correction
DPOR.pu                       : CDL Density Porosity
GR.GAPI                       : Gamma Ray
NPOR.pu                       : Neutron Porosity
~Parameter Information Block
~A  Depth       DCAL        RHOB        RHOC        DPOR         GR         NPOR    
# ...
  2355.0000      7.7908      2.4077      0.0408     14.6875   -999.2500     20.6796
  2355.1000      7.7908      2.4130      0.0683     14.3631   -999.2500     20.8341
  2355.2000      7.7908      2.4286      0.0336     13.4198   -999.2500     22.0268
  2355.3000      7.7900      2.4443      0.0626     12.4665   -999.2500     22.8393
  2355.4000      7.7900      2.4495      0.1010     12.1487   -999.2500     23.0198
  2355.5000      7.8725      2.4565      0.0789     11.7290   -999.2500     22.6924
  2355.6000      7.8725      2.4805      0.1329     10.2753   -999.2500     21.1415
  2355.7000      7.8725      2.5047      0.1595      8.8051   -999.2500     18.4726
  2355.8000      7.8893      2.5087      0.1177      8.5634   -999.2500     15.9696
  2355.9000      7.8893      2.4904      0.1965      9.6745   -999.2500     14.6226
  2356.0000      7.8785      2.4573      0.1091     11.6798   -999.2500     14.6608
  2356.1000      7.8785      2.4372      0.0927     12.8997   -999.2500     15.8619
  2356.2000      7.8785      2.4523      0.1129     11.9816   -999.2500     17.5511
  2356.3000      7.8658      2.4922      0.1236      9.5664   -999.2500     18.5911
  2356.4000      7.8658      2.5334      0.1746      7.0690   -999.2500     18.9027
  2356.5000      7.8379      2.5624      0.1474      5.3066   -999.2500     19.4595
  2356.6000      7.8379      2.5794      0.1773      4.2796   -999.2500     21.9684
  2356.7000      7.8379      2.5849      0.1551      3.9452   -999.2500     29.4971
  2356.8000      7.8413      2.5702      0.1346      4.8356   -999.2500     40.8626
  2356.9000      7.8413      2.5325      0.1015      7.1242   -999.2500     48.7795
  2357.0000      7.8515      2.4905      0.0536      9.6682   -999.2500     51.5537
  2357.1000      7.8515      2.4613      0.0459     11.4370   -999.2500     52.0895
  2357.2000      7.8515      2.4436      0.0369     12.5090   -999.2500     52.1460
  2357.3000      7.8698      2.4366      0.0345     12.9305   -999.2500     52.1492
  2357.4000      7.8698      2.4446      0.0875     12.4464   -999.2500   -999.2500
  2357.5000      7.9278      2.4662      0.0519     11.1372   -999.2500   -999.2500
  2357.6000      7.9278      2.4857      0.1279      9.9559   -999.2500   -999.2500
  2357.7000      7.9278      2.4834      0.0980     10.0958   -999.2500   -999.2500
  2357.8000      7.9415      2.4639      0.0654     11.2788   -999.2500   -999.2500
  2357.9000      7.9415      2.4469      0.0581     12.3108   -999.2500   -999.2500
  2358.0000      7.8705      2.4361      0.0297     12.9657   -999.2500   -999.2500
  2358.1000      7.8705      2.4252      0.0533     13.6265   -999.2500   -999.2500
  2358.2000      7.8705      2.4169      0.0528     14.1281   -999.2500   -999.2500
  2358.3000      7.8636      2.4157      0.0679     14.2020   -999.2500   -999.2500
  2358.4000      7.8636      2.4257      0.0392     13.5968   -999.2500   -999.2500
  2358.5000      7.8396      2.4540      0.0491     11.8815   -999.2500   -999.2500
  2358.6000      7.8396      2.4880      0.1361      9.8196   -999.2500   -999.2500
  2358.7000      7.8396      2.4980      0.1264      9.2146   -999.2500   -999.2500
  2358.8000      7.8407      2.4812      0.0896     10.2297   -999.2500   -999.2500
  2358.9000      7.8407      2.4551      0.1173     11.8129   -999.2500   -999.2500
  2359.0000      7.8492      2.4249      0.0889     13.6447   -999.2500   -999.2500
  2359.1000      7.8492      2.3989      0.0563     15.2210   -999.2500   -999.2500
  2359.2000      7.8492      2.3928      0.0487     15.5890   -999.2500   -999.2500
  2359.3000      7.8440      2.4106      0.0416     14.5066   -999.2500   -999.2500
  2359.4000      7.8440      2.4458      0.0722     12.3771   -999.2500   -999.2500
  2359.5000      7.8416      2.4812      0.1317     10.2324   -999.2500   -999.2500
  2359.6000      7.8416      2.4994      0.0973      9.1246   -999.2500   -999.2500
  2359.7000      7.8416      2.5053      0.0745      8.7667   -999.2500   -999.2500
  2359.8000      7.8434      2.5048      0.1075      8.8005   -999.2500   -999.2500
  2359.9000      7.8434      2.4829      0.1108     10.1250   -999.2500   -999.2500
  2360.0000      7.8418      2.4407      0.0811     12.6848   -999.2500   -999.2500
  2360.1000      7.8418      2.4035      0.0200     14.9420   -999.2500   -999.2500
  2360.2000      7.8418      2.3816      0.0403     16.2673   -999.2500   -999.2500
  2360.3000      7.8489      2.3688      0.0075     17.0400   -999.2500   -999.2500
  2360.4000      7.8489      2.3680      0.0118     17.0909   -999.2500   -999.2500
  2360.5000      7.8576      2.3881      0.0569     15.8710   -999.2500   -999.2500
  2360.6000      7.8576      2.4239      0.0923     13.7037   -999.2500   -999.2500
  2360.7000      7.8576      2.4550      0.1049     11.8185   -999.2500   -999.2500
  2360.8000      7.8657      2.4708      0.0974     10.8629   -999.2500   -999.2500
  2360.9000      7.8657      2.4719      0.1744     10.7930   -999.2500   -999.2500
  2361.0000      7.8739      2.4556      0.1503     11.7806   -999.2500   -999.2500
  2361.1000      7.8739      2.4318      0.1280     13.2250   -999.2500   -999.2500
  2361.2000      7.8739      2.4203      0.1194     13.9224   -999.2500   -999.2500
  2361.3000      7.8716      2.4260      0.0946     13.5734   -999.2500   -999.2500
  2361.4000      7.8716      2.4477      0.0457     12.2593   -999.2500   -999.2500
  2361.5000      7.8578      2.4860      0.0872      9.9400   -999.2500   -999.2500
  2361.6000      7.8578      2.5213      0.1594      7.7978   -999.2500   -999.2500
  2361.7000      7.8578      2.5262      0.1687      7.5044   -999.2500   -999.2500
  2361.8000      7.8549      2.5054      0.0912      8.7631   -999.2500   -999.2500
  2361.9000      7.8549      2.4790      0.1149     10.3615   -999.2500   -999.2500
  2362.0000      7.8510      2.4485      0.1056     12.2123   -999.2500   -999.2500
  2362.1000      7.8510      2.4140      0.0343     14.3058   -999.2500   -999.2500
  2362.2000      7.8510      2.3836      0.0715     16.1456   -999.2500   -999.2500
  2362.3000      7.8527      2.3616      0.0151     17.4792   -999.2500   -999.2500
  2362.4000      7.8527      2.3598     -0.0247     17.5868   -999.2500   -999.2500
  2362.5000      7.8494      2.3978     -0.0096     15.2840   -999.2500   -999.2500
  2362.6000      7.8494      2.4640      0.0930     11.2748   -999.2500   -999.2500
  2362.7000      7.8494      2.5072      0.1548      8.6545   -999.2500   -999.2500
  2362.8000      7.8489      2.5003      0.0916      9.0707   -999.2500   -999.2500
  2362.9000      7.8489      2.4753      0.0600     10.5862   -999.2500   -999.2500
  2363.0000      7.8454      2.4719      0.0563     10.7913   -999.2500   -999.2500
  2363.1000      7.8454      2.4880      0.1231      9.8169   -999.2500   -999.2500
  2363.2000      7.8454      2.4968      0.1434      9.2822   -999.2500   -999.2500
  2363.3000      7.8455      2.4912      0.1098      9.6262   -999.2500   -999.2500
  2363.4000      7.8455      2.4865      0.0863      9.9104   -999.2500   -999.2500
  2363.5000      7.8385      2.4866      0.1418      9.9028   -999.2500   -999.2500
  2363.6000      7.8385      2.4745      0.1455     10.6345   -999.2500   -999.2500
  2363.7000      7.8385      2.4511      0.0123     12.0534   -999.2500   -999.2500
  2363.8000      7.8492      2.4357      0.0623     12.9855   -999.2500   -999.2500
  2363.9000      7.8492      2.4374     -0.0076     12.8840   -999.2500   -999.2500
  2364.0000      7.8275      2.4582      0.0548     11.6237   -999.2500   -999.2500
  2364.1000      7.8275      2.4836      0.0843     10.0839   -999.2500   -999.2500
  2364.2000      7.8275      2.4899      0.0835      9.7025   -999.2500   -999.2500
  2364.3000      7.8399      2.4763      0.0597     10.5295   -999.2500   -999.2500
  2364.4000      7.8399      2.4624      0.0601     11.3697   -999.2500   -999.2500
  2364.5000      7.8483      2.4594      0.0766     11.5506   -999.2500   -999.2500
