~Version Information
VERS.                      2.0: CWLS Log ASCII Standard - VERSION 2.0
WRAP.                       NO: One line per depth step
~Well Information Block
STRT.FT               250.0000: 
STOP.FT               894.7500: 
STEP.FT                 0.2500: 
NULL.                -999.2500: 
COMP.          Pioneer Natural Resources: COMPANY
WELL.          Santisteven 13-22: WELL
FLD.           Purgatoire River: FIELD
LOC.           1861' FSL & 992' FWL----: LOCATION
PROV.                 Colorado: PROVINCE
CNTY.               Las Animas: COUNTRY
SRVC.                Patterson: SERVICE COMPANY
DATE.          Sat Apr 02 14:49:07 2005: LOG DATE
UWI.           05 071 08337 00: UNIQUE WELL ID
~Curve Information Block
DEPT.FT            0 000 00 00: Depth
SN.Ohm-m                      : IEL Short Normal
SP.mV                         : IEL Spontaneous Potential
DIR.Ohm-m                     : IEL Induction Resistivity
GR.GAPI                       : Gamma Ray
~Parameter Information Block
~A  Depth        SN          SP         DIR          GR     
# ...
   819.5000    458.5804     26.1257     23.9589    131.9533
   819.7500    532.8123     26.1183     23.7550    134.6167
   820.0000    590.1573     26.1113     23.5326    138.9450
   820.2500    624.8271     26.1048     23.2916    141.4172
   820.5000    641.7638     26.0987     23.0272    144.3052
   820.7500    648.7455     26.0928     22.7311    145.6979
   821.0000    651.2488     26.0869     22.3936    146.5471
   821.2500    651.6550     26.0811     22.0096    146.0769
   821.5000    650.0117     26.0755     21.5841    144.3784
   821.7500    644.4120     26.0702     21.1359    143.3524
   822.0000    631.6212     26.0658     20.6945    143.0051
   822.2500    609.5413     26.0627     20.2925    143.4982
   822.5000    581.1300     26.0611     19.9546    144.1077
   822.7500    555.3895     26.0611     19.6908    143.7683
   823.0000    542.0427     26.0627     19.4945    142.3497
   823.2500    544.4460     26.0655     19.3467    141.5191
   823.5000    558.8672     26.0693     19.2267    141.0469
   823.7500    579.6128     26.0737     19.1204    140.7478
   824.0000    602.2049     26.0784     19.0237    139.0033
   824.2500    622.6778     26.0836     18.9386    136.8031
   824.5000    637.6114     26.0894     18.8668    133.0222
   824.7500    645.8680     26.0960     18.8060    131.1424
   825.0000    648.9542     26.1035     18.7507    130.5262
   825.2500    649.4485     26.1120     18.6964    131.6925
   825.5000    649.4375     26.1214     18.6432    134.7576
   825.7500    649.8914     26.1311     18.5968    136.7873
   826.0000    650.7947     26.1403     18.5643    139.1023
   826.2500    651.7036     26.1484     18.5497    140.3094
   826.5000    652.3141     26.1543     18.5522    141.7615
   826.7500    652.6088     26.1574     18.5695    142.2059
   827.0000    652.7147     26.1576     18.6018    141.6537
   827.2500    652.7434     26.1551     18.6523    140.6078
   827.5000    652.7494     26.1504     18.7238    138.7173
   827.7500    652.7505     26.1444     18.8154    137.6640
   828.0000    652.7505     26.1382     18.9219    136.8116
   828.2500    652.7505     26.1325     19.0348    136.6132
   828.5000    652.7505     26.1280     19.1429    136.2051
   828.7500    652.7505     26.1248     19.2347    135.6846
   829.0000    652.7505     26.1232     19.3029    135.0313
   829.2500    652.7489     26.1229     19.3493    134.9563
   829.5000    652.7403     26.1239     19.3808    135.0056
   829.7500    652.6986     26.1256     19.3992    134.8160
   830.0000    652.5452     26.1277     19.3937    134.5306
   830.2500    652.1183     26.1298     19.3465    134.8274
   830.5000    651.2339     26.1315     19.2481    135.9737
   830.7500    649.9171     26.1328     19.1076    136.5239
   831.0000    648.6279     26.1335     18.9473    135.7072
   831.2500    648.0790     26.1340     18.7899    133.7240
   831.5000    648.6279     26.1346     18.6470    129.1168
   831.7500    649.9171     26.1356     18.5173    125.9264
   832.0000    651.2339     26.1375     18.3930    123.0966
   832.2500    652.1183     26.1404     18.2684    123.2542
   832.5000    652.5285     26.1442     18.1454    126.0410
   832.7500    652.5876     26.1487     18.0311    128.6615
   833.0000    652.1691     26.1536     17.9303    132.4918
   833.2500    650.4636     26.1584     17.8403    134.7037
   833.5000    645.5916     26.1625     17.7549    137.1708
   833.7500    635.1489     26.1657     17.6724    138.0120
   834.0000    618.6533     26.1675     17.5982    138.2866
   834.2500    600.4272     26.1679     17.5412    138.4466
   834.5000    588.6818     26.1666     17.5061    139.5523
   834.7500    589.5837     26.1637     17.4925    140.6550
   835.0000    602.1161     26.1594     17.4994    141.5308
   835.2500    619.4737     26.1541     17.5286    141.0574
   835.5000    634.7407     26.1484     17.5839    139.2450
   835.7500    644.7308     26.1430     17.6657    138.2220
   836.0000    649.8250     26.1385     17.7686    138.4074
   836.2500    651.8712     26.1356     17.8814    139.8213
   836.5000    652.5109     26.1343     17.9915    142.7758
   836.7500    652.6615     26.1348     18.0882    144.3443
   837.0000    652.6854     26.1368     18.1675    144.9238
   837.2500    652.6978     26.1401     18.2324    143.9237
   837.5000    652.7142     26.1446     18.2905    140.7811
   837.7500    652.7311     26.1503     18.3460    138.2015
   838.0000    652.7424     26.1569     18.3939    134.8410
   838.2500    652.7479     26.1645     18.4210    133.4623
   838.5000    652.7498     26.1725     18.4149    132.8500
   838.7500    652.7504     26.1806     18.3744    133.0510
   839.0000    652.7505     26.1879     18.3107    133.3978
   839.2500    652.7505     26.1939     18.2419    133.5470
   839.5000    652.7505     26.1983     18.1832    134.4803
   839.7500    652.7505     26.2010     18.1381    136.0669
   840.0000    652.7505     26.2025     18.0924    139.2891
   840.2500    652.7505     26.2035     18.0148    140.8113
   840.5000    652.7505     26.2047     17.8636    140.2132
   840.7500    652.7505     26.2067     17.5992    137.6046
   841.0000    652.7505     26.2100     17.1981    131.7052
   841.2500    652.7505     26.2146     16.6629    127.9806
   841.5000    652.7505     26.2202     16.0248    125.4989
   841.7500    652.7505     26.2264     15.3365    126.8812
   842.0000    652.7505     26.2330     14.6554    133.1045
   842.2500    652.7505     26.2397     14.0272    138.7545
   842.5000    652.7505     26.2466     13.4767    146.7857
   842.7500    652.7505     26.2539     13.0082    150.5087
   843.0000    652.7505     26.2618     12.6120    152.1669
   843.2500    652.7505     26.2704     12.2742    150.4752
   843.5000    652.7505     26.2797     11.9847    144.9997
   843.7500    652.7505     26.2893     11.7426    140.8436
   844.0000    652.7505     26.2986     11.5554    136.1819
   844.2500    652.7505     26.3072     11.4334    134.6287
   844.5000    652.7505     26.3146     11.3831    133.7242
   844.7500    652.7505     26.3205     11.4020    132.9975
   845.0000    652.7436     26.3248     11.4793    130.2864
   845.2500    652.6893     26.3274     11.5996    127.3280
   845.5000    652.4165     26.3282     11.7502    122.4845
   845.7500    651.2830     26.3272     11.9242    120.1026
   846.0000    647.6271     26.3245     12.1193    119.0060
   846.2500    638.3244     26.3199     12.3356    119.8581
   846.5000    619.3383     26.3135     12.5746    122.3065
   846.7500    587.2186     26.3055     12.8413    123.7529
   847.0000    539.6731     26.2961     13.1471    124.3843
   847.2500    474.6649     26.2857     13.5123    123.5803
   847.5000    391.8173     26.2750     13.9674    120.7591
   847.7500    297.6660     26.2647     14.5484    117.7972
   848.0000    207.2757     26.2554     15.2876    111.4565
   848.2500    136.2424     26.2478     16.1962    106.0815
   848.5000     90.7178     26.2424     17.2468     97.2845
   848.7500     66.2487     26.2395     18.3638     91.5946
   849.0000     54.2977     26.2388     19.4316     84.1209
   849.2500     48.0988     26.2402     20.3290     80.3098
   849.5000     44.1024     26.2429     20.9786     77.5126
   849.7500     40.9025     26.2464     21.3753     78.1806
   850.0000     38.0670     26.2500     21.5718     82.8905
   850.2500     35.5122     26.2530     21.6324     87.6830
   850.5000     33.2836     26.2548     21.5983     95.2018
   850.7500     31.4281     26.2547     21.4864     99.1487
   851.0000     29.9404     26.2526     21.3095    102.0251
   851.2500     28.7795     26.2483     21.0940    101.9590
   851.5000     27.9041     26.2421     20.8815    100.5076
   851.7500     27.2792     26.2350     20.7162     99.7428
   852.0000     26.8535     26.2279     20.6249     99.4828
   852.2500     26.5484     26.2220     20.5990     99.3703
   852.5000     26.2780     26.2181     20.5914     98.0823
   852.7500     25.9831     26.2167     20.5338     96.2867
