~Version Information
 VERS.                                  2.0 : CWLS LAS VERSION
 WRAP.                                   NO : WRAPING MODE
 SWARE .                 MController 2.5.0J : SOFTWARE VERSION
~Well Information
 WELL.                         Squeal 11-26 : WELL
 COMP.    Pioneer Natural Resources USA Inc : COMPANY
 FLD.                      Purgatoire River : FIELD
 LOC.                NW/NW Sec 26 T32S R67W : LOCATION
 DATE.                         6/13-14/2005 : DATE(S) LOGGED
 SRVC.       Blanco Geological Services LLC : SERVICE COMPANY
 STAT.                                   CO : STATE
 CNTY.                           Las Animas : COUNTY
 CTRY.                                  USA : COUNTRY
 API.                       05-071-08404-00 : API NUMBER
 STRT.FT                             285.00 : START DEPTH
 STOP.FT                            2760.00 : STOP DEPTH
 STEP.FT                               1.00 : DEPTH INCREMENT
 NULL.                                -9999 : NULL VALUE
~Curve information
 DEPTH.FT                                   :
 ROP.MIN/FT                                 :
 GAS.UNITS                                  :
~ASCII Log data
# ...
      2485.0         0.60       6042.7 
      2486.0         0.40       5975.7 
      2487.0         0.43       5958.5 
      2488.0         0.23       5869.9 
      2489.0         0.10       5807.9 
      2490.0         1.95       5793.7 
      2491.0         9.95       5299.1 
      2492.0         0.23       1383.9 
      2493.0         0.33       1510.2 
      2494.0         0.57       2003.8 
      2495.0         0.63       2833.9 
      2496.0         0.50       3386.1 
      2497.0         0.53       3691.1 
      2498.0         0.52       3735.5 
      2499.0         0.93       3702.5 
      2500.0         0.33       3422.2 
      2501.0         0.17       3285.4 
      2502.0         0.37       3241.9 
      2503.0         0.37       3058.3 
      2504.0         0.37       2774.0 
      2505.0         0.27       2502.8 
      2506.0         0.42       2266.2 
      2507.0         0.40       1567.8 
      2508.0         0.37        941.2 
      2509.0         0.53        695.2 
      2510.0         0.40        554.7 
      2511.0         0.23        498.1 
      2512.0         0.13        478.6 
      2513.0         0.17        472.2 
      2514.0         0.30        472.5 
      2515.0         0.55        490.0 
      2516.0         0.57        534.2 
      2517.0         0.63        586.1 
      2518.0         0.60        631.5 
      2519.0         0.67        630.5 
      2520.0         0.73        667.9 
      2521.0         4.37        724.2 
      2522.0         6.53       1329.6 
      2523.0         0.17       1023.4 
      2524.0         0.13        951.9 
      2525.0         0.37       1146.7 
      2526.0         0.57       1830.6 
      2527.0         0.73       1894.0 
      2528.0         0.75       1447.9 
      2529.0         0.57       1005.2 
      2530.0         0.50        903.4 
      2531.0         0.47        874.1 
      2532.0         0.37        862.3 
      2533.0         0.57        875.8 
      2534.0         0.57        930.4 
      2535.0         0.55        694.5 
      2536.0         0.53        520.4 
      2537.0         0.53        493.7 
      2538.0         0.53        471.8 
      2539.0         0.37        442.5 
      2540.0         0.23        440.0 
      2541.0         0.33         37.8 
      2542.0         0.35         48.0 
      2543.0         0.40         68.0 
      2544.0         0.30         85.7 
      2545.0         0.27         97.1 
      2546.0         0.73        118.1 
      2547.0         0.63        132.1 
      2548.0         0.57        143.0 
      2549.0         0.65        151.6 
      2550.0         0.67        151.7 
      2551.0        29.45       3945.8 
      2552.0         0.23       4660.4 
      2553.0         0.97       5375.3 
      2554.0         0.87       5323.7 
      2555.0         0.77       4942.0 
      2556.0         0.78       4771.2 
      2557.0         0.80       4931.6 
      2558.0         0.47       5192.7 
      2559.0         0.53       6031.3 
      2560.0         0.40       6363.8 
      2561.0         0.17       6249.6 
      2562.0         0.20       5746.2 
      2563.0         0.32       5088.6 
      2564.0         0.40       4223.7 
      2565.0         0.37       3050.6 
      2566.0         0.40       1903.7 
      2567.0         0.40       1161.8 
      2568.0         0.37        832.7 
      2569.0         0.37        730.9 
      2570.0         0.33        700.3 
      2571.0         0.30        696.9 
      2572.0         0.17        692.9 
      2573.0         0.45        709.4 
      2574.0         0.43        759.2 
      2575.0         0.50        802.4 
      2576.0         0.83        821.9 
      2577.0         0.80        793.6 
      2578.0         0.68        676.3 
      2579.0         0.53        738.0 
      2580.0         0.30        770.0 
      2581.0         4.45        844.8 
      2582.0         2.35        864.7 
      2583.0         0.23        571.2 
      2584.0         0.83        598.2 
      2585.0         1.02        608.6 
      2586.0         0.97        600.9 
      2587.0         0.83        583.4 
      2588.0         1.00        579.7 
      2589.0         0.98        577.6 
      2590.0         0.83        563.8 
      2591.0         0.83        575.6 
      2592.0         0.90        586.7 
      2593.0         0.68        676.7 
      2594.0         0.60        643.0 
      2595.0         0.50        470.2 
      2596.0         0.23        440.0 
      2597.0         0.20         28.0 
      2598.0         0.30         24.6 
      2599.0         0.53         23.2 
      2600.0         0.50         24.7 
      2601.0         0.48         30.0 
      2602.0         0.37         35.7 
      2603.0         0.30         49.2 
      2604.0         0.30         63.6 
      2605.0         0.20         73.9 
      2606.0         0.40         99.6 
      2607.0         0.37        124.3 
      2608.0         0.37        146.4 
      2609.0         0.30        162.0 
      2610.0         0.13        168.1 
      2611.0         0.10        172.0 
      2612.0         8.65        199.0 
      2613.0         3.92        352.4 
      2614.0         0.40        351.6 
      2615.0         1.65       1658.8 
      2616.0         1.63       3166.1 
      2617.0         0.58       3257.8 
      2618.0         1.07       3242.3 
      2619.0         1.30       2791.2 
      2620.0         1.25       2272.3 
      2621.0         1.00       1815.8 
      2622.0         0.87        750.8 
      2623.0         0.90        623.1 
      2624.0         0.95        497.8 
      2625.0         0.93        441.5 
      2626.0         1.00        111.0 
      2627.0         1.15        200.1 
      2628.0         1.53        234.4 
      2629.0         1.58        239.2 
      2630.0         0.93        220.5 
      2631.0         0.70        182.6 
      2632.0         0.67        189.5 
      2633.0         0.57        206.8 
      2634.0         0.55        220.8 
      2635.0         0.50        227.7 
      2636.0         0.50        238.1 
      2637.0         0.50        253.9 
      2638.0         0.47        279.7 
      2639.0         0.50        316.2 
      2640.0         0.75        322.3 
      2641.0         9.90        483.3 
      2642.0         3.73       2226.5 
      2643.0         0.33       1587.0 
      2644.0         0.13       1925.3 
      2645.0         0.73       4128.7 
      2646.0         0.87       5062.0 
      2647.0         0.47       5063.0 
      2648.0         0.48       4822.8 
      2649.0         0.47       4427.6 
      2650.0         0.40       4132.8 
      2651.0         0.40       4199.8 
      2652.0         0.43       4370.9 
      2653.0         0.47       4604.1 
      2654.0         0.47       4943.4 
      2655.0         0.47       5298.5 
      2656.0         0.55       5632.0 
      2657.0         0.70       6359.1 
      2658.0         0.97       6779.2 
      2659.0         0.63       5344.6 
      2660.0         0.53       1818.1 
      2661.0         0.48        853.9 
      2662.0         0.50        658.5 
      2663.0         0.50        569.9 
      2664.0         0.47        507.2 
      2665.0         0.50        478.6 
      2666.0         0.47        468.1 
      2667.0         0.50        485.0 
      2668.0         0.48        524.7 
      2669.0         0.50        568.9 
      2670.0         0.57        603.6 
      2671.0        16.72       2040.5 
      2672.0         0.23       1236.0 
      2673.0         0.77       2190.4 
      2674.0         1.05       2794.2 
      2675.0         0.90       2490.0 
      2676.0         0.93       1896.7 
      2677.0         0.47       1264.6 
      2678.0         0.57       1120.1 
      2679.0         0.52        982.3 
      2680.0         0.50        924.3 
      2681.0         0.50        921.3 
      2682.0         0.53        812.1 
      2683.0         0.63        623.8 
      2684.0         0.63        548.3 
