~Version Information
VERS.                      2.0: CWLS Log ASCII Standard - VERSION 2.0
WRAP.                       NO: One line per depth step
~Well Information Block
STRT.FT               675.0000: 
STOP.FT              2373.5000: 
STEP.FT                 0.2500: 
NULL.                -999.2500: 
COMP.          Pioneer Natural Resources: COMPANY
WELL.            Harrier 44-33: WELL
FLD.           Purgatoire River: FIELD
LOC.           456' FSL & 930' FEL: LOCATION
PROV.                 Colorado: PROVINCE
CNTY.               Las Animas: COUNTRY
SRVC.                Patterson: SERVICE COMPANY
DATE.          Mon Jun 20 07:40:56 2005: LOG DATE
UWI.           05 071 08398 00: UNIQUE WELL ID
~Curve Information Block
DEPT.FT            0 000 00 00: Depth
SN.Ohm-m                      : IEL Short Normal
SP.mV                         : IEL Spontaneous Potential
DIR.Ohm-m                     : IEL Induction Resistivity
GR.GAPI                       : Gamma Ray
~Parameter Information Block
~A  Depth        SN          SP         DIR          GR     
# ...
   775.5000   2000.0000   2000.0000      8.4431    151.4292
   775.7500   2000.0000   2000.0000      8.4340    150.5791
   776.0000   2000.0000   2000.0000      8.4493    149.7958
   776.2500   2000.0000   2000.0000      8.4847    149.5547
   776.5000   2000.0000   2000.0000      8.5343    149.7154
   776.7500   2000.0000   2000.0000      8.5963    150.2396
   777.0000   2000.0000   2000.0000      8.6755    151.4209
   777.2500   2000.0000   2000.0000      8.7818    152.1265
   777.5000   2000.0000   2000.0000      8.9249    152.6229
   777.7500   2000.0000   2000.0000      9.1097    152.6012
   778.0000   2000.0000   2000.0000      9.3363    152.2699
   778.2500   2000.0000   2000.0000      9.6021    151.8341
   778.5000   2000.0000   2000.0000      9.9037    150.5072
   778.7500   2000.0000   2000.0000     10.2374    148.8830
   779.0000   2000.0000   2000.0000     10.6005    144.8505
   779.2500   2000.0000   2000.0000     10.9908    140.9830
   779.5000   2000.0000   2000.0000     11.4072    133.8941
   779.7500   2000.0000   2000.0000     11.8500    129.0247
   780.0000   2000.0000   2000.0000     12.3223    123.0506
   780.2500   2000.0000   2000.0000     12.8298    120.7281
   780.5000   2000.0000   2000.0000     13.3755    120.2918
   780.7500   2000.0000   2000.0000     13.9520    121.6978
   781.0000   2000.0000   2000.0000     14.5351    124.6300
   781.2500   2000.0000   2000.0000     15.0834    125.8039
   781.5000   2000.0000   2000.0000     15.5519    124.8357
   781.7500   2000.0000   2000.0000     15.9132    122.4805
   782.0000   2000.0000   2000.0000     16.1705    118.1251
   782.2500   2000.0000   2000.0000     16.3489    115.8548
   782.5000   2000.0000   2000.0000     16.4722    114.4664
   782.7500   2000.0000   2000.0000     16.5453    114.7521
   783.0000   2000.0000   2000.0000     16.5546    115.7625
   783.2500   2000.0000   2000.0000     16.4775    115.9334
   783.5000   2000.0000   2000.0000     16.2922    114.8070
   783.7500   2000.0000   2000.0000     15.9838    113.6686
   784.0000   2000.0000   2000.0000     15.5523    113.1040
   784.2500   2000.0000   2000.0000     15.0200    114.1436
   784.5000   2000.0000   2000.0000     14.4297    117.6413
   784.7500   2000.0000   2000.0000     13.8317    120.5933
   785.0000   2000.0000   2000.0000     13.2686    124.4241
   785.2500   2000.0000   2000.0000     12.7696    125.8564
   785.5000   2000.0000   2000.0000     12.3524    126.2733
   785.7500   2000.0000   2000.0000     12.0266    126.1588
   786.0000   2000.0000   2000.0000     11.7948    126.8440
   786.2500   2000.0000   2000.0000     11.6516    128.0502
   786.5000   2000.0000   2000.0000     11.5837    130.1721
   786.7500   2000.0000   2000.0000     11.5730    131.2771
   787.0000   2000.0000   2000.0000     11.6032    132.2114
   787.2500   2000.0000   2000.0000     11.6646    132.3948
   787.5000   2000.0000   2000.0000     11.7537    131.7120
   787.7500   2000.0000   2000.0000     11.8695    130.0944
   788.0000   2000.0000   2000.0000     12.0110    124.7931
   788.2500   2000.0000   2000.0000     12.1791    118.9392
   788.5000   2000.0000   2000.0000     12.3818    107.2177
   788.7500   2000.0000   2000.0000     12.6365     98.6972
   789.0000   2000.0000   2000.0000     12.9679     88.0682
   789.2500   2000.0000   2000.0000     13.4031     84.1618
   789.5000   2000.0000   2000.0000     13.9657     84.7143
   789.7500   2000.0000   2000.0000     14.6679     89.3961
   790.0000   2000.0000   2000.0000     15.5011    101.5041
   790.2500   2000.0000   2000.0000     16.4267    111.2514
   790.5000   2000.0000   2000.0000     17.3750    124.2385
   790.7500   2000.0000   2000.0000     18.2551    129.5214
   791.0000   2000.0000   2000.0000     18.9767    130.5430
   791.2500   2000.0000   2000.0000     19.4791    127.1301
   791.5000   2000.0000   2000.0000     19.7519    118.7767
   791.7500   2000.0000   2000.0000     19.8375    113.2459
   792.0000   2000.0000   2000.0000     19.8096    108.1620
   792.2500   2000.0000   2000.0000     19.7414    107.7039
   792.5000   2000.0000   2000.0000     19.6832    110.5126
   792.7500   2000.0000   2000.0000     19.6573    113.3020
   793.0000   2000.0000   2000.0000     19.6656    116.5660
   793.2500   2000.0000   2000.0000     19.6959    117.6684
   793.5000   2000.0000   2000.0000     19.7231    118.5449
   793.7500   2000.0000   2000.0000     19.7126    119.3674
   794.0000   2000.0000   2000.0000     19.6318    121.3687
   794.2500   2000.0000   2000.0000     19.4646    122.7224
   794.5000   2000.0000   2000.0000     19.2183    123.3206
   794.7500   2000.0000   2000.0000     18.9206    122.2324
   795.0000   2000.0000   2000.0000     18.6081    119.0677
   795.2500   2000.0000   2000.0000     18.3154    117.1806
   795.5000   2000.0000   2000.0000     18.0641    116.6102
   795.7500   2000.0000   2000.0000     17.8583    117.8304
   796.0000   2000.0000   2000.0000     17.6869    120.4795
   796.2500   2000.0000   2000.0000     17.5341    121.8260
   796.5000   2000.0000   2000.0000     17.3863    123.1829
   796.7500   2000.0000   2000.0000     17.2294    124.4413
   797.0000   2000.0000   2000.0000     17.0398    127.6413
   797.2500   2000.0000   2000.0000     16.7835    129.9098
   797.5000   2000.0000   2000.0000     16.4307    130.9723
   797.7500   2000.0000   2000.0000     15.9776    129.2547
   798.0000   2000.0000   2000.0000     15.4521    124.1802
   798.2500   2000.0000   2000.0000     14.8974    120.7546
   798.5000   2000.0000   2000.0000     14.3479    117.6201
   798.7500   2000.0000   2000.0000     13.8167    117.0503
   799.0000   2000.0000   2000.0000     13.3007    117.8120
   799.2500   2000.0000   2000.0000     12.7947    119.1563
   799.5000   2000.0000   2000.0000     12.3023    122.7705
   799.7500   2000.0000   2000.0000     11.8344    126.5650
   800.0000   2000.0000   2000.0000     11.4014    134.0258
   800.2500   2000.0000   2000.0000     11.0070    139.2550
   800.5000   2000.0000   2000.0000     10.6479    145.4538
   800.7500   2000.0000   2000.0000     10.3177    147.8000
   801.0000   2000.0000   2000.0000     10.0116    148.9582
   801.2500   2000.0000   2000.0000      9.7282    148.9501
   801.5000   2000.0000   2000.0000      9.4695    149.1539
   801.7500   2000.0000   2000.0000      9.2395    149.8611
   802.0000   2000.0000   2000.0000      9.0425    151.7492
   802.2500   2000.0000   2000.0000      8.8797    153.2117
   802.5000   2000.0000   2000.0000      8.7481    154.7060
   802.7500   2000.0000   2000.0000      8.6421    154.5959
   803.0000   2000.0000   2000.0000      8.5563    152.4481
   803.2500   2000.0000   2000.0000      8.4877    150.3113
   803.5000   2000.0000   2000.0000      8.4361    147.8894
   803.7500   2000.0000   2000.0000      8.4014    147.5414
   804.0000   2000.0000   2000.0000      8.3832    148.8642
   804.2500   2000.0000   2000.0000      8.3808    150.4407
   804.5000   2000.0000   2000.0000      8.3949    152.9359
   804.7500   2000.0000   2000.0000      8.4292    154.3185
   805.0000   2000.0000   2000.0000      8.4902    155.4610
   805.2500   2000.0000   2000.0000      8.5849    155.4013
   805.5000   2000.0000   2000.0000      8.7176    154.1629
   805.7500   2000.0000   2000.0000      8.8862    152.7587
   806.0000   2000.0000   2000.0000      9.0823    149.7159
   806.2500   2000.0000   2000.0000      9.2944    146.7979
   806.5000   2000.0000   2000.0000      9.5149    141.2230
   806.7500   2000.0000   2000.0000      9.7429    137.4717
   807.0000   2000.0000   2000.0000      9.9833    133.4243
   807.2500   2000.0000   2000.0000     10.2405    132.1158
   807.5000   2000.0000   2000.0000     10.5129    131.3862
   807.7500   2000.0000   2000.0000     10.7921    130.9317
   808.0000   2000.0000   2000.0000     11.0669    129.6339
   808.2500   2000.0000   2000.0000     11.3296    128.5546
   808.5000   2000.0000   2000.0000     11.5783    127.4153
   808.7500   2000.0000   2000.0000     11.8143    127.3461
