~Version Information
VERS.                      2.0: CWLS Log ASCII Standard - VERSION 2.0
WRAP.                       NO: One line per depth step
~Well Information Block
STRT.FT               430.0000: 
STOP.FT              2417.0000: 
STEP.FT                 0.2500: 
NULL.                -999.2500: 
COMP.          Evergreen Operating Corporation: COMPANY
WELL.          McCullough 34-32: WELL
FLD.           Purgatorie River: FIELD
LOC.           261' FSL & 2098' FEL: LOCATION
PROV.                 Colorado: PROVINCE
CNTY.               Las Animas: COUNTRY
SRVC.                Patterson: SERVICE COMPANY
DATE.          Sun May 16 02:33:07 2004: LOG DATE
UWI.           05 071 07953 00: UNIQUE WELL ID
~Curve Information Block
DEPT.FT            0 000 00 00: Depth
SN.Ohm-m                      : IEL Short Normal
SP.mV                         : IEL Spontaneous Potential
DIR.Ohm-m                     : IEL Induction Resistivity
GR.GAPI                       : Gamma Ray
~Parameter Information Block
~A  Depth        SN          SP         DIR          GR     
# ...
  1066.5000     45.6332    112.8961     29.5808     77.5832
  1066.7500     47.0768    112.7491     30.7208     75.1462
  1067.0000     48.3859    112.7945     32.0334     74.2979
  1067.2500     49.6758    112.9960     33.4402     75.0758
  1067.5000     50.8365    113.2613     34.8565     76.8991
  1067.7500     51.6678    113.4714     36.2100     77.8744
  1068.0000     52.1484    113.5418     37.4520     78.2211
  1068.2500     52.5691    113.4709     38.5451     77.5861
  1068.5000     53.3863    113.3307     39.4411     75.7624
  1068.7500     54.8095    113.2086     40.0719     74.3901
  1069.0000     56.5054    113.1501     40.3750     72.7100
  1069.2500     57.8047    113.1470     40.3230     72.1292
  1069.5000     58.2041    113.1654     39.9178     72.3888
  1069.7500     57.6598    113.1794     39.1643     73.2058
  1070.0000     56.4786    113.1851     38.0757     74.7707
  1070.2500     55.0027    113.1940     36.7260     75.8542
  1070.5000     53.3730    113.2213     35.2705     77.9180
  1070.7500     51.5104    113.2804     33.8769     79.8165
  1071.0000     49.2745    113.3834     32.6259     83.0730
  1071.2500     46.6429    113.5410     31.4813     85.0617
  1071.5000     43.7607    113.7611     30.3464     87.6538
  1071.7500     40.8547    114.0464     29.1486     89.6028
  1072.0000     38.1310    114.3920     27.8782     93.8092
  1072.2500     35.7074    114.7805     26.5705     97.5965
  1072.5000     33.5776    115.1815     25.2702    104.0863
  1072.7500     31.6387    115.5549     24.0110    108.3707
  1073.0000     29.7900    115.8552     22.8134    114.1504
  1073.2500     28.0486    116.0399     21.6897    117.5312
  1073.5000     26.5663    116.0836     20.6509    121.6401
  1073.7500     25.5076    115.9880     19.7108    123.2677
  1074.0000     24.9295    115.7785     18.8854    123.4964
  1074.2500     24.7684    115.4849     18.1876    122.5407
  1074.5000     24.8633    115.1272     17.6228    120.8752
  1074.7500     24.9748    114.7186     17.1883    120.1669
  1075.0000     24.8806    114.2828     16.8759    119.5734
  1075.2500     24.5315    113.8676     16.6791    119.1653
  1075.5000     24.0756    113.5339     16.5984    118.4214
  1075.7500     23.7040    113.3250     16.6439    118.0637
  1076.0000     23.5273    113.2373     16.8308    118.1971
  1076.2500     23.5501    113.2246     17.1683    118.8798
  1076.5000     23.6470    113.2345     17.6402    120.4638
  1076.7500     23.5822    113.2426     18.1838    121.1891
  1077.0000     23.1419    113.2527     18.6864    120.1477
  1077.2500     22.2997    113.2698     19.0277    117.5220
  1077.5000     21.2986    113.2823     19.1595    111.5086
  1077.7500     20.6354    113.2776     19.1479    107.4581
  1078.0000     20.9224    113.2680     19.1305    104.0014
  1078.2500     22.5358    113.2956     19.2338    104.6028
  1078.5000     25.2150    113.4063     19.5258    110.2636
  1078.7500     28.1083    113.6201     20.0133    116.3249
  1079.0000     30.3865    113.9166     20.6550    126.0061
  1079.2500     31.7447    114.2465     21.3686    131.1695
  1079.5000     32.3338    114.5573     22.0397    135.2104
  1079.7500     32.4574    114.8113     22.5512    135.2569
  1080.0000     32.3649    114.9836     22.8315    132.4302
  1080.2500     32.1676    115.0537     22.8900    129.7968
  1080.5000     31.8671    115.0068     22.8030    126.5308
  1080.7500     31.4522    114.8446     22.6689    125.1437
  1081.0000     30.9421    114.5942     22.5658    123.9200
  1081.2500     30.3816    114.3060     22.5365    123.6898
  1081.5000     29.8881    114.0446     22.5940    125.0886
  1081.7500     29.6474    113.8702     22.7341    127.6300
  1082.0000     29.7564    113.8068     22.9427    133.2292
  1082.2500     30.1196    113.8180     23.1957    136.8864
  1082.5000     30.5465    113.8238     23.4555    139.7575
  1082.7500     30.9008    113.7585     23.6699    139.1637
  1083.0000     31.1735    113.6174     23.7847    135.1426
  1083.2500     31.4755    113.4525     23.7783    131.6280
  1083.5000     31.9464    113.3301     23.7012    127.5025
  1083.7500     32.6488    113.2902     23.6821    126.2721
  1084.0000     33.5404    113.3272     23.8813    126.1752
  1084.2500     34.5118    113.3950     24.4185    126.2714
  1084.5000     35.4505    113.4265     25.3215    125.2609
  1084.7500     36.3107    113.3600     26.5180    123.7609
  1085.0000     37.1451    113.1644     27.8727    121.2965
  1085.2500     38.0696    112.8521     29.2521    120.1108
  1085.5000     39.1967    112.4689     30.5724    118.9943
  1085.7500     40.5881    112.0661     31.8072    118.1435
  1086.0000     42.1778    111.6732     32.9665    115.8939
  1086.2500     43.7111    111.2883     34.0732    113.7208
  1086.5000     44.9033    110.8905     35.1373    109.9787
  1086.7500     45.6627    110.4679     36.1255    107.4825
  1087.0000     46.0643    110.0397     36.9465    104.0154
  1087.2500     46.2325    109.6575     37.4821    101.9991
  1087.5000     46.2983    109.3838     37.6547     99.7243
  1087.7500     46.3179    109.2671     37.4771     98.8083
  1088.0000     46.1914    109.3220     37.0383     98.1190
  1088.2500     45.7316    109.5193     36.4390     97.9721
  1088.5000     44.8420    109.7959     35.7338     98.5311
  1088.7500     43.6295    110.0877     34.9137     99.8848
  1089.0000     42.3459    110.3610     33.9302    103.9069
  1089.2500     41.1800    110.6095     32.7444    107.7226
  1089.5000     40.0960    110.8220     31.3771    113.7505
  1089.7500     38.8743    110.9588     29.9205    116.7267
  1090.0000     37.2724    110.9694     28.5003    117.8944
  1090.2500     35.2092    110.8403     27.2144    116.5554
  1090.5000     32.9102    110.6247     26.0947    113.9534
  1090.7500     30.8173    110.4232     25.1137    113.8827
  1091.0000     29.2863    110.3271     24.2210    118.0137
  1091.2500     28.3985    110.3654     23.3784    122.8483
  1091.5000     28.0130    110.4939     22.5725    130.2407
  1091.7500     27.8804    110.6314     21.8101    133.8709
  1092.0000     27.7396    110.7079     21.1096    136.9214
  1092.2500     27.4512    110.6855     20.4927    137.9154
  1092.5000     27.0203    110.5494     19.9767    138.6400
  1092.7500     26.4825    110.2991     19.5656    138.4833
  1093.0000     25.8758    109.9525     19.2494    136.7467
  1093.2500     25.2537    109.5468     19.0115    134.8301
  1093.5000     24.6591    109.1258     18.8366    132.3565
  1093.7500     24.1345    108.7227     18.7120    131.7880
  1094.0000     23.7338    108.3548     18.6229    132.7591
  1094.2500     23.5019    108.0375     18.5529    134.3289
  1094.5000     23.4515    107.7969     18.4971    137.7510
  1094.7500     23.5473    107.6564     18.4787    140.5248
  1095.0000     23.7094    107.6061     18.5513    144.3183
  1095.2500     23.8495    107.5966     18.7756    145.8504
  1095.5000     23.9365    107.5723     19.1869    146.4184
  1095.7500     24.0391    107.5063     19.7757    146.1499
  1096.0000     24.2414    107.4025     20.4976    145.6140
  1096.2500     24.5453    107.2728     21.3035    145.2681
  1096.5000     24.9781    107.1253     22.1716    144.4882
  1096.7500     25.7138    106.9697     23.1183    143.5654
  1097.0000     26.9389    106.8211     24.1875    141.1882
  1097.2500     28.7283    106.6913     25.4294    138.7294
  1097.5000     31.1509    106.5795     26.8827    133.4290
  1097.7500     34.2768    106.4741     28.5651    128.6764
  1098.0000     38.0064    106.3673     30.4743    119.4588
  1098.2500     42.0930    106.2678     32.5925    111.7794
  1098.5000     46.3816    106.2022     34.8925     98.1324
  1098.7500     50.9265    106.2089     37.3412     88.2545
  1099.0000     55.8744    106.3258     39.9077     74.1421
  1099.2500     61.2394    106.5753     42.5627     66.1276
  1099.5000     66.7458    106.9493     45.2591     56.3737
  1099.7500     71.8590    107.4080     47.9128     50.7878
