~Version Information
VERS.                      2.0: CWLS Log ASCII Standard - VERSION 2.0
WRAP.                       NO: One line per depth step
~Well Information Block
STRT.FT               350.0000: 
STOP.FT              1391.5000: 
STEP.FT                 0.2500: 
NULL.                -999.2500: 
COMP.          Petrogulf Corporation: COMPANY
WELL.             Leier 17-42R: WELL
FLD.           Purgatorie River: FIELD
LOC.           2398' FNL & 1109' FEL: LOCATION
PROV.                 Colorado: PROVINCE
CNTY.               Las Animas: COUNTRY
SRVC.                Patterson: SERVICE COMPANY
DATE.          Mon Oct 17 09:42:26 2005: LOG DATE
UWI.                          : UNIQUE WELL ID
~Curve Information Block
DEPT.FT            0 000 00 00: Depth
SP.mV                         : DIL Spontaneous Potential
RILD.Ohm-m                    : DIL Deep Resistivity
RILM.Ohm-m                    : DIL Medium Resistivity
RLL3.Ohm-m                    : DIL Shallow Resistivity
GR.GAPI                       : Gamma Ray
~Parameter Information Block
~A  Depth        SP         RILD        RILM        RLL3         GR     
# ...
   546.0000    197.4302     12.7861     13.9621     20.5589     85.1721
   546.2500    196.4441     12.6866     13.3853     18.4277     87.9688
   546.5000    195.5265     12.6450     12.8709     16.1246     93.5192
   546.7500    194.7225     12.6686     12.4698     13.9762     97.6748
   547.0000    194.0716     12.7545     12.2167     12.2902    104.2364
   547.2500    193.6047     12.8913     12.1335     11.4216    108.7050
   547.5000    193.3491     13.0628     12.2329     11.9053    114.5782
   547.7500    193.3356     13.2527     12.5207     14.7136    116.7852
   548.0000    193.5963     13.4493     12.9963     21.5015    115.6582
   548.2500    194.1528     13.6489     13.6511     34.3339    111.7220
   548.5000    195.0012     13.8590     14.4652     54.4189    102.4232
   548.7500    196.1048     14.0986     15.4042     80.2550     95.2064
   549.0000    197.3987     14.3937     16.4177    106.7421     84.5770
   549.2500    198.8009     14.7680     17.4412    126.5807     78.2726
   549.5000    200.2229     15.2323     18.4041    133.4683     71.0190
   549.7500    201.5771     15.7791     19.2404    125.1720     68.3770
   550.0000    202.7865     16.3829     19.9001    104.7961     68.7446
   550.2500    203.7961     17.0067     20.3576     79.4506     72.0405
   550.5000    204.5805     17.6086     20.6143     56.6643     80.8164
   550.7500    205.1434     18.1498     20.6968     40.7046     88.2061
   551.0000    205.5123     18.6006     20.6514     31.5216     99.1930
   551.2500    205.7303     18.9479     20.5359     26.6525    105.1877
   551.5000    205.8454     19.1970     20.4118     23.7643    111.5385
   551.7500    205.9023     19.3695     20.3372     21.7593    114.7116
   552.0000    205.9394     19.4942     20.3610     20.4600    119.5891
   552.2500    205.9922     19.5997     20.5211     19.9996    123.1992
   552.5000    206.0966     19.7089     20.8423     20.5709    127.9302
   552.7500    206.2864     19.8391     21.3368     22.4285    129.5961
   553.0000    206.5863     20.0067     22.0041     25.8260    128.8753
   553.2500    207.0061     20.2294     22.8318     30.7707    126.2676
   553.5000    207.5388     20.5254     23.7966     36.7866    119.8476
   553.7500    208.1617     20.9083     24.8657     43.0302    114.5857
   554.0000    208.8374     21.3805     25.9986     48.8610    106.7496
   554.2500    209.5178     21.9302     27.1485     54.3496    102.2702
   554.5000    210.1523     22.5314     28.2634     59.9466     96.7186
   554.7500    210.6970     23.1475     29.2871     65.3717     93.2058
   555.0000    211.1177     23.7365     30.1618     69.0087     87.4795
   555.2500    211.3885     24.2577     30.8328     68.8862     83.7743
   555.5000    211.4912     24.6776     31.2564     64.4361     80.3604
   555.7500    211.4202     24.9762     31.4091     57.0648     80.5625
   556.0000    211.1887     25.1491     31.2938     48.9579     84.8080
   556.2500    210.8271     25.2016     30.9395     41.6146     89.5386
   556.5000    210.3729     25.1328     30.3932     35.5440     97.9302
   556.7500    209.8609     24.9235     29.7048     30.8618    103.7026
   557.0000    209.3223     24.5410     28.9135     27.7273    111.5195
   557.2500    208.7932     23.9641     28.0388     26.2529    115.3398
   557.5000    208.3201     23.2088     27.0818     26.2753    117.6611
   557.7500    207.9556     22.3312     26.0347     27.3337    116.7413
   558.0000    207.7453     21.4076     24.8945     28.8076    113.0051
   558.2500    207.7124     20.5078     23.6755     30.0392    110.5733
   558.5000    207.8456     19.6825     22.4143     30.4331    109.7909
   558.7500    208.0945     18.9628     21.1639     29.6324    111.8329
   559.0000    208.3815     18.3653     19.9829     27.6972    117.7477
   559.2500    208.6269     17.8929     18.9234     25.0662    122.3726
   559.5000    208.7761     17.5317     18.0230     22.2786    128.4486
   559.7500    208.8123     17.2451     17.3015     19.7259    131.2690
   560.0000    208.7528     16.9754     16.7603     17.6586    133.2998
   560.2500    208.6365     16.6562     16.3829     16.3929    133.2230
   560.5000    208.5130     16.2342     16.1337     16.5149    130.9912
   560.7500    208.4386     15.6902     15.9587     18.8827    128.0483
   561.0000    208.4805     15.0436     15.7881     24.1802    121.5901
   561.2500    208.7249     14.3389     15.5475     31.9712    116.2749
   561.5000    209.2783     13.6263     15.1755     39.9515    107.8159
   561.7500    210.2483     12.9474     14.6440     44.6277    102.5287
   562.0000    211.6941     12.3298     13.9675     43.5601     96.0053
   562.2500    213.5721     11.7865     13.1945     37.2640     92.9237
   562.5000    215.7196     11.3171     12.3877     28.7537     90.8059
   562.7500    217.9073     10.9105     11.6027     21.2095     91.4793
   563.0000    219.9266     10.5481     10.8779     16.1239     95.8147
   563.2500    221.6471     10.2103     10.2326     13.2686    100.4612
   563.5000    223.0141      9.8828      9.6720     11.7653    108.3647
   563.7500    224.0188      9.5617      9.1931     10.9459    112.9701
   564.0000    224.6821      9.2537      8.7892     10.5127    117.0232
   564.2500    225.0543      8.9722      8.4537     10.3307    117.5980
   564.5000    225.2079      8.7319      8.1814     10.2706    116.7504
   564.7500    225.2188      8.5454      7.9696     10.2129    116.2804
   565.0000    225.1487      8.4217      7.8181     10.0993    116.7745
   565.2500    225.0376      8.3660      7.7285      9.9413    117.6533
   565.5000    224.9033      8.3802      7.7042      9.7903    118.5772
   565.7500    224.7457      8.4630      7.7496      9.7089    118.2641
   566.0000    224.5548      8.6091      7.8694      9.7666    116.1651
   566.2500    224.3216      8.8106      8.0679     10.0617    114.2362
   566.5000    224.0432      9.0575      8.3476     10.7330    111.9730
   566.7500    223.7221      9.3397      8.7088     11.9106    111.3211
   567.0000    223.3582      9.6495      9.1475     13.6023    111.2728
   567.2500    222.9419      9.9830      9.6550     15.6036    111.3931
   567.5000    222.4484     10.3411     10.2181     17.5268    111.2457
   567.7500    221.8380     10.7281     10.8200     18.9586    110.6088
   568.0000    221.0638     11.1500     11.4432     19.6465    107.9685
   568.2500    220.0866     11.6108     12.0726     19.5978    104.8515
   568.5000    218.8891     12.1089     12.6976     19.0437     99.5046
   568.7500    217.4832     12.6315     13.3118     18.3071     97.0812
   569.0000    215.9073     13.1519     13.9102     17.6622     97.0877
   569.2500    214.2185     13.6279     14.4848     17.2650     99.3288
   569.5000    212.4819     14.0090     15.0205     17.1699    103.9089
   569.7500    210.7582     14.2486     15.4927     17.3985    106.4386
   570.0000    209.0947     14.3212     15.8673     18.0016    108.3957
   570.2500    207.5230     14.2307     16.1056     19.0490    108.5714
   570.5000    206.0620     14.0074     16.1726     20.5102    107.6601
   570.7500    204.7233     13.6939     16.0465     22.1013    106.5240
   571.0000    203.5169     13.3322     15.7281     23.2832    104.4971
   571.2500    202.4566     12.9579     15.2432     23.5225    103.2747
   571.5000    201.5640     12.5980     14.6378     22.6383    102.3646
   571.7500    200.8662     12.2706     13.9680     20.9010    102.8007
   572.0000    200.3866     11.9851     13.2889     18.7965    105.1017
   572.2500    200.1352     11.7426     12.6460     16.7239    107.0913
   572.5000    200.1010     11.5375     12.0720     14.8871    109.3704
   572.7500    200.2539     11.3601     11.5861     13.3698    110.5020
   573.0000    200.5546     11.1995     11.1967     12.2415    113.7945
   573.2500    200.9720     11.0490     10.9036     11.6079    118.2336
   573.5000    201.4956     10.9088     10.7006     11.5901    127.2768
   573.7500    202.1329     10.7881     10.5783     12.2349    132.6917
