~Version Information
VERS.                      2.0: CWLS Log ASCII Standard - VERSION 2.0
WRAP.                       NO: One line per depth step
~Well Information Block
STRT.FT                -7.2500: 
STOP.FT               862.2500: 
STEP.FT                 0.2500: 
NULL.                -999.2500: 
COMP.          Pioneer Natural Resources: COMPANY
WELL.          Santisteven 13-22: WELL
FLD.           Purgatorie River: FIELD
LOC.           1861' FSL & 992' FWL--: LOCATION
PROV.                       CO: PROVINCE
CNTY.               Las Animas: COUNTRY
SRVC.          Patterson Wireline: SERVICE COMPANY
DATE.          Thu Apr 07 09:08:11 2005: LOG DATE
UWI.           05 071 08337 00: UNIQUE WELL ID
~Curve Information Block
DEPT.FT            0 000 00 00: Depth
CCL.                          : Casing Collar Locator
TT3.usec                      : CBL 3' Travel Time
AMP3.mV                       : CBL 3' Amplitude
GR.GAPI                       : Gamma Ray
~Parameter Information Block
~A  Depth       CCL         TT3         AMP3         GR     
# ...
   830.2500      0.0000    717.1685      4.3629    101.6498
   830.5000      0.0000    718.1868      4.3531     99.4425
   830.7500      0.0000    718.8148      4.2711     98.8856
   831.0000      0.0000    719.2665      4.1330     99.9318
   831.2500      0.0000    719.5914      3.9662    101.1239
   831.5000      0.0000    719.7714      3.8096    101.1278
   831.7500      0.0000    719.8107      3.7075     99.5225
   832.0000      0.0000    719.7480      3.6887     96.4248
   832.2500      0.0000    719.6227      3.7411     92.0735
   832.5000      0.0000    719.4619      3.8212     87.1612
   832.7500      0.0000    719.2898      3.8919     83.2178
   833.0000      0.0000    719.1323      3.9495     81.9748
   833.2500      0.0000    719.0150      4.0160     83.9912
   833.5000      0.0000    718.9554      4.1097     88.0087
   833.7500      0.0000    718.9471      4.2286     91.8655
   834.0000      0.0000    718.9194      4.3544     94.1223
   834.2500      0.0000    718.6659      4.4573     94.7582
   834.5000      0.0000    717.7454      4.5009     94.4990
   834.7500      0.0000    715.4410      4.4698     93.8994
   835.0000      0.0000    711.0085      4.3926     93.1362
   835.2500      0.0000    704.2434      4.3171     92.2843
   835.5000      0.0000    695.9243      4.2567     91.4537
   835.7500      0.0000    687.6595      4.1829     90.6439
   836.0000      0.0000    681.2758      4.0793     89.7058
   836.2500      0.0000    678.1699      3.9892     88.7557
   836.5000      0.0000    678.8544      3.9883     88.5514
   836.7500      0.0000    682.9310      4.1096     90.0919
   837.0000      0.0000    689.4963      4.3129     93.5919
   837.2500      0.0000    697.4237      4.5211     97.9318
   837.5000      0.0000    705.3288      4.6659    101.2186
   837.7500      0.0000    711.8172      4.7142    101.9759
   838.0000      0.0000    716.1729      4.6820    100.0550
   838.2500      0.0000    718.7656      4.6189     96.6558
   838.5000      0.0000    720.7676      4.5663     93.5064
   838.7500      0.0000    723.4995      4.5404     91.8777
   839.0000      0.0000    727.6348      4.5474     92.0431
   839.2500      0.0000    732.4311      4.5869     93.3347
   839.5000      0.0000    735.8101      4.6327     94.6329
   839.7500      0.0000    735.8798      4.6357     95.0669
   840.0000      0.0000    732.6823      4.5659     94.6356
   840.2500      0.0000    728.1535      4.4416     94.2825
   840.5000      0.0000    724.3539      4.3127     95.2100
   840.7500      0.0000    722.0555      4.2246     97.8503
   841.0000      0.0000    720.8853      4.1958    101.4049
   841.2500      0.0000    720.2646      4.2150    104.5910
   841.5000      0.0000    720.0170      4.2617    106.8100
   841.7500      0.0000    720.4037      4.3235    108.3491
   842.0000      0.0000    721.8007      4.3856    109.7905
   842.2500      0.0000    724.1419      4.4197    111.7824
   842.5000      0.0000    726.4764      4.4119    115.0483
   842.7500      0.0000    727.3507      4.3870    119.8150
   843.0000      0.0000    726.0222      4.3799    125.1358
   843.2500      0.0000    723.1968      4.3926    129.1896
   843.5000      0.0000    720.3422      4.3935    130.3459
   843.7500      0.0000    718.4664      4.3522    128.1016
   844.0000      0.0000    717.6963      4.2738    123.4891
   844.2500      0.0000    717.6788      4.2001    118.5706
   844.5000      0.0000    718.0652      4.1673    114.9586
   844.7500      0.0000    718.7595      4.1625    112.6813
   845.0000      0.0000    720.0361      4.1393    110.7540
   845.2500      0.0000    722.4769      4.0815    108.6333
   845.5000      0.0000    726.4376      4.0371    106.9104
   845.7500      0.0000    731.1875      4.0739    106.9824
   846.0000      0.0000    734.7243      4.2057    110.1605
   846.2500      0.0000    735.0769      4.3822    116.3719
   846.5000      0.0000    732.0719      4.5457    123.4002
   846.7500      0.0000    727.5671      4.6615    128.1012
   847.0000      0.0000    723.9750      4.6989    129.0092
   847.2500      0.0000    722.7610      4.6353    127.3460
   847.5000      0.0000    723.9302      4.4979    124.9078
   847.7500      0.0000    726.2126      4.3597    121.1668
   848.0000      0.0000    727.7931      4.2674    112.9553
   848.2500      0.0000    727.5181      4.2068     97.2201
   848.5000      0.0000    725.6251      4.1565     74.3392
   848.7500      0.0000    723.1333      4.1410     48.9121
   849.0000      0.0000    720.6315      4.1941     27.0049
   849.2500      0.0000    717.7112      4.2993     12.2725
   849.5000      0.0000    713.4278      4.3961      4.5251
   849.7500      0.0000    707.4870      4.4325      1.3387
   850.0000      0.0000    701.2056      4.3893      0.3148
   850.2500      0.0000    696.8695      4.2799      0.0578
   850.5000      0.0000    695.6408      4.1576      0.0076
   850.7500      0.0000    696.4810      4.0972      0.0000
   851.0000      0.0000    697.5443      4.1386   -999.2500
   851.2500      0.0000    698.0850      4.2572   -999.2500
   851.5000      0.0000    698.6708      4.4008   -999.2500
   851.7500      0.0000    700.0740      4.5347   -999.2500
   852.0000      0.0000    702.3774      4.6431   -999.2500
   852.2500      0.0000    704.9470      4.7181   -999.2500
   852.5000      0.0000    706.9318      4.7745   -999.2500
   852.7500      0.0000    707.2056      4.8458   -999.2500
   853.0000      0.0000    702.7786      4.9349   -999.2500
   853.2500      0.0000    685.6417      4.9720   -999.2500
   853.5000      0.0000    641.5460      4.8351   -999.2500
   853.7500      0.0000    556.5991      4.4316   -999.2500
   854.0000      0.0000    431.2283      3.7804   -999.2500
   854.2500      0.0000    288.2187      3.0273   -999.2500
   854.5000      0.0000    161.6136      2.3634   -999.2500
   854.7500      0.0000     74.4584      1.9088   -999.2500
   855.0000      0.0000     27.7649      1.6661   -999.2500
   855.2500      0.0000      8.2891      1.5649   -999.2500
   855.5000      0.0000      1.9633      1.5320   -999.2500
   855.7500      0.0000      0.3635      1.5236   -999.2500
   856.0000      0.0000      0.0484      1.5220   -999.2500
   856.2500      0.0000   -999.2500   -999.2500   -999.2500
   856.5000      0.0000   -999.2500   -999.2500   -999.2500
   856.7500      0.0000   -999.2500   -999.2500   -999.2500
   857.0000      0.0000   -999.2500   -999.2500   -999.2500
   857.2500      0.0000   -999.2500   -999.2500   -999.2500
   857.5000      0.0000   -999.2500   -999.2500   -999.2500
   857.7500      0.0000   -999.2500   -999.2500   -999.2500
   858.0000      0.0000   -999.2500   -999.2500   -999.2500
   858.2500      0.0000   -999.2500   -999.2500   -999.2500
   858.5000      0.0000   -999.2500   -999.2500   -999.2500
   858.7500      0.0000   -999.2500   -999.2500   -999.2500
   859.0000      0.0000   -999.2500   -999.2500   -999.2500
   859.2500      0.0000   -999.2500   -999.2500   -999.2500
   859.5000      0.0000   -999.2500   -999.2500   -999.2500
   859.7500      0.0000   -999.2500   -999.2500   -999.2500
   860.0000      0.0000   -999.2500   -999.2500   -999.2500
   860.2500      0.0000   -999.2500   -999.2500   -999.2500
   860.5000      0.0000   -999.2500   -999.2500   -999.2500
   860.7500      0.0000   -999.2500   -999.2500   -999.2500
   861.0000      0.0000   -999.2500   -999.2500   -999.2500
   861.2500      0.0000   -999.2500   -999.2500   -999.2500
   861.5000      0.0000   -999.2500   -999.2500   -999.2500
   861.7500   -999.2500   -999.2500   -999.2500   -999.2500
   862.0000   -999.2500   -999.2500   -999.2500   -999.2500
   862.2500   -999.2500   -999.2500   -999.2500   -999.2500
