~Version Information
VERS.                      2.0: CWLS Log ASCII Standard - VERSION 2.0
WRAP.                       NO: One line per depth step
~Well Information Block
STRT.FT                -4.2500: 
STOP.FT              2500.7500: 
STEP.FT                 0.2500: 
NULL.                -999.2500: 
COMP.          Pioneer Natural Resources: COMPANY
WELL.          Cock-a-doodle-doo 44-27: WELL
FLD.           Purgatoire River: FIELD
LOC.           163' FSL & 54' FEL--: LOCATION
PROV.                 Colorado: PROVINCE
CNTY.               Las Animas: COUNTRY
SRVC.                Patterson: SERVICE COMPANY
DATE.          Wed Jul 06 10:56:34 2005: LOG DATE
UWI.                071 08429 : UNIQUE WELL ID
~Curve Information Block
DEPT.FT            0 000 00 00: Depth
CCL.                          : Casing Collar Locator
TT3.usec                      : CBL 3' Travel Time
AMP3.mV                       : CBL 3' Amplitude
GR.GAPI                       : Gamma Ray
~Parameter Information Block
~A  Depth       CCL         TT3         AMP3         GR     
# ...
   498.2500      0.0000    558.7756     13.3250     79.4205
   498.5000      0.0000    494.5422     13.7482     71.7241
   498.7500      0.0000    432.8279     14.1848     65.2799
   499.0000      0.0000    385.2151     14.5950     61.2134
   499.2500      0.0000    355.6808     14.9190     59.7023
   499.5000      0.0000    341.4963     15.0943     59.7911
   499.7500      0.0000    337.7795     15.0878     60.1053
   500.0000      0.0000    340.6329     14.9156     59.7091
   500.2500      0.0000    347.3335     14.6378     58.4495
   500.5000      0.0000    355.3958     14.3329     56.9676
   500.7500      0.0000    362.5011     14.0672     56.3395
   501.0000      0.0000    367.2950     13.8736     57.0109
   501.2500      0.0000    369.7887     13.7471     57.8922
   501.5000      0.0000    370.7960     13.6585     57.0295
   501.7500      0.0000    371.1273     13.5791     53.4012
   502.0000      0.0000    371.2351     13.5044     47.8952
   502.2500      0.0000    371.2946     13.4564     42.5375
   502.5000      0.0000    371.3683     13.4587     38.9570
   502.7500      0.0000    371.4748     13.5070     37.6575
   503.0000      0.0000    371.5689     13.5685     38.3772
   503.2500      0.0000    371.4670     13.6130     40.5458
   503.5000      0.0000    370.7494     13.6413     43.2878
   503.7500      0.0000    368.8022     13.6782     45.4625
   504.0000      0.0000    365.3025     13.7365     46.0955
   504.2500      0.0000    361.0223     13.7933     44.9539
   504.5000      0.0000    357.9455     13.8068     42.8583
   504.7500      0.0000    357.9262     13.7575     41.2659
   505.0000      0.0000    360.9692     13.6731     41.2214
   505.2500      0.0000    365.1389     13.6128     42.7038
   505.5000      0.0000    368.1603     13.6241     44.9920
   505.7500      0.0000    368.9068     13.7099     47.3614
   506.0000      0.0000    367.7734     13.8326     49.3860
   506.2500      0.0000    366.5793     13.9463     50.9098
   506.5000      0.0000    368.4618     14.0272     51.9932
   506.7500      0.0000    377.7537     14.0774     52.9092
   507.0000      0.0000    399.1735     14.1134     54.0850
   507.2500      0.0000    434.7399     14.1522     55.8452
   507.5000      0.0000    478.4979     14.2031     58.0837
   507.7500      0.0000    515.1752     14.2647     60.4308
   508.0000      0.0000    529.2029     14.3343     63.0684
   508.2500      0.0000    519.0100     14.4156     67.2026
   508.5000      0.0000    501.6930     14.5087     74.3592
   508.7500      0.0000    500.8094     14.5892     85.1191
   509.0000      0.0000    527.6106     14.6091     98.5066
   509.2500      0.0000    573.3816     14.5244    112.3508
   509.5000      0.0000    619.1559     14.3226    124.2140
   509.7500      0.0000    651.3119     14.0306    132.3754
   510.0000      0.0000    667.9996     13.7050    136.4636
   510.2500      0.0000    674.5226     13.4090    137.4992
   510.5000      0.0000    676.4794     13.1770    137.2651
   510.7500      0.0000    676.9761     12.9925    137.2217
   511.0000      0.0000    677.1406     12.8095    137.5228
   511.2500      0.0000    677.2725     12.6011    136.9109
   511.5000      0.0000    677.4318     12.3789    133.9599
   511.7500      0.0000    677.6218     12.1620    128.8378
   512.0000      0.0000    677.8124     11.9452    123.7287
   512.2500      0.0000    677.9855     11.7153    121.3666
   512.5000      0.0000    678.1426     11.4906    123.2145
   512.7500      0.0000    678.2732     11.3282    128.6981
   513.0000      0.0000    678.3123     11.2849    135.5246
   513.2500      0.0000    678.1535     11.3761    140.6817
   513.5000      0.0000    677.4871     11.5692    141.7773
   513.7500      0.0000    675.3586     11.8045    138.1032
   514.0000      0.0000    669.7144     12.0268    130.8864
   514.2500      0.0000    658.1831     12.2121    122.7087
   514.5000      0.0000    641.0579     12.3685    116.3784
   514.7500      0.0000    624.1522     12.5126    113.8492
   515.0000      0.0000    616.1686     12.6511    115.6413
   515.2500      0.0000    620.2040     12.7839    120.7346
   515.5000      0.0000    628.0278     12.9166    127.0181
   515.7500      0.0000    624.3528     13.0589    132.5423
   516.0000      0.0000    597.5761     13.2152    136.7581
   516.2500      0.0000    548.8582     13.3750    140.4176
   516.5000      0.0000    494.3762     13.5076    144.2520
   516.7500      0.0000    458.2420     13.5663    147.7821
   517.0000      0.0000    458.4828     13.5126    149.2330
   517.2500      0.0000    495.5056     13.3466    146.7180
   517.5000      0.0000    552.4147     13.1086    139.9168
   517.7500      0.0000    607.0757     12.8457    130.8445
   518.0000      0.0000    645.4897     12.5791    122.9320
   518.2500      0.0000    666.0807     12.3055    119.1682
   518.5000      0.0000    674.5798     12.0180    120.4896
   518.7500      0.0000    677.2364     11.7221    125.2191
   519.0000      0.0000    677.8154     11.4383    130.0390
   519.2500      0.0000    677.9125     11.1929    132.1478
   519.5000      0.0000    678.0316     11.0034    131.0387
   519.7500      0.0000    678.2551     10.8708    128.5162
   520.0000      0.0000    678.5053     10.7857    126.9708
   520.2500      0.0000    678.5955     10.7356    127.3907
   520.5000      0.0000    678.0835     10.7065    128.8028
   520.7500      0.0000    675.7224     10.6847    129.4122
   521.0000      0.0000    668.6896     10.6685    128.0865
   521.2500      0.0000    652.6213     10.6767    124.7296
   521.5000      0.0000    624.2044     10.7408    119.6993
   521.7500      0.0000    585.4063     10.8847    113.6213
   522.0000      0.0000    543.9634     11.1122    107.8971
   522.2500      0.0000    507.1059     11.4082    104.5950
   522.5000      0.0000    475.5931     11.7504    105.0330
   522.7500      0.0000    446.5850     12.1176    108.4762
   523.0000      0.0000    420.8542     12.4761    112.5938
   523.2500      0.0000    404.0736     12.7447    115.1568
   523.5000      0.0000    402.1360     12.7831    115.1371
   523.7500      0.0000    416.3691     12.4756    112.5759
   524.0000      0.0000    440.9135     11.8804    108.1347
   524.2500      0.0000    464.3745     11.2628    103.0516
   524.5000      0.0000    478.7112     10.8918     99.0441
   524.7500      0.0000    488.3887     10.7993     97.6328
   525.0000      0.0000    506.6189     10.8089     99.2003
   525.2500      0.0000    540.4103     10.7692    102.5525
   525.5000      0.0000    582.6439     10.6654    105.5596
   525.7500      2.0000    619.7261     10.5467    106.6581
   526.0000     -2.0000    641.8484     10.4552    105.7633
   526.2500     -2.0000    643.6414     10.4328    103.4806
   526.5000      2.0000    621.5730     10.5429     99.8469
   526.7500      0.0000    578.0538     10.8634     94.4986
   527.0000      0.0000    526.0699     11.4407     87.9724
   527.2500      0.0000    482.4232     12.2236     82.1241
   527.5000      0.0000    454.1022     13.0516     78.8694
   527.7500      0.0000    435.2699     13.7442     78.6877
   528.0000      0.0000    419.4773     14.1858     80.5792
   528.2500      0.0000    409.9566     14.3254     83.3352
   528.5000      0.0000    414.3428     14.1633     86.6161
   528.7500      0.0000    433.4256     13.7719     91.0124
   529.0000      0.0000    461.0245     13.2731     97.3802
   529.2500      0.0000    493.3988     12.7637    106.0622
   529.5000      0.0000    532.1272     12.2772    116.4570
   529.7500      0.0000    576.4532     11.8201    127.1877
   530.0000      0.0000    618.5992     11.4190    136.6839
   530.2500      0.0000    649.7327     11.1194    143.7345
   530.5000      0.0000    667.3008     10.9514    147.6690
   530.7500      0.0000    674.9114     10.9051    148.2638
   531.0000      0.0000    677.5444     10.9385    145.7682
   531.2500      0.0000    678.4025     11.0040    141.0374
   531.5000      0.0000    678.7453     11.0643    135.2981
