~Version Information
VERS.                      2.0: CWLS Log ASCII Standard - VERSION 2.0
WRAP.                       NO: One line per depth step
~Well Information Block
STRT.FT               375.0000: 
STOP.FT              2637.0000: 
STEP.FT                 0.1000: 
NULL.                -999.2500: 
COMP.          Pioneer Natural Resources: COMPANY
WELL.            Cortina 23-25: WELL
FLD.           Purgatoire River: FIELD
LOC.           2344' FWL & 2526' FSL----: LOCATION
PROV.                 Colorado: PROVINCE
CNTY.               Las Animas: COUNTRY
SRVC.                Patterson: SERVICE COMPANY
DATE.          Thu Mar 24 07:44:45 2005: LOG DATE
UWI.           05 071 08340 00: UNIQUE WELL ID
~Curve Information Block
DEPT.FT            0 000 00 00: Depth
DCAL.in                       : CDL Caliper
DPOR.pu                       : CDL Density Porosity
NPOR.pu                       : Neutron Porosity
RHOB.g/cc                     : CDL Bulk Density
RHOC.g/cc                     : CDL Density Correction
GR.GAPI                       : Gamma Ray
~Parameter Information Block
~A  Depth       DCAL        DPOR        NPOR        RHOB        RHOC         GR     
# ...
   672.6000      8.0809      6.2730     21.8132      2.5465      0.0414     76.4621
   672.7000      8.0809      6.4820     22.5436      2.5430      0.0599     80.6665
   672.8000      8.0818      6.0501     22.8989      2.5502      0.0611     86.8258
   672.9000      8.0818      5.3884     22.7068      2.5611      0.0512     91.6300
   673.0000      8.0804      4.9473     22.2410      2.5684      0.0706     89.7396
   673.1000      8.0804      4.9946     21.8395      2.5676      0.0482     81.9574
   673.2000      8.0804      5.4420     21.4672      2.5602      0.0364     72.9984
   673.3000      8.0797      5.7815     20.9903      2.5546      0.0351     66.8287
   673.4000      8.0797      5.4316     20.6166      2.5604      0.0052     64.2578
   673.5000      8.0803      4.8827     20.5389      2.5694      0.0844     62.5851
   673.6000      8.0803      4.8291     20.7217      2.5703     -0.0089     60.3976
   673.7000      8.0803      4.4143     20.8966      2.5772      0.0100     60.5180
   673.8000      8.0799      2.9848     20.7779      2.6008      0.0508     63.0660
   673.9000      8.0799      1.6574     20.4891      2.6227      0.0948     64.1200
   674.0000      8.0788      2.0037     20.4201      2.6169      0.0905     62.9667
   674.1000      8.0788      4.0819     20.6987      2.5826      0.0147     61.3744
   674.2000      8.0788      6.3648     21.0626      2.5450      0.0050     61.5225
   674.3000      8.0786      7.3668     21.2690      2.5284     -0.0129     64.5832
   674.4000      8.0786      6.7777     21.4210      2.5382      0.0485     67.0973
   674.5000      8.0783      5.4451     21.7576      2.5602      0.0433     67.0111
   674.6000      8.0783      4.0146     22.3184      2.5838      0.0297     65.3155
   674.7000      8.0783      2.7171     23.0164      2.6052      0.0313     61.4355
   674.8000      8.0790      2.2112     23.6967      2.6135      0.0573     57.4373
   674.9000      8.0790      2.7905     24.1145      2.6040      0.0604     58.1055
   675.0000      8.0797      3.7314     24.2125      2.5884      0.0454     63.1109
   675.1000      8.0797      4.2447     24.1416      2.5800      0.0103     67.7016
   675.2000      8.0797      4.1225     23.9392      2.5820      0.0520     69.3373
   675.3000      8.0795      3.4842     23.6879      2.5925      0.0172     68.4691
   675.4000      8.0795      3.2135     23.4928      2.5970      0.0750     67.2795
   675.5000      8.0802      4.6244     23.4335      2.5737      0.0280     67.7091
   675.6000      8.0802      6.6645     23.6876      2.5400     -0.0280     69.2059
   675.7000      8.0802      7.3405     24.1168      2.5289      0.0047     71.7720
   675.8000      8.0818      7.0405     24.2564      2.5338      0.0125     76.7042
   675.9000      8.0818      6.3540     24.1420      2.5452      0.0009     84.1671
   676.0000      8.0816      5.2271     24.1311      2.5638      0.0404     93.0303
   676.1000      8.0816      5.0065     24.2938      2.5674      0.0613    100.4161
   676.2000      8.0816      6.2021     24.5966      2.5477     -0.0275    103.4771
   676.3000      8.0802      6.9225     25.0971      2.5358     -0.0021    103.4231
   676.4000      8.0802      6.3959     25.6720      2.5445      0.0295    104.1212
   676.5000      8.0807      6.2530     25.9276      2.5468      0.0530    106.9209
   676.6000      8.0807      7.5868     25.7484      2.5248      0.0407    109.1364
   676.7000      8.0807      9.1199     25.4189      2.4995      0.0251    110.8668
   676.8000      8.0806      8.6454     25.1195      2.5074      0.0425    114.4450
   676.9000      8.0806      6.2383     24.6978      2.5471      0.0544    117.3270
   677.0000      8.0791      4.4713     23.9928      2.5762      0.1130    115.9748
   677.1000      8.0791      4.7188     23.3066      2.5721      0.0900    111.6780
   677.2000      8.0791      5.4511     23.0334      2.5601      0.0634    106.6423
   677.3000      8.0781      4.9714     23.0594      2.5680      0.0859    102.4354
   677.4000      8.0781      3.8721     22.9677      2.5861      0.1039    100.0864
   677.5000      8.0768      3.4919     22.7393      2.5924      0.1351     99.0060
   677.6000      8.0768      3.4358     22.8482      2.5933      0.0652     97.0428
   677.7000      8.0768      2.5519     23.2706      2.6079      0.0506     92.7958
   677.8000      8.0758      1.4980     23.4787      2.6253      0.1056     90.3074
   677.9000      8.0758      1.2812     23.4371      2.6289      0.0253     92.2155
   678.0000      8.0762      1.3360     23.4534      2.6280      0.0737     93.0148
   678.1000      8.0762      1.5216     23.4212      2.6249      0.0660     90.8224
   678.2000      8.0762      1.9909     23.1582      2.6172      0.0513     90.3238
   678.3000      8.0776      2.1712     22.9531      2.6142      0.0627     90.4298
   678.4000      8.0776      1.9600     23.0824      2.6177      0.0579     86.0927
   678.5000      8.0779      2.1021     23.3658      2.6153      0.0712     79.1218
   678.6000      8.0779      2.4327     23.5935      2.6099      0.0289     74.5873
   678.7000      8.0779      1.7435     23.7354      2.6212      0.0342     73.9428
   678.8000      8.0778      0.2966     23.8740      2.6451      0.0923     77.1875
   678.9000      8.0778     -0.4220     24.1320      2.6570      0.0733     82.9401
   679.0000      8.0788      0.0071     24.3178      2.6499      0.1003     85.9391
   679.1000      8.0788      0.7843     24.1443      2.6371      0.0442     83.3915
   679.2000      8.0788      0.7611     23.8995      2.6374      0.0543     79.9111
   679.3000      8.0789      0.4564     23.8621      2.6425      0.1156     80.2876
   679.4000      8.0789      1.3810     23.6889      2.6272      0.0661     80.8738
   679.5000      8.0788      2.8899     23.2960      2.6023     -0.0228     76.7205
   679.6000      8.0788      3.7793     23.0824      2.5876      0.0734     70.8540
   679.7000      8.0788      4.5634     23.0237      2.5747      0.0042     68.4990
   679.8000      8.0794      5.3847     22.8470      2.5612      0.0173     71.8625
   679.9000      8.0794      5.3445     22.7053      2.5618     -0.0215     78.5969
   680.0000      8.0794      4.0062     22.7199      2.5839      0.0313     82.8119
   680.1000      8.0794      2.2117     22.6604      2.6135      0.0357     81.3973
   680.2000      8.0794      1.1432     22.5407      2.6311      0.0775     78.1995
   680.3000      8.0796      1.1546     22.5825      2.6309      0.0651     78.0401
   680.4000      8.0796      1.6970     22.6199      2.6220      0.0632     81.0493
   680.5000      8.0788      2.0463     22.5237      2.6162      0.0484     83.0454
   680.6000      8.0788      2.2676     22.4076      2.6126      0.0628     80.3278
   680.7000      8.0788      2.7427     22.3843      2.6047      0.0233     76.2844
   680.8000      8.0792      2.9178     22.5965      2.6019     -0.0033     75.6234
   680.9000      8.0792      2.8153     22.9695      2.6035      0.0757     77.0191
   681.0000      8.0802      3.4656     23.1739      2.5928      0.0162     77.4668
   681.1000      8.0802      4.4755     23.2478      2.5762      0.0230     78.4971
   681.2000      8.0802      4.5252     23.4413      2.5753     -0.0012     82.7240
   681.3000      8.0808      3.5633     23.7532      2.5912      0.0255     86.8171
   681.4000      8.0808      3.3178     24.0000      2.5953      0.0522     86.7041
   681.5000      8.0804      4.8003     23.9444      2.5708      0.0181     84.1929
   681.6000      8.0804      6.5123     23.6629      2.5425     -0.0014     82.6756
   681.7000      8.0804      6.6986     23.5103      2.5395      0.0119     83.3116
   681.8000      8.0784      5.3415     23.5236      2.5619      0.0384     86.1627
   681.9000      8.0784      3.4853     23.7784      2.5925      0.0658     91.4871
   682.0000      8.0783      1.8814     24.4995      2.6190      0.0993     97.4398
   682.1000      8.0783      0.7867     25.3601      2.6370      0.0999     98.9910
