~Version Information
 VERS.                                  2.0 : CWLS LAS VERSION
 WRAP.                                   NO : WRAPING MODE
 SWARE .                 MController 2.5.0J : SOFTWARE VERSION
~Well Information
 WELL.                         State 16-41R : WELL
 COMP.                Petrogulf Corporation : COMPANY
 FLD.                      Purgatoire River : FIELD
 LOC.               NE/NE Sec 16 T33S R67W  : LOCATION
 DATE.                          10/17-18/05 : DATE(S) LOGGED
 SRVC.       BLANCO Geological Services LLC : SERVICE COMPANY
 STAT.                                   CO : STATE
 CNTY.                           Las Animas : COUNTY
 CTRY.                                  USA : COUNTRY
 API.                       05-071-08410-00 : API NUMBER
 STRT.FT                              11.00 : START DEPTH
 STOP.FT                            1635.00 : STOP DEPTH
 STEP.FT                               1.00 : DEPTH INCREMENT
 NULL.                                -9999 : NULL VALUE
~Curve information
 DEPTH.FT                                   :
 ROP.MIN/FT                                 :
 GAS.UNITS                                  :
~ASCII Log data
# ...
       811.0         0.23         80.1 
       812.0         0.17         76.9 
       813.0         0.20         75.2 
       814.0         0.23         73.1 
       815.0         0.20         71.7 
       816.0         0.20         71.1 
       817.0         0.25         70.3 
       818.0         0.23         69.0 
       819.0         0.20         67.8 
       820.0         0.30         66.6 
       821.0         0.33         64.1 
       822.0         0.27         62.0 
       823.0         0.20         62.8 
       824.0         0.17         63.6 
       825.0         0.17         64.2 
       826.0         0.13         64.5 
       827.0         0.20         64.5 
       828.0         0.23         64.3 
       829.0         0.20         63.4 
       830.0         0.23         62.7 
       831.0         0.23         62.0 
       832.0         0.25         59.3 
       833.0         0.23         62.7 
       834.0         0.20         74.8 
       835.0         0.33        107.1 
       836.0         1.07        200.2 
       837.0         0.40        180.6 
       838.0         0.30        153.6 
       839.0         0.27        134.1 
       840.0         0.25        120.7 
       841.0         0.23        107.9 
       842.0         0.20         98.8 
       843.0         0.20         92.4 
       844.0         0.23         87.9 
       845.0         0.33         84.9 
       846.0         0.17         81.2 
       847.0         0.23         79.8 
       848.0         0.23         79.0 
       849.0         0.27         78.5 
       850.0         0.20         77.3 
       851.0         0.10         76.6 
       852.0         0.20         76.4 
       853.0         0.23         75.3 
       854.0         0.20         73.2 
       855.0         0.22         72.0 
       856.0         0.17         70.8 
       857.0         0.23         68.8 
       858.0         0.23         65.7 
       859.0         0.17         63.7 
       860.0         0.20         62.7 
       861.0         0.13         62.0 
       862.0         0.13         61.1 
       863.0         0.13         59.7 
       864.0         0.20         58.2 
       865.0         0.20         56.1 
       866.0         1.72        146.5 
       867.0         0.27        138.7 
       868.0         0.33        128.7 
       869.0         0.23        118.4 
       870.0         0.23        111.0 
       871.0         0.23        101.2 
       872.0         0.23         94.1 
       873.0         0.10         89.9 
       874.0         0.27         88.3 
       875.0         0.13         83.0 
       876.0         0.20         81.1 
       877.0         0.20         78.5 
       878.0         0.20         76.0 
       879.0         0.13         73.8 
       880.0         0.17         72.3 
       881.0         0.25         71.5 
       882.0         0.23         70.1 
       883.0         0.17         69.5 
       884.0         0.17         68.6 
       885.0         0.17         68.1 
       886.0         0.20         67.7 
       887.0         0.17         66.7 
       888.0         0.20         64.6 
       889.0         0.20         62.3 
       890.0         0.20         60.4 
       891.0         0.20         58.8 
       892.0         0.27         57.3 
       893.0         0.27         55.7 
       894.0         0.20         52.3 
       895.0         0.17         49.2 
       896.0         1.68        126.9 
       897.0         0.30        127.0 
       898.0         0.23        123.5 
       899.0         0.33        117.5 
       900.0         0.27        108.6 
       901.0         0.23        100.0 
       902.0         0.23         94.1 
       903.0         0.23         89.4 
       904.0         0.25         85.0 
       905.0         0.23         81.3 
       906.0         0.20         80.7 
       907.0         0.27         85.4 
       908.0         0.20         92.1 
       909.0         0.20         97.4 
       910.0         0.17        100.3 
       911.0         0.13        101.0 
       912.0         0.13        100.8 
       913.0         0.13        100.2 
       914.0         0.10         99.0 
       915.0         0.17         98.0 
       916.0         0.20         95.7 
       917.0         0.20         92.0 
       918.0         0.17         89.0 
       919.0         0.20         87.0 
       920.0         0.20         82.3 
       921.0         0.22         76.5 
       922.0         0.20         76.7 
       923.0         0.17         87.8 
       924.0         0.17        105.4 
       925.0         0.17        132.4 
       926.0         1.20        262.0 
       927.0         0.30        217.4 
       928.0         0.27        183.1 
       929.0         0.20        158.1 
       930.0         0.27        142.9 
       931.0         0.20        127.2 
       932.0         0.18        117.3 
       933.0         0.20        108.4 
       934.0         0.20         99.6 
       935.0         0.17         94.8 
       936.0         0.23         92.5 
       937.0         0.20         88.4 
       938.0         0.20         83.4 
       939.0         0.13         80.4 
       940.0         0.13         81.9 
       941.0         0.13         84.9 
       942.0         0.17         88.8 
       943.0         0.13         90.7 
       944.0         0.13         91.2 
       945.0         0.17         91.4 
       946.0         0.13         91.2 
       947.0         0.13         90.4 
       948.0         0.10         88.3 
       949.0         0.10         85.8 
       950.0         0.13         82.7 
       951.0         0.12         78.5 
       952.0         0.13         74.6 
       953.0         0.17         74.5 
       954.0         0.13         79.9 
       955.0         0.17         89.4 
       956.0         2.13        225.6 
       957.0         0.28        144.8 
       958.0         0.27        125.3 
       959.0         0.23        111.6 
       960.0         0.27        102.4 
       961.0         0.33         93.7 
       962.0         0.30         88.2 
       963.0         0.23         85.9 
       964.0         0.20         84.1 
       965.0         0.13         83.1 
       966.0         0.13         81.4 
       967.0         0.17         78.5 
       968.0         0.17         77.1 
       969.0         0.17         76.7 
       970.0         0.13         78.4 
       971.0         0.32         84.3 
       972.0         0.17         85.4 
       973.0         0.13         85.5 
       974.0         0.10         84.8 
       975.0         0.10         83.9 
       976.0         0.10         83.2 
       977.0         0.13         82.4 
       978.0         0.07         80.7 
       979.0         0.13         79.2 
       980.0         0.13         75.4 
       981.0         0.13         71.2 
       982.0         0.17         67.3 
       983.0         0.17         67.1 
       984.0         0.20         77.8 
       985.0         0.17         93.5 
       986.0         1.85        332.1 
       987.0         0.40        257.6 
       988.0         0.33        209.0 
       989.0         0.40        171.2 
       990.0         0.30        138.2 
       991.0         0.27        116.4 
       992.0         0.20        102.7 
       993.0         0.17         94.5 
       994.0         0.15         88.6 
       995.0         0.30         84.4 
       996.0         0.23         78.4 
       997.0         0.20         75.0 
       998.0         0.20         72.8 
       999.0         0.20         71.0 
      1000.0         0.20         69.6 
      1001.0         0.27         68.3 
      1002.0         0.27         67.1 
      1003.0         0.23         66.3 
      1004.0         0.27         66.0 
      1005.0         0.23         65.6 
      1006.0         0.33         65.7 
      1007.0         0.32         64.4 
      1008.0         0.30         62.8 
      1009.0         0.17         61.0 
      1010.0         0.13         58.0 
