~Version Information
VERS.                      2.0: CWLS Log ASCII Standard - VERSION 2.0
WRAP.                       NO: One line per depth step
~Well Information Block
STRT.FT                -8.2500: 
STOP.FT              2725.7500: 
STEP.FT                 0.2500: 
NULL.                -999.2500: 
COMP.          Pioneer Natural Resources: COMPANY
WELL.          Rabbit Bush Federal 44-19: WELL
FLD.           Purgatoire River: FIELD
LOC.           826' FSL & 1127' FEL: LOCATION
CNTY.               Las Animas: COUNTY
SRVC.                Patterson: SERVICE COMPANY
DATE.          Thu Sep 14 10:51:19 2006: LOG DATE
UWI.           05 071 08149 00: UNIQUE WELL ID
STAT.                       CO: STATE
~Curve Information Block
DEPT.FT            0 000 00 00: Depth
GR.GAPI                       : Gamma Ray
CCL.                          : Casing Collar Locator
TT3.usec                      : CBL 3' Travel Time
AMP3.mV                       : CBL 3' Amplitude
~Parameter Information Block
~A  Depth        GR         CCL         TT3         AMP3    
# ...
   728.7500     59.4817      0.0000    258.1231     66.2895
   729.0000     60.5786      0.0000    258.0731     66.2775
   729.2500     61.8361      0.0000    258.0296     66.3146
   729.5000     63.2273      0.0000    258.0129     66.4392
   729.7500     65.0696      0.0000    258.0258     66.6515
   730.0000     68.1353      0.0000    258.0593     66.9074
   730.2500     72.9384      0.0000    258.1010     67.1511
   730.5000     78.7628      0.0000    258.1384     67.3479
   730.7500     84.0935      0.0000    258.1597     67.4939
   731.0000     88.1377      0.0000    258.1566     67.6037
   731.2500     91.3560      0.0000    258.1318     67.6864
   731.5000     94.6766      0.0000    258.1021     67.7275
   731.7500     98.8627      0.0000    258.0876     67.6931
   732.0000    104.3997      0.0000    258.1010     67.5531
   732.2500    111.2115      0.0000    258.1464     67.2960
   732.5000    118.5062      0.0000    258.2241     66.9286
   732.7500    125.3762      0.0000    258.3289     66.4696
   733.0000    131.5187      0.0000    258.4486     65.9472
   733.2500    137.2871      0.0000    258.5678     65.3978
   733.5000    143.3227      0.0000    258.6730     64.8635
   733.7500    149.9012      0.0000    258.7591     64.3853
   734.0000    156.2629      0.0000    258.8319     63.9890
   734.2500    161.0456      0.0000    258.9064     63.6673
   734.5000    163.8478      0.0000    258.9976     63.3804
   734.7500    165.7839      0.0000    259.1100     63.0851
   735.0000    167.9008      0.0000    259.2321     62.7718
   735.2500    169.4533      0.0000    259.3395     62.4794
   735.5000    168.2196      0.0000    259.4071     62.2768
   735.7500    162.4455      0.0000    259.4202     62.2275
   736.0000    152.4773      0.0000    259.3784     62.3663
   736.2500    140.7199      0.0000    259.2936     62.6896
   736.5000    130.0456      0.0000    259.1860     63.1407
   736.7500    122.1427      0.0000    259.0800     63.5956
   737.0000    117.1909      0.0000    258.9980     63.8971
   737.2500    114.7588      0.0000    258.9499     63.9470
   737.5000    114.6131      0.0000    258.9276     63.7776
   737.7500    116.6135      0.0000    258.9098     63.5285
   738.0000    120.1962      0.0000    258.8809     63.3525
   738.2500    124.1772      0.0000    258.8450     63.3316
   738.5000    127.0136      0.0000    258.8203     63.4511
   738.7500    127.4952      0.0000    258.8145     63.6320
   739.0000    125.7526      0.0000    258.8116     63.7887
   739.2500    123.5059      0.0000    258.7838     63.8689
   739.5000    122.6224      0.0000    258.7146     63.8605
   739.7500    123.3717      0.0000    258.6118     63.7786
   740.0000    124.5241      0.0000    258.5073     63.6603
   740.2500    124.8184      0.0000    258.4433     63.5694
   740.5000    123.6075      0.0000    258.4412     63.5869
   740.7500    120.5260      0.0000    258.4794     63.7723
   741.0000    115.6394      0.0000    258.5103     64.1211
   741.2500    110.0777      0.0000    258.5053     64.5524
   741.5000    105.7081      0.0000    258.4720     64.9456
   741.7500    103.6646      0.0000    258.4297     65.2087
   742.0000    103.3775      0.0000    258.3803     65.3310
   742.2500    103.5231      0.0000    258.3134     65.3752
   742.5000    103.9187      0.0000    258.2307     65.4177
   742.7500    105.7714      0.0000    258.1535     65.4941
   743.0000    109.6513      0.0000    258.1044     65.6017
   743.2500    114.0379      0.0000    258.0861     65.7385
   743.5000    116.7551      0.0000    258.0824     65.9261
   743.7500    117.3394      0.0000    258.0772     66.1907
   744.0000    117.1502      0.0000    258.0653     66.5323
   744.2500    117.5989      0.0000    258.0450     66.9222
   744.5000    119.1000      0.0000    258.0109     67.3280
   744.7500    121.7438      0.0000    257.9613     67.7380
   745.0000    126.2821      0.0000    257.9075     68.1606
   745.2500    133.6685      0.0000    257.8672     68.6080
   745.5000    143.2835      0.0000    257.8504     69.0788
   745.7500    151.9493      0.0000    257.8528     69.5541
   746.0000    155.5157      0.0000    257.8621     70.0044
   746.2500    152.1630      0.0000    257.8665     70.3980
   746.5000    144.5364      0.0000    257.8607     70.7066
   746.7500    138.4635      0.0000    257.8461     70.9131
   747.0000    138.5923      0.0000    257.8274     71.0221
   747.2500    144.4135      0.0000    257.8114     71.0590
   747.5000    150.6135      0.0000    257.8043     71.0506
   747.7500    151.8436      0.0000    257.8088     71.0047
   748.0000    147.2306      0.0000    257.8214     70.9134
   748.2500    140.3543      0.0000    257.8339     70.7783
   748.5000    135.4754      0.0000    257.8380     70.6219
   748.7500    134.3503      0.0000    257.8302     70.4657
   749.0000    136.3590      0.0000    257.8276     70.2975
   749.2500    140.4711      0.0000    257.8896     70.0485
   749.5000    145.9288      0.0000    258.2529     69.5721
   749.7500    151.1711      0.0000    259.6183     68.6243
   750.0000    153.5323      0.0000    263.4672     66.8910
   750.2500    150.9290      0.0000    271.6808     64.1062
   750.5000    143.6066      0.0000    284.6919     60.2756
   750.7500    133.9206      0.0000    299.2347     55.9242
   751.0000    124.4969      0.0000    308.9641     52.1091
   751.2500    116.5148      0.0000    309.0829     49.9173
   751.5000    109.6088      0.0000    300.5598     49.6996
   751.7500    103.6166      0.0000    289.1447     50.8285
   752.0000    100.3676      2.0000    280.6990     52.2648
   752.2500    103.0471     -2.0000    277.7701     53.2543
   752.5000    112.9892      0.0000    279.3667     53.4835
   752.7500    127.2034      0.0000    282.6789     52.8900
   753.0000    140.0089      0.0000    285.1867     51.6634
   753.2500    147.5926      0.0000    285.9435     50.4323
   753.5000    150.5765      0.0000    285.2992     50.1254
   753.7500    152.0639      0.0000    283.6496     51.3709
   754.0000    154.0667      0.0000    280.7495     54.0276
   754.2500    156.2538      0.0000    276.2407     57.3214
   754.5000    157.2563      0.0000    270.6045     60.3402
   754.7500    156.1888      0.0000    265.2039     62.4578
   755.0000    153.1060      0.0000    261.2876     63.5367
   755.2500    148.8628      0.0000    259.1667     63.8558
   755.5000    144.7832      0.0000    258.3585     63.8176
   755.7500    141.9377      0.0000    258.2144     63.6932
   756.0000    140.3885      0.0000    258.3042     63.5797
   756.2500    139.1976      0.0000    258.4273     63.4890
   756.5000    137.1807      0.0000    258.5085     63.4082
   756.7500    133.7320      0.0000    258.5262     63.3048
   757.0000    129.0879      0.0000    258.4893     63.1353
   757.2500    123.9262      0.0000    258.4260     62.8984
   757.5000    118.9221      0.0000    258.3667     62.6825
   757.7500    114.8786      0.0000    258.3375     62.6231
   758.0000    112.8250      0.0000    258.3547     62.7901
   758.2500    113.2441      0.0000    258.4118     63.1303
   758.5000    115.3222      0.0000    258.4763     63.5254
   758.7500    117.6488      0.0000    258.5079     63.8833
   759.0000    119.6322      0.0000    258.4802     64.1745
   759.2500    121.6260      0.0000    258.3880     64.4135
   759.5000    123.6790      0.0000    258.2463     64.6302
   759.7500    124.7729      0.0000    258.0879     64.8523
   760.0000    123.4953      0.0000    257.9510     65.1021
   760.2500    119.2243      0.0000    257.8611     65.3949
   760.5000    112.6000      0.0000    257.8193     65.7343
   760.7500    104.9168      0.0000    257.8082     66.1077
   761.0000     97.3264      0.0000    257.8087     66.4918
   761.2500     91.0092      0.0000    257.8116     66.8574
   761.5000     87.5077      0.0000    257.8147     67.1766
   761.7500     87.6461      0.0000    257.8121     67.4316
   762.0000     90.1930      0.0000    257.7935     67.6215
