~Version Information
 VERS.                                  2.0 : CWLS LAS VERSION
 WRAP.                                   NO : WRAPING MODE
 SWARE .                 MController 2.5.0J : SOFTWARE VERSION
~Well Information
 WELL.                         Squeal 11-26 : WELL
 COMP.    Pioneer Natural Resources USA Inc : COMPANY
 FLD.                      Purgatoire River : FIELD
 LOC.                NW/NW Sec 26 T32S R67W : LOCATION
 DATE.                         6/13-14/2005 : DATE(S) LOGGED
 SRVC.       Blanco Geological Services LLC : SERVICE COMPANY
 STAT.                                   CO : STATE
 CNTY.                           Las Animas : COUNTY
 CTRY.                                  USA : COUNTRY
 API.                       05-071-08404-00 : API NUMBER
 STRT.FT                             285.00 : START DEPTH
 STOP.FT                            2760.00 : STOP DEPTH
 STEP.FT                               1.00 : DEPTH INCREMENT
 NULL.                                -9999 : NULL VALUE
~Curve information
 DEPTH.FT                                   :
 ROP.MIN/FT                                 :
 GAS.UNITS                                  :
~ASCII Log data
# ...
      1485.0         0.67        839.8 
      1486.0         1.00        744.1 
      1487.0         0.47        808.8 
      1488.0         0.47        867.4 
      1489.0         0.55        901.1 
      1490.0         0.40        900.4 
      1491.0         0.93        881.5 
      1492.0         0.40        857.6 
      1493.0         0.40        859.3 
      1494.0         0.53        872.8 
      1495.0         0.47        877.1 
      1496.0         0.58        871.4 
      1497.0         0.70        861.7 
      1498.0         0.60        847.8 
      1499.0         0.60        818.9 
      1500.0        15.75       5133.7 
      1501.0         0.37        471.8 
      1502.0         0.20        507.6 
      1503.0         0.33        580.3 
      1504.0         0.30        653.4 
      1505.0         0.43        737.0 
      1506.0         0.48        809.8 
      1507.0         0.53        832.7 
      1508.0         0.53        818.5 
      1509.0         0.57        777.1 
      1510.0         1.07        755.2 
      1511.0         1.02        758.6 
      1512.0         0.70        761.3 
      1513.0         0.30        753.8 
      1514.0         0.50        774.7 
      1515.0         0.50        794.3 
      1516.0         1.05        800.7 
      1517.0         0.33        775.1 
      1518.0         0.20        765.0 
      1519.0         0.20        757.2 
      1520.0         0.23        745.8 
      1521.0         0.57        739.4 
      1522.0         0.37        779.1 
      1523.0         0.33        811.8 
      1524.0         0.30        822.9 
      1525.0         0.20        822.6 
      1526.0         0.17        817.9 
      1527.0         0.32        814.5 
      1528.0         0.43        802.0 
      1529.0         0.53        777.4 
      1530.0         9.18       2099.5 
      1531.0         0.53        440.0 
      1532.0         0.57         31.7 
      1533.0         0.43         56.2 
      1534.0         0.43         89.4 
      1535.0         0.43        130.3 
      1536.0         0.40        170.4 
      1537.0         0.42        197.2 
      1538.0         0.27        200.3 
      1539.0         0.10        200.0 
      1540.0         0.20        199.0 
      1541.0         0.20        203.6 
      1542.0         0.13        212.6 
      1543.0         0.13        220.1 
      1544.0         0.17        223.1 
      1545.0         0.23        223.1 
      1546.0         0.57        236.5 
      1547.0         0.70        245.4 
      1548.0         0.20        248.4 
      1549.0         0.17        251.1 
      1550.0         0.28        260.6 
      1551.0         0.43        270.6 
      1552.0         0.27        264.5 
      1553.0         0.27        248.7 
      1554.0         0.37        219.2 
      1555.0         0.50        163.4 
      1556.0         0.30         66.5 
      1557.0         0.50         34.3 
      1558.0         0.47         95.0 
      1559.0         0.45        156.1 
      1560.0        13.90       2993.0 
      1561.0         0.30        442.2 
      1562.0         0.20         45.9 
      1563.0         0.23         65.1 
      1564.0         0.27         98.4 
      1565.0         0.27        141.8 
      1566.0         0.20        175.4 
      1567.0         0.37        228.4 
      1568.0         0.40        249.0 
      1569.0         0.32        250.5 
      1570.0         0.17        250.5 
      1571.0         0.13        252.5 
      1572.0         0.13        257.2 
      1573.0         0.17        262.0 
      1574.0         0.23        262.5 
      1575.0         0.20        259.4 
      1576.0         0.30        252.3 
      1577.0         0.43        243.7 
      1578.0         0.30        232.1 
      1579.0         0.27        222.5 
      1580.0         0.70        208.1 
      1581.0         0.98        161.0 
      1582.0         0.87        133.1 
      1583.0         0.87        184.4 
      1584.0         0.33        202.5 
      1585.0         0.37        225.0 
      1586.0         0.32        245.5 
      1587.0         0.30        255.7 
      1588.0         0.30        257.4 
      1589.0         0.37        253.4 
      1590.0         8.17       2630.1 
      1591.0         0.17       2630.1 
      1592.0         0.33       2622.7 
      1593.0         0.32       2628.1 
      1594.0         0.23       2599.1 
      1595.0         0.23       2130.1 
      1596.0         0.33       1451.6 
      1597.0         0.43        827.6 
      1598.0         0.33        547.6 
      1599.0         0.30        452.3 
      1600.0         0.23        440.0 
      1601.0         1.00         46.5 
      1602.0         0.38         73.2 
      1603.0         0.40        111.4 
      1604.0         0.43        148.4 
      1605.0         0.30        163.4 
      1606.0         0.43        177.9 
      1607.0         0.40        183.4 
      1608.0         0.43        201.4 
      1609.0         0.40        209.9 
      1610.0         0.38        218.5 
      1611.0         0.33        227.7 
      1612.0         0.37        232.9 
      1613.0         0.50        232.9 
      1614.0         0.47        220.3 
      1615.0         0.40        202.6 
      1616.0         0.47        293.7 
      1617.0         0.53        375.2 
      1618.0         0.52        411.4 
      1619.0         0.53        428.9 
      1620.0         0.40        433.3 
      1621.0        13.98       4208.9 
      1622.0         0.45       4498.3 
      1623.0         0.53       4370.9 
      1624.0         0.50       1965.4 
      1625.0         0.53        948.6 
      1626.0         0.57        740.0 
      1627.0         0.37        708.0 
      1628.0         0.30        784.2 
      1629.0         0.17        824.9 
      1630.0         0.12        855.9 
      1631.0         0.13        882.2 
      1632.0         0.23        926.3 
      1633.0         0.27        972.5 
      1634.0         0.27       1019.7 
      1635.0         0.27       1068.9 
      1636.0         0.27       1097.5 
      1637.0         0.33       1105.9 
      1638.0         0.40       1099.8 
      1639.0         0.40       1088.1 
      1640.0         0.60       1070.5 
      1641.0         0.42        998.1 
      1642.0         0.83       1458.3 
      1643.0         0.53       1465.1 
      1644.0         0.27       1284.5 
      1645.0         0.17       1230.2 
      1646.0         0.20       1253.8 
      1647.0         0.23       1289.2 
      1648.0         0.20       1328.3 
      1649.0         0.27       1360.3 
      1650.0         0.27       1361.0 
      1651.0         8.88       1991.3 
      1652.0         0.47        903.8 
      1653.0         0.70        789.9 
      1654.0         0.62        708.4 
      1655.0         0.33        821.6 
      1656.0         0.20        896.7 
      1657.0         0.23        964.7 
      1658.0         0.57       1113.3 
      1659.0         0.97       1229.6 
      1660.0         1.05       1230.9 
      1661.0         1.00       1174.3 
      1662.0         0.93       1072.6 
      1663.0         0.85       1145.7 
      1664.0         0.93       1193.5 
      1665.0         0.80       1193.5 
      1666.0         0.93       1218.8 
      1667.0         0.82       1217.4 
      1668.0         0.87       1156.1 
      1669.0         0.83       1128.5 
      1670.0         1.13       1206.7 
      1671.0         1.28       1191.8 
      1672.0         1.30       1166.2 
      1673.0         1.03       1216.4 
      1674.0         1.02       1215.7 
      1675.0         0.97       1220.8 
      1676.0         0.93       1273.7 
      1677.0         0.72       1374.8 
      1678.0         0.40       1464.7 
      1679.0         0.17       1477.2 
      1680.0         0.13       1477.5 
      1681.0         5.08       1781.1 
      1682.0         1.05       2586.7 
      1683.0         0.63       2872.0 
      1684.0         0.10       2907.7 
