~Version Information
VERS.                      2.0: CWLS Log ASCII Standard - VERSION 2.0
WRAP.                       NO: One line per depth step
~Well Information Block
STRT.FT               902.0000: 
STOP.FT              2428.2000: 
STEP.FT                 0.1000: 
NULL.                -999.2500: 
COMP.          Pioneer Natural Resources: COMPANY
WELL.            Victory 12-14: WELL
FLD.           Purgatoire River: FIELD
LOC.           2434' FNL & 188' FWL: LOCATION
PROV.                 Colorado: PROVINCE
CNTY.               Las Animas: COUNTRY
SRVC.                Patterson: SERVICE COMPANY
DATE.          Mon Apr 18 07:24:17 2005: LOG DATE
UWI.           05 071 08332 00: UNIQUE WELL ID
~Curve Information Block
DEPT.FT            0 000 00 00: Depth
DCAL.in                       : CDL Caliper
RHOB.g/cc                     : CDL Bulk Density
RHOC.g/cc                     : CDL Density Correction
DPOR.pu                       : CDL Density Porosity
GR.GAPI                       : Gamma Ray
NPOR.pu                       : Neutron Porosity
~Parameter Information Block
~A  Depth       DCAL        RHOB        RHOC        DPOR         GR         NPOR    
# ...
   998.0000      8.4342      1.1414      0.2238     91.4303     66.0941     11.3736
   998.1000      8.4342      1.1624      0.2999     90.1568     65.4846     11.7794
   998.2000      8.4342      1.2282      0.3011     86.1709     70.1451     12.4372
   998.3000      8.6062      1.3403      0.3167     79.3741     76.1707     13.2364
   998.4000      8.6062      1.4833      0.4128     70.7089     80.9192     14.6060
   998.5000      8.7122      1.6347      0.4286     61.5313     86.3738     16.9481
   998.6000      8.7122      1.8022      0.4300     51.3813     94.3617     19.7740
   998.7000      8.7122      1.9812      0.4679     40.5339    103.4561     22.1378
   998.8000      8.5329      2.1273      0.4927     31.6796    111.5765     23.9375
   998.9000      8.5329      2.2202      0.4939     26.0492    115.7567     25.3819
   999.0000      8.3804      2.2981      0.3753     21.3289    115.7818     26.4001
   999.1000      8.3804      2.3944      0.3651     15.4880    116.8969     27.0663
   999.2000      8.3804      2.4766      0.4166     10.5066    123.1015     27.3703
   999.3000      8.2760      2.5032      0.2432      8.8966    132.1285     27.4589
   999.4000      8.2760      2.4855      0.1380      9.9695    140.5321     27.5312
   999.5000      8.2419      2.4470      0.1418     12.3044    147.4868     27.4848
   999.6000      8.2419      2.4018      0.0945     15.0450    152.1211     27.2959
   999.7000      8.2419      2.3705      0.0684     16.9421    152.1772     27.1693
   999.8000      8.2080      2.3623      0.0575     17.4352    146.4364     27.2105
   999.9000      8.2080      2.3685      0.0035     17.0627    137.6750     27.2837
  1000.0000      8.1486      2.3832      0.0312     16.1713    133.3427     27.2526
  1000.1000      8.1486      2.4015      0.0481     15.0620    137.5060     27.1054
  1000.2000      8.1486      2.4028      0.0847     14.9791    143.8614     27.2075
  1000.3000      8.1244      2.3790      0.0156     16.4261    145.7959     27.8777
  1000.4000      8.1244      2.3704     -0.0504     16.9436    142.8492     28.7819
  1000.5000      8.1191      2.4137      0.0465     14.3233    137.4113     29.5194
  1000.6000      8.1191      2.4894      0.1151      9.7354    133.3626     29.9942
  1000.7000      8.1191      2.5640      0.1276      5.2147    132.7789     29.9239
  1000.8000      8.1244      2.6140      0.1892      2.1821    133.8773     29.1904
  1000.9000      8.1244      2.6284      0.1025      1.3074    135.6938     28.2622
  1001.0000      8.1326      2.6185      0.0939      1.9076    138.1253     27.7075
  1001.1000      8.1326      2.5979      0.0988      3.1590    139.9407     27.6328
  1001.2000      8.1326      2.5707      0.0689      4.8067    142.6495     27.6397
  1001.3000      8.1492      2.5400      0.0342      6.6661    149.9116     27.3556
  1001.4000      8.1492      2.5173     -0.0080      8.0405    158.5011     26.8552
  1001.5000      8.1438      2.5057      0.0411      8.7430    163.9824     26.4955
  1001.6000      8.1438      2.4868     -0.0099      9.8897    166.2335     26.0882
  1001.7000      8.1438      2.4501      0.0527     12.1149    162.9508     25.2579
  1001.8000      8.1494      2.4030      0.0385     14.9714    156.0940     24.4619
  1001.9000      8.1494      2.3527      0.0854     18.0182    150.5999     23.8661
  1002.0000      8.2321      2.3024      0.0214     21.0682    148.5205     22.8721
  1002.1000      8.2321      2.2592      0.0183     23.6838    149.1915     21.5952
  1002.2000      8.2321      2.2202      0.0283     26.0490    147.1508     20.7398
  1002.3000      8.2494      2.1689      0.0513     29.1583    139.4078     20.4596
  1002.4000      8.2494      2.1005     -0.0018     33.3017    133.2996     20.4349
  1002.5000      8.2576      2.0319     -0.0491     37.4598    134.4982     20.3911
  1002.6000      8.2576      1.9848     -0.0773     40.3133    136.4271     20.4586
  1002.7000      8.2576      1.9622      0.0155     41.6845    134.9760     20.9021
  1002.8000      8.2902      1.9483      0.0248     42.5279    135.2336     21.8991
  1002.9000      8.2902      1.9385      0.0564     43.1215    139.4848     23.3824
  1003.0000      8.3353      1.9402      0.1220     43.0163    143.2185     24.8820
  1003.1000      8.3353      1.9604      0.0782     41.7968    143.5893     25.6592
  1003.2000      8.3353      2.0042      0.1431     39.1373    142.5974     25.7523
  1003.3000      8.3544      2.0631      0.1862     35.5683    143.8452     26.0608
  1003.4000      8.3544      2.1226      0.1717     31.9625    149.2647     26.7791
  1003.5000      8.3423      2.1850      0.1133     28.1833    157.4114     27.4530
  1003.6000      8.3423      2.2466      0.1105     24.4478    162.8071     27.9605
  1003.7000      8.3423      2.2820      0.0650     22.3018    161.5721     28.3205
  1003.8000      8.3294      2.2891      0.0295     21.8704    158.9643     28.4323
  1003.9000      8.3294      2.3034      0.0126     21.0040    162.2012     28.4156
  1004.0000      8.3272      2.3489      0.0472     18.2497    166.6322     28.3916
  1004.1000      8.3272      2.4067      0.1289     14.7475    163.9546     28.3659
  1004.2000      8.3272      2.4391      0.0971     12.7820    157.9258     28.3668
  1004.3000      8.2943      2.4400      0.0894     12.7290    155.1483     28.4558
  1004.4000      8.2943      2.4338      0.0481     13.1058    151.7489     28.7096
  1004.5000      8.3077      2.4216      0.1108     13.8400    146.5140     29.1129
  1004.6000      8.3077      2.3984     -0.0211     15.2507    145.0670     29.5520
  1004.7000      8.3077      2.4044     -0.0467     14.8838    148.6512     29.8857
  1004.8000      8.3147      2.4636      0.0543     11.2946    155.0988     29.8340
  1004.9000      8.3147      2.5370      0.0937      6.8506    158.4671     29.4443
  1005.0000      8.2229      2.5838      0.0959      4.0099    153.0842     29.0756
  1005.1000      8.2229      2.6076      0.0709      2.5705    142.5711     28.4569
  1005.2000      8.2229      2.6304      0.1082      1.1865    135.6493     27.5219
  1005.3000      8.1679      2.6571      0.1290     -0.4274    137.7232     27.0835
  1005.4000      8.1679      2.6692      0.1772     -1.1639    149.7363     27.3812
  1005.5000      8.1348      2.6486      0.1469      0.0844    162.3166     27.8337
  1005.6000      8.1348      2.5983      0.0927      3.1313    162.8438     28.0218
  1005.7000      8.1348      2.5424      0.0051      6.5202    151.2540     27.9794
  1005.8000      8.1232      2.5082      0.0988      8.5916    136.9604     28.1247
  1005.9000      8.1232      2.5013      0.1553      9.0120    128.0560     28.5620
  1006.0000      8.1189      2.5094      0.1787      8.5214    125.4986     28.9775
  1006.1000      8.1189      2.5264      0.1232      7.4917    122.2334     29.2048
  1006.2000      8.1189      2.5540      0.1339      5.8155    114.4514     29.2135
  1006.3000      8.1219      2.5791      0.1362      4.2965    106.2415     29.0076
  1006.4000      8.1219      2.5840      0.0995      3.9993    100.8035     28.7191
  1006.5000      8.1454      2.5820      0.0702      4.1194     95.2998     28.5950
  1006.6000      8.1454      2.6003      0.0351      3.0107     86.1859     28.6657
  1006.7000      8.1454      2.6259      0.1066      1.4611     78.9611     28.5533
  1006.8000      8.1301      2.6192      0.0903      1.8690     80.8645     27.9078
  1006.9000      8.1301      2.5833      0.0173      4.0430     85.9196     27.1164
  1007.0000      8.1121      2.5478      0.0109      6.1925     86.1092     26.4834
  1007.1000      8.1121      2.5201     -0.0455      7.8738     84.5828     25.7976
  1007.2000      8.1121      2.5010     -0.0874      9.0277     85.9127     25.1894
  1007.3000      8.0691      2.4919      0.0064      9.5846     89.5675     24.7841
  1007.4000      8.0691      2.4827      0.0348     10.1371     92.0014     24.5737
  1007.5000      8.0564      2.4745      0.0131     10.6341     91.7439     24.4167
