~Version Information
VERS.                      2.0: CWLS Log ASCII Standard - VERSION 2.0
WRAP.                       NO: One line per depth step
~Well Information Block
STRT.FT                15.0000: 
STOP.FT              1891.7500: 
STEP.FT                 0.2500: 
NULL.                -999.2500: 
COMP.          Pioneer Natural Resources: COMPANY
WELL.          Oink Oink 14-36 Tr: WELL
FLD.           Purgatoire River: FIELD
LOC.           236' FSL & 164' FWL: LOCATION
PROV.                 Colorado: PROVINCE
CNTY.               Las Animas: COUNTRY
SRVC.                Patterson: SERVICE COMPANY
DATE.          Wed Jun 22 11:40:13 2005: LOG DATE
UWI.           05 071 08393 00: UNIQUE WELL ID
~Curve Information Block
DEPT.FT            0 000 00 00: Depth
GR.GAPI                       : Gamma Ray
CCL.                          : Casing Collar Locator
TT3.usec                      : CBL 3' Travel Time
AMP3.mV                       : CBL 3' Amplitude
~Parameter Information Block
~A  Depth        GR         CCL         TT3         AMP3    
# ...
   383.5000     66.1347      0.0000    689.2351      5.7813
   383.7500     64.1103      0.0000    691.8873      5.8107
   384.0000     63.0181      0.0000    692.5826      5.8475
   384.2500     61.7421      0.0000    692.3042      5.8560
   384.5000     59.5153      0.0000    690.9772      5.8127
   384.7500     56.5078      0.0000    687.9233      5.7191
   385.0000     53.6498      0.0000    682.9349      5.5908
   385.2500     51.9454      0.0000    677.8202      5.4433
   385.5000     51.8583      0.0000    676.7159      5.2877
   385.7500     53.1735      0.0000    683.4415      5.1289
   386.0000     55.2878      0.0000    697.7484      4.9680
   386.2500     57.4597      0.0000    715.0934      4.8099
   386.5000     58.8817      0.0000    730.6533      4.6664
   386.7500     59.0561      0.0000    742.4026      4.5511
   387.0000     58.3951      3.0000    749.9629      4.4735
   387.2500     58.0496      3.0000    752.2659      4.4354
   387.5000     58.7354      0.0000    747.4446      4.4293
   387.7500     59.8622      0.0000    734.4067      4.4446
   388.0000     60.0714      0.0000    714.4899      4.4769
   388.2500     58.6144      0.0000    692.3688      4.5262
   388.5000     56.1544      0.0000    674.9173      4.5853
   388.7500     54.3312      0.0000    667.4161      4.6412
   389.0000     54.5193      0.0000    669.8779      4.6887
   389.2500     56.8206      0.0000    677.5243      4.7324
   389.5000     60.2412      0.0000    685.0058      4.7740
   389.7500     63.9366      0.0000    689.7595      4.8077
   390.0000     68.1755      0.0000    691.9658      4.8275
   390.2500     73.7810      0.0000    692.7403      4.8367
   390.5000     80.5363      0.0000    692.9286      4.8465
   390.7500     86.5492      0.0000    692.9340      4.8657
   391.0000     89.6999      0.0000    692.9243      4.8937
   391.2500     89.5803      0.0000    692.9817      4.9260
   391.5000     87.5784      0.0000    693.1360      4.9658
   391.7500     85.3021      0.0000    693.3606      5.0211
   392.0000     83.5631      0.0000    693.5914      5.0912
   392.2500     82.7375      0.0000    693.7737      5.1604
   392.5000     83.1964      0.0000    693.9132      5.2106
   392.7500     85.0218      0.0000    694.0648      5.2374
   393.0000     87.6948      0.0000    694.2420      5.2532
   393.2500     90.4238      0.0000    694.2244      5.2726
   393.5000     92.8032      0.0000    693.3438      5.2986
   393.7500     95.1178      0.0000    690.2698      5.3250
   394.0000     97.9321      0.0000    683.1560      5.3508
   394.2500    101.4145      0.0000    670.6826      5.3889
   394.5000    105.2068      0.0000    653.5314      5.4518
   394.7500    108.8506      0.0000    634.7487      5.5322
   395.0000    112.0481      0.0000    618.2721      5.6028
   395.2500    114.5110      0.0000    606.7287      5.6398
   395.5000    115.8838      0.0000    599.7062      5.6449
   395.7500    115.9566      0.0000    593.6170      5.6431
   396.0000    114.7857      0.0000    584.4795      5.6565
   396.2500    112.4565      0.0000    572.5129      5.6844
   396.5000    109.0118      0.0000    564.2533      5.7107
   396.7500    104.9269      0.0000    568.7837      5.7268
   397.0000    101.3070      0.0000    589.5737      5.7437
   397.2500     99.0789      0.0000    619.2117      5.7783
   397.5000     98.1333      0.0000    643.9503      5.8320
   397.7500     97.7879      0.0000    654.9603      5.8858
   398.0000     98.0087      0.0000    654.8400      5.9165
   398.2500     99.6507      0.0000    652.7709      5.9137
   398.5000    103.3853      0.0000    654.2137      5.8856
   398.7500    108.7769      0.0000    656.2374      5.8492
   399.0000    114.5745      0.0000    652.3085      5.8184
   399.2500    119.6425      0.0000    639.8237      5.7974
   399.5000    123.5229      0.0000    622.0040      5.7818
   399.7500    126.5561      0.0000    603.9869      5.7690
   400.0000    129.6413      0.0000    589.0196      5.7647
   400.2500    133.3126      0.0000    577.8187      5.7768
   400.5000    136.7653      0.0000    569.6644      5.8000
   400.7500    138.2448      0.0000    563.7037      5.8139
   401.0000    136.7143      0.0000    559.9604      5.8046
   401.2500    132.8095      0.0000    559.1874      5.7837
   401.5000    128.0557      0.0000    561.2333      5.7788
   401.7500    123.5607      0.0000    563.6507      5.8041
   402.0000    119.6570      0.0000    562.6103      5.8473
   402.2500    116.4583      0.0000    555.6320      5.8871
   402.5000    114.2797      0.0000    543.4827      5.9145
   402.7500    113.3128      0.0000    529.5483      5.9348
   403.0000    113.1020      0.0000    517.5884      5.9534
   403.2500    112.7743      0.0000    509.9858      5.9693
   403.5000    111.9070      0.0000    507.4716      5.9809
   403.7500    110.7677      0.0000    509.5841      5.9933
   404.0000    109.5303      0.0000    514.8313      6.0120
   404.2500    107.7611      0.0000    520.8217      6.0348
   404.5000    105.1212      0.0000    525.4288      6.0555
   404.7500    102.2393      0.0000    528.5294      6.0750
   405.0000    100.3359      0.0000    532.4125      6.1024
   405.2500     99.9026      0.0000    539.7665      6.1432
   405.5000    100.0903      0.0000    550.6308      6.1903
   405.7500     99.6265      0.0000    561.0888      6.2276
   406.0000     98.1755      0.0000    565.9462      6.2409
   406.2500     96.4282      0.0000    564.1346      6.2239
   406.5000     94.9756      0.0000    561.3763      6.1781
   406.7500     93.6646      0.0000    566.1566      6.1086
   407.0000     92.2361      0.0000    582.3580      6.0255
   407.2500     91.1354      0.0000    605.4279      5.9479
   407.5000     91.2684      0.0000    624.9347      5.8976
   407.7500     93.0185      0.0000    631.6055      5.8840
   408.0000     95.8694      0.0000    624.1823      5.8953
   408.2500     99.0569      0.0000    610.5242      5.9084
   408.5000    102.1830      0.0000    601.2061      5.9113
   408.7500    105.0180      0.0000    601.7268      5.9132
   409.0000    107.2886      0.0000    610.9182      5.9311
   409.2500    109.1005      0.0000    624.7947      5.9671
   409.5000    111.2248      0.0000    639.7084      6.0039
   409.7500    114.5482      0.0000    652.7904      6.0270
   410.0000    119.2765      0.0000    662.1608      6.0426
   410.2500    124.6419      0.0000    668.0002      6.0669
   410.5000    129.2378      0.0000    672.6378      6.1025
   410.7500    131.7884      0.0000    678.1720      6.1314
   411.0000    132.0203      0.0000    683.4325      6.1334
   411.2500    131.0170      0.0000    683.6740      6.1064
   411.5000    130.5860      0.0000    673.9954      6.0693
   411.7500    131.8732      0.0000    653.8391      6.0456
   412.0000    134.3775      0.0000    628.3023      6.0438
   412.2500    136.4904      0.0000    604.7300      6.0537
   412.5000    137.0563      0.0000    587.8673      6.0579
   412.7500    136.1526      0.0000    578.0808      6.0437
   413.0000    134.5995      0.0000    573.1711      6.0033
   413.2500    133.3818      0.0000    570.8736      5.9314
   413.5000    133.3804      0.0000    569.9001      5.8285
   413.7500    134.8303      0.0000    569.8033      5.7063
   414.0000    136.8616      0.0000    570.6129      5.5874
   414.2500    137.9734      0.0000    572.7126      5.4958
   414.5000    137.1982      0.0000    576.4906      5.4454
   414.7500    134.9230      0.0000    581.4077      5.4342
   415.0000    132.6190      0.0000    585.5121      5.4500
   415.2500    131.5156      0.0000    587.2380      5.4794
   415.5000    131.5394      0.0000    588.2010      5.5153
   415.7500    131.8161      0.0000    592.3511      5.5558
   416.0000    131.9862      0.0000    600.6505      5.5992
   416.2500    132.4743      0.0000    607.9171      5.6396
   416.5000    133.4600      0.0000    606.9633      5.6676
   416.7500    134.1826      0.0000    595.8668      5.6764
