~Version Information
VERS.                      2.0: CWLS Log ASCII Standard - VERSION 2.0
WRAP.                       NO: One line per depth step
~Well Information Block
STRT.FT               800.0000: 
STOP.FT              1933.5000: 
STEP.FT                 0.2500: 
NULL.                -999.2500: 
COMP.          Pioneer Natural Resources: COMPANY
WELL.            Nova 11-14 Tr: WELL
FLD.           Purgatoire River: FIELD
LOC.           706' FNL & 1109' FWL: LOCATION
PROV.                 Colorado: PROVINCE
CNTY.               Las Animas: COUNTRY
SRVC.                Patterson: SERVICE COMPANY
DATE.          Wed Jul 20 23:28:11 2005: LOG DATE
UWI.           05 071 08434 00: UNIQUE WELL ID
~Curve Information Block
DEPT.FT            0 000 00 00: Depth
SN.Ohm-m                      : IEL Short Normal
SP.mV                         : IEL Spontaneous Potential
DIR.Ohm-m                     : IEL Induction Resistivity
GR.GAPI                       : Gamma Ray
~Parameter Information Block
~A  Depth        SN          SP         DIR          GR     
# ...
  1905.5000     10.7285     29.5522     11.2404    125.4131
  1905.7500     10.6124     29.7357     11.2288    126.6619
  1906.0000     10.5266     29.8628     11.2246    128.4723
  1906.2500     10.5048     29.9828     11.2355    129.1897
  1906.5000     10.5828     30.1134     11.2768    129.1138
  1906.7500     10.7247     30.2303     11.3646    128.2687
  1907.0000     10.8783     30.2882     11.5070    126.0831
  1907.2500     11.0645     30.2489     11.6985    124.3011
  1907.5000     11.3023     30.1031     11.9236    121.5598
  1907.7500     11.5515     29.8813     12.1669    119.7787
  1908.0000     11.7722     29.6515     12.4198    117.1927
  1908.2500     11.9691     29.5006     12.6812    115.5338
  1908.5000     12.2175     29.5021     12.9511    113.1486
  1908.7500     12.6141     29.6863     13.2243    111.6769
  1909.0000     13.1409     30.0300     13.4882    109.9299
  1909.2500     13.6789     30.4730     13.7262    109.2798
  1909.5000     14.1744     30.9523     13.9256    109.3662
  1909.7500     14.6325     31.4301     14.0872    110.2426
  1910.0000     14.9750     31.9007     14.2308    112.7607
  1910.2500     15.0835     32.3790     14.3900    115.0241
  1910.5000     14.9415     32.8820     14.5954    118.7049
  1910.7500     14.6676     33.4169     14.8546    120.9993
  1911.0000     14.4730     33.9841     15.1433    123.6144
  1911.2500     14.5128     34.5844     15.4159    124.5056
  1911.5000     14.7556     35.2165     15.6297    124.4956
  1911.7500     15.0350     35.8694     15.7636    123.9151
  1912.0000     15.1864     36.5215     15.8193    122.9102
  1912.2500     15.1966     37.1491     15.8085    122.3776
  1912.5000     15.2036     37.7375     15.7409    121.8593
  1912.7500     15.2929     38.2935     15.6217    121.6542
  1913.0000     15.4430     38.8427     15.4548    120.8403
  1913.2500     15.6511     39.4058     15.2469    118.7432
  1913.5000     15.8776     39.9724     15.0096    109.9388
  1913.7500     15.9488     40.5082     14.7582     98.6172
  1914.0000     15.7514     40.9893     14.5083     73.7082
  1914.2500     15.4126     41.4262     14.2728     54.4712
  1914.5000     15.1056     41.8573     14.0610     28.4349
  1914.7500     14.8173     42.3233     13.8802     15.9148
  1915.0000     14.4613     42.8421     13.7363      5.2313
  1915.2500     14.0544     43.3822     13.6308      2.1001
  1915.5000     13.6597     43.8510     13.5594      0.4070
  1915.7500     13.3341     44.1211     13.5127      0.1120
  1916.0000     13.1764     44.0999     13.4787      0.0106
  1916.2500     13.2523     43.7994     13.4455      0.0000
  1916.5000     13.4493     43.3450     13.4025   -999.2500
  1916.7500     13.5535     42.9056     13.3432   -999.2500
  1917.0000     13.4552     42.6080     13.2715   -999.2500
  1917.2500     13.2049     42.5072     13.2048   -999.2500
  1917.5000     12.9657     42.6118     13.1717   -999.2500
  1917.7500     12.9555     42.9116     13.2051   -999.2500
  1918.0000     13.3593     43.3746     13.3337   -999.2500
  1918.2500     14.2122     43.9311     13.5774   -999.2500
  1918.5000     15.3714     44.4838     13.9430   -999.2500
  1918.7500     16.5887     44.9477     14.4229   -999.2500
  1919.0000     17.6265     45.2807     14.9954   -999.2500
  1919.2500     18.4488     45.4728     15.6306   -999.2500
  1919.5000     19.2314     45.5157     16.2975   -999.2500
  1919.7500     20.1334     45.3928     16.9705   -999.2500
  1920.0000     21.1997     45.0984     17.6301   -999.2500
  1920.2500     22.4202     44.6638     18.2586   -999.2500
  1920.5000     23.7569     44.1643     18.5989   -999.2500
  1920.7500     25.1268     43.7093     19.0865   -999.2500
  1921.0000     26.3347     43.4188     19.4692   -999.2500
  1921.2500     27.1014     43.3825     19.7096   -999.2500
  1921.5000     27.2338     43.6111     19.7671   -999.2500
  1921.7500     26.6499     44.0230     19.6187   -999.2500
  1922.0000     25.3578     44.4898     19.2840   -999.2500
  1922.2500     23.5954     44.9019     18.8214   -999.2500
  1922.5000     21.7618     45.2011     18.2999   -999.2500
  1922.7500     20.0715     45.3676     17.7790   -999.2500
  1923.0000     18.5060     45.3954     17.3265   -999.2500
  1923.2500     17.0593     45.2802     17.0557   -999.2500
  1923.5000     15.7633     45.0250     17.1520   -999.2500
  1923.7500     14.5978     44.6518     17.8802   -999.2500
  1924.0000     13.5738     44.2052     19.9118   -999.2500
  1924.2500     12.7806     43.7409     23.2096   -999.2500
  1924.5000     12.2217     43.3019     28.7064   -999.2500
  1924.7500     11.7714     42.8988     37.0499   -999.2500
  1925.0000     11.3846     42.5093     48.1502   -999.2500
  1925.2500     11.1175     42.0989     60.0981   -999.2500
  1925.5000     10.9181     41.6474     69.5867   -999.2500
  1925.7500     10.6396     41.1635     74.7315   -999.2500
  1926.0000     10.2329     40.6841     76.3774   -999.2500
  1926.2500      9.7692     40.2581     76.3780   -999.2500
  1926.5000      9.3276     39.9182     76.1318   -999.2500
  1926.7500      8.9960     39.6559     76.4277   -999.2500
  1927.0000      8.8996     39.4218   1679.4750   -999.2500
  1927.2500      9.0756     39.1536   4066.3477   -999.2500
  1927.5000      9.4374     38.8026 100000.0000   -999.2500
  1927.7500      9.8980     38.3451 100000.0000   -999.2500
  1928.0000     10.3770     37.7891 100000.0000   -999.2500
  1928.2500     10.7718     37.1769 100000.0000   -999.2500
  1928.5000     11.0347     36.5632 100000.0000   -999.2500
  1928.7500     11.1858     35.9593 100000.0000   -999.2500
  1929.0000     11.2440     35.2436 100000.0000   -999.2500
  1929.2500     11.2444     34.0350 100000.0000   -999.2500
  1929.5000     11.2413     31.6479 100000.0000   -999.2500
  1929.7500     11.1633     27.3899 100000.0000   -999.2500
  1930.0000     10.6620     21.2285 100000.0000   -999.2500
  1930.2500      9.1166     14.2166 100000.0000   -999.2500
  1930.5000      6.1954      7.9922 100000.0000   -999.2500
  1930.7500      2.6689      3.6916 100000.0000   -999.2500
  1931.0000     -0.0728      1.3797 100000.0000   -999.2500
  1931.2500     -1.4483      0.4127 100000.0000   -999.2500
  1931.5000     -1.8936      0.0979 100000.0000   -999.2500
  1931.7500     -1.9865      0.0182 100000.0000   -999.2500
  1932.0000     -1.9989      0.0024 100000.0000   -999.2500
  1932.2500   -999.2500   -999.2500 100000.0000   -999.2500
  1932.5000   -999.2500   -999.2500 100000.0000   -999.2500
  1932.7500   -999.2500   -999.2500 100000.0000   -999.2500
  1933.0000   -999.2500   -999.2500 100000.0000   -999.2500
  1933.2500   -999.2500   -999.2500 100000.0000   -999.2500
  1933.5000   -999.2500   -999.2500 100000.0000   -999.2500
