~Version Information
VERS.                      2.0: CWLS Log ASCII Standard - VERSION 2.0
WRAP.                       NO: One line per depth step
~Well Information Block
STRT.FT               185.2500: 
STOP.FT              2109.7500: 
STEP.FT                 0.2500: 
NULL.                -999.2500: 
COMP.    Petrogulf Corporation: COMPANY
WELL.             State 16-44V: WELL
FLD.          Purgatorie River: FIELD
LOC.       320' FSL & 320' FEL: LOCATION
PROV.                 Colorado: PROVINCE
CNTY.               Las Animas: COUNTRY
SRVC.                Patterson: SERVICE COMPANY
DATE. Thu Aug 11 12:58:04 2005: LOG DATE
UWI.               071-08263  : UNIQUE WELL ID
~Curve Information Block
DEPT.FT            0 000 00 00: Depth
GR.GAPI                       : Gamma Ray
CCL.                          : Casing Collar Locator
TT3.usec                      : CBL 3' Travel Time
AMP3.mV                       : CBL 3' Amplitude
~Parameter Information Block
~A  Depth        GR         CCL         TT3         AMP3    
# ...
   821.7500     99.5763      0.0000    364.6387      6.9305
   822.0000     93.4802      0.0000    362.8888      6.8249
   822.2500     86.3357      0.0000    362.0717      6.7070
   822.5000     81.4254      0.0000    361.6563      6.5868
   822.7500     80.9954      0.0000    361.4716      6.4495
   823.0000     85.2725      0.0000    361.5090      6.2797
   823.2500     92.6884      0.0000    361.7937      6.0933
   823.5000    101.0660      0.0000    362.2362      5.9362
   823.7500    108.4531      0.0000    362.6080      5.8377
   824.0000    113.1638      0.0000    362.7260      5.7868
   824.2500    113.9075      0.0000    362.5827      5.7683
   824.5000    110.4052      0.0000    362.2818      5.7880
   824.7500    103.8622      0.0000    361.9283      5.8390
   825.0000     96.6091      0.0000    361.5882      5.8816
   825.2500     90.9792      0.0000    361.3031      5.8805
   825.5000     88.0945      0.0000    361.1056      5.8432
   825.7500     87.2735      0.0000    361.0015      5.8166
   826.0000     86.5401      0.0000    360.9479      5.8543
   826.2500     84.1341      0.0000    360.8611      5.9759
   826.5000     79.8098      0.0000    360.5270      6.1544
   826.7500     74.7702      0.0000    359.2506      6.3348
   827.0000     70.6480      0.0000    355.6698      6.4663
   827.2500     68.6972      0.0000    349.0742      6.5369
   827.5000     69.4565      0.0000    341.8114      6.5720
   827.7500     72.6427      0.0000    338.6607      6.5864
   828.0000     77.4111      0.0000    342.1494      6.5582
   828.2500     82.8537      0.0000    349.6670      6.4651
   828.5000     88.1882      0.0000    356.4170      6.3289
   828.7500     92.7790      0.0000    360.2155      6.1882
   829.0000     96.4233      0.0000    362.2928      6.0475
   829.2500     99.4867      0.0000    365.7776      5.8997
   829.5000    102.3527      0.0000    376.3582      5.7665
   829.7500    104.7578      0.0000    402.6920      5.6710
   830.0000    105.8197      0.0000    450.5045      5.6019
   830.2500    104.7671      0.0000    515.1778      5.5375
   830.5000    101.8063      0.0000    584.7643      5.4681
   830.7500     98.3879      0.0000    647.9136      5.3751
   831.0000     96.2669      0.0000    696.5819      5.2375
   831.2500     96.1339      0.0000    726.8608      5.0712
   831.5000     97.3281      0.0000    738.5505      4.9130
   831.7500     98.6568      0.0000    735.0947      4.7831
   832.0000     99.0011      0.0000    724.0634      4.6896
   832.2500     97.4272      0.0000    711.9821      4.6246
   832.5000     93.4510      0.0000    700.8761      4.5610
   832.7500     87.3890      0.0000    694.6990      4.4872
   833.0000     80.3746      0.0000    696.1765      4.4240
   833.2500     74.1761      0.0000    694.9166      4.3990
   833.5000     70.8002      0.0000    679.6595      4.4255
   833.7500     71.6692      0.0000    658.1616      4.5133
   834.0000     76.8088      0.0000    645.5026      4.6699
   834.2500     84.7733      0.0000    641.9684      4.8746
   834.5000     93.3209      0.0000    638.1415      5.0753
   834.7500    100.3924      0.0000    630.8819      5.2252
   835.0000    104.9473      0.0000    624.3070      5.3143
   835.2500    107.1269      0.0000    624.3544      5.3666
   835.5000    107.5922      0.0000    633.3203      5.4039
   835.7500    106.8704      0.0000    647.1866      5.4078
   836.0000    105.2578      0.0000    662.0640      5.3557
   836.2500    102.8992      0.0000    677.1705      5.3063
   836.5000     99.9016      0.0000    689.0773      5.3824
   836.7500     96.7351      0.0000    693.4653      5.6471
   837.0000     94.4657      0.0000    691.9576      6.0611
   837.2500     94.3206      0.0000    691.4363      6.5441
   837.5000     96.9499      0.0000    696.6009      7.0032
   837.7500    101.8466      0.0000    704.2186      7.3421
   838.0000    107.0880      0.0000    707.8506      7.4878
   838.2500    110.0183      0.0000    707.3804      7.4111
   838.5000    109.0390      0.0000    706.0001      7.1699
   838.7500    104.8875      0.0000    700.7512      6.9278
   839.0000     99.9080      0.0000    688.7957      6.8570
   839.2500     96.2467      0.0000    674.8624      7.0176
   839.5000     94.7501      0.0000    663.6342      7.3116
   839.7500     94.8972      0.0000    656.9314      7.5649
   840.0000     95.4349      0.0000    656.0114      7.7150
   840.2500     95.4775      0.0000    659.8791      7.7589
   840.5000     95.0826      0.0000    670.6140      7.5000
   840.7500     94.5684      0.0000    692.4538      6.8111
   841.0000     93.6162      0.0000    718.5648      6.0067
   841.2500     91.5056      0.0000    736.9390      5.4365
   841.5000     88.0321      0.0000    744.7015      5.1064
   841.7500     83.8414      0.0000    741.0217      4.8908
   842.0000     79.9848      2.0000    727.9318      4.7318
   842.2500     77.4091      0.0000    720.4385      4.6277
   842.5000     76.7490      0.0000    726.5283      4.6135
   842.7500     78.1769      0.0000    731.4506      4.7724
   843.0000     81.1192      0.0000    720.3278      5.0946
   843.2500     84.1770      0.0000    694.9626      5.2650
   843.5000     85.6155      0.0000    666.1256      5.0036
   843.7500     84.1954      0.0000    648.2819      4.5317
   844.0000     79.9562      0.0000    653.1581      4.2150
   844.2500     74.4883      0.0000    675.6529      4.1324
   844.5000     70.0389      0.0000    694.5916      4.2068
   844.7500     67.8256      0.0000    695.2714      4.3813
   845.0000     67.3415      0.0000    682.9979      4.6393
   845.2500     67.4357      0.0000    670.6882      4.9809
   845.5000     67.6822      0.0000    664.1509      5.3760
   845.7500     68.4563      0.0000    662.1700      5.7698
   846.0000     69.9505      0.0000    662.2806      6.1340
   846.2500     71.4782      0.0000    663.1113      6.4540
   846.5000     71.9454      0.0000    663.9262      6.7010
   846.7500     70.9657      0.0000    663.6870      6.8788
   847.0000     69.3251      0.0000    660.6069      7.0423
   847.2500     68.4547      0.0000    653.8141      7.2425
   847.5000     69.5703      0.0000    646.0886      7.4764
   847.7500     72.9927      0.0000    641.3272      7.6926
   848.0000     77.8559      0.0000    638.6849      7.8333
   848.2500     82.4720      0.0000    634.7679      7.8616
   848.5000     85.3201      0.0000    629.5597      7.7752
   848.7500     86.0528      0.0000    625.2878      7.6230
   849.0000     85.7315      0.0000    624.7571      7.4636
   849.2500     85.9448      0.0000    631.9917      7.3038
   849.5000     87.5216      0.0000    648.2084      7.1328
   849.7500     90.0956      0.0000    670.0666      6.9729
   850.0000     92.7222      0.0000    693.7920      6.8462
   850.2500     94.5633      0.0000    713.6778      6.7453
   850.5000     95.2103      0.0000    722.7548      6.6630
   850.7500     95.0591      0.0000    723.0198      6.5796
   851.0000     95.3809      0.0000    723.5811      6.4385
   851.2500     97.3502      0.0000    724.7787      6.2074
   851.5000    100.7675      0.0000    717.9249      5.9509
   851.7500    104.0998      0.0000    703.4197      5.8048
   852.0000    105.8453      0.0000    694.0185      5.8490
   852.2500    105.6954      0.0000    695.0803      6.0009
   852.5000    104.4043      0.0000    697.7260      6.0877
   852.7500    102.7676      0.0000    692.8052      6.0202
   853.0000    100.9950      0.0000    676.7859      5.8318
   853.2500     99.1311      0.0000    653.6304      5.5807
   853.5000     97.7316      0.0000    636.2058      5.3097
   853.7500     97.8372      0.0000    631.6122      5.0670
   854.0000    100.3305      0.0000    631.1940      4.8711
   854.2500    105.2502      0.0000    625.0560      4.7165
   854.5000    111.3463      0.0000    615.4302      4.6447
   854.7500    116.2227      0.0000    609.3054      4.7028
   855.0000    117.4229      0.0000    610.1286      4.8349
