~Version Information
VERS.                      2.0: CWLS Log ASCII Standard - VERSION 2.0
WRAP.                       NO: One line per depth step
~Well Information Block
STRT.FT               506.1000: 
STOP.FT              2140.0000: 
STEP.FT                 0.1000: 
NULL.                -999.2500: 
COMP.          Petrogulf Corporation: COMPANY
WELL.            Montoya 1-44R: WELL
FLD.           Purgatorie River: FIELD
LOC.           658' FSL & 1052' FWL: LOCATION
CNTY.               Las Animas: COUNTY
SRVC.                         : SERVICE COMPANY
DATE.          Tue Nov 16 04:33:40 2004: LOG DATE
UWI.           05 071 08239 00: UNIQUE WELL ID
STAT.                 Colorado: STATE
~Curve Information Block
DEPT.FT            0 000 00 00: Depth
DCAL.in                       : CDL Caliper
RHOB.g/cc                     : CDL Bulk Density
RHOC.g/cc                     : CDL Density Correction
DPOR.pu                       : CDL Density Porosity
GR.GAPI                       : Gamma Ray
NPOR.pu                       : Neutron Porosity
~Parameter Information Block
~A  Depth       DCAL        RHOB        RHOC        DPOR         GR         NPOR    
# ...
  2022.9000      8.0109      2.4544      0.0269     11.8519     55.2929     10.9041
  2023.0000      8.0458      2.4472     -0.0001     12.2892     52.1568     10.8062
  2023.1000      8.0458      2.4415      0.0852     12.6360     51.8838     10.4898
  2023.2000      8.0458      2.4220      0.0440     13.8152     52.8665     10.3886
  2023.3000      8.0530      2.3973      0.0084     15.3131     52.7277     10.4723
  2023.4000      8.0530      2.3896      0.0284     15.7828     52.7096     10.1898
  2023.5000      8.0473      2.4030      0.0487     14.9689     53.0548      9.2813
  2023.6000      8.0473      2.4195      0.0767     13.9679     53.5244      8.2270
  2023.7000      8.0473      2.4302      0.0319     13.3227     52.6894      7.5888
  2023.8000      8.0447      2.4408      0.0797     12.6777     49.0746      7.3821
  2023.9000      8.0447      2.4480      0.0920     12.2451     45.9633      7.4767
  2024.0000      8.0405      2.4483      0.0663     12.2252     44.8575      7.9284
  2024.1000      8.0405      2.4519      0.0639     12.0086     43.5492      8.3971
  2024.2000      8.0405      2.4637      0.0829     11.2881     43.5434      9.0426
  2024.3000      8.0079      2.4745      0.1143     10.6360     46.9169     10.8021
  2024.4000      8.0079      2.4768      0.0666     10.4960     50.7739     13.3981
  2024.5000      7.9546      2.4769      0.0582     10.4926     53.3975     14.8227
  2024.6000      7.9546      2.4796      0.0984     10.3254     56.1766     13.9692
  2024.7000      7.9546      2.4807      0.0572     10.2612     57.3744     12.1892
  2024.8000      7.9279      2.4759      0.0712     10.5517     54.5718     10.8123
  2024.9000      7.9279      2.4692      0.0391     10.9570     49.9854     10.0435
  2025.0000      7.9296      2.4696      0.0581     10.9323     49.3643      9.6899
  2025.1000      7.9296      2.4765      0.0497     10.5126     55.5365      9.7286
  2025.2000      7.9296      2.4844      0.0628     10.0382     64.3220     10.3901
  2025.3000      7.9285      2.4919      0.0710      9.5823     70.8685     11.1591
  2025.4000      7.9285      2.4960      0.0758      9.3356     75.1877     10.9048
  2025.5000      7.9235      2.4921      0.0588      9.5716     79.0756      9.7068
  2025.6000      7.9235      2.4850      0.0364     10.0001     81.5039      8.6871
  2025.7000      7.9235      2.4821      0.0543     10.1785     79.5310      8.6524
  2025.8000      7.9327      2.4808      0.0724     10.2556     74.6773      9.5361
  2025.9000      7.9327      2.4770      0.0193     10.4839     72.0177     10.3968
  2026.0000      7.9458      2.4691      0.0474     10.9646     72.8719     10.6498
  2026.1000      7.9458      2.4481      0.0401     12.2387     73.0962     10.7437
  2026.2000      7.9458      2.4172     -0.0159     14.1061     69.5423     10.9952
  2026.3000      7.9450      2.3993      0.0244     15.1935     63.5476     10.8775
  2026.4000      7.9450      2.4001      0.0229     15.1464     57.6085     10.0550
  2026.5000      7.9354      2.4049      0.0564     14.8552     54.9001      8.8571
  2026.6000      7.9354      2.4060      0.0474     14.7899     55.9636      7.7664
  2026.7000      7.9354      2.4104      0.0302     14.5219     55.2776      7.3429
  2026.8000      7.9246      2.4234      0.0491     13.7345     50.8998      7.8454
  2026.9000      7.9246      2.4367      0.0919     12.9250     47.1703      9.0324
  2027.0000      7.9227      2.4398      0.0842     12.7377     46.2450     10.0435
  2027.1000      7.9227      2.4309      0.0608     13.2769     46.7976     10.0431
  2027.2000      7.9227      2.4174      0.0577     14.0947     46.6101      9.1769
  2027.3000      7.9306      2.4076      0.0689     14.6893     43.9470      7.9779
  2027.4000      7.9306      2.4014      0.0606     15.0650     40.5115      7.0183
  2027.5000      7.9339      2.3961      0.0396     15.3887     38.7480      6.6277
  2027.6000      7.9339      2.3954      0.0391     15.4273     38.8908      6.9338
  2027.7000      7.9339      2.4027      0.0647     14.9895     40.6196      7.7848
  2027.8000      7.9343      2.4101      0.1169     14.5417     42.8272      8.7215
  2027.9000      7.9343      2.4076      0.0465     14.6929     45.1583      9.5217
  2028.0000      7.9379      2.3954      0.0638     15.4283     46.5746     10.0167
  2028.1000      7.9379      2.3825      0.0340     16.2130     44.9574      9.9275
  2028.2000      7.9379      2.3786      0.0488     16.4508     39.6619      9.3644
  2028.3000      7.9400      2.3867      0.0368     15.9548     34.3787      8.5937
  2028.4000      7.9400      2.3998      0.0660     15.1624     33.8271      8.1037
  2028.5000      7.9596      2.4009      0.0768     15.0957     36.1038      8.3055
  2028.6000      7.9596      2.3884      0.0079     15.8540     36.0577      9.1031
  2028.7000      7.9596      2.3842      0.0445     16.1084     34.5084      9.9781
  2028.8000      7.9968      2.3968      0.0878     15.3460     35.8684     10.3173
  2028.9000      7.9968      2.4192      0.0487     13.9866     39.6316      9.8531
  2029.0000      8.0243      2.4446      0.0951     12.4512     42.9430      9.3735
  2029.1000      8.0243      2.4541      0.0958     11.8725     45.4743      9.6133
  2029.2000      8.0243      2.4383      0.0429     12.8293     48.7885     10.2348
  2029.3000      8.0363      2.4168      0.0562     14.1344     53.5703     10.7823
  2029.4000      8.0363      2.4098      0.0137     14.5595     56.4899     11.2764
  2029.5000      8.0421      2.4158      0.0574     14.1929     54.4842     11.6277
  2029.6000      8.0421      2.4195      0.0986     13.9708     49.3443     11.5159
  2029.7000      8.0421      2.4160      0.0816     14.1847     44.9667     11.1843
  2029.8000      8.0459      2.4137      0.0740     14.3210     43.9556     10.8166
  2029.9000      8.0459      2.4153      0.0686     14.2267     45.9071     10.2733
  2030.0000      8.0434      2.4158      0.0760     14.1917     47.9746     10.0340
  2030.1000      8.0434      2.4152      0.0730     14.2308     47.3835     10.4574
  2030.2000      8.0434      2.4186      0.0506     14.0250     44.7411     10.8137
  2030.3000      8.0377      2.4201      0.1031     13.9309     43.4707     10.4629
  2030.4000      8.0377      2.4074      0.0797     14.7030     45.9950      9.8368
  2030.5000      8.0312      2.3930      0.0299     15.5757     50.2142      9.5755
  2030.6000      8.0312      2.3969      0.0719     15.3377     51.8489      9.9197
  2030.7000      8.0312      2.4159      0.0547     14.1858     50.5326     10.7262
  2030.8000      8.0258      2.4368      0.0684     12.9231     48.6813     11.8237
  2030.9000      8.0258      2.4468      0.0677     12.3124     46.8030     12.9805
  2031.0000      8.0282      2.4472      0.0407     12.2917     46.3353     13.7097
  2031.1000      8.0282      2.4536      0.0235     11.9049     48.4185     13.7498
  2031.2000      8.0282      2.4661      0.0860     11.1437     51.5497     13.3942
  2031.3000      8.0436      2.4651      0.1138     11.2035     54.6708     12.8701
  2031.4000      8.0436      2.4492      0.0527     12.1677     57.6589     12.0256
  2031.5000      8.0709      2.4366      0.0707     12.9329     59.7679     11.3827
  2031.6000      8.0709      2.4308      0.0859     13.2839     60.5244     11.3454
  2031.7000      8.0709      2.4232      0.0836     13.7472     60.2661     11.2973
  2031.8000      8.0951      2.4077      0.0808     14.6845     58.7074     11.1004
  2031.9000      8.0951      2.3873      0.0438     15.9198     54.0799     11.0878
  2032.0000      8.1037      2.3752      0.0368     16.6554     47.4535     10.7557
  2032.1000      8.1037      2.3735      0.0620     16.7579     43.4625      9.7499
  2032.2000      8.1037      2.3707      0.0705     16.9289     43.3094      8.7562
  2032.3000      8.0976      2.3679      0.0399     17.0942     43.6764      8.3834
  2032.4000      8.0976      2.3744      0.0603     16.7001     42.1799      8.6036
