~Version Information
 VERS.                                  2.0 : CWLS LAS VERSION
 WRAP.                                   NO : WRAPING MODE
 SWARE .                 MController 2.5.0J : SOFTWARE VERSION
~Well Information
 WELL.                  Great Plains 22-22R : WELL
 COMP.                Petrogulf Corporation : COMPANY
 FLD.                      Purgatoire River : FIELD
 LOC.                SE/NW Sec 22 T33S R67W : LOCATION
 DATE.                        09/08-09/2005 : DATE(S) LOGGED
 SRVC.       BLANCO Geological Services LLC : SERVICE COMPANY
 STAT.                                   CO : STATE
 CNTY.                           Las Animas : COUNTY
 CTRY.                                  USA : COUNTRY
 API.                       05-071-08028-00 : API NUMBER
 STRT.FT                              23.00 : START DEPTH
 STOP.FT                            1400.00 : STOP DEPTH
 STEP.FT                               1.00 : DEPTH INCREMENT
 NULL.                                -9999 : NULL VALUE
~Curve information
 DEPTH.FT                                   :
 ROP.MIN/FT                                 :
 GAS.UNITS                                  :
~ASCII Log data
        23.0     -9999.00          3.0 
        24.0         0.43          3.1 
        25.0         0.52          3.2 
        26.0         0.53          3.1 
        27.0         0.47          2.9 
        28.0         0.77          2.9 
        29.0         0.37          2.7 
        30.0         3.28          2.9 
        31.0         0.13          2.8 
        32.0         0.47          2.5 
        33.0         0.45          2.7 
        34.0         0.23          2.3 
        35.0         0.50          2.5 
        36.0         0.37          1.9 
        37.0         0.17          2.3 
        38.0         0.23          2.1 
        39.0         0.33          3.1 
        40.0         0.20          2.8 
        41.0         0.30          3.5 
        42.0         0.33          3.8 
        43.0         0.27          4.4 
        44.0         0.32          4.2 
        45.0         0.27          4.7 
        46.0         0.27          5.2 
        47.0         0.23          5.1 
        48.0         0.30          5.8 
        49.0         0.27          5.9 
        50.0         0.17          5.9 
        51.0         0.17          6.0 
        52.0         0.13          6.0 
        53.0         0.13          5.4 
        54.0         0.13          5.4 
        55.0         0.27          5.7 
        56.0         1.28        107.5 
        57.0         0.27         93.0 
        58.0         0.27         47.9 
        59.0         0.20         24.5 
        60.0         0.37         13.8 
        61.0         0.47          8.8 
        62.0         0.27          4.9 
        63.0         0.30          4.6 
        64.0         0.27          4.7 
        65.0         0.27          4.8 
        66.0         0.27          5.0 
        67.0         0.28          6.1 
        68.0         0.23          6.1 
        69.0         0.27          5.6 
        70.0         0.27          5.7 
        71.0         0.27          6.3 
        72.0         0.30          5.8 
        73.0         0.27          5.9 
        74.0         0.27          6.0 
        75.0         0.27          6.6 
        76.0         0.23          6.8 
        77.0         0.30          6.7 
        78.0         0.20          6.6 
        79.0         0.20          6.8 
        80.0         0.28          6.8 
        81.0         0.27          7.7 
        82.0         0.27          8.2 
        83.0         0.23          7.9 
        84.0         0.17          7.6 
        85.0         0.30          7.4 
        86.0         1.17          7.0 
        87.0         0.30          6.6 
        88.0         0.23          7.1 
        89.0         0.28          7.5 
        90.0         0.27          6.6 
        91.0         0.23          6.8 
        92.0         0.27          7.4 
        93.0         0.23          7.1 
        94.0         0.23          7.1 
        95.0         0.23          6.9 
        96.0         0.27          6.9 
        97.0         0.23          7.2 
        98.0         0.20          7.5 
        99.0         0.20          7.2 
       100.0         0.23          7.0 
       101.0         0.23          7.5 
       102.0         0.23          7.0 
       103.0         0.32          7.3 
       104.0         0.23          6.9 
       105.0         0.27          7.1 
       106.0         0.23          7.1 
       107.0         0.27          7.6 
       108.0         0.27          8.1 
       109.0         0.23          8.4 
       110.0         0.20          8.6 
       111.0         0.13          8.6 
       112.0         0.37          8.7 
       113.0         0.13          8.7 
       114.0         0.10          9.0 
       115.0         0.23          8.6 
       116.0         1.45          8.1 
       117.0         0.30          8.2 
       118.0         0.30          8.1 
       119.0         0.23          7.3 
       120.0         0.30          7.5 
       121.0         0.30          7.6 
       122.0         0.27          7.4 
       123.0         0.37          7.7 
       124.0         0.27          7.8 
       125.0         0.28          7.7 
       126.0         0.23          8.2 
       127.0         0.23          7.9 
       128.0         0.27          7.5 
       129.0         0.27          7.8 
       130.0         0.23          7.8 
       131.0         0.30          8.4 
       132.0         0.20          8.4 
       133.0         0.20          8.6 
       134.0         0.33          7.8 
       135.0         0.33          8.1 
       136.0         0.27          8.6 
       137.0         0.38          8.4 
       138.0         0.23          8.5 
       139.0         0.27          9.0 
       140.0         0.30          9.6 
       141.0         0.27          8.9 
       142.0         0.27          8.5 
       143.0         0.43          8.8 
       144.0         0.13          8.6 
       145.0         0.20          8.3 
       146.0         0.80          8.4 
       147.0         0.23          7.9 
       148.0         0.28          8.8 
       149.0         0.23          8.3 
       150.0         0.23          8.5 
       151.0         0.13          8.5 
       152.0         0.20          8.8 
       153.0         0.23          8.0 
       154.0         0.27          8.0 
       155.0         0.20          8.0 
       156.0         0.17          8.0 
       157.0         0.23          8.6 
       158.0         0.20          8.1 
       159.0         0.17          7.8 
       160.0         0.17          7.8 
       161.0         0.17          8.1 
       162.0         0.23          7.5 
       163.0         0.23          8.0 
       164.0         0.25          7.3 
       165.0         0.23          7.7 
       166.0         0.23          8.3 
       167.0         0.23          8.3 
       168.0         0.20          7.7 
       169.0         0.23          8.5 
       170.0         0.23          7.9 
       171.0         0.20          7.9 
       172.0         0.23          7.7 
       173.0         0.23          7.8 
       174.0         0.27          8.2 
       175.0         0.50          7.8 
       176.0         0.65          7.9 
       177.0         0.30          8.7 
       178.0         0.20          8.1 
       179.0         0.20          8.6 
       180.0         0.27          8.6 
       181.0         0.30          8.2 
       182.0         0.20          8.2 
       183.0         0.10          8.5 
       184.0         0.13          8.0 
       185.0         0.10          8.0 
       186.0         0.43          8.5 
       187.0         0.23          8.4 
       188.0         0.23          8.0 
       189.0         0.17          8.0 
       190.0         0.35          8.5 
       191.0         0.27          8.0 
       192.0         0.23          7.9 
       193.0         0.10          7.9 
       194.0         0.20          8.3 
       195.0         0.13          7.8 
       196.0         0.20          8.4 
       197.0         0.23          8.0 
       198.0         0.20          8.0 
       199.0         0.20          7.9 
       200.0         0.23          8.0 
       201.0         0.30          8.9 
       202.0         0.27          8.1 
       203.0         0.27          8.6 
       204.0         0.27          8.1 
       205.0         0.17          8.6 
       206.0         0.85          8.8 
       207.0         0.23          8.8 
       208.0         0.20          8.8 
       209.0         0.23          8.1 
       210.0         0.20          8.6 
       211.0         0.23          8.2 
       212.0         0.27          8.8 
       213.0         0.27          8.6 
       214.0         0.30          8.2 
       215.0         0.37          8.1 
       216.0         0.28          8.9 
       217.0         0.30          8.7 
       218.0         0.20          8.0 
       219.0         0.23          8.2 
       220.0         0.23          7.9 
       221.0         0.23          8.2 
       222.0         0.27          7.6 
