~Version Information
VERS.                      2.0: CWLS Log ASCII Standard - VERSION 2.0
WRAP.                       NO: One line per depth step
~Well Information Block
STRT.FT               -12.3000: 
STOP.FT              1768.7000: 
STEP.FT                 0.1000: 
NULL.                -999.2500: 
COMP.          Petrogulf Corporation: COMPANY
WELL.          Alexander 9-43R: WELL
FLD.           Purgatorie River: FIELD
LOC.           1652' FSL & 1049' FEL--: LOCATION
CNTY.               Las Animas: COUNTY
SRVC.                         : SERVICE COMPANY
DATE.          Tue Sep 28 14:27:54 2004: LOG DATE
UWI.                          : UNIQUE WELL ID
STAT.                       CO: STATE
~Curve Information Block
DEPT.FT            0 000 00 00: Depth
GR.GAPI                       : Gamma Ray
CCL.                          : Casing Collar Locator
TT3.usec                      : CBL 3' Travel Time
AMP3.mV                       : CBL 3' Amplitude
~Parameter Information Block
~A  Depth        GR         CCL         TT3         AMP3    
# ...
   336.1000     89.6761      0.0000    301.0993     23.4587
   336.2000     89.6761      0.0000    301.0993     23.4587
   336.3000     95.9932      0.0000    301.1225     23.7260
   336.4000     95.9932      0.0000    301.1225     23.7260
   336.5000    101.2776      0.0000    301.0664     23.9823
   336.6000    101.2776      0.0000    301.0664     23.9823
   336.7000    101.2776      0.0000    301.0664     23.9823
   336.8000    103.7882      0.0000    301.0267     24.0464
   336.9000    103.7882      0.0000    301.0267     24.0464
   337.0000    102.7835      0.0000    301.0764     23.8668
   337.1000    102.7835      0.0000    301.0764     23.8668
   337.2000    102.7835      0.0000    301.0764     23.8668
   337.3000     99.4893      0.0000    301.2179     23.5456
   337.4000     99.4893      0.0000    301.2179     23.5456
   337.5000     96.3178      0.0000    301.4010     23.2401
   337.6000     96.3178      0.0000    301.4010     23.2401
   337.7000     96.3178      0.0000    301.4010     23.2401
   337.8000     94.9727      0.0000    301.5725     23.0567
   337.9000     94.9727      0.0000    301.5725     23.0567
   338.0000     95.3015      0.0000    301.7025     23.0256
   338.1000     95.3015      0.0000    301.7025     23.0256
   338.2000     95.3015      0.0000    301.7025     23.0256
   338.3000     95.8702      0.0000    301.7769     23.1354
   338.4000     95.8702      0.0000    301.7769     23.1354
   338.5000     95.3343      0.0000    301.7906     23.3574
   338.6000     95.3343      0.0000    301.7906     23.3574
   338.7000     95.3343      0.0000    301.7906     23.3574
   338.8000     93.0559      0.0000    301.7551     23.6317
   338.9000     93.0559      0.0000    301.7551     23.6317
   339.0000     88.9573      0.0000    301.7061     23.8590
   339.1000     88.9573      0.0000    301.7061     23.8590
   339.2000     88.9573      0.0000    301.7061     23.8590
   339.3000     83.6885      0.0000    301.6884     23.9447
   339.4000     83.6885      0.0000    301.6884     23.9447
   339.5000     78.8695      0.0000    301.7277     23.8746
   339.6000     78.8695      0.0000    301.7277     23.8746
   339.7000     78.8695      0.0000    301.7277     23.8746
   339.8000     76.2584      0.0000    301.8026     23.7500
   339.9000     76.2584      0.0000    301.8026     23.7500
   340.0000     76.4041      0.0000    301.8398     23.7444
   340.1000     76.4041      0.0000    301.8398     23.7444
   340.2000     76.4041      0.0000    301.8398     23.7444
   340.3000     78.5253      0.0000    301.7527     23.9972
   340.4000     78.5253      0.0000    301.7527     23.9972
   340.5000     81.6383      0.0000    301.5133     24.5133
   340.6000     81.6383      0.0000    301.5133     24.5133
   340.7000     81.6383      0.0000    301.5133     24.5133
   340.8000     85.0624      0.0000    301.1907     25.1526
   340.9000     85.0624      0.0000    301.1907     25.1526
   341.0000     87.8047      0.0000    300.9262     25.7280
   341.1000     87.8047      0.0000    300.9262     25.7280
   341.2000     87.8047      0.0000    300.9262     25.7280
   341.3000     88.4710      0.0000    300.8691     26.1241
   341.4000     88.4710      0.0000    300.8691     26.1241
   341.5000     86.4685      0.0000    301.3329     26.3246
   341.6000     86.4685      0.0000    301.3329     26.3246
   341.7000     86.4685      0.0000    301.3329     26.3246
   341.8000     82.8904      0.0000    303.2534     26.3451
   341.9000     82.8904      0.0000    303.2534     26.3451
   342.0000     79.5502      0.0000    308.7250     26.1707
   342.1000     79.5502      0.0000    308.7250     26.1707
   342.2000     79.5502      0.0000    308.7250     26.1707
   342.3000     77.2738      0.0000    320.4765     25.7717
   342.4000     77.2738      0.0000    320.4765     25.7717
   342.5000     75.8080      0.0000    339.3327     25.1498
   342.6000     75.8080      0.0000    339.3327     25.1498
   342.7000     75.8080      0.0000    339.3327     25.1498
   342.8000     75.2922      0.0000    361.6888     24.3205
   342.9000     75.2922      0.0000    361.6888     24.3205
   343.0000     76.6717      0.0000    381.4709     23.2472
   343.1000     76.6717      0.0000    381.4709     23.2472
   343.2000     76.6717      0.0000    381.4709     23.2472
   343.3000     80.1622      0.0000    396.1842     21.8765
   343.4000     80.1622      0.0000    396.1842     21.8765
   343.5000     84.2979      0.0000    409.2385     20.3058
   343.6000     84.2979      0.0000    409.2385     20.3058
   343.7000     84.2979      0.0000    409.2385     20.3058
   343.8000     87.4199      0.0000    425.0425     18.8320
   343.9000     87.4199      0.0000    425.0425     18.8320
   344.0000     89.5945      0.0000    444.0720     17.7156
   344.1000     89.5945      0.0000    444.0720     17.7156
   344.2000     89.5945      0.0000    444.0720     17.7156
   344.3000     92.2245      0.0000    463.5807     16.9276
   344.4000     92.2245      2.0000    463.5807     16.9276
   344.5000     95.9660     -2.0000    480.2072     16.2127
   344.6000     95.9660      0.0000    480.2072     16.2127
   344.7000     95.9660      0.0000    480.2072     16.2127
   344.8000     99.7417      0.0000    491.1225     15.3833
   344.9000     99.7417      0.0000    491.1225     15.3833
   345.0000    101.6839      0.0000    495.5102     14.5326
   345.1000    101.6839      0.0000    495.5102     14.5326
   345.2000    101.6839      0.0000    495.5102     14.5326
   345.3000    100.4404      0.0000    496.8771     13.9837
   345.4000    100.4404      0.0000    496.8771     13.9837
   345.5000     96.0049      0.0000    503.3994     14.0075
   345.6000     96.0049      0.0000    503.3994     14.0075
   345.7000     96.0049      0.0000    503.3994     14.0075
   345.8000     90.3161      0.0000    524.1945     14.5347
   345.9000     90.3161      0.0000    524.1945     14.5347
   346.0000     86.8419      0.0000    561.3519     15.1564
   346.1000     86.8419      0.0000    561.3519     15.1564
   346.2000     86.8419      0.0000    561.3519     15.1564
   346.3000     88.2941      0.0000    603.4607     15.4626
   346.4000     88.2941      0.0000    603.4607     15.4626
   346.5000     94.1745      0.0000    632.1921     15.3386
   346.6000     94.1745      0.0000    632.1921     15.3386
   346.7000     94.1745      0.0000    632.1921     15.3386
   346.8000    100.9830      0.0000    641.0051     14.9104
   346.9000    100.9830      0.0000    641.0051     14.9104
   347.0000    105.1287      0.0000    644.2322     14.3214
   347.1000    105.1287      0.0000    644.2322     14.3214
   347.2000    105.1287      0.0000    644.2322     14.3214
   347.3000    105.4525      0.0000    662.0834     13.6536
   347.4000    105.4525      0.0000    662.0834     13.6536
   347.5000    103.0490      0.0000    699.0873     12.9901
   347.6000    103.0490      0.0000    699.0873     12.9901
   347.7000    103.0490      0.0000    699.0873     12.9901
   347.8000     99.5217      0.0000    742.0057     12.4497
   347.9000     99.5217      0.0000    742.0057     12.4497
   348.0000     96.0636      0.0000    775.7178     12.1412
   348.1000     96.0636      0.0000    775.7178     12.1412
   348.2000     96.0636      0.0000    775.7178     12.1412
   348.3000     93.8643      0.0000    795.4822     12.0847
   348.4000     93.8643      0.0000    795.4822     12.0847
   348.5000     94.3864      0.0000    805.7004     12.1687
   348.6000     94.3864      0.0000    805.7004     12.1687
   348.7000     94.3864      0.0000    805.7004     12.1687
   348.8000     98.5435      0.0000    812.7263     12.2011
   348.9000     98.5435      0.0000    812.7263     12.2011
   349.0000    105.3842      0.0000    819.8961     12.0449
   349.1000    105.3842      0.0000    819.8961     12.0449
   349.2000    105.3842      0.0000    819.8961     12.0449
   349.3000    111.8353      0.0000    826.3852     11.7133
   349.4000    111.8353      0.0000    826.3852     11.7133
