~Version Information
VERS.                      2.0: CWLS Log ASCII Standard - VERSION 2.0
WRAP.                       NO: One line per depth step
~Well Information Block
STRT.FT               780.0000: 
STOP.FT              3152.2000: 
STEP.FT                 0.1000: 
NULL.                -999.2500: 
COMP.          Pioneer Natural Resources: COMPANY
WELL.            Paradise 13-8: WELL
FLD.           Purgatoire River: FIELD
LOC.           1896' FSL & 1120' FWL: LOCATION
PROV.                 Colorado: PROVINCE
CNTY.               Las Animas: COUNTRY
SRVC.                Patterson: SERVICE COMPANY
DATE.          Sat Jan 22 20:51:32 2005: LOG DATE
UWI.           05 071 07946 00: UNIQUE WELL ID
~Curve Information Block
DEPT.FT            0 000 00 00: Depth
DCAL.in                       : CDL Caliper
RHOB.g/cc                     : CDL Bulk Density
RHOC.g/cc                     : CDL Density Correction
DPOR.pu                       : CDL Density Porosity
NPOR.pu                       : Neutron Porosity
GR.GAPI                       : Gamma Ray
~Parameter Information Block
~A  Depth       DCAL        RHOB        RHOC        DPOR        NPOR         GR     
# ...
  1250.4000      8.0876      2.5242      0.0707      7.6223     23.1710     85.6772
  1250.5000      8.0914      2.5383      0.0660      6.7708     23.4790     87.8077
  1250.6000      8.0914      2.5451      0.1168      6.3595     23.4792     90.9014
  1250.7000      8.0914      2.5395      0.0585      6.6941     23.3197     91.1642
  1250.8000      8.0983      2.5315      0.0814      7.1824     22.9154     85.0630
  1250.9000      8.0983      2.5256      0.0537      7.5387     22.4021     76.1411
  1251.0000      8.1067      2.5162      0.0365      8.1113     22.1748     71.7061
  1251.1000      8.1067      2.4988      0.0221      9.1623     22.2465     73.5645
  1251.2000      8.1067      2.4758      0.0543     10.5563     22.3823     76.5225
  1251.3000      8.1097      2.4600      0.0111     11.5139     22.5056     75.2572
  1251.4000      8.1097      2.4688      0.0505     10.9819     22.6423     72.0424
  1251.5000      8.1090      2.4953      0.0616      9.3778     22.6476     71.2624
  1251.6000      8.1090      2.5068      0.1049      8.6791     22.6298     72.6580
  1251.7000      8.1090      2.4901      0.0507      9.6912     23.0204     74.8095
  1251.8000      8.1086      2.4741      0.0118     10.6602     23.8462     76.3731
  1251.9000      8.1086      2.4862      0.0626      9.9303     24.6225     75.4774
  1252.0000      8.1088      2.5171      0.0562      8.0568     25.1587     72.3618
  1252.1000      8.1088      2.5468      0.0745      6.2515     25.8459     71.2398
  1252.2000      8.1088      2.5654      0.0708      5.1252     26.6927     75.4370
  1252.3000      8.1119      2.5664      0.1349      5.0673     27.3717     83.9015
  1252.4000      8.1119      2.5510      0.0604      6.0000     28.1176     94.1815
  1252.5000      8.1205      2.5418      0.0318      6.5571     29.1347    102.8913
  1252.6000      8.1205      2.5549      0.0573      5.7606     30.0945    108.9903
  1252.7000      8.1205      2.5729      0.0697      4.6700     30.6080    113.6966
  1252.8000      8.1302      2.5762      0.0705      4.4729     30.4205    115.4929
  1252.9000      8.1302      2.5715      0.0022      4.7576     29.8875    113.8174
  1253.0000      8.1352      2.5695      0.0389      4.8770     29.5439    111.6974
  1253.1000      8.1352      2.5665      0.0209      5.0607     29.0238    110.1745
  1253.2000      8.1352      2.5648      0.0130      5.1651     28.0321    106.6161
  1253.3000      8.1358      2.5744      0.0178      4.5815     26.9947    101.0624
  1253.4000      8.1358      2.5981      0.0390      3.1474     26.3277     98.6988
  1253.5000      8.1358      2.6312      0.0586      1.1398     26.3506    102.6453
  1253.6000      8.1358      2.6576      0.0918     -0.4576     26.9170    109.3291
  1253.7000      8.1358      2.6498      0.1135      0.0092     27.3448    111.2221
  1253.8000      8.1367      2.6097      0.0300      2.4416     27.1824    107.8318
  1253.9000      8.1367      2.5786      0.0153      4.3266     26.7571    106.0531
  1254.0000      8.1377      2.5804      0.0407      4.2204     26.6663    108.1068
  1254.1000      8.1377      2.5986      0.0257      3.1140     26.7907    111.3341
  1254.2000      8.1377      2.6141      0.0679      2.1761     26.7236    114.7726
  1254.3000      8.1388      2.6172      0.0634      1.9891     26.5782    119.6015
  1254.4000      8.1388      2.6053      0.0375      2.7114     26.5481    124.9780
  1254.5000      8.1400      2.5869      0.0260      3.8244     26.4658    126.3743
  1254.6000      8.1400      2.5705      0.0204      4.8163     26.2694    124.8882
  1254.7000      8.1400      2.5597      0.0062      5.4728     25.9110    126.0970
  1254.8000      8.1394      2.5588      0.0061      5.5294     25.3937    128.6557
  1254.9000      8.1394      2.5665      0.0402      5.0600     25.3354    128.5502
  1255.0000      8.1380      2.5750      0.0432      4.5484     25.9908    126.5977
  1255.1000      8.1380      2.5780      0.0173      4.3649     26.7463    124.4359
  1255.2000      8.1380      2.5763      0.0176      4.4673     27.1659    120.2099
  1255.3000      8.1386      2.5771      0.0017      4.4200     27.3176    113.9854
  1255.4000      8.1386      2.5815      0.0433      4.1542     27.3055    109.8420
  1255.5000      8.1395      2.5851     -0.0144      3.9312     27.1946    109.5253
  1255.6000      8.1395      2.5921      0.0456      3.5105     27.2424    110.1293
  1255.7000      8.1395      2.6032      0.0564      2.8349     27.6434    109.8848
  1255.8000      8.1393      2.6155      0.0477      2.0921     28.2225    111.9544
  1255.9000      8.1393      2.6250      0.0673      1.5145     28.8891    117.7669
  1256.0000      8.1397      2.6204      0.0817      1.7946     29.5447    123.0073
  1256.1000      8.1397      2.5984      0.0344      3.1261     29.9612    122.3616
  1256.2000      8.1397      2.5745      0.0297      4.5778     30.0406    116.7010
  1256.3000      8.1425      2.5658      0.0201      5.1033     29.8011    114.0274
  1256.4000      8.1425      2.5791      0.0292      4.2961     29.6183    118.2299
  1256.5000      8.1510      2.6026      0.0871      2.8708     30.0984    124.8166
  1256.6000      8.1510      2.6147      0.0592      2.1376     30.9320    128.8768
  1256.7000      8.1510      2.6124      0.0591      2.2771     31.1311    129.7004
  1256.8000      8.1575      2.6052      0.0469      2.7176     30.4192    128.7059
  1256.9000      8.1575      2.5886      0.0781      3.7207     29.4065    127.4584
  1257.0000      8.1475      2.5582      0.0206      5.5656     28.9779    127.4996
  1257.1000      8.1475      2.5252      0.0110      7.5648     29.4129    128.3835
  1257.2000      8.1475      2.4969      0.0346      9.2798     29.9328    129.9372
  1257.3000      8.1345      2.4872     -0.0396      9.8665     30.0728    133.3151
  1257.4000      8.1345      2.5161      0.0233      8.1163     30.2558    133.9366
  1257.5000      8.1317      2.5595      0.0815      5.4857     30.5835    130.2333
  1257.6000      8.1317      2.5751      0.0846      4.5412     30.6617    131.6186
  1257.7000      8.1317      2.5636      0.0314      5.2343     30.1767    139.4012
  1257.8000      8.1360      2.5491      0.0133      6.1173     29.2433    142.8262
  1257.9000      8.1360      2.5386      0.0521      6.7535     28.4312    140.2908
  1258.0000      8.1382      2.5270      0.0502      7.4561     28.5428    137.0826
  1258.1000      8.1382      2.5062      0.0584      8.7173     29.6291    136.1658
  1258.2000      8.1382      2.4695      0.0741     10.9420     30.5859    139.3982
  1258.3000      8.1350      2.4289      0.0265     13.3990     30.6972    144.4010
  1258.4000      8.1350      2.3975      0.0467     15.3041     30.2960    147.3558
  1258.5000      8.1293      2.3610      0.0021     17.5180     29.6836    147.0463
  1258.6000      8.1293      2.3043     -0.0449     20.9524     29.0393    143.3283
  1258.7000      8.1293      2.2353     -0.0373     25.1308     28.6990    138.8402
  1258.8000      8.1247      2.1658     -0.0329     29.3433     28.3581    137.4935
  1258.9000      8.1247      2.0826     -0.0258     34.3890     27.2234    139.9033
  1259.0000      8.1219      1.9497     -0.0162     42.4450     25.5433    145.4712
  1259.1000      8.1219      1.7602     -0.0773     53.9245     24.1246    150.5818
  1259.2000      8.1219      1.5796     -0.1454     64.8731     22.9409    147.7747
  1259.3000      8.1186      1.4952     -0.0324     69.9875     21.6718    138.9040
  1259.4000      8.1186      1.5417      0.1272     67.1674     20.5116    133.2444
  1259.5000      8.1404      1.7038      0.2610     57.3451     19.9071    131.2488
  1259.6000      8.1404      1.9356      0.4573     43.2947     19.8602    131.1033
  1259.7000      8.1404      2.1520      0.6619     30.1796     20.0334    133.8418
  1259.8000      8.2618      2.2644      0.7191     23.3711     20.0945    137.8240
  1259.9000      8.2618      2.2510      0.6654     24.1845     20.0090    142.3365
