~Version Information
 VERS.                                  2.0 : CWLS LAS VERSION
 WRAP.                                   NO : WRAPING MODE
 SWARE .                 MController 2.5.0E : SOFTWARE VERSION
~Well Information
 WELL.                         Justin 32-10 : WELL
 COMP.             Evergreen Operating Corp : COMPANY
 FLD.                      Purgatorie River : FIELD
 LOC.                SW/NE Sec 10 T32S R65W : LOCATION
 DATE.                              8/29/04 : DATE(S) LOGGED
 SRVC.       Blanco Geological Services LLC : SERVICE COMPANY
 STAT.                                   CO : STATE
 CNTY.                           Las Animas : COUNTY
 CTRY.                                  USA : COUNTRY
 API.                       05-071-08053-00 : API NUMBER
 STRT.FT                             322.00 : START DEPTH
 STOP.FT                            1195.00 : STOP DEPTH
 STEP.FT                               1.00 : DEPTH INCREMENT
 NULL.                                -9999 : NULL VALUE
~Curve information
 DEPTH.FT                                   :
 ROP.MIN/FT                                 :
 GAS.UNITS                                  :
~ASCII Log data
# ...
      522.00        0.200          8.8 
      523.00        0.200          8.9 
      524.00        0.200          8.9 
      525.00        0.200          7.6 
      526.00        0.167          8.1 
      527.00        0.133          8.1 
      528.00        0.133          7.5 
      529.00        0.133          7.5 
      530.00        0.100          8.4 
      531.00        0.133          8.4 
      532.00        0.067          8.4 
      533.00        0.133          9.2 
      534.00        0.200         10.3 
      535.00        0.233         10.3 
      536.00        3.867         19.4 
      537.00        0.300          8.6 
      538.00        0.267          8.3 
      539.00        0.233          8.6 
      540.00        0.133          8.6 
      541.00        0.200          8.4 
      542.00        0.167          8.4 
      543.00        0.167          8.4 
      544.00        0.100          8.4 
      545.00        0.167          7.9 
      546.00        0.133          8.4 
      547.00        0.167          8.4 
      548.00        0.167          7.5 
      549.00        0.167          7.5 
      550.00        0.133          8.0 
      551.00        0.133          8.0 
      552.00        0.100          7.7 
      553.00        0.100          7.7 
      554.00        0.100          8.5 
      555.00        0.117          8.5 
      556.00        0.100          8.5 
      557.00        0.100          9.1 
      558.00        0.100          9.1 
      559.00        0.100          9.1 
      560.00        0.100         10.7 
      561.00        0.067         10.7 
      562.00        0.133         12.0 
      563.00        0.167         12.5 
      564.00        0.133         12.6 
      565.00        0.167         14.3 
      566.00        2.983         20.2 
      567.00        0.233          9.8 
      568.00        0.233         10.4 
      569.00        0.167         10.8 
      570.00        0.167         10.5 
      571.00        0.167         10.2 
      572.00        0.167         10.6 
      573.00        0.167         10.4 
      574.00        0.167         11.2 
      575.00        0.167         11.2 
      576.00        0.167         10.7 
      577.00        0.133         10.6 
      578.00        0.167         10.6 
      579.00        0.133          8.7 
      580.00        0.167          8.7 
      581.00        0.183          8.4 
      582.00        0.133          8.4 
      583.00        0.167          7.6 
      584.00        0.167          8.3 
      585.00        0.133          8.3 
      586.00        0.167          7.9 
      587.00        0.167          7.7 
      588.00        0.167          7.9 
      589.00        0.133          7.9 
      590.00        0.167          9.0 
      591.00        0.133          9.0 
      592.00        0.167         10.3 
      593.00        0.167         11.8 
      594.00        0.133         11.8 
      595.00        0.167         13.0 
      596.00        2.583         18.0 
      597.00        0.233          8.1 
      598.00        0.300          8.4 
      599.00        0.233          7.9 
      600.00        0.200          8.6 
      601.00        0.167         10.1 
      602.00        0.200         11.0 
      603.00        0.200         11.0 
      604.00        0.133         11.6 
      605.00        0.133         11.7 
      606.00        0.217         11.5 
      607.00        0.200         11.5 
      608.00        0.167         10.4 
      609.00        0.133         10.4 
      610.00        0.133          9.1 
      611.00        0.133          9.1 
      612.00        0.133          8.5 
      613.00        0.100          8.5 
      614.00        0.167          8.0 
      615.00        0.133          8.0 
      616.00        0.100          9.0 
      617.00        0.133          9.0 
      618.00        0.133          8.7 
      619.00        0.100          8.7 
      620.00        0.067          8.7 
      621.00        0.100          9.6 
      622.00        0.067          9.6 
      623.00        0.167         10.6 
      624.00        0.167         11.4 
      625.00        0.167         11.9 
      626.00        2.617         18.1 
      627.00        0.233          9.1 
      628.00        0.267         10.0 
      629.00        0.167         11.2 
      630.00        0.167         12.1 
      631.00        0.133         11.4 
      632.00        0.167         11.3 
      633.00        0.200         10.1 
      634.00        0.183          9.0 
      635.00        0.200          8.5 
      636.00        0.167          8.2 
      637.00        0.200          8.2 
      638.00        0.167          8.2 
      639.00        0.167          8.1 
      640.00        0.233          7.9 
      641.00        0.133          8.0 
      642.00        0.167          8.0 
      643.00        0.533          7.8 
      644.00        0.200          7.8 
      645.00        0.200          8.0 
      646.00        0.167          7.3 
      647.00        0.233          7.3 
      648.00        0.200          8.0 
      649.00        0.233          8.4 
      650.00        0.217          8.4 
      651.00        0.200          8.4 
      652.00        0.233          8.4 
      653.00        0.200          9.0 
      654.00        0.200         10.4 
      655.00        0.167         11.6 
      656.00        3.850         20.9 
      657.00        0.233          7.7 
      658.00        0.300          8.2 
      659.00        0.233          8.2 
      660.00        0.200          8.5 
      661.00        0.167          8.4 
      662.00        0.167          8.4 
      663.00        0.233          8.0 
      664.00        0.183          8.0 
      665.00        0.200          8.6 
      666.00        0.200          8.0 
      667.00        0.133          8.0 
      668.00        0.167          7.9 
      669.00        0.133          8.1 
      670.00        0.133          8.1 
      671.00        0.133          8.2 
      672.00        0.133          8.2 
      673.00        0.133          8.3 
      674.00        0.133          8.3 
      675.00        0.100          8.3 
      676.00        0.167          7.8 
      677.00        0.133          7.5 
      678.00        0.267          8.6 
      679.00        0.133          8.6 
      680.00        0.200          8.6 
      681.00        0.167          8.6 
      682.00        0.133          9.5 
      683.00        0.133          9.5 
      684.00        0.133         11.7 
      685.00        0.167         11.7 
      686.00        3.533         18.6 
      687.00        0.233          8.1 
      688.00        0.167          8.4 
      689.00        0.167          8.4 
      690.00        0.133          8.4 
      691.00        0.133          8.7 
      692.00        0.167          8.7 
      693.00        0.133          8.5 
      694.00        0.133          8.5 
      695.00        0.133          8.5 
      696.00        0.100          8.5 
      697.00        0.167          8.8 
      698.00        0.100          8.8 
      699.00        0.133          8.8 
      700.00        0.133          8.8 
      701.00        0.167          7.9 
      702.00        0.133          7.9 
      703.00        0.100          8.5 
      704.00        0.100          8.5 
      705.00        0.100          8.0 
      706.00        0.133          8.0 
      707.00        0.133          7.9 
      708.00        0.133          7.9 
      709.00        0.133          8.8 
      710.00        0.183          8.8 
      711.00        0.167         10.1 
      712.00        0.133         10.1 
      713.00        0.200         11.6 
      714.00        0.233         12.7 
      715.00        0.100         12.7 
      716.00        3.283         25.6 
      717.00        0.233          6.5 
      718.00        0.267          6.2 
      719.00        0.233          6.8 
      720.00        0.200          6.4 
      721.00        0.133          6.4 
