~Version Information
VERS.                      2.0: CWLS Log ASCII Standard - VERSION 2.0
WRAP.                       NO: One line per depth step
~Well Information Block
STRT.FT               241.5000: 
STOP.FT              2340.7500: 
STEP.FT                 0.2500: 
NULL.                -999.2500: 
COMP.          Petrogulf Corporation: COMPANY
WELL.            Montoya 1-24V: WELL
FLD.           Purgatorie River: FIELD
LOC.           605' FSL & 2557' FWL: LOCATION
CNTY.               Las Animas: COUNTY
SRVC.                         : SERVICE COMPANY
DATE.          Tue Nov 30 10:28:39 2004: LOG DATE
UWI.           05 071 08194 00: UNIQUE WELL ID
STAT.                 Colorado: STATE
~Curve Information Block
DEPT.FT            0 000 00 00: Depth
GR.GAPI                       : Gamma Ray
CCL.                          : Casing Collar Locator
TT3.usec                      : CBL 3' Travel Time
AMP3.mV                       : CBL 3' Amplitude
~Parameter Information Block
~A  Depth        GR         CCL         TT3         AMP3    
# ...
  1213.0000    106.3725      0.0000    618.7887      8.1716
  1213.2500    105.2308      0.0000    637.9893      8.2602
  1213.5000    103.5945      0.0000    659.8201      8.2963
  1213.7500    101.6271      0.0000    681.9396      8.2675
  1214.0000    100.1043      0.0000    702.3923      8.1829
  1214.2500    100.1663      0.0000    719.8769      8.0658
  1214.5000    102.9935      0.0000    733.5983      7.9496
  1214.7500    109.2019      0.0000    743.2104      7.8663
  1215.0000    118.0134      0.0000    748.9684      7.8309
  1215.2500    127.2635      0.0000    751.6811      7.8356
  1215.5000    134.7571      0.0000    752.2054      7.8595
  1215.7500    139.6810      0.0000    751.0580      7.8812
  1216.0000    142.5196      0.0000    748.6300      7.8888
  1216.2500    143.8759      0.0000    745.5410      7.8851
  1216.5000    143.8157      0.0000    742.3064      7.8850
  1216.7500    142.4427      0.0000    738.6688      7.9018
  1217.0000    140.7606      0.0000    734.1819      7.9247
  1217.2500    140.5228      0.0000    729.9986      7.9138
  1217.5000    142.8380      0.0000    729.0222      7.8333
  1217.7500    146.9587      0.0000    733.2132      7.7004
  1218.0000    150.7278      0.0000    741.3995      7.5947
  1218.2500    152.1839      0.0000    750.4773      7.6045
  1218.5000    150.5051      0.0000    758.0464      7.7562
  1218.7500    145.8776      0.0000    763.5587      8.0006
  1219.0000    139.3599      0.0000    767.8613      8.2681
  1219.2500    133.0211      0.0000    772.0817      8.5269
  1219.5000    129.4465      0.0000    776.5836      8.7832
  1219.7500    130.3570      0.0000    780.9090      9.0402
  1220.0000    135.5365      0.0000    784.4575      9.2725
  1220.2500    143.2514      0.0000    786.4834      9.4289
  1220.5000    151.5384      0.0000    785.5189      9.4497
  1220.7500    158.7546      0.0000    779.8917      9.3021
  1221.0000    163.2793      0.0000    769.2406      9.0165
  1221.2500    163.7203      0.0000    754.9636      8.6788
  1221.5000    159.8013      0.0000    738.5009      8.3747
  1221.7500    152.7649      0.0000    719.2553      8.1455
  1222.0000    144.9100      0.0000    695.0859      7.9951
  1222.2500    138.8275      0.0000    665.8704      7.9194
  1222.5000    136.4368      0.0000    636.4338      7.9170
  1222.7500    138.0932      0.0000    614.4745      7.9743
  1223.0000    142.6257      0.0000    604.7512      8.0516
  1223.2500    148.3499      0.0000    605.8457      8.0967
  1223.5000    153.9216      0.0000    612.5045      8.0780
  1223.7500    158.2966      0.0000    620.1511      7.9887
  1224.0000    160.3019      0.0000    627.1726      7.8145
  1224.2500    158.7800      0.0000    634.0004      7.5338
  1224.5000    153.5433      0.0000    640.6734      7.1715
  1224.7500    146.1467      0.0000    645.1379      6.8159
  1225.0000    139.2660      0.0000    643.9957      6.5508
  1225.2500    134.8846      0.0000    635.5829      6.4026
  1225.5000    133.0709      0.0000    622.5199      6.3552
  1225.7500    132.5722      0.0000    610.4238      6.3759
  1226.0000    132.2673      0.0000    604.2186      6.4163
  1226.2500    131.7158     -3.0000    606.6930      6.4262
  1226.5000    130.7199     -3.0000    619.0481      6.3742
  1226.7500    129.0639      0.0000    639.2220      6.2560
  1227.0000    126.7721      0.0000    660.1550      6.1076
  1227.2500    124.0934      0.0000    673.8308      6.0168
  1227.5000    120.9381      0.0000    677.8546      6.0874
  1227.7500    116.6793      0.0000    676.0460      6.3562
  1228.0000    110.8640      0.0000    673.2749      6.7569
  1228.2500    104.0221      0.0000    671.7387      7.1792
  1228.5000     97.6290      0.0000    671.3406      7.5495
  1228.7500     93.2744      0.0000    671.4016      7.8588
  1229.0000     91.6107      0.0000    671.4946      8.1408
  1229.2500     91.9004      0.0000    671.4739      8.4307
  1229.5000     92.7008      0.0000    671.3412      8.7272
  1229.7500     92.8966      0.0000    671.1477      8.9944
  1230.0000     91.9189      0.0000    670.9912      9.2021
  1230.2500     89.5195      0.0000    671.0305      9.3448
  1230.5000     86.0224      0.0000    671.5524      9.4176
  1230.7500     82.6212      0.0000    673.0897      9.4163
  1231.0000     80.8642      0.0000    676.4431      9.3730
  1231.2500     81.5750      0.0000    682.3048      9.3526
  1231.5000     84.2997      0.0000    690.4953      9.3891
  1231.7500     87.8654      0.0000    699.5532      9.4428
  1232.0000     91.2316      0.0000    707.3872      9.4283
  1232.2500     93.5258      0.0000    712.4628      9.2883
  1232.5000     93.9027      0.0000    714.2448      9.0554
  1232.7500     92.4278      0.0000    712.6832      8.8401
  1233.0000     90.8762      0.0000    707.8261      8.7478
  1233.2500     91.5947      0.0000    700.2531      8.7993
  1233.5000     95.3664      0.0000    691.5808      8.9260
  1233.7500    100.7969      0.0000    683.9449      9.0341
  1234.0000    105.7898      0.0000    678.7374      9.0752
  1234.2500    109.4317      0.0000    675.9531      9.0563
  1234.5000    112.5654      0.0000    674.7087      8.9946
  1234.7500    116.7130      0.0000    674.2246      8.8806
  1235.0000    122.3923      0.0000    674.4797      8.6810
  1235.2500    128.4044      0.0000    676.3506      8.3544
  1235.5000    132.6266      0.0000    681.1622      7.8743
  1235.7500    133.3414      0.0000    689.6130      7.2723
  1236.0000    129.9986      0.0000    700.7176      6.6642
  1236.2500    123.3064      0.0000    712.0868      6.2077
  1236.5000    115.0573      0.0000    721.7230      6.0180
  1236.7500    107.7607      0.0000    729.3244      6.1131
  1237.0000    103.8533      0.0000    735.5698      6.4253
  1237.2500    104.6407      0.0000    740.9739      6.8558
  1237.5000    109.5879      0.0000    746.4103      7.3286
  1237.7500    116.4489      0.0000    753.7685      7.8097
  1238.0000    122.4171      0.0000    764.0500      8.2958
  1238.2500    125.6698      0.0000    774.4487      8.8021
  1238.5000    126.0529      0.0000    778.8025      9.3545
  1238.7500    124.5829      0.0000    772.2391      9.9571
  1239.0000    122.7573      0.0000    755.4290     10.5410
  1239.2500    122.0183      0.0000    733.9917     10.9626
  1239.5000    122.9875      0.0000    714.0528     11.0853
  1239.7500    125.0303      0.0000    698.6727     10.8781
  1240.0000    126.9599      0.0000    687.8356     10.4383
  1240.2500    128.2904      0.0000    680.4767      9.9242
  1240.5000    129.6899      0.0000    675.8177      9.4706
  1240.7500    132.0965      0.0000    673.4592      9.1520
  1241.0000    135.3678      0.0000    673.2938      9.0047
  1241.2500    138.0002      0.0000    675.7538      9.0611
  1241.5000    138.3583      0.0000    681.7681      9.3403
  1241.7500    136.2055      0.0000    691.7139      9.7978
  1242.0000    133.0587      0.0000    704.0399     10.3027
  1242.2500    131.0463      0.0000    715.7369     10.6990
  1242.5000    131.2683      0.0000    725.0799     10.9171
  1242.7500    133.1281      0.0000    733.1619     11.0288
  1243.0000    135.0748      0.0000    741.2258     11.1898
  1243.2500    135.7309      0.0000    746.8409     11.5278
  1243.5000    134.3752      0.0000    744.5838     12.0621
  1243.7500    130.8152      0.0000    730.7247     12.6945
  1244.0000    125.1978      0.0000    705.9197     13.2782
  1244.2500    117.8650      0.0000    673.6193     13.7196
  1244.5000    109.2140      0.0000    637.4754     14.0276
  1244.7500     99.8165      0.0000    599.2959     14.2651
  1245.0000     90.7873      0.0000    557.2926     14.4639
  1245.2500     83.8044      0.0000    508.3198     14.5883
  1245.5000     80.4492      0.0000    454.5134     14.5768
  1245.7500     81.2647      0.0000    405.2127     14.4132
  1246.0000     85.2155      0.0000    369.7006     14.1441
  1246.2500     89.9746      0.0000    350.0144     13.8211
