~Version Information
VERS.                      2.0: CWLS Log ASCII Standard - VERSION 2.0
WRAP.                       NO: One line per depth step
~Well Information Block
STRT.FT               519.6000: 
STOP.FT              2727.5000: 
STEP.FT                 0.1000: 
NULL.                -999.2500: 
COMP.          Petrogulf Corporation: COMPANY
WELL.              Silva 6-22V: WELL
FLD.           Purgatorie River: FIELD
LOC.           1936' FNL & 1798' FWL: LOCATION
CNTY.               Las Animas: COUNTY
SRVC.                         : SERVICE COMPANY
DATE.          Tue Nov 09 12:21:27 2004: LOG DATE
UWI.           05 071 08143 00: UNIQUE WELL ID
STAT.                 Colorado: STATE
~Curve Information Block
DEPT.FT            0 000 00 00: Depth
DCAL.in                       : CDL Caliper
RHOB.g/cc                     : CDL Bulk Density
RHOC.g/cc                     : CDL Density Correction
DPOR.pu                       : CDL Density Porosity
GR.GAPI                       : Gamma Ray
NPOR.pu                       : Neutron Porosity
~Parameter Information Block
~A  Depth       DCAL        RHOB        RHOC        DPOR         GR         NPOR    
# ...
  2430.0000      7.6990      2.5842      0.0240      3.9869     69.6428     15.3910
  2430.1000      7.6990      2.5921      0.0680      3.5118     70.6456     16.1854
  2430.2000      7.6990      2.5936      0.0495      3.4161     70.5061     16.4331
  2430.3000      7.6945      2.5809      0.0592      4.1900     67.3469     15.7719
  2430.4000      7.6945      2.5682      0.0424      4.9565     61.9008     15.0984
  2430.5000      7.6886      2.5682      0.0556      4.9600     57.6194     15.4854
  2430.6000      7.6886      2.5787      0.0677      4.3199     57.8362     16.3556
  2430.7000      7.6886      2.5951      0.0702      3.3280     60.6224     16.6088
  2430.8000      7.6894      2.6138      0.0923      2.1948     63.5153     16.6386
  2430.9000      7.6894      2.6235      0.1105      1.6090     66.7771     16.9507
  2431.0000      7.6898      2.6114      0.0856      2.3398     69.1298     17.1424
  2431.1000      7.6898      2.5813      0.0950      4.1647     66.3981     16.8947
  2431.2000      7.6898      2.5528      0.0423      5.8931     59.8212     16.3858
  2431.3000      7.6851      2.5413      0.0765      6.5891     57.2817     15.8817
  2431.4000      7.6851      2.5429      0.0582      6.4892     61.3356     15.5419
  2431.5000      7.6809      2.5514      0.0531      5.9762     66.4005     15.2849
  2431.6000      7.6809      2.5652      0.0951      5.1376     68.7163     14.9576
  2431.7000      7.6809      2.5771      0.0646      4.4163     70.7551     14.7712
  2431.8000      7.6745      2.5811      0.0404      4.1765     76.3324     14.9993
  2431.9000      7.6745      2.5810      0.0962      4.1842     85.5982     14.9670
  2432.0000      7.6632      2.5824      0.0642      4.0988     93.2009     14.3961
  2432.1000      7.6632      2.5801      0.1123      4.2357     94.5159     13.9693
  2432.2000      7.6632      2.5635      0.0765      5.2443     92.0118     13.8632
  2432.3000      7.6522      2.5369      0.0423      6.8518     90.4650     14.1277
  2432.4000      7.6522      2.5187      0.0226      7.9604     91.7635     14.8920
  2432.5000      7.6483      2.5149      0.0537      8.1864     95.6691     15.8890
  2432.6000      7.6483      2.5109      0.0812      8.4296     98.5428     16.4209
  2432.7000      7.6483      2.4977      0.0191      9.2288     95.8700     16.4650
  2432.8000      7.6520      2.4843      0.0551     10.0403     92.2277     16.4941
  2432.9000      7.6520      2.4792      0.0169     10.3521     95.1065     16.6733
  2433.0000      7.6539      2.4922      0.0059      9.5648    103.2262     17.1599
  2433.1000      7.6539      2.5287      0.0670      7.3498    113.5244     17.7523
  2433.2000      7.6539      2.5687      0.1606      4.9297    122.0882     17.9299
  2433.3000      7.6541      2.5821      0.1557      4.1163    120.4857     17.5985
  2433.4000      7.6541      2.5672      0.1354      5.0152    107.9119     16.7974
  2433.5000      7.6596      2.5529      0.0744      5.8865     95.8473     15.9818
  2433.6000      7.6596      2.5607      0.0804      5.4145     89.6662     15.9126
  2433.7000      7.6596      2.5799      0.1257      4.2487     83.5365     16.0040
  2433.8000      7.6627      2.5942      0.0784      3.3801     75.0942     15.0604
  2433.9000      7.6627      2.6018      0.0738      2.9190     68.2821     13.6456
  2434.0000      7.6569      2.5993      0.0901      3.0734     65.5353     12.6808
  2434.1000      7.6569      2.5856      0.0867      3.9037     65.2239     12.1721
  2434.2000      7.6569      2.5716      0.0748      4.7529     65.0725     12.0344
  2434.3000      7.6598      2.5642      0.1008      5.1971     63.8143     12.0970
  2434.4000      7.6598      2.5631      0.0286      5.2664     60.4280     12.3771
  2434.5000      7.6721      2.5675      0.0322      5.0009     57.5788     12.7593
  2434.6000      7.6721      2.5731      0.0235      4.6609     58.4854     12.6707
  2434.7000      7.6721      2.5792      0.0477      4.2885     61.6668     11.9046
  2434.8000      7.6859      2.5845      0.0650      3.9701     63.8610     10.8834
  2434.9000      7.6859      2.5788      0.0624      4.3145     63.2193      9.8405
  2435.0000      7.6961      2.5567      0.0413      5.6553     60.8354      9.1982
  2435.1000      7.6961      2.5309     -0.0029      7.2185     57.9664      9.4155
  2435.2000      7.6961      2.5224     -0.0001      7.7313     55.0898     10.1454
  2435.3000      7.7029      2.5385      0.0198      6.7590     52.2654     10.5219
  2435.4000      7.7029      2.5629      0.0642      5.2782     49.3699     10.5820
  2435.5000      7.7016      2.5756      0.0420      4.5105     48.6748     11.1485
  2435.6000      7.7016      2.5735      0.0840      4.6339     51.8537     11.6425
  2435.7000      7.7016      2.5597      0.0536      5.4711     57.2460     11.0309
  2435.8000      7.6921      2.5408      0.0425      6.6202     62.2825      9.9947
  2435.9000      7.6921      2.5323      0.0258      7.1352     65.3988      9.3981
  2436.0000      7.6913      2.5431      0.0769      6.4771     65.5320      9.5451
  2436.1000      7.6913      2.5669      0.0978      5.0385     63.5216     10.5475
  2436.2000      7.6913      2.5906      0.0859      3.5985     60.9591     12.1265
  2436.3000      7.7043      2.6001      0.0983      3.0252     58.2363     13.2917
  2436.4000      7.7043      2.5854      0.0953      3.9154     55.9998     12.9799
  2436.5000      7.7173      2.5556      0.0389      5.7242     52.6290     11.7783
  2436.6000      7.7173      2.5343      0.0345      7.0129     46.5383     10.8965
  2436.7000      7.7173      2.5300      0.0805      7.2745     43.0474     10.5866
  2436.8000      7.7160      2.5311      0.0758      7.2038     47.8011     10.6923
  2436.9000      7.7160      2.5333      0.0691      7.0754     57.0475     11.1699
  2437.0000      7.7154      2.5435      0.0523      6.4523     62.9896     11.7040
  2437.1000      7.7154      2.5619      0.0829      5.3364     63.6108     11.5354
  2437.2000      7.7154      2.5689      0.1194      4.9149     61.5688     10.7953
  2437.3000      7.7159      2.5555      0.0728      5.7298     60.0898     10.5249
  2437.4000      7.7159      2.5507      0.0207      6.0194     60.6835     11.0114
  2437.5000      7.7031      2.5713      0.0906      4.7673     61.7335     11.5983
  2437.6000      7.7031      2.5887      0.1027      3.7176     61.7110     11.6117
  2437.7000      7.7031      2.5870      0.1046      3.8186     58.6978     11.1099
  2437.8000      7.6782      2.5904      0.0827      3.6126     53.7741     10.3700
  2437.9000      7.6782      2.6160      0.1156      2.0595     52.1509      9.5125
  2438.0000      7.6565      2.6471      0.1501      0.1766     53.1523      8.8462
  2438.1000      7.6565      2.6596      0.1689     -0.5831     50.6293      8.6228
  2438.2000      7.6565      2.6569      0.1202     -0.4200     45.3975      8.9538
  2438.3000      7.6505      2.6552      0.1483     -0.3132     45.5741      9.6069
  2438.4000      7.6505      2.6536      0.1301     -0.2165     51.7357      9.8542
  2438.5000      7.6544      2.6484      0.1077      0.0987     54.8806      9.2616
  2438.6000      7.6544      2.6367      0.1282      0.8033     52.4501      8.3889
  2438.7000      7.6544      2.6226      0.0278      1.6607     49.7643      7.8549
  2438.8000      7.6630      2.6231      0.0549      1.6295     47.8975      7.3641
  2438.9000      7.6630      2.6345      0.0765      0.9404     46.5654      6.6715
  2439.0000      7.6829      2.6386      0.0487      0.6910     47.1707      6.2369
  2439.1000      7.6829      2.6351      0.0654      0.9005     48.2594      6.4309
  2439.2000      7.6829      2.6301      0.0671      1.2035     47.0891      7.1736
  2439.3000      7.7112      2.6213      0.0571      1.7400     43.1601      8.1061
  2439.4000      7.7112      2.6048      0.0441      2.7373     40.5204      8.8805
  2439.5000      7.7313      2.5853      0.0289      3.9232     42.9336      9.4654
