~Version Information
VERS.                      2.0: CWLS Log ASCII Standard - VERSION 2.0
WRAP.                       NO: One line per depth step
~Well Information Block
STRT.FT                -8.0000: 
STOP.FT               973.2500: 
STEP.FT                 0.2500: 
NULL.                -999.2500: 
COMP.          Pioneer Natural Resources: COMPANY
WELL.              Oscar 41-31: WELL
FLD.           Purgatorie River: FIELD
LOC.           412' FNL & 1216' FEL--: LOCATION
PROV.                       CO: PROVINCE
CNTY.               Las Animas: COUNTRY
SRVC.          Patterson Wireline: SERVICE COMPANY
DATE.          Wed Mar 02 12:29:08 2005: LOG DATE
UWI.           05 071 08290 00: UNIQUE WELL ID
~Curve Information Block
DEPT.FT            0 000 00 00: Depth
CCL.                          : Casing Collar Locator
TT5.usec                      : CBL 5' Travel Time
AMP3.mV                       : CBL 3' Amplitude
GR.GAPI                       : Gamma Ray
~Parameter Information Block
~A  Depth       CCL         TT5         AMP3         GR     
# ...
   494.5000      0.0000   1200.0000      3.7613    150.6169
   494.7500      0.0000   1200.0000      3.7673    155.2134
   495.0000      0.0000   1200.0000      3.7826    160.5771
   495.2500      0.0000   1200.0000      3.8114    165.5793
   495.5000      0.0000   1200.0000      3.8465    169.7365
   495.7500      0.0000   1200.0000      3.8708    173.2420
   496.0000      0.0000   1200.0000      3.8668    176.2168
   496.2500      0.0000   1200.0000      3.8301    177.9131
   496.5000      0.0000   1200.0000      3.7784    177.0631
   496.7500      0.0000   1200.0000      3.7473    173.3859
   497.0000      0.0000   1200.0000      3.7676    168.2637
   497.2500      0.0000   1200.0000      3.8380    163.4066
   497.5000      0.0000   1200.0000      3.9247    159.2502
   497.7500      0.0000   1200.0000      3.9904    155.1001
   498.0000      0.0000   1200.0000      4.0218    150.3188
   498.2500      0.0000   1200.0000      4.0284    144.8671
   498.5000      0.0000   1200.0000      4.0217    139.1802
   498.7500      0.0000   1200.0000      4.0013    134.0000
   499.0000      0.0000   1200.0000      3.9592    129.8459
   499.2500      0.0000   1200.0000      3.8903    126.1061
   499.5000      0.0000   1200.0000      3.8022    121.0322
   499.7500      0.0000   1200.0000      3.7159    113.2078
   500.0000      0.0000   1200.0000      3.6532    103.0781
   500.2500      0.0000   1200.0000      3.6148     92.9816
   500.5000      0.0000   1200.0000      3.5766     85.6883
   500.7500      0.0000   1200.0000      3.5130     82.6967
   501.0000      0.0000   1200.0000      3.4232     83.5898
   501.2500      0.0000   1200.0000      3.3327     86.7763
   501.5000      0.0000   1119.4083      3.2708     90.8050
   501.7500      0.0000   1118.5958      3.2513     95.2882
   502.0000      0.0000   1200.0000      3.2738    100.8608
   502.2500      0.0000   1142.4740      3.3316    108.2639
   502.5000      0.0000   1136.1177      3.4046    117.3205
   502.7500      0.0000   1162.3000      3.4537    126.6834
   503.0000      0.0000   1156.0338      3.4442    134.5595
   503.2500      0.0000   1200.0000      3.3725    139.7059
   503.5000      0.0000   1200.0000      3.2592    141.9297
   503.7500      0.0000   1200.0000      3.1256    141.9259
   504.0000     -2.0000   1200.0000      2.9914    140.8946
   504.2500     -2.0000   1200.0000      2.8817    140.2130
   504.5000      0.0000   1200.0000      2.8279    141.0722
   504.7500      0.0000   1200.0000      2.8579    143.9783
   505.0000      0.0000   1200.0000      2.9779    148.4495
   505.2500      0.0000   1200.0000      3.1529    153.2549
   505.5000      0.0000   1200.0000      3.3144    157.0129
   505.7500      0.0000   1200.0000      3.4099    158.7056
   506.0000      0.0000   1200.0000      3.4423    158.0844
   506.2500      0.0000   1200.0000      3.4524    156.1433
   506.5000      0.0000   1200.0000      3.4719    154.9226
   506.7500      0.0000   1200.0000      3.5041    155.9780
   507.0000      0.0000   1200.0000      3.5385    158.9741
   507.2500      0.0000   1200.0000      3.5663    162.2614
   507.5000      0.0000   1200.0000      3.5824    164.4834
   507.7500      0.0000   1200.0000      3.5823    165.1020
   508.0000      0.0000   1200.0000      3.5600    164.0309
   508.2500      0.0000   1200.0000      3.5113    161.6308
   508.5000      0.0000   1200.0000      3.4387    158.9124
   508.7500      0.0000   1200.0000      3.3538    157.1003
   509.0000      0.0000   1200.0000      3.2713    156.8904
   509.2500      0.0000   1200.0000      3.1989    158.2408
   509.5000      0.0000   1200.0000      3.1364    160.7864
   509.7500      0.0000   1200.0000      3.0828    164.2000
   510.0000      0.0000   1200.0000      3.0417    167.8431
   510.2500      0.0000   1200.0000      3.0154    170.1948
   510.5000      0.0000   1200.0000      2.9994    169.4072
   510.7500      0.0000   1200.0000      2.9873    164.8304
   511.0000      0.0000   1200.0000      2.9784    157.6683
   511.2500      0.0000   1200.0000      2.9788    150.0054
   511.5000      0.0000   1200.0000      2.9928    143.5511
   511.7500      0.0000   1200.0000      3.0175    139.4126
   512.0000      0.0000   1200.0000      3.0444    138.4374
   512.2500      0.0000   1200.0000      3.0660    140.9888
   512.5000      0.0000   1200.0000      3.0788    146.3233
   512.7500      0.0000   1200.0000      3.0813    152.5983
   513.0000      0.0000   1200.0000      3.0731    157.7767
   513.2500      0.0000   1200.0000      3.0594    160.7370
   513.5000      0.0000   1200.0000      3.0515    161.6306
   513.7500      0.0000   1200.0000      3.0644    161.0452
   514.0000      0.0000   1200.0000      3.1124    158.9826
   514.2500      0.0000   1200.0000      3.2032    155.2473
   514.5000      0.0000   1200.0000      3.3323    150.7947
   514.7500      0.0000   1200.0000      3.4820    147.7187
   515.0000      0.0000   1200.0000      3.6269    147.3710
   515.2500      0.0000   1200.0000      3.7433    148.9151
   515.5000      0.0000   1200.0000      3.8204    150.0946
   515.7500      0.0000   1200.0000      3.8648    149.1193
   516.0000      0.0000   1200.0000      3.8933    145.7128
   516.2500      0.0000   1200.0000      3.9186    140.8842
   516.5000      0.0000   1200.0000      3.9451    136.2197
   516.7500      0.0000   1200.0000      3.9733    133.3492
   517.0000      0.0000   1200.0000      4.0052    133.4832
   517.2500      0.0000   1200.0000      4.0438    136.7621
   517.5000      0.0000   1200.0000      4.0879    141.8568
   517.7500      0.0000   1200.0000      4.1258    146.5179
   518.0000      0.0000   1200.0000      4.1392    148.9301
   518.2500      0.0000   1200.0000      4.1158    148.9108
   518.5000      0.0000   1200.0000      4.0606    148.0358
   518.7500      0.0000   1200.0000      3.9939    148.5219
   519.0000      0.0000   1200.0000      3.9391    151.5729
   519.2500      0.0000   1200.0000      3.9091    156.4741
   519.5000      0.0000   1200.0000      3.9001    161.3021
   519.7500      0.0000   1200.0000      3.8990    164.5180
   520.0000      0.0000   1200.0000      3.8985    165.8990
   520.2500      0.0000   1200.0000      3.9028    166.0651
   520.5000      0.0000   1200.0000      3.9183    165.2664
   520.7500      0.0000   1200.0000      3.9427    162.7169
   521.0000      0.0000   1200.0000      3.9664    157.1833
   521.2500      0.0000   1200.0000      3.9811    148.3292
   521.5000      0.0000   1200.0000      3.9849    137.4500
   521.7500      0.0000   1200.0000      3.9791    126.8002
   522.0000      0.0000   1200.0000      3.9646    118.1576
   522.2500      0.0000   1200.0000      3.9451    112.0055
   522.5000      0.0000   1200.0000      3.9297    107.7903
   522.7500      0.0000   1200.0000      3.9269    104.5946
   523.0000      0.0000   1200.0000      3.9358    101.6531
   523.2500      0.0000   1200.0000      3.9477     98.8109
   523.5000      0.0000   1200.0000      3.9563     96.8230
   523.7500      0.0000   1200.0000      3.9590     96.9253
   524.0000      0.0000   1200.0000      3.9500     99.5736
   524.2500      0.0000   1200.0000      3.9210    103.2642
   524.5000      0.0000   1200.0000      3.8720    104.9776
   524.7500      0.0000   1200.0000      3.8158    102.5972
   525.0000      0.0000   1200.0000      3.7730     97.0621
   525.2500      0.0000   1200.0000      3.7604     91.5474
   525.5000      0.0000   1200.0000      3.7834     88.4114
   525.7500      0.0000   1200.0000      3.8352     87.4928
   526.0000      0.0000   1200.0000      3.9033     87.3787
   526.2500      0.0000   1200.0000      3.9743     87.5569
   526.5000      0.0000   1200.0000      4.0378     88.8168
   526.7500      0.0000   1200.0000      4.0879     92.0118
   527.0000      0.0000   1200.0000      4.1232     97.1283
   527.2500      0.0000   1200.0000      4.1423    103.5052
   527.5000      0.0000   1200.0000      4.1412    110.3661
   527.7500      0.0000   1200.0000      4.1144    117.1400
