~Version Information
VERS.                      2.0: CWLS Log ASCII Standard - VERSION 2.0
WRAP.                       NO: One line per depth step
~Well Information Block
STRT.FT               -11.7500: 
STOP.FT              2025.5000: 
STEP.FT                 0.2500: 
NULL.                -999.2500: 
COMP.          Evergreen Operating Corp.: COMPANY
WELL.            Sumatra 34-22: WELL
FLD.           Purgatorie River: FIELD
LOC.           542 FSL & 2438 FEL--: LOCATION
PROV.                       CO: PROVINCE
CNTY.               Las Animas: COUNTRY
SRVC.          Patterson Wireline, Inc.: SERVICE COMPANY
DATE.          Wed Apr 02 10:17:21 2003: LOG DATE
UWI.           05 071 07804 00: UNIQUE WELL ID
~Curve Information Block
DEPT.FT            0 000 00 00: Depth
CCL.                          : Casing Collar Locator
TT3.usec                      : CBL 3' Travel Time
AMP3.mV                       : CBL 3' Amplitude
GR.GAPI                       : Gamma Ray
~Parameter Information Block
~A  Depth       CCL         TT3         AMP3         GR     
# ...
  1060.2500      0.0000    815.4518      2.9411    206.9945
  1060.5000      0.0000    810.6657      3.0135    214.2964
  1060.7500      0.0000    808.9169      3.0691    218.9150
  1061.0000      0.0000    808.5821      3.0814    218.8965
  1061.2500      0.0000    808.7341      3.0546    213.7186
  1061.5000      0.0000    809.0446      3.0311    204.1114
  1061.7500      0.0000    809.4315      3.0758    191.0166
  1062.0000      0.0000    809.8276      3.1910    175.7163
  1062.2500      0.0000    810.0587      3.2936    160.4598
  1062.5000      0.0000    809.9792      3.2948    147.7240
  1062.7500      0.0000    809.6329      3.2001    138.3639
  1063.0000      0.0000    809.2326      3.1242    130.8663
  1063.2500      0.0000    809.0421      3.1643    122.8100
  1063.5000      0.0000    809.1648      3.2892    113.2099
  1063.7500      0.0000    809.4306      3.3858    103.5152
  1064.0000      0.0000    809.6330      3.3726     96.4245
  1064.2500      0.0000    809.7824      3.2763     93.7628
  1064.5000      0.0000    809.9456      3.2010     95.4261
  1064.7500      0.0000    810.0015      3.2041    100.2086
  1065.0000      0.0000    809.8109      3.2462    107.4800
  1065.2500      0.0000    809.4764      3.2562    117.8604
  1065.5000      0.0000    809.2249      3.2031    132.0553
  1065.7500      0.0000    809.1614      3.1326    149.0915
  1066.0000      0.0000    809.2217      3.1059    166.1509
  1066.2500      0.0000    809.2597      3.0983    180.4467
  1066.5000      0.0000    809.1782      3.0446    190.8082
  1066.7500      0.0000    809.0087      2.9385    197.0531
  1067.0000      0.0000    808.8677      2.8367    198.6885
  1067.2500      0.0000    808.8957      2.8120    195.3998
  1067.5000      0.0000    809.1552      2.8886    188.4025
  1067.7500      0.0000    809.5236      3.0110    179.9754
  1068.0000      0.0000    809.8090      3.1083    171.4853
  1068.2500      0.0000    809.9400      3.1672    162.7277
  1068.5000      0.0000    809.9531      3.2424    153.2208
  1068.7500      0.0000    809.8837      3.3760    143.3304
  1069.0000      0.0000    809.7850      3.5068    134.1215
  1069.2500      0.0000    809.9372      3.5269    126.7787
  1069.5000      0.0000    811.3272      3.4038    122.1402
  1069.7500      0.0000    815.9715      3.2353    120.1891
  1070.0000      0.0000    825.1309      3.1667    119.7287
  1070.2500      0.0000    835.6722      3.2320    118.8402
  1070.5000      0.0000    840.7115      3.3426    116.1457
  1070.7500      0.0000    836.4373      3.3996    111.8165
  1071.0000      0.0000    826.4373      3.3558    107.1016
  1071.2500      0.0000    817.4965      3.2469    102.8709
  1071.5000      0.0000    812.7914      3.1775     98.9092
  1071.7500      0.0000    810.9919      3.2022     94.6151
  1072.0000      0.0000    809.1368      3.2705     89.9313
  1072.2500      0.0000    802.6426      3.3039     85.3169
  1072.5000      0.0000    784.3018      3.2213     81.0905
  1072.7500      0.0000    751.8588      2.9657     77.2114
  1073.0000      0.0000    721.3153      2.6507     73.5845
  1073.2500      0.0000    719.8120      2.4917     70.2071
  1073.5000      0.0000    754.8212      2.4868     67.1131
  1073.7500      0.0000    802.7390      2.4781     64.5212
  1074.0000      0.0000    836.0209      2.4607     63.0429
  1074.2500      0.0000    848.6710      2.4972     63.7969
  1074.5000      0.0000    849.5797      2.5359     68.4767
  1074.7500      5.0000    846.4218      2.5279     78.8511
  1075.0000      2.8326    843.0598      2.5205     95.3979
  1075.2500      0.0000    842.1739      2.5525    116.2357
  1075.5000      0.0000    842.5861      2.6403    137.6954
  1075.7500      0.0000    839.0228      2.8345    156.1424
  1076.0000      0.0000    830.7406      3.1107    169.5576
  1076.2500      0.0000    823.7370      3.3180    178.0971
  1076.5000      0.0000    820.6433      3.3745    183.6006
  1076.7500      0.0000    818.0404      3.3422    188.0233
  1077.0000      0.0000    814.4359      3.2748    191.6047
  1077.2500      0.0000    811.6188      3.1630    192.7726
  1077.5000      0.0000    810.4022      3.0293    190.3362
  1077.7500      0.0000    810.1524      2.9617    185.2512
  1078.0000      0.0000    810.1615      3.0103    179.6359
  1078.2500      0.0000    810.0742      3.1047    174.7993
  1078.5000      0.0000    809.8800      3.1284    170.8189
  1078.7500      0.0000    809.7158      3.0435    166.9608
  1079.0000      0.0000    809.6007      2.9319    161.6543
  1079.2500      0.0000    809.4235      2.9187    153.2528
  1079.5000      0.0000    809.3383      3.0399    142.1924
  1079.7500      0.0000    810.2519      3.1972    131.8143
  1080.0000      0.0000    813.5582      3.2503    125.8487
  1080.2500      0.0000    819.2910      3.1573    125.1055
  1080.5000      0.0000    824.8245      3.0283    127.0098
  1080.7500      0.0000    827.1550      2.9921    128.0054
  1081.0000      0.0000    825.2842      3.0435    126.1196
  1081.2500      0.0000    820.4092      3.0999    121.7329
  1081.5000      0.0000    816.0624      3.1288    116.6060
  1081.7500      0.0000    815.7526      3.1457    112.3390
  1082.0000      0.0000    818.9460      3.1769    109.4142
  1082.2500      0.0000    820.9586      3.2575    107.3338
  1082.5000      0.0000    818.4969      3.3997    105.4663
  1082.7500      0.0000    813.6722      3.5547    103.8596
  1083.0000      0.0000    810.1245      3.6303    103.6387
  1083.2500      0.0000    808.7060      3.5843    106.7583
  1083.5000      0.0000    808.4066      3.4885    114.7656
  1083.7500      0.0000    808.2966      3.4482    127.2280
  1084.0000      0.0000    808.0516      3.4857    141.6134
  1084.2500      0.0000    807.7905      3.5377    155.1026
  1084.5000      0.0000    807.6782      3.5334    166.4409
  1084.7500      0.0000    807.6681      3.4839    175.8722
  1085.0000      0.0000    807.5325      3.4754    183.4872
  1085.2500      0.0000    807.0772      3.5450    188.0891
  1085.5000      0.0000    806.3758      3.6193    187.8720
  1085.7500      0.0000    805.7559      3.6017    181.9652
  1086.0000      0.0000    805.5154      3.5080    171.1911
  1086.2500      0.0000    805.6858      3.4573    157.6730
  1086.5000      0.0000    806.0565      3.5044    143.8888
  1086.7500      0.0000    806.3912      3.5803    131.8684
  1087.0000      0.0000    806.5874      3.5995    122.8934
  1087.2500      0.0000    806.6526      3.5508    117.4742
  1087.5000      0.0000    806.6597      3.5017    115.1800
  1087.7500      0.0000    806.6647      3.5243    114.5355
  1088.0000      0.0000    806.6154      3.6034    113.5624
  1088.2500      0.0000    806.2435      3.6470    110.8971
  1088.5000      0.0000    804.5231      3.5872    106.6674
  1088.7500      0.0000    799.2789      3.4747    102.2613
  1089.0000      0.0000    789.0942      3.4288     99.1403
  1089.2500      0.0000    776.6495      3.4693     97.8305
  1089.5000      0.0000    767.7814      3.4932     98.0663
  1089.7500      0.0000    766.0030      3.4300     99.5927
  1090.0000      0.0000    769.1133      3.3496    102.4298
  1090.2500      0.0000    770.9842      3.3605    106.3883
  1090.5000      0.0000    767.9681      3.4417    110.6251
  1090.7500      0.0000    762.6932      3.4688    113.7641
  1091.0000      0.0000    759.1308      3.3793    114.4659
  1091.2500      0.0000    757.8250      3.2601    112.1347
  1091.5000      0.0000    757.4213      3.2321    107.1816
  1091.7500      0.0000    757.1149      3.2825    100.5861
  1092.0000      0.0000    756.8870      3.3135     93.4832
  1092.2500      0.0000    756.8666      3.2882     87.2075
  1092.5000      0.0000    757.0087      3.2526     83.0387
  1092.7500      0.0000    757.1780      3.2605     81.3837
  1093.0000      0.0000    757.2586      3.3042     81.4776
  1093.2500      0.0000    757.2142      3.3274     82.0997
  1093.5000      0.0000    757.1255      3.2924     82.4193
