~Version Information
VERS.                      2.0: CWLS Log ASCII Standard - VERSION 2.0
WRAP.                       NO: One line per depth step
~Well Information Block
STRT.FT               480.0000: 
STOP.FT              1994.2500: 
STEP.FT                 0.2500: 
NULL.                -999.2500: 
COMP.          Evergreen Operating Corporation: COMPANY
WELL.          McCullough 34-32 Tr: WELL
FLD.           Purgatoire River: FIELD
LOC.           394' FSL & 2077' FEL: LOCATION
PROV.                 Colorado: PROVINCE
CNTY.               Las Animas: COUNTRY
SRVC.                Patterson: SERVICE COMPANY
DATE.          Sun Sep 19 05:48:59 2004: LOG DATE
UWI.           05 071 08157 00: UNIQUE WELL ID
~Curve Information Block
DEPT.FT            0 000 00 00: Depth
SN.Ohm-m                      : IEL Short Normal
SP.mV                         : IEL Spontaneous Potential
DIR.Ohm-m                     : IEL Induction Resistivity
GR.GAPI                       : Gamma Ray
~Parameter Information Block
~A  Depth        SN          SP         DIR          GR     
# ...
  1954.0000     27.4124    269.9974     21.8620     69.4733
  1954.2500     27.0307    270.3167     21.5357     76.7720
  1954.5000     26.6984    270.5872     21.2845     85.5961
  1954.7500     26.4107    270.7774     21.1118     88.5358
  1955.0000     26.1703    270.8662     20.9880     87.6906
  1955.2500     25.9873    270.8480     20.8736     84.1390
  1955.5000     25.8713    270.7331     20.7416     76.0716
  1955.7500     25.8293    270.5429     20.5886     70.0843
  1956.0000     25.8724    270.3022     20.4355     62.3235
  1956.2500     26.0160    270.0316     20.3202     58.8669
  1956.5000     26.2621    269.7445     20.2847     56.4941
  1956.7500     26.5808    269.4482     20.3577     56.1879
  1957.0000     26.9126    269.1478     20.5393     56.2601
  1957.2500     27.1926    268.8492     20.7945     56.1288
  1957.5000     27.3799    268.5618     21.0625     55.5178
  1957.7500     27.4737    268.2971     21.2807     55.1542
  1958.0000     27.5083    268.0660     21.4127     55.6904
  1958.2500     27.5339    267.8747     21.4615     57.3418
  1958.5000     27.5953    267.7205     21.4582     61.9608
  1958.7500     27.7179    267.5902     21.4383     65.9225
  1959.0000     27.9027    267.4615     21.4250     71.4492
  1959.2500     28.1308    267.3081     21.4296     73.8169
  1959.5000     28.3754    267.1056     21.4607     74.3913
  1959.7500     28.6177    266.8376     21.5303     72.8066
  1960.0000     28.8567    266.4980     21.6483     68.1676
  1960.2500     29.1072    266.0901     21.8144     64.1220
  1960.5000     29.3881    265.6245     22.0135     57.7432
  1960.7500     29.7103    265.1176     22.2227     53.8963
  1961.0000     30.0713    264.5900     22.4239     49.0825
  1961.2500     30.4582    264.0665     22.6180     46.0632
  1961.5000     30.8505    263.5736     22.8312     40.2694
  1961.7500     31.2204    263.1348     23.1052     34.8053
  1962.0000     31.5312    262.7653     23.4728     24.3968
  1962.2500     31.7449    262.4697     23.9292     17.1182
  1962.5000     31.8390    262.2421     24.4186      8.1442
  1962.7500     31.8221    262.0701     24.8518      4.2463
  1963.0000     31.7347    261.9398     25.1483      1.2417
  1963.2500     31.6304    261.8394     25.2730      0.4586
  1963.5000     31.5462    261.7597     25.2417      0.0777
  1963.7500     31.4819    261.6936     25.0988      0.0194
  1964.0000     31.4075    261.6339     24.8924      0.0010
  1964.2500     31.2951    261.5704     24.6615   -999.2500
  1964.5000     31.1408    261.4887     24.4324   -999.2500
  1964.7500     30.9624    261.3682     24.2221   -999.2500
  1965.0000     30.7840    261.1825     24.0441   -999.2500
  1965.2500     30.6266    260.9023     23.9132   -999.2500
  1965.5000     30.5045    260.5008     23.8371   -999.2500
  1965.7500     30.4214    259.9608     23.8007   -999.2500
  1966.0000     30.3651    259.2840     23.7605   -999.2500
  1966.2500     30.3047    258.4973     23.6614   -999.2500
  1966.5000     30.1871    257.6542     23.4667   -999.2500
  1966.7500     29.9324    256.8279     23.1716   -999.2500
  1967.0000     29.4412    256.0961     22.7867   -999.2500
  1967.2500     28.6285    255.5211     22.3118   -999.2500
  1967.5000     27.4773    255.1321     21.7263   -999.2500
  1967.7500     26.0710    254.9184     21.0051   -999.2500
  1968.0000     24.5668    254.8350     20.1444   -999.2500
  1968.2500     23.1207    254.8201     19.1786   -999.2500
  1968.5000     21.8208    254.8133     18.1721   -999.2500
  1968.7500     20.6743    254.7699     17.1931   -999.2500
  1969.0000     19.6430    254.6642     16.2879   -999.2500
  1969.2500     18.6869    254.4858     15.4724   -999.2500
  1969.5000     17.7862    254.2339     14.7417   -999.2500
  1969.7500     16.9394    253.9122     14.0860   -999.2500
  1970.0000     16.1565    253.5275     13.5013   -999.2500
  1970.2500     15.4575    253.0893     12.9910   -999.2500
  1970.5000     14.8699    252.6111     12.5608   -999.2500
  1970.7500     14.4140    252.1102     12.2118   -999.2500
  1971.0000     14.0876    251.6069     11.9384   -999.2500
  1971.2500     13.8665    251.1219     11.7292   -999.2500
  1971.5000     13.7182    250.6724     11.5712   -999.2500
  1971.7500     13.6162    250.2675     11.4521   -999.2500
  1972.0000     13.5440    249.9053     11.3609   -999.2500
  1972.2500     13.4935    249.5750     11.2877   -999.2500
  1972.5000     13.4639    249.2617     11.2243   -999.2500
  1972.7500     13.4629    248.9533     11.1667   -999.2500
  1973.0000     13.5060    248.6456     11.1171   -999.2500
  1973.2500     13.6101    248.3413     11.0850   -999.2500
  1973.5000     13.7829    248.0465     11.0856   -999.2500
  1973.7500     14.0178    247.7654     11.1364   -999.2500
  1974.0000     14.2972    247.4970     11.2521   -999.2500
  1974.2500     14.6017    247.2349     11.4382   -999.2500
  1974.5000     14.9168    246.9671     11.6863   -999.2500
  1974.7500     15.2376    246.6779     11.9736   -999.2500
  1975.0000     15.5735    246.3496     12.2729   -999.2500
  1975.2500     15.9494    245.9659     12.5690   -999.2500
  1975.5000     16.3942    245.5161     12.8675   -999.2500
  1975.7500     16.9229    244.9979     13.1887   -999.2500
  1976.0000     17.5232    244.4172     13.5519   -999.2500
  1976.2500     18.1570    243.7845     13.9664   -999.2500
  1976.5000     18.7780    243.1114     14.4382   -999.2500
  1976.7500     19.3629    242.4104     14.9808   -999.2500
  1977.0000     19.9491    241.7008     15.6166   -999.2500
  1977.2500     20.6467    241.0146     16.3642   -999.2500
  1977.5000     21.5889    240.3992     17.2190   -999.2500
  1977.7500     22.8280    239.9092     18.1437   -999.2500
  1978.0000     24.2566    239.5902     19.0743   -999.2500
  1978.2500     25.6341    239.4623     19.9363   -999.2500
  1978.5000     26.7106    239.5126     20.6625   -999.2500
  1978.7500     27.3565    239.7011     21.2034   -999.2500
  1979.0000     27.6074    239.9772     21.5364   -999.2500
  1979.2500     27.6064    240.2957     21.6706   -999.2500
  1979.5000     27.5024    240.6261     21.6461   -999.2500
  1979.7500     27.3788    240.9500     21.5217   -999.2500
  1980.0000     27.2485    241.2538     21.3545   -999.2500
  1980.2500     27.0947    241.5210     21.1841   -999.2500
  1980.5000     26.9157    241.7309     21.0280   -999.2500
  1980.7500     26.7435    241.8629     20.8917   -999.2500
  1981.0000     26.6284    241.9030     20.7851   -999.2500
  1981.2500     26.6034    241.8488     20.5585   -999.2500
  1981.5000     26.6632    241.7090     20.5896   -999.2500
  1981.7500     26.7784    241.5007     20.7306   -999.2500
  1982.0000     26.9241    241.2431     20.9823   -999.2500
  1982.2500     27.0935    240.9534     21.3133   -999.2500
  1982.5000     27.2947    240.6438     21.6694   -999.2500
  1982.7500     27.5469    240.3223     21.9984   -999.2500
  1983.0000     27.8712    239.9948     22.2726   -999.2500
  1983.2500     28.2678    239.6685     22.5012   -999.2500
  1983.5000     28.6939    239.3548     22.7327   -999.2500
  1983.7500     29.0684    239.0704     23.0610   -999.2500
  1984.0000     29.3038    238.8360     23.6445   -999.2500
  1984.2500     29.3431    238.6717     24.7347   -999.2500
  1984.5000     29.1773    238.5914     26.7103   -999.2500
  1984.7500     28.8407    238.5963     30.5592   -999.2500
  1985.0000     28.3938    238.6711     36.3498   -999.2500
  1985.2500     27.9123    238.7837     45.4783   -999.2500
  1985.5000     27.4822    238.8895     58.9230   -999.2500
  1985.7500     27.1841    238.9399     76.5473   -999.2500
  1986.0000     27.0613    238.8939     95.6835   -999.2500
  1986.2500     27.1010    238.7274    111.8142   -999.2500
  1986.5000     27.2510    238.4295    122.2611   -999.2500
  1986.7500     27.4537    238.0076    127.9400   -999.2500
  1987.0000     27.6652    237.4501    131.2867   -999.2500
  1987.2500     27.8581    236.6702    134.3002   -999.2500
