~Version Information
 VERS.                                  2.0 : CWLS LAS VERSION
 WRAP.                                   NO : WRAPING MODE
 SWARE .                 MController 2.5.0N : SOFTWARE VERSION
~Well Information
 WELL.                     Commander 43-25Tr : WELL
 COMP.    Pioneer Natural Resources USA Inc : COMPANY
 FLD.                      Purgatoire River : FIELD
 LOC.                NE/SE Sec 26 T32S R67W : LOCATION
 DATE.                              4/14/05 : DATE(S) LOGGED
 SRVC.       Blanco Geological Services LLC : SERVICE COMPANY
 STAT.                                   CO : STATE
 CNTY.                           Las Animas : COUNTY
 CTRY.                                  USA : COUNTRY
 API.                       05-071-08341-00 : API NUMBER
 STRT.FT                             275.00 : START DEPTH
 STOP.FT                            1979.00 : STOP DEPTH
 STEP.FT                               1.00 : DEPTH INCREMENT
 NULL.                                -9999 : NULL VALUE
~Curve information
 DEPTH.FT                                   :
 ROP.MIN/FT                                 :
 GAS.UNITS                                  :
~ASCII Log data
# ...
       675.0         0.20          4.5 
       676.0         0.17          4.6 
       677.0         0.17          4.8 
       678.0         0.17          5.5 
       679.0         0.17          6.7 
       680.0         0.20          6.6 
       681.0         0.23          7.0 
       682.0         0.27          6.3 
       683.0         0.23          5.9 
       684.0         0.30          5.9 
       685.0         0.23          5.7 
       686.0         3.48          5.8 
       687.0         0.20          5.5 
       688.0         0.27          5.4 
       689.0         0.20          4.4 
       690.0         0.15          4.2 
       691.0         0.13          3.8 
       692.0         0.10          4.1 
       693.0         0.10          3.9 
       694.0         0.13          4.7 
       695.0         0.10          4.7 
       696.0         0.17          5.3 
       697.0         0.20          5.1 
       698.0         0.23          5.3 
       699.0         0.23          5.6 
       700.0         0.20          5.9 
       701.0         0.23          5.2 
       702.0         0.20          5.3 
       703.0         0.23          5.1 
       704.0         0.27          5.8 
       705.0         0.20          5.1 
       706.0         0.23          4.8 
       707.0         0.20          5.1 
       708.0         0.18          4.2 
       709.0         0.20          4.9 
       710.0         0.17          5.4 
       711.0         0.20          5.1 
       712.0         0.17          4.6 
       713.0         0.20          4.8 
       714.0         0.17          4.7 
       715.0         0.20          5.5 
       716.0         4.88          7.2 
       717.0         0.20          6.8 
       718.0         0.28          6.5 
       719.0         0.23          6.3 
       720.0         0.17          5.7 
       721.0         0.17          5.3 
       722.0         0.20          5.4 
       723.0         0.30          5.4 
       724.0         0.23          5.5 
       725.0         0.17          5.2 
       726.0         0.20          5.4 
       727.0         0.20          5.1 
       728.0         0.20          4.3 
       729.0         0.20          5.5 
       730.0         0.10          4.6 
       731.0         0.13          6.0 
       732.0         0.10          5.3 
       733.0         0.10          5.7 
       734.0         0.10          5.5 
       735.0         0.10          5.0 
       736.0         0.13          5.4 
       737.0         0.10          5.4 
       738.0         0.13          5.1 
       739.0         0.12          5.0 
       740.0         0.17          5.6 
       741.0         0.20          6.5 
       742.0         0.20          7.6 
       743.0         0.17          7.1 
       744.0         0.13          7.2 
       745.0         0.13          6.8 
       746.0         3.35          7.4 
       747.0         0.40          7.8 
       748.0         0.23          7.9 
       749.0         0.27          7.8 
       750.0         0.30          6.5 
       751.0         0.27          5.4 
       752.0         0.23          5.2 
       753.0         0.30          6.5 
       754.0         0.32          6.0 
       755.0         0.27          5.7 
       756.0         0.23          4.5 
       757.0         0.23          4.6 
       758.0         0.20          4.9 
       759.0         0.13          5.7 
       760.0         0.17          5.9 
       761.0         0.13          5.4 
       762.0         0.13          5.2 
       763.0         0.13          4.5 
       764.0         0.13          3.8 
       765.0         0.17          4.8 
       766.0         0.20          5.0 
       767.0         0.20          5.6 
       768.0         0.17          6.4 
       769.0         0.23          5.7 
       770.0         0.17          6.3 
       771.0         0.17          6.0 
       772.0         0.18          6.2 
       773.0         0.13          5.4 
       774.0         0.17          5.7 
       775.0         0.40          5.9 
       776.0         4.15          8.2 
       777.0         0.20          8.3 
       778.0         0.30          8.5 
       779.0         0.20          7.9 
       780.0         0.33          7.6 
       781.0         0.23          6.2 
       782.0         0.30          6.2 
       783.0         0.28          5.3 
       784.0         0.30          5.3 
       785.0         0.23          6.0 
       786.0         0.27          5.6 
       787.0         0.30          6.2 
       788.0         0.13          5.9 
       789.0         0.10          5.5 
       790.0         0.13          5.4 
       791.0         0.10          5.1 
       792.0         0.20          4.8 
       793.0         0.20          5.6 
       794.0         0.20          5.8 
       795.0         0.20          5.8 
       796.0         0.17          5.7 
       797.0         0.20          5.8 
       798.0         0.13          6.1 
       799.0         0.13          6.3 
       800.0         0.13          5.4 
       801.0         0.10          5.2 
       802.0         0.15          4.8 
       803.0         0.10          5.0 
       804.0         0.13          4.6 
       805.0         0.10          4.7 
       806.0         3.52          6.9 
       807.0         0.13          7.4 
       808.0         0.23          7.8 
       809.0         0.17          6.9 
       810.0         0.13          7.0 
       811.0         0.20          7.0 
       812.0         0.13          5.7 
       813.0         0.17          6.1 
       814.0         0.23          5.4 
       815.0         0.20          6.4 
       816.0         0.20          5.7 
       817.0         0.20          5.2 
       818.0         0.23          5.6 
       819.0         0.20          5.2 
       820.0         0.23          5.3 
       821.0         0.22          5.6 
       822.0         0.17          6.1 
       823.0         0.23          6.0 
       824.0         0.23          6.0 
       825.0         0.23          5.5 
       826.0         0.23          6.3 
       827.0         0.20          6.5 
       828.0         0.20          7.3 
       829.0         0.20          6.7 
       830.0         0.17          6.5 
       831.0         0.17          7.4 
       832.0         0.17          6.1 
       833.0         0.17          6.3 
       834.0         0.13          6.4 
       835.0         0.13          5.6 
       836.0         3.22          6.4 
       837.0         0.17          2.2 
       838.0         0.17          2.8 
       839.0         0.23          3.1 
       840.0         0.22          2.6 
       841.0         0.13          2.0 
       842.0         0.23          2.1 
       843.0         0.17          1.6 
       844.0         0.20          1.9 
       845.0         0.30          1.9 
       846.0         0.27          1.4 
       847.0         0.27          1.4 
       848.0         0.13          1.1 
       849.0         0.17          1.8 
       850.0         0.23          2.6 
       851.0         0.20          2.9 
       852.0         0.23          2.6 
       853.0         0.20          2.0 
       854.0         0.17          1.9 
       855.0         0.13          1.6 
       856.0         0.20          1.0 
       857.0         0.22          0.5 
       858.0         0.20          0.7 
       859.0         0.17          0.7 
       860.0         0.17          0.7 
       861.0         0.17          0.3 
       862.0         0.17          0.7 
       863.0         0.17          0.8 
       864.0         0.17          1.1 
       865.0         0.20          1.4 
       866.0         2.18          2.1 
       867.0         0.27          2.6 
       868.0         0.23          3.3 
       869.0         0.23          2.3 
       870.0         0.20          2.1 
       871.0         0.20          1.8 
       872.0         0.13          1.6 
       873.0         0.27          1.1 
       874.0         0.20          1.5 
