~Version Information
VERS.                      2.0: CWLS Log ASCII Standard - VERSION 2.0
WRAP.                       NO: One line per depth step
~Well Information Block
STRT.FT                -9.0000: 
STOP.FT              2518.0000: 
STEP.FT                 0.2500: 
NULL.                -999.2500: 
COMP.          Petrogulf Corporation: COMPANY
WELL.            Montoya 7-12V: WELL
FLD.           Purgatorie River: FIELD
LOC.           1764' FNL & 728' FWL: LOCATION
CNTY.               Las Animas: COUNTY
SRVC.                         : SERVICE COMPANY
DATE.          Mon Mar 08 16:11:04 2004: LOG DATE
UWI.           05-071-07887-00: UNIQUE WELL ID
STAT.                 Colorado: STATE
~Curve Information Block
DEPT.FT            0 000 00 00: Depth
GR.GAPI                       : Gamma Ray
CCL.                          : Casing Collar Locator
TT3.usec                      : CBL 3' Travel Time
AMP3.mV                       : CBL 3' Amplitude
~Parameter Information Block
~A  Depth        GR         CCL         TT3         AMP3    
# ...
  1163.5000     96.2967      0.0000    662.4100      4.0326
  1163.7500     93.1062      0.0000    664.5712      3.9720
  1164.0000     93.6489      0.0000    664.0004      3.9532
  1164.2500     97.9653      0.0000    662.3322      4.0111
  1164.5000    106.0949      0.0000    663.2798      4.1471
  1164.7500    117.7578      0.0000    667.5663      4.2871
  1165.0000    131.2026      0.0000    672.0747      4.3671
  1165.2500    143.1058      0.0000    674.0354      4.4384
  1165.5000    150.4569      0.0000    672.5830      4.6152
  1165.7500    152.7134      0.0000    667.9368      4.9161
  1166.0000    151.9183      0.0000    661.7686      5.2490
  1166.2500    150.7085      0.0000    656.7856      5.5464
  1166.5000    150.5953      0.0000    654.8154      5.8325
  1166.7500    152.0033      0.0000    656.5139      6.1525
  1167.0000    154.8639      0.0000    661.7679      6.4877
  1167.2500    158.3870      0.0000    668.7336      6.7656
  1167.5000    160.7749      0.0000    674.4169      6.9266
  1167.7500    160.1202      0.0000    677.4155      6.9684
  1168.0000    156.1015      0.0000    678.4876      6.9634
  1168.2500    150.6868      0.0000    678.6328      7.0255
  1168.5000    146.8716      0.0000    677.8255      7.2148
  1168.7500    146.6389      0.0000    675.0527      7.4959
  1169.0000    150.1012      0.0000    669.5240      7.7779
  1169.2500    156.0154      0.0000    662.4872      7.9608
  1169.5000    162.4345      0.0000    656.7597      7.9862
  1169.7500    167.1403      0.0000    653.9747      7.8840
  1170.0000    168.5704      0.0000    653.9466      7.7437
  1170.2500    166.8389      0.0000    656.5039      7.6248
  1170.5000    163.4089      0.0000    661.6685      7.5170
  1170.7500    159.4858      0.0000    667.5715      7.3920
  1171.0000    155.2050      0.0000    670.4724      7.2602
  1171.2500    150.4370      0.0000    668.3074      7.1657
  1171.5000    145.6894      0.0000    663.0130      7.1305
  1171.7500    141.7889      0.0000    658.6422      7.1146
  1172.0000    139.0684      0.0000    658.0070      7.0611
  1172.2500    137.3190      0.0000    660.7910      6.9463
  1172.5000    136.4275      0.0000    663.4850      6.7542
  1172.7500    136.5837      0.0000    662.9355      6.4733
  1173.0000    137.7776      0.0000    660.5326      6.1434
  1173.2500    139.4919      0.0000    659.1710      5.8450
  1173.5000    141.1451      0.0000    658.9100      5.6395
  1173.7500    142.6752      0.0000    659.2872      5.5515
  1174.0000    144.5698      0.0000    659.2827      5.5810
  1174.2500    147.3683      0.0000    652.3239      5.7060
  1174.5000    151.0485      0.0000    628.6127      5.8774
  1174.7500    154.6267      0.0000    587.7849      6.0273
  1175.0000    156.4944      0.0000    544.8790      6.0966
  1175.2500    155.6503      0.0000    517.2270      6.0603
  1175.5000    152.6451      0.0000    508.5909      5.9424
  1175.7500    148.9367      0.0000    511.3307      5.8045
  1176.0000    145.4680      0.0000    520.3834      5.7129
  1176.2500    142.2081      0.0000    535.6713      5.7272
  1176.5000    138.8314      0.0000    549.6612      5.9002
  1176.7500    135.4069      0.0000    545.2685      6.2369
  1177.0000    132.5217      0.0000    510.9836      6.6840
  1177.2500    130.8823      0.0000    455.1357      7.1916
  1177.5000    130.7780      0.0000    402.4633      7.7211
  1177.7500    132.0211      0.0000    372.4602      8.1995
  1178.0000    134.3881      0.0000    370.6644      8.5402
  1178.2500    137.8645      0.0000    401.6642      8.6973
  1178.5000    142.5644      0.0000    467.7869      8.6829
  1178.7500    148.7133      0.0000    549.0568      8.5529
  1179.0000    156.3191      0.0000    609.5945      8.3809
  1179.2500    164.1456      0.0000    629.4134      8.2315
  1179.5000    169.3226      0.0000    610.9976      8.1348
  1179.7500    169.0135      0.0000    568.5359      8.0602
  1180.0000    162.8813      0.0000    522.9582      7.9281
  1180.2500    153.5461      0.0000    486.5005      7.6694
  1180.5000    144.3865      0.0000    459.9132      7.2837
  1180.7500    137.0277      0.0000    454.9164      6.8284
  1181.0000    130.8754      0.0000    487.7451      6.3535
  1181.2500    124.5027      0.0000    548.6785      5.8865
  1181.5000    117.1122      0.0000    606.1359      5.4569
  1181.7500    109.0010      0.0000    641.3234      5.0905
  1182.0000    101.1696      0.0000    660.8201      4.7836
  1182.2500     94.5657      0.0000    677.5520      4.5025
  1182.5000     89.5047      0.0000    694.8362      4.2548
  1182.7500     85.7499      0.0000    707.3443      4.1107
  1183.0000     83.1049     -5.0000    711.0461      4.0905
  1183.2500     81.7249     -5.0000    708.2453      4.1229
  1183.5000     81.7566      0.0000    702.9478      4.1364
  1183.7500     82.8344      0.0000    699.8513      4.1192
  1184.0000     84.0699      0.0000    700.4286      4.0965
  1184.2500     84.4572      0.0000    697.4548      4.0941
  1184.5000     83.1948      0.0000    685.4237      4.1246
  1184.7500     79.8320      0.0000    669.6348      4.1642
  1185.0000     74.6147      0.0000    658.8348      4.1399
  1185.2500     68.8676      0.0000    657.0305      4.0219
  1185.5000     64.5080      0.0000    662.5304      3.8846
  1185.7500     62.6312      0.0000    671.0947      3.7961
  1186.0000     62.5192      0.0000    678.6186      3.7514
  1186.2500     62.2296      0.0000    680.6298      3.7216
  1186.5000     60.2573      0.0000    674.9606      3.6826
  1186.7500     56.7284      0.0000    664.9819      3.6255
  1187.0000     53.1671      0.0000    654.1229      3.5706
  1187.2500     51.1831      0.0000    642.0619      3.5516
  1187.5000     51.2844      0.0000    629.9551      3.5971
  1187.7500     52.7487      0.0000    622.9060      3.7407
  1188.0000     54.5091      0.0000    625.2087      4.0063
  1188.2500     56.1466      0.0000    633.7388      4.3509
  1188.5000     58.1319      0.0000    637.2397      4.6650
  1188.7500     61.2576      0.0000    626.5836      4.8598
  1189.0000     65.8338      0.0000    604.2285      4.9309
  1189.2500     71.2531      0.0000    581.7289      4.9539
  1189.5000     76.1121      0.0000    571.0637      5.0326
  1189.7500     78.8206      0.0000    575.1111      5.2242
  1190.0000     78.5114      0.0000    585.5497      5.5113
  1190.2500     75.6928      0.0000    594.4880      5.8506
  1190.5000     71.9314      0.0000    602.8028      6.2158
  1190.7500     68.7616      0.0000    614.1177      6.5757
  1191.0000     66.9410      0.0000    626.2307      6.8756
  1191.2500     66.5685      0.0000    632.0500      7.0784
  1191.5000     67.4161      0.0000    628.9962      7.1989
  1191.7500     69.0616      0.0000    624.1281      7.2873
  1192.0000     71.2141      0.0000    624.9444      7.3936
  1192.2500     73.9325      0.0000    625.5795      7.5300
  1192.5000     77.1067      0.0000    611.0871      7.6506
  1192.7500     80.0803      0.0000    578.1887      7.6981
  1193.0000     82.2897      0.0000    544.5403      7.6808
  1193.2500     83.7011      0.0000    534.8525      7.6691
  1193.5000     84.0645      0.0000    557.8563      7.7235
  1193.7500     82.4730      0.0000    594.4971      7.8630
  1194.0000     78.4476      0.0000    611.3861      8.0801
  1194.2500     73.1826      0.0000    589.2960      8.3487
  1194.5000     69.2175      0.0000    536.3669      8.6212
  1194.7500     68.8647      0.0000    474.6891      8.8402
  1195.0000     72.9393      0.0000    421.2476      8.9583
  1195.2500     80.6369      0.0000    384.3831      8.9505
  1195.5000     90.1401      0.0000    368.2564      8.8324
  1195.7500     99.2283      0.0000    375.5590      8.6804
  1196.0000    105.6986      0.0000    406.3966      8.6042
  1196.2500    107.8992      0.0000    448.0663      8.6578
  1196.5000    105.6936      0.0000    477.0749      8.7890
  1196.7500    101.3016      0.0000    492.0563      8.9039
