~Version Information
VERS.                      2.0: CWLS Log ASCII Standard - VERSION 2.0
WRAP.                       NO: One line per depth step
~Well Information Block
STRT.FT               510.0000: 
STOP.FT              1845.5000: 
STEP.FT                 0.1000: 
NULL.                -999.2500: 
COMP.          Pioneer Natural Resources: COMPANY
WELL.           Stampede 42-18: WELL
FLD.           Purgatoire River: FIELD
LOC.           2479' FNL & 160' FEL--: LOCATION
CNTY.               Las Animas: COUNTY
SRVC.          Superior Well Services: SERVICE COMPANY
DATE.          Sat Jun 09 02:39:23 2007: LOG DATE
UWI.           05 071 08237 00: UNIQUE WELL ID
STAT.                 Colorado: STATE
~Curve Information Block
DEPT.FT            0 000 00 00: Depth
DCAL.in                       : CDL Caliper
RHOB.g/cc                     : CDL Bulk Density
RHOC.g/cc                     : CDL Density Correction
DPOR.pu                       : CDL Density Porosity
GR.GAPI                       : Gamma Ray
~Parameter Information Block
~A  Depth       DCAL        RHOB        RHOC        DPOR         GR     
# ...
  1562.8000      7.8812      2.5113      0.0071      8.4064    115.7556
  1562.9000      7.8812      2.5115      0.0476      8.3942    110.1571
  1563.0000      7.8817      2.5073      0.0489      8.6507    108.2621
  1563.1000      7.8817      2.4887      0.0386      9.7729    107.9744
  1563.2000      7.8817      2.4617      0.0141     11.4144    102.2869
  1563.3000      7.8820      2.4442      0.0207     12.4702     95.1146
  1563.4000      7.8820      2.4371      0.0418     12.9026     95.2086
  1563.5000      7.8822      2.4328     -0.0226     13.1623     99.3289
  1563.6000      7.8822      2.4353      0.0280     13.0135    101.9931
  1563.7000      7.8822      2.4395      0.0440     12.7589    101.8457
  1563.8000      7.8821      2.4357      0.0336     12.9874    100.8780
  1563.9000      7.8821      2.4273      0.0387     13.4955    101.8817
  1564.0000      7.8822      2.4235      0.0400     13.7278    102.6717
  1564.1000      7.8822      2.4229      0.0354     13.7641     99.4049
  1564.2000      7.8822      2.4164      0.0266     14.1560     94.3133
  1564.3000      7.8823      2.4077      0.0177     14.6847     92.5823
  1564.4000      7.8823      2.4117     -0.0077     14.4409     94.7840
  1564.5000      7.8818      2.4279      0.0291     13.4622     98.8924
  1564.6000      7.8818      2.4362      0.0371     12.9598    101.3611
  1564.7000      7.8818      2.4255      0.0467     13.6070    100.9072
  1564.8000      7.8815      2.4075      0.0071     14.6967    100.1426
  1564.9000      7.8815      2.4018      0.0090     15.0396     97.2784
  1565.0000      7.8819      2.4103      0.0443     14.5254     91.5767
  1565.1000      7.8819      2.4176      0.0454     14.0845     89.3571
  1565.2000      7.8819      2.4148      0.0344     14.2549     92.5113
  1565.3000      7.8822      2.4029      0.0214     14.9747     94.6277
  1565.4000      7.8822      2.3901      0.0112     15.7498     93.3179
  1565.5000      7.8823      2.3837      0.0481     16.1398     94.7318
  1565.6000      7.8823      2.3808      0.0232     16.3148    100.7547
  1565.7000      7.8823      2.3781      0.0578     16.4789    103.7340
  1565.8000      7.8830      2.3732      0.0451     16.7782    100.1869
  1565.9000      7.8830      2.3703      0.0223     16.9499     93.2294
  1566.0000      7.8839      2.3831      0.0089     16.1761     84.4208
  1566.1000      7.8839      2.4101      0.0412     14.5395     77.8443
  1566.2000      7.8839      2.4239      0.0916     13.7044     77.4345
  1566.3000      7.8839      2.4128      0.0571     14.3764     80.4571
  1566.4000      7.8839      2.3977      0.0519     15.2924     84.4635
  1566.5000      7.8842      2.3874      0.0727     15.9128     90.0624
  1566.6000      7.8842      2.3756      0.0371     16.6280     95.0227
  1566.7000      7.8842      2.3652      0.0210     17.2603     94.6656
  1566.8000      7.8851      2.3596      0.0053     17.5980     89.5347
  1566.9000      7.8851      2.3607      0.0252     17.5334     85.7223
  1567.0000      7.8857      2.3752      0.0087     16.6561     86.9796
  1567.1000      7.8857      2.4016      0.0312     15.0541     91.2219
  1567.2000      7.8857      2.4248      0.0629     13.6456     95.4389
  1567.3000      7.8858      2.4342      0.0871     13.0786     98.3852
  1567.4000      7.8858      2.4330      0.0743     13.1524     99.3447
  1567.5000      7.8870      2.4344      0.0751     13.0694     99.8425
  1567.6000      7.8870      2.4438      0.0429     12.4951    100.8275
  1567.7000      7.8870      2.4573      0.0179     11.6808    105.1796
  1567.8000      7.8920      2.4710      0.0257     10.8461    115.4519
  1567.9000      7.8920      2.4747      0.0799     10.6247    122.1378
  1568.0000      7.9006      2.4626      0.0509     11.3580    116.2665
  1568.1000      7.9006      2.4446      0.0369     12.4459    104.3361
  1568.2000      7.9006      2.4267      0.0208     13.5349     92.6134
  1568.3000      7.9080      2.4095      0.0068     14.5786     83.6697
  1568.4000      7.9080      2.4009      0.0092     15.0969     83.9447
  1568.5000      7.9102      2.4045      0.0345     14.8780     91.2036
  1568.6000      7.9102      2.4133      0.0333     14.3441     95.7232
  1568.7000      7.9102      2.4177      0.0765     14.0798     92.4691
  1568.8000      7.9083      2.4122      0.0797     14.4147     85.1447
  1568.9000      7.9083      2.4049      0.0230     14.8542     80.3151
  1569.0000      7.9064      2.4019      0.0711     15.0353     82.1928
  1569.1000      7.9064      2.3904      0.0690     15.7316     90.0541
  1569.2000      7.9064      2.3690      0.0484     17.0301     96.7137
  1569.3000      7.9044      2.3561      0.0330     17.8134     97.1348
  1569.4000      7.9044      2.3572      0.0764     17.7466     93.7905
  1569.5000      7.9016      2.3661      0.0377     17.2033     90.1549
  1569.6000      7.9016      2.3868      0.0343     15.9539     86.7803
  1569.7000      7.9016      2.4120      0.0851     14.4224     83.5643
  1569.8000      7.8991      2.4184      0.0669     14.0359     81.4084
  1569.9000      7.8991      2.4072      0.0407     14.7123     81.2194
  1570.0000      7.8977      2.4088      0.0222     14.6175     79.5894
  1570.1000      7.8977      2.4367      0.0380     12.9258     77.8522
  1570.2000      7.8977      2.4714      0.0942     10.8246     83.8095
  1570.3000      7.8993      2.4961      0.0637      9.3266     95.1769
  1570.4000      7.8993      2.5191      0.0906      7.9317    104.7657
  1570.5000      7.9040      2.5474      0.0818      6.2168    111.0961
  1570.6000      7.9040      2.5706      0.1137      4.8137    114.0608
  1570.7000      7.9040      2.5770      0.1075      4.4272    116.2002
  1570.8000      7.9070      2.5730      0.0525      4.6667    120.7460
  1570.9000      7.9070      2.5733      0.0760      4.6505    126.8154
  1571.0000      7.9028      2.5773      0.0736      4.4072    129.0871
  1571.1000      7.9028      2.5816      0.0510      4.1484    124.7456
  1571.2000      7.9028      2.5929      0.0728      3.4616    117.6100
  1571.3000      7.8944      2.6098      0.0603      2.4374    113.9192
  1571.4000      7.8944      2.6179      0.0567      1.9478    114.7457
  1571.5000      7.8895      2.6093      0.0309      2.4663    116.5247
  1571.6000      7.8895      2.5892      0.0403      3.6823    118.0562
  1571.7000      7.8895      2.5644      0.0394      5.1849    118.2493
  1571.8000      7.8899      2.5388      0.0248      6.7398    113.7931
  1571.9000      7.8899      2.5213     -0.0546      7.7980    108.5752
  1572.0000      7.8940      2.5209      0.0119      7.8241    110.5800
  1572.1000      7.8940      2.5270      0.0017      7.4539    117.0344
  1572.2000      7.8940      2.5292     -0.0066      7.3198    120.7398
  1572.3000      7.8968      2.5317      0.0036      7.1669    119.7454
  1572.4000      7.8968      2.5317      0.0624      7.1720    115.6557
  1572.5000      7.8959      2.5239      0.0187      7.6410    112.4125
  1572.6000      7.8959      2.5209      0.0189      7.8231    111.2241
  1572.7000      7.8959      2.5313      0.0166      7.1951    109.3703
  1572.8000      7.8954      2.5491      0.0226      6.1129    106.1341
  1572.9000      7.8954      2.5638      0.0597      5.2268    104.0348
  1573.0000      7.8958      2.5655      0.0381      5.1212    106.7809
  1573.1000      7.8958      2.5529      0.0761      5.8851    113.0739
  1573.2000      7.8958      2.5315      0.0304      7.1814    117.6508
  1573.3000      7.8947      2.5104      0.0503      8.4583    117.6497
  1573.4000      7.8947      2.4982      0.0095      9.1990    114.5723
  1573.5000      7.8922      2.5001      0.0355      9.0870    113.5109
  1573.6000      7.8922      2.5116      0.0289      8.3902    116.6760
  1573.7000      7.8922      2.5248      0.0482      7.5905    121.9282
  1573.8000      7.8898      2.5352      0.0373      6.9596    126.2131
  1573.9000      7.8898      2.5382      0.0685      6.7736    124.4288
