~Version Information
VERS.                      2.0: CWLS Log ASCII Standard - VERSION 2.0
WRAP.                       NO: One line per depth step
~Well Information Block
STRT.FT               419.7500: 
STOP.FT              1170.0000: 
STEP.FT                 0.2500: 
NULL.                -999.2500: 
COMP.          Evergreen Operating Corporation: COMPANY
WELL.             Bernice 21-3: WELL
FLD.           Purgatoire River: FIELD
LOC.           201' FNL & 2575' FWL: LOCATION
PROV.                 Colorado: PROVINCE
CNTY.               Las Animas: COUNTRY
SRVC.                Patterson: SERVICE COMPANY
DATE.          Mon Jan 26 13:04:04 2004: LOG DATE
UWI.           05 071 07912   : UNIQUE WELL ID
~Curve Information Block
DEPT.FT            0 000 00 00: Depth
SN.Ohm-m                      : IEL Short Normal
SP.mV                         : IEL Spontaneous Potential
DIR.Ohm-m                     : IEL Induction Resistivity
GR.GAPI                       : Gamma Ray
~Parameter Information Block
~A  Depth        SN          SP         DIR          GR     
# ...
   955.7500     22.8994   -106.1674     17.8128    106.2877
   956.0000     22.4758   -104.9852     17.5488    106.2843
   956.2500     22.1738   -103.6975     17.3224    106.3322
   956.5000     21.9644   -102.3544     17.1370    107.5159
   956.7500     21.7452   -101.0136     16.9823    108.8709
   957.0000     21.4845    -99.7449     16.8361    110.6336
   957.2500     21.2597    -98.5995     16.6666    111.1389
   957.5000     21.1563    -97.5877     16.4412    110.7121
   957.7500     21.1684    -96.6801     16.1452    109.7206
   958.0000     21.1911    -95.8215     15.8030    107.5488
   958.2500     21.1313    -94.9591     15.4795    106.1402
   958.5000     21.0273    -94.0779     15.2544    105.2159
   958.7500     21.0126    -93.2124     15.1827    105.8266
   959.0000     21.1673    -92.4194     15.2680    108.4184
   959.2500     21.3926    -91.7385     15.4578    110.7323
   959.5000     21.5140    -91.1771     15.6635    114.0055
   959.7500     21.5318    -90.7262     15.8000    115.5911
   960.0000     21.5975    -90.3751     15.8324    116.6451
   960.2500     21.8267    -90.1106     15.8008    116.3208
   960.5000     22.2590    -89.9183     15.7996    114.1122
   960.7500     22.8700    -89.7995     15.9235    111.4783
   961.0000     23.5712    -89.7829     16.2125    106.1259
   961.2500     24.2558    -89.9050     16.6290    102.0533
   961.5000     24.8616    -90.1763     17.0748     96.1365
   961.7500     25.3771    -90.5692     17.4412     92.7832
   962.0000     25.7640    -91.0350     17.6604     88.9030
   962.2500     25.9068    -91.5320     17.7241     86.9287
   962.5000     25.7100    -92.0421     17.6637     84.5727
   962.7500     25.1926    -92.5698     17.5207     83.3587
   963.0000     24.4453    -93.1258     17.3288     82.0624
   963.2500     23.5861    -93.7041     17.1153     81.5682
   963.5000     22.7170    -94.2725     16.9093     81.8543
   963.7500     21.8313    -94.7831     16.7411     83.2871
   964.0000     20.8468    -95.1954     16.6294     87.8490
   964.2500     19.7809    -95.5012     16.5657     92.0970
   964.5000     18.8189    -95.7351     16.5136     98.6796
   964.7500     18.1731    -95.9504     16.4291    102.3998
   965.0000     17.9037    -96.1649     16.2848    106.5794
   965.2500     17.9236    -96.3301     16.0819    108.7206
   965.5000     18.1094    -96.3667     15.8434    111.8634
   965.7500     18.3381    -96.2354     15.5997    114.4012
   966.0000     18.5245    -95.9727     15.3777    119.1521
   966.2500     18.6730    -95.6665     15.1977    122.6648
   966.5000     18.8449    -95.4032     15.0733    127.3520
   966.7500     19.0511    -95.2254     15.0087    129.2863
   967.0000     19.1818    -95.1200     14.9977    129.2842
   967.2500     19.1397    -95.0389     15.0247    127.1833
   967.5000     19.0182    -94.9301     15.0703    121.8256
   967.7500     18.9940    -94.7492     15.1170    117.9349
   968.0000     19.1356    -94.4566     15.1515    113.8928
   968.2500     19.3851    -94.0304     15.1592    113.3085
   968.5000     19.6039    -93.4960     15.1185    115.5968
   968.7500     19.6852    -92.9397     15.0075    118.3611
   969.0000     19.6675    -92.4852     14.8247    122.3648
   969.2500     19.6479    -92.2494     14.6068    123.9607
   969.5000     19.6414    -92.2909     14.4175    123.8967
   969.7500     19.6029    -92.5654     14.3139    122.4895
   970.0000     19.5077    -92.9246     14.3205    120.1827
   970.2500     19.3476    -93.1866     14.4271    119.7271
   970.5000     19.1136    -93.2363     14.6057    121.1312
   970.7500     18.8461    -93.0731     14.8269    122.5466
   971.0000     18.6394    -92.7700     15.0642    123.5647
   971.2500     18.5601    -92.3922     15.2910    123.4650
   971.5000     18.5970    -91.9467     15.4813    123.8850
   971.7500     18.6764    -91.3931     15.6165    125.4442
   972.0000     18.7349    -90.7050     15.6914    129.2357
   972.2500     18.7809    -89.9360     15.7103    131.5246
   972.5000     18.8588    -89.2226     15.6787    132.9111
   972.7500     19.0018    -88.7098     15.6009    132.4688
   973.0000     19.2224    -88.4717     15.4849    131.0184
   973.2500     19.4916    -88.4885     15.3481    130.2726
   973.5000     19.7214    -88.6650     15.2169    130.0017
   973.7500     19.7964    -88.8568     15.1222    130.2795
   974.0000     19.6777    -88.9066     15.0927    130.8665
   974.2500     19.4690    -88.6951     15.1455    131.1545
   974.5000     19.3118    -88.1877     15.2783    131.6520
   974.7500     19.2739    -87.4556     15.4681    132.3122
   975.0000     19.3803    -86.6518     15.6802    133.6251
   975.2500     19.6402    -85.9483     15.8803    134.1449
   975.5000     19.9900    -85.4692     16.0395    133.5458
   975.7500     20.2893    -85.2557     16.1332    132.2726
   976.0000     20.4336    -85.2674     16.1403    129.9652
   976.2500     20.4248    -85.4058     16.0469    128.8595
   976.5000     20.3453    -85.5586     15.8568    128.7101
   976.7500     20.3003    -85.6504     15.6036    129.6079
   977.0000     20.3260    -85.6645     15.3589    131.4850
   977.2500     20.3918    -85.6276     15.2168    132.3732
   977.5000     20.4909    -85.5783     15.2560    132.5982
   977.7500     20.6354    -85.5427     15.4962    132.1133
   978.0000     20.8116    -85.5139     15.8689    130.6755
   978.2500     20.9830    -85.4392     16.2260    129.1574
   978.5000     21.1047    -85.2314     16.4043    125.8143
   978.7500     21.1424    -84.8066     16.3284    123.0542
   979.0000     21.1003    -84.1171     16.0629    119.1313
   979.2500     21.0507    -83.1570     15.7577    117.2868
   979.5000     21.1544    -81.9442     15.5548    115.9914
   979.7500     21.5849    -80.4990     15.5454    115.8063
   980.0000     22.3892    -78.8377     15.7858    115.5734
   980.2500     23.4972    -76.9994     16.3249    114.7550
   980.5000     24.9045    -75.0808     17.2055    111.4863
   980.7500     26.7529    -73.2190     18.4378    107.7787
   981.0000     29.1962    -71.5125     19.9670    100.5725
   981.2500     32.3652    -69.9678     21.6693     95.2044
   981.5000     36.4863    -68.5319     23.3982     86.6905
   981.7500     41.6651    -67.1674     25.0520     80.5881
   982.0000     47.4956    -65.8937     26.5969     70.5868
   982.2500     53.2145    -64.7790     28.0134     63.5715
   982.5000     58.1448    -63.9081     29.2186     53.6166
   982.7500     61.8412    -63.3399     30.0411     48.1282
   983.0000     64.1385    -63.0687     30.3058     42.3112
   983.2500     65.1807    -63.0146     29.9779     39.8681
   983.5000     65.2593    -63.0558     29.1931     37.5397
   983.7500     64.6281    -63.0867     28.1375     36.5431
   984.0000     63.4028    -63.0612     26.9022     35.8010
   984.2500     61.5537    -62.9931     25.4688     35.8494
   984.5000     59.0193    -62.9291     23.8180     36.7033
   984.7500     55.7183    -62.9249     22.0410     37.7436
   985.0000     51.4972    -63.0265     20.3375     39.9996
   985.2500     46.3979    -63.2597     18.9070     42.1368
   985.5000     40.9142    -63.6347     17.8480     47.0664
   985.7500     35.6974    -64.1553     17.1296     52.0218
   986.0000     31.1760    -64.7877     16.6271     62.1038
   986.2500     27.5764    -65.3942     16.1946     70.0760
   986.5000     25.0002    -65.7202     15.7403     82.4358
   986.7500     23.3262    -65.5194     15.2600     89.9035
   987.0000     22.2469    -64.7492     14.8068     97.9705
   987.2500     21.5733    -63.6373     14.4342    100.4615
   987.5000     21.3364    -62.5261     14.1633    100.2945
   987.7500     21.5168    -61.6354     13.9893     98.7720
   988.0000     21.9214    -60.9650     13.9110     96.4312
   988.2500     22.3568    -60.3804     13.9530     95.4996
   988.5000     22.7480    -59.7545     14.1558     95.5890
   988.7500     23.1017    -59.0422     14.5411     96.8320
   989.0000     23.4407    -58.2701     15.0783    100.3351
