~Version Information
VERS.                      2.0: CWLS Log ASCII Standard - VERSION 2.0
WRAP.                       NO: One line per depth step
~Well Information Block
STRT.FT               555.6000: 
STOP.FT              2132.0000: 
STEP.FT                 0.1000: 
NULL.                -999.2500: 
COMP.          Petrogulf Corporation: COMPANY
WELL.           Montoya 12-41R: WELL
FLD.           Purgatorie River: FIELD
LOC.           1086' FNL & 610' FEL: LOCATION
CNTY.               Las Animas: COUNTY
SRVC.                         : SERVICE COMPANY
DATE.          Thu Nov 18 08:45:51 2004: LOG DATE
UWI.           05 071 08241 00: UNIQUE WELL ID
STAT.                 Colorado: STATE
~Curve Information Block
DEPT.FT            0 000 00 00: Depth
DCAL.in                       : CDL Caliper
RHOB.g/cc                     : CDL Bulk Density
RHOC.g/cc                     : CDL Density Correction
DPOR.pu                       : CDL Density Porosity
GR.GAPI                       : Gamma Ray
NPOR.pu                       : Neutron Porosity
~Parameter Information Block
~A  Depth       DCAL        RHOB        RHOC        DPOR         GR         NPOR    
# ...
   882.0000      8.1288      2.4549      0.0579     11.8258     56.1719     17.0192
   882.1000      8.1288      2.4456      0.0352     12.3867     53.5509     17.1348
   882.2000      8.1288      2.4408      0.0403     12.6805     51.4498     17.2551
   882.3000      8.1323      2.4384      0.0359     12.8223     51.6866     17.3004
   882.4000      8.1323      2.4351      0.0481     13.0239     56.0358     17.3008
   882.5000      8.1330      2.4265      0.0543     13.5435     62.6910     17.4611
   882.6000      8.1330      2.4150      0.0235     14.2436     66.5311     17.8883
   882.7000      8.1330      2.4081      0.0402     14.6585     65.2683     18.2698
   882.8000      8.1348      2.4038      0.0336     14.9218     60.3600     18.2190
   882.9000      8.1348      2.3994      0.0199     15.1861     53.8519     17.7549
   883.0000      8.1356      2.4015      0.0265     15.0606     50.0257     17.1631
   883.1000      8.1356      2.4149      0.0504     14.2505     51.1048     16.6919
   883.2000      8.1356      2.4330      0.0763     13.1500     53.5325     16.3812
   883.3000      8.1404      2.4415      0.0979     12.6386     54.3813     16.1655
   883.4000      8.1404      2.4406      0.0314     12.6935     54.4036     16.0930
   883.5000      8.1500      2.4480      0.0369     12.2399     54.5783     16.3931
   883.6000      8.1500      2.4634      0.0937     11.3084     55.1958     17.0329
   883.7000      8.1500      2.4654      0.0776     11.1861     56.7842     17.4250
   883.8000      8.1620      2.4483      0.0479     12.2254     60.3692     17.1256
   883.9000      8.1620      2.4253      0.0311     13.6204     64.0969     16.4008
   884.0000      8.1750      2.4069      0.0169     14.7361     64.0091     15.8948
   884.1000      8.1750      2.3994     -0.0207     15.1901     61.4965     16.0299
   884.2000      8.1750      2.4036      0.0355     14.9317     61.2322     16.4150
   884.3000      8.1857      2.4087      0.0379     14.6235     62.1429     16.4725
   884.4000      8.1857      2.4103      0.0270     14.5264     60.9091     16.3196
   884.5000      8.1909      2.4148      0.0431     14.2548     58.8053     16.3251
   884.6000      8.1909      2.4213      0.0441     13.8614     56.8349     16.4927
   884.7000      8.1909      2.4251      0.0256     13.6282     54.7194     16.5136
   884.8000      8.1839      2.4267      0.0469     13.5313     53.1413     16.3563
   884.9000      8.1839      2.4271      0.0435     13.5109     53.5747     16.2136
   885.0000      8.1750      2.4281      0.0446     13.4493     55.9072     16.2461
   885.1000      8.1750      2.4347      0.0507     13.0463     57.5474     16.6218
   885.2000      8.1750      2.4487      0.0636     12.2017     58.5309     17.1873
   885.3000      8.1727      2.4638      0.0536     11.2855     61.7370     17.7154
   885.4000      8.1727      2.4730      0.0826     10.7282     67.7176     18.1870
   885.5000      8.1732      2.4785      0.0623     10.3963     72.6301     18.6371
   885.6000      8.1732      2.4893      0.0615      9.7418     72.9012     19.2105
   885.7000      8.1732      2.5052      0.0739      8.7746     69.0708     19.9975
   885.8000      8.1749      2.5197      0.0677      7.8950     65.6607     20.7982
   885.9000      8.1749      2.5326      0.0713      7.1139     66.8026     21.3719
   886.0000      8.1770      2.5430      0.0839      6.4833     71.7016     21.6048
   886.1000      8.1770      2.5434      0.0716      6.4626     78.0488     21.6011
   886.2000      8.1770      2.5335      0.0304      7.0609     82.9130     21.5832
   886.3000      8.1781      2.5200      0.0387      7.8767     82.4877     21.5054
   886.4000      8.1781      2.5060      0.0273      8.7258     76.7896     21.3951
   886.5000      8.1801      2.4971      0.0059      9.2638     69.0567     21.3833
   886.6000      8.1801      2.4923      0.0584      9.5570     62.9797     21.2410
   886.7000      8.1801      2.4804      0.0353     10.2808     62.0150     20.7326
   886.8000      8.1793      2.4699     -0.0059     10.9135     66.0940     20.0877
   886.9000      8.1793      2.4760      0.0820     10.5437     71.9501     19.7491
   887.0000      8.1755      2.4855      0.0869      9.9667     78.4967     19.8594
   887.1000      8.1755      2.4851      0.0601      9.9920     84.4164     20.1751
   887.2000      8.1755      2.4832      0.0591     10.1067     89.0155     20.4110
   887.3000      8.1797      2.4875      0.0390      9.8464     96.2161     20.5960
   887.4000      8.1797      2.4975      0.0551      9.2402    107.1934     21.0285
   887.5000      8.1976      2.5073      0.0682      8.6478    115.5052     21.8897
   887.6000      8.1976      2.5093      0.0737      8.5294    117.6613     22.9303
   887.7000      8.1976      2.5040      0.1077      8.8506    120.1176     23.7873
   887.8000      8.2270      2.4989      0.1163      9.1553    129.5285     24.1292
   887.9000      8.2270      2.4984      0.0965      9.1875    140.8817     24.0955
   888.0000      8.2613      2.4968      0.1260      9.2818    144.8827     24.3414
   888.1000      8.2613      2.4848      0.1109     10.0105    144.4991     25.1528
   888.2000      8.2613      2.4686      0.0805     10.9947    146.8723     26.2897
   888.3000      8.2939      2.4738      0.0159     10.6784    151.6994     27.3259
   888.4000      8.2939      2.5072      0.1139      8.6541    157.0622     27.7417
   888.5000      8.3117      2.5391      0.1193      6.7237    161.8758     27.4583
   888.6000      8.3117      2.5519      0.1266      5.9449    163.4173     27.2382
   888.7000      8.3117      2.5588      0.1417      5.5270    159.9189     27.5241
   888.8000      8.3117      2.5661      0.1879      5.0842    154.4296     27.8267
   888.9000      8.3117      2.5592      0.1797      5.5044    148.7663     28.0099
   889.0000      8.3108      2.5394      0.1115      6.7038    144.6019     28.4190
   889.1000      8.3108      2.5335      0.1136      7.0612    145.7145     28.8621
   889.2000      8.3108      2.5510      0.1010      5.9995    148.4342     29.0560
   889.3000      8.3132      2.5747      0.1121      4.5632    146.8952     29.0914
   889.4000      8.3132      2.5920      0.1091      3.5123    142.7465     29.0936
   889.5000      8.3135      2.6098      0.0727      2.4369    140.7020     29.2173
   889.6000      8.3135      2.6363      0.1025      0.8308    141.5956     29.4849
   889.7000      8.3135      2.6605      0.1194     -0.6342    143.4434     29.5680
   889.8000      8.3131      2.6664      0.0978     -0.9937    144.0614     29.4031
   889.9000      8.3131      2.6565      0.0707     -0.3936    142.6806     29.2130
   890.0000      8.3139      2.6440      0.0425      0.3643    142.5063     29.0357
   890.1000      8.3139      2.6306      0.0644      1.1777    142.4324     28.8655
   890.2000      8.3139      2.6114      0.0330      2.3416    138.4148     28.7892
   890.3000      8.3190      2.5953      0.0142      3.3144    132.4516     28.8187
   890.4000      8.3190      2.5881      0.0440      3.7529    130.0264     28.8910
   890.5000      8.3214      2.5827      0.0131      4.0772    133.4854     28.8619
   890.6000      8.3214      2.5850     -0.0049      3.9396    138.2868     28.7873
   890.7000      8.3214      2.6024      0.0130      2.8867    138.2612     28.7275
   890.8000      8.3173      2.6230      0.0430      1.6353    132.2839     28.4882
   890.9000      8.3173      2.6329      0.0471      1.0394    125.8651     28.0123
   891.0000      8.0540      2.6303      0.0289      1.1953    125.2744     27.4352
   891.1000      8.0540      2.6173      0.0433      1.9840    129.9185     27.0428
   891.2000      8.0540      2.5956      0.0128      3.2986    136.5764     27.1291
   891.3000      8.0586      2.5761     -0.0010      4.4761    144.2154     27.5310
   891.4000      8.0586      2.5726      0.0137      4.6935    150.7771     27.6088
   891.5000      8.0684      2.5852      0.0010      3.9250    154.8657     26.9480
