~Version Information
VERS.                      2.0: CWLS Log ASCII Standard - VERSION 2.0
WRAP.                       NO: One line per depth step
~Well Information Block
STRT.FT                -7.0000: 
STOP.FT              1863.5000: 
STEP.FT                 0.2500: 
NULL.                -999.2500: 
COMP.          Pioneer Natural Resources: COMPANY
WELL.            Formula 23-11: WELL
FLD.           Purgatorie River: FIELD
LOC.           1976' FSL & 1935' FWL--: LOCATION
PROV.                       CO: PROVINCE
CNTY.               Las Animas: COUNTRY
SRVC.          Patterson Wireline: SERVICE COMPANY
DATE.          Wed Jun 15 14:44:40 2005: LOG DATE
UWI.           05 071 08399 00: UNIQUE WELL ID
~Curve Information Block
DEPT.FT            0 000 00 00: Depth
CCL.                          : Casing Collar Locator
TT3.usec                      : CBL 3' Travel Time
AMP3.mV                       : CBL 3' Amplitude
GR.GAPI                       : Gamma Ray
~Parameter Information Block
~A  Depth       CCL         TT3         AMP3         GR     
# ...
  1098.5000      0.0000    736.9978      6.0837    123.1142
  1098.7500      0.0000    742.3254      6.1050    117.4916
  1099.0000      0.0000    750.3589      6.1198    110.1390
  1099.2500      0.0000    760.3770      6.0849    105.0490
  1099.5000      0.0000    770.8418      5.9827    104.7295
  1099.7500      0.0000    780.1655      5.8728    109.1095
  1100.0000      0.0000    787.2747      5.8430    116.3234
  1100.2500      0.0000    791.7115      5.9143    124.1592
  1100.5000      0.0000    793.4163      6.0249    130.8474
  1100.7500      0.0000    792.4559      6.1118    135.0092
  1101.0000      0.0000    789.0002      6.1802    135.6592
  1101.2500      0.0000    783.6656      6.2723    132.7769
  1101.5000      0.0000    777.7316      6.3890    127.7825
  1101.7500      0.0000    772.6854      6.4739    122.8424
  1102.0000      0.0000    769.5308      6.4803    119.4467
  1102.2500      0.0000    768.9439      6.4268    117.7977
  1102.5000      0.0000    772.0594      6.3721    117.4723
  1102.7500      0.0000    780.0988      6.3504    118.2920
  1103.0000      0.0000    792.5970      6.3503    120.4058
  1103.2500      0.0000    806.5754      6.3418    123.6461
  1103.5000      0.0000    818.0469      6.3027    127.1002
  1103.7500      0.0000    824.0767      6.2275    129.5847
  1104.0000      0.0000    823.7987      6.1362    130.4662
  1104.2500      0.0000    818.7020      6.0668    129.8398
  1104.5000      0.0000    812.4337      6.0382    128.2187
  1104.7500      0.0000    808.8157      6.0244    126.3935
  1105.0000      0.0000    808.1071      5.9869    125.2800
  1105.2500      0.0000    805.6873      5.9260    125.4645
  1105.5000      0.0000    796.4171      5.8799    126.8922
  1105.7500      0.0000    780.3020      5.8766    128.9393
  1106.0000      0.0000    762.4405      5.9136    130.5726
  1106.2500      0.0000    747.7697      5.9836    130.4797
  1106.5000      0.0000    737.2773      6.0896    127.6503
  1106.7500      0.0000    729.0244      6.2250    122.3966
  1107.0000      0.0000    721.4962      6.3656    116.7815
  1107.2500      0.0000    715.5767      6.4959    113.4089
  1107.5000      0.0000    713.8720      6.6220    113.4030
  1107.7500      0.0000    718.4779      6.7421    115.7220
  1108.0000      0.0000    729.1924      6.8212    118.5581
  1108.2500      0.0000    743.1325      6.8183    120.9455
  1108.5000      0.0000    755.8403      6.7374    122.7438
  1108.7500      0.0000    763.7256      6.6368    123.7063
  1109.0000      0.0000    766.1548      6.5820    123.3491
  1109.2500      0.0000    764.7225      6.5923    121.5773
  1109.5000      0.0000    759.9215      6.6338    118.6946
  1109.7500      0.0000    749.5823      6.6531    114.8557
  1110.0000      0.0000    732.5120      6.6149    110.3524
  1110.2500      0.0000    713.9323      6.5239    106.3971
  1110.5000      0.0000    704.4128      6.4263    104.5208
  1110.7500      0.0000    710.6623      6.3835    104.8176
  1111.0000      0.0000    728.8049      6.4313    105.5150
  1111.2500      0.0000    748.8253      6.5601    104.6293
  1111.5000      0.0000    763.7570      6.7221    101.8508
  1111.7500      0.0000    772.7067      6.8498     98.6559
  1112.0000      0.0000    777.4670      6.8830     96.5456
  1112.2500      0.0000    779.3170      6.8051     95.4275
  1112.5000      0.0000    778.8979      6.6593     94.1675
  1112.7500      0.0000    777.1386      6.5217     92.4789
  1113.0000      0.0000    775.2008      6.4502     91.4882
  1113.2500      0.0000    773.8560      6.4534     92.2737
  1113.5000      0.0000    773.1387      6.5004     94.4313
  1113.7500      0.0000    772.4560      6.5515     96.4892
  1114.0000      0.0000    770.7986      6.5878     97.5138
  1114.2500      0.0000    767.1614      6.6241     97.9186
  1114.5000      0.0000    761.4576      6.6893     98.8572
  1114.7500      0.0000    755.1487      6.7872    101.3745
  1115.0000      0.0000    750.3063      6.8806    106.1221
  1115.2500      0.0000    747.6804      6.9010    113.0156
  1115.5000      0.0000    746.2575      6.7715    120.4661
  1115.7500      0.0000    744.4128      6.4589    125.3024
  1116.0000      0.0000    740.3071      6.0332    124.4714
  1116.2500      0.0000    731.9642      5.6467    117.4730
  1116.5000      0.0000    719.3822      5.4173    107.0592
  1116.7500      0.0000    706.8737      5.3448     97.4045
  1117.0000      0.0000    701.3249      5.3472     91.6986
  1117.2500      0.0000    706.6962      5.3466     91.1163
  1117.5000      0.0000    720.3651      5.3096     94.9901
  1117.7500      0.0000    735.3394      5.2516    101.3578
  1118.0000      0.0000    745.6456      5.2378    107.8720
  1118.2500      0.0000    749.3134      5.3484    112.9023
  1118.5000      0.0000    747.6409      5.5964    115.8874
  1118.7500      0.0000    743.4140      5.8924    116.7741
  1119.0000      0.0000    739.7780      6.1202    115.6391
  1119.2500      0.0000    739.5108      6.2298    113.0385
  1119.5000      0.0000    744.7311      6.2398    110.1463
  1119.7500      0.0000    756.7031      6.1809    107.8874
  1120.0000      0.0000    775.0039      6.0779    105.7529
  1120.2500      0.0000    796.7395      5.9763    101.8080
  1120.5000      0.0000    817.6073      5.9470     94.3988
  1120.7500      0.0000    834.3795      6.0397     84.0392
  1121.0000      0.0000    846.1841      6.2371     73.4187
  1121.2500      0.0000    853.6414      6.4675     65.4718
  1121.5000      0.0000    857.5159      6.6640     61.6380
  1121.7500      0.0000    858.0605      6.8082     61.9842
  1122.0000      0.0000    854.7348      6.9221     66.4411
  1122.2500      0.0000    846.2491      7.0266     75.2478
  1122.5000      0.0000    831.5330      7.1244     88.1685
  1122.7500      0.0000    811.3510      7.2200    103.8107
  1123.0000      0.0000    788.9858      7.3384    119.7743
  1123.2500      0.0000    768.8702      7.5052    133.3465
  1123.5000      0.0000    754.1589      7.7097    142.6199
  1123.7500      0.0000    745.4111      7.9030    147.5461
  1124.0000      0.0000    741.3220      8.0381    149.5636
  1124.2500      0.0000    740.4049      8.1068    149.9983
  1124.5000      0.0000    742.0370      8.1402    149.2371
  1124.7500      0.0000    746.2289      8.1827    147.2904
  1125.0000      0.0000    752.5828      8.2633    144.3492
  1125.2500      0.0000    759.5498      8.3805    140.6703
  1125.5000      0.0000    764.9733      8.5096    136.4032
  1125.7500      0.0000    767.5912      8.6227    131.8041
  1126.0000      0.0000    767.9471      8.6962    127.5827
  1126.2500      0.0000    767.6097      8.7111    124.8608
  1126.5000      0.0000    767.5391      8.6663    124.5385
  1126.7500      0.0000    767.5133      8.5908    126.5087
  1127.0000      0.0000    767.0889      8.5311    129.4546
  1127.2500      0.0000    766.3411      8.5199    131.5056
  1127.5000      0.0000    765.1964      8.5607    131.2559
  1127.7500      0.0000    762.7912      8.6349    128.4740
  1128.0000      0.0000    758.4293      8.7220    124.0870
  1128.2500      0.0000    753.0737      8.8161    119.4911
  1128.5000      0.0000    749.2526      8.9204    115.7503
  1128.7500      0.0000    749.2427      9.0315    113.2836
  1129.0000      0.0000    753.2622      9.1463    111.8813
  1129.2500      0.0000    759.2867      9.2831    110.7655
  1129.5000      0.0000    764.7989      9.4726    109.0504
  1129.7500      0.0000    769.0765      9.7239    106.6608
  1130.0000      0.0000    773.7843     10.0154    104.5512
  1130.2500      0.0000    781.1356     10.3242    103.5176
  1130.5000      0.0000    791.6231     10.6421    102.8678
  1130.7500      0.0000    803.5593     10.9575    100.7187
  1131.0000      0.0000    814.2911     11.2367     95.7860
  1131.2500      0.0000    821.4641     11.4408     88.7478
  1131.5000      0.0000    823.8357     11.5569     81.6917
  1131.7500      0.0000    822.0898     11.6098     76.2318
