~Version Information
VERS.                      2.0: CWLS Log ASCII Standard - VERSION 2.0
WRAP.                       NO: One line per depth step
~Well Information Block
STRT.FT                 0.7500: 
STOP.FT              2144.0000: 
STEP.FT                 0.2500: 
NULL.                -999.2500: 
COMP.          Petrogulf Corporation: COMPANY
WELL.            Montoya 1-44R: WELL
FLD.           Purgatorie River: FIELD
LOC.           658' FSL & 1052' FWL: LOCATION
CNTY.               Las Animas: COUNTY
SRVC.                         : SERVICE COMPANY
DATE.          Tue Nov 30 08:31:55 2004: LOG DATE
UWI.           05 071 08239 00: UNIQUE WELL ID
STAT.                 Colorado: STATE
~Curve Information Block
DEPT.FT            0 000 00 00: Depth
TT3.usec                      : CBL 3' Travel Time
AMP3.mV                       : CBL 3' Amplitude
GR.GAPI                       : Gamma Ray
CCL.                          : Casing Collar Locator
~Parameter Information Block
~A  Depth       TT3         AMP3         GR         CCL     
# ...
  1843.2500    704.5670      7.7933    155.6757      0.0000
  1843.5000    716.0198      7.8558    154.6486      0.0000
  1843.7500    722.1633      7.9174    153.1356      0.0000
  1844.0000    722.1563      7.9671    151.7899      0.0000
  1844.2500    717.3431      7.9959    151.3446      0.0000
  1844.5000    710.9609      7.9952    152.2553      0.0000
  1844.7500    706.9547      7.9642    154.4960      0.0000
  1845.0000    708.2533      7.9176    157.4855      0.0000
  1845.2500    715.3658      7.8815    160.1921      0.0000
  1845.5000    726.0938      7.8781    161.5214      0.0000
  1845.7500    736.6767      7.9189    160.8966      0.0000
  1846.0000    743.8582      8.0073    158.7250      0.0000
  1846.2500    746.6102      8.1390    156.3386      0.0000
  1846.5000    746.1885      8.2993    155.3420      0.0000
  1846.7500    744.6319      8.4660    156.7225      0.0000
  1847.0000    743.2960      8.6132    160.3022      0.0000
  1847.2500    742.6069      8.7282    164.9022      0.0000
  1847.5000    742.6661      8.8407    169.0573      0.0000
  1847.7500    743.6437      9.0226    171.7408      0.0000
  1848.0000    745.4456      9.3339    172.6401      0.0000
  1848.2500    747.1806      9.7795    171.9592      0.0000
  1848.5000    747.1657     10.3356    170.0894      0.0000
  1848.7500    743.4550     10.9999    167.4119      0.0000
  1849.0000    733.8801     11.7935    164.2292      0.0000
  1849.2500    716.0093     12.7148    160.7336      0.0000
  1849.5000    688.9558     13.7022    156.9829      0.0000
  1849.7500    655.7788     14.6467    152.9333      0.0000
  1850.0000    621.4894     15.4370    148.5654      0.0000
  1850.2500    587.9472     15.9971    144.0572      0.0000
  1850.5000    554.4605     16.2899    139.8572      0.0000
  1850.7500    524.2465     16.3076    136.5515      0.0000
  1851.0000    505.5269     16.0707    134.6227      0.0000
  1851.2500    505.4705     15.6191    134.3140      0.0000
  1851.5000    526.6713     14.9856    135.6535      0.0000
  1851.7500    567.2631     14.1814    138.4612      0.0000
  1852.0000    619.6324     13.2254    142.2314      0.0000
  1852.2500    671.4103     12.1970    146.0598      0.0000
  1852.5000    712.3282     11.2371    148.8530      0.0000
  1852.7500    739.8741     10.4654    149.7829      0.0000
  1853.0000    757.2825      9.8982    148.6564      0.0000
  1853.2500    768.0542      9.4769    145.9286      0.0000
  1853.5000    773.6716      9.1602    142.3943      0.0000
  1853.7500    774.8745      8.9511    138.8187      0.0000
  1854.0000    772.8621      8.8469    135.7442      0.0000
  1854.2500    768.7885      8.8073    133.4845      3.0000
  1854.5000    762.7554      8.7750    132.1295      0.0000
  1854.7500    753.1057      8.7256    131.4823      0.0000
  1855.0000    736.8079      8.7136    131.0489      0.0000
  1855.2500    713.0753      8.8543    130.2596      0.0000
  1855.5000    688.4319      9.2074    128.8457      0.0000
  1855.7500    675.0079      9.6706    127.0671      0.0000
  1856.0000    680.0589     10.0423    125.5761      0.0000
  1856.2500    698.7685     10.1953    125.0678      0.0000
  1856.5000    719.7220     10.1458    126.0030      0.0000
  1856.7500    735.1655      9.9747    128.5080      0.0000
  1857.0000    744.0999      9.7491    132.3562      0.0000
  1857.2500    748.4337      9.5151    136.9820      0.0000
  1857.5000    749.5403      9.3090    141.6402      0.0000
  1857.7500    748.1925      9.1485    145.7393      0.0000
  1858.0000    745.5737      9.0241    149.1360      0.0000
  1858.2500    743.0933      8.9083    152.1395      0.0000
  1858.5000    741.5359      8.7749    155.2105      0.0000
  1858.7500    740.7864      8.6182    158.5943      0.0000
  1859.0000    740.3448      8.4580    162.1556      0.0000
  1859.2500    739.8561      8.3249    165.4666      0.0000
  1859.5000    739.2651      8.2361    168.0464      0.0000
  1859.7500    738.6688      8.1892    169.5670      0.0000
  1860.0000    738.0818      8.1789    169.9404      0.0000
  1860.2500    737.2618      8.2040    169.2999      0.0000
  1860.5000    735.7874      8.2522    167.8962      0.0000
  1860.7500    733.4785      8.2920    165.9182      0.0000
  1861.0000    730.7885      8.2957    163.2972      0.0000
  1861.2500    728.4033      8.2626    159.6989      0.0000
  1861.5000    726.1893      8.2141    154.8318      0.0000
  1861.7500    723.0278      8.1709    148.9326      0.0000
  1862.0000    718.4041      8.1398    142.9986      0.0000
  1862.2500    714.0148      8.1142    138.4094      0.0000
  1862.5000    713.0757      8.0795    136.1067      0.0000
  1862.7500    717.6745      8.0283    135.9603      0.0000
  1863.0000    726.8412      7.9841    136.9266      0.0000
  1863.2500    737.2135      8.0036    137.8700      0.0000
  1863.5000    745.5086      8.1327    138.3292      0.0000
  1863.7500    750.4286      8.3587    138.6290      0.0000
  1864.0000    752.5175      8.6110    139.3833      0.0000
  1864.2500    752.9143      8.8129    140.9254      0.0000
  1864.5000    752.7914      8.9358    143.0451      0.0000
  1864.7500    753.3983      9.0094    145.0845      0.0000
  1865.0000    755.5869      9.0806    146.2503      0.0000
  1865.2500    759.0969      9.1692    145.9947      0.0000
  1865.5000    762.7102      9.2627    144.2881      0.0000
  1865.7500    765.1638      9.3432    141.6219      0.0000
  1866.0000    765.9875      9.4049    138.7417      0.0000
  1866.2500    765.7149      9.4510    136.2976      0.0000
  1866.5000    765.2701      9.4918    134.6407      0.0000
  1866.7500    764.9818      9.5505    133.8710      0.0000
  1867.0000    764.3872      9.6566    134.0193      0.0000
  1867.2500    763.2470      9.8174    135.1449      0.0000
  1867.5000    762.4022      9.9908    137.2482      0.0000
  1867.7500    762.8744     10.0951    140.1020      0.0000
  1868.0000    764.0176     10.0638    143.2382      0.0000
  1868.2500    763.3683      9.8933    146.1694      0.0000
  1868.5000    758.7274      9.6297    148.6604      0.0000
  1868.7500    750.0409      9.3097    150.7425      0.0000
  1869.0000    739.2290      8.9326    152.4227      0.0000
  1869.2500    728.7511      8.4900    153.3681      0.0000
  1869.5000    720.1232      8.0060    152.8828      0.0000
  1869.7500    712.6461      7.5384    150.2163      0.0000
  1870.0000    703.8444      7.1489    144.9148      0.0000
  1870.2500    693.2220      6.8795    137.0003      0.0000
  1870.5000    685.8350      6.7492    126.9658      0.0000
  1870.7500    688.9796      6.7564    115.6787      0.0000
  1871.0000    703.4443      6.8830    104.1794      0.0000
  1871.2500    719.7766      7.1061     93.3757      0.0000
  1871.5000    725.4216      7.4009     83.7709      0.0000
  1871.7500    716.1590      7.7120     75.4239      0.0000
  1872.0000    700.8366      7.9338     68.1711      0.0000
  1872.2500    693.8693      7.9627     61.9193      0.0000
  1872.5000    701.3928      7.7965     56.7708      0.0000
  1872.7500    715.1403      7.5640     52.8896      0.0000
  1873.0000    721.1241      7.4274     50.2620      0.0000
  1873.2500    713.7002      7.4591     48.5598      0.0000
  1873.5000    700.8787      7.6070     47.2411      0.0000
  1873.7500    696.6744      7.7467     45.8220      0.0000
  1874.0000    708.1895      7.7597     44.1233      0.0000
  1874.2500    730.0937      7.5986     42.3313      0.0000
  1874.5000    751.3331      7.3057     40.8438      0.0000
  1874.7500    764.9891      6.9692     40.0136      0.0000
  1875.0000    771.0335      6.6616     39.9777      0.0000
  1875.2500    772.6378      6.4198     40.6604      0.0000
  1875.5000    772.5139      6.2673     41.8618      0.0000
  1875.7500    771.9233      6.2308     43.2844      0.0000
  1876.0000    771.1990      6.3208     44.5348      0.0000
  1876.2500    770.3561      6.4973     45.2289      0.0000
  1876.5000    769.4358      6.6676     45.2089      0.0000
