~Version Information
VERS.                      2.0: CWLS Log ASCII Standard - VERSION 2.0
WRAP.                       NO: One line per depth step
~Well Information Block
STRT.FT               819.0000: 
STOP.FT              2499.5000: 
STEP.FT                 0.2500: 
NULL.                -999.2500: 
COMP.          Petrogulf Corporation: COMPANY
WELL.             State 16-21V: WELL
FLD.           Purgatorie River: FIELD
LOC.           1738' FWL & 332' FWL: LOCATION
PROV.                 Colorado: PROVINCE
CNTY.               Las Animas: COUNTRY
SRVC.          Patterson Wireline: SERVICE COMPANY
DATE.          Sun Jul 13 13:34:36 2003: LOG DATE
UWI.           05 071 08829 00: UNIQUE WELL ID
~Curve Information Block
DEPT.FT            0 000 00 00: Depth
SP.mV                         : DIL Spontaneous Potential
RILD.Ohm-m                    : DIL Deep Resistivity
RILM.Ohm-m                    : DIL Medium Resistivity
RLL3.Ohm-m                    : DIL Shallow Resistivity
GR.GAPI                       : Gamma Ray
~Parameter Information Block
~A  Depth        SP         RILD        RILM        RLL3         GR     
# ...
  2135.0000    -23.6401     21.9826     25.2701     41.4488     84.6576
  2135.2500    -23.6002     20.9039     24.0015     49.3277     90.8348
  2135.5000    -23.4260     19.7488     22.7241     58.4244     95.1329
  2135.7500    -22.9968     18.6272     21.4527     63.0057     94.0644
  2136.0000    -22.2452     17.6129     20.2094     59.7907     88.5346
  2136.2500    -21.2089     16.7373     19.0201     49.9793     84.2648
  2136.5000    -20.0356     16.0013     17.9088     37.8527     79.8239
  2136.7500    -18.9234     15.3886     16.8945     27.5288     78.9331
  2137.0000    -18.0344     14.8732     15.9887     20.8186     80.7665
  2137.2500    -17.4367     14.4248     15.1955     17.3283     83.5719
  2137.5000    -17.1003     14.0136     14.5121     15.7628     88.3410
  2137.7500    -16.9337     13.6165     13.9308     15.0212     90.7126
  2138.0000    -16.8310     13.2208     13.4402     14.5738     92.1460
  2138.2500    -16.7111     12.8248     13.0269     14.3407     92.0723
  2138.5000    -16.5420     12.4344     12.6769     14.4269     91.8521
  2138.7500    -16.3428     12.0586     12.3762     14.9104     92.2729
  2139.0000    -16.1606     11.7063     12.1121     15.7222     93.9216
  2139.2500    -16.0363     11.3849     11.8737     16.6184     95.3462
  2139.5000    -15.9832     11.0996     11.6527     17.2584     97.2508
  2139.7500    -15.9918     10.8536     11.4431     17.3733     98.2490
  2140.0000    -16.0474     10.6474     11.2414     16.9191     99.8088
  2140.2500    -16.1462     10.4789     11.0464     16.0864    101.2570
  2140.5000    -16.2991     10.3439     10.8583     15.1702    104.1354
  2140.7500    -16.5241     10.2351     10.6783     14.4129    106.2474
  2141.0000    -16.8312     10.1427     10.5081     13.9198    109.2590
  2141.2500    -17.2093     10.0550     10.3493     13.6715    111.0976
  2141.5000    -17.6251      9.9621     10.2037     13.5919    113.3770
  2141.7500    -18.0366      9.8600     10.0728     13.6111    114.1915
  2142.0000    -18.4130      9.7525      9.9586     13.6839    113.8419
  2142.2500    -18.7470      9.6501      9.8632     13.7766    112.7998
  2142.5000    -19.0528      9.5653      9.7896     13.8487    111.1237
  2142.7500    -19.3521      9.5092      9.7413     13.8535    110.3996
  2143.0000    -19.6596      9.4911      9.7231     13.7598    109.8865
  2143.2500    -19.9761      9.5180      9.7403     13.5766    109.6740
  2143.5000    -20.2894      9.5957      9.7993     13.3555    109.4386
  2143.7500    -20.5775      9.7288      9.9072     13.1802    109.5897
  2144.0000    -20.8147      9.9206     10.0712     13.1596    110.7460
  2144.2500    -20.9813     10.1727     10.2995     13.4139    112.0315
  2144.5000    -21.0737     10.4849     10.6003     14.0248    113.6460
  2144.7500    -21.1101     10.8542     10.9819     15.0241    113.6129
  2145.0000    -21.1287     11.2759     11.4528     16.5516    110.7683
  2145.2500    -21.1784     11.7452     12.0211     19.1366    106.9112
  2145.5000    -21.3041     12.2608     12.6942     23.7069     98.6939
  2145.7500    -21.5313     12.8277     13.4782     30.9173     91.7916
  2146.0000    -21.8575     13.4561     14.3770     40.1037     79.1975
  2146.2500    -22.2537     14.1568     15.3914     48.9949     69.4873
  2146.5000    -22.6779     14.9360     16.5180     54.9288     54.5697
  2146.7500    -23.0926     15.7930     17.7480     56.6597     45.8283
  2147.0000    -23.4740     16.7228     19.0667     54.9943     36.2659
  2147.2500    -23.8110     17.7190     20.4527     51.7925     32.3422
  2147.5000    -24.0992     18.7701     21.8781     48.5841     29.2504
  2147.7500    -24.3376     19.8499     23.3101     46.0133     28.5967
  2148.0000    -24.5298     20.9079     24.7119     44.0913     29.4742
  2148.2500    -24.6852     21.8722     26.0464     42.6130     31.0996
  2148.5000    -24.8171     22.6689     27.2781     41.3838     34.0957
  2148.7500    -24.9413     23.2530     28.3771     40.2890     35.7941
  2149.0000    -25.0757     23.6294     29.3215     39.2988     37.6394
  2149.2500    -25.2389     23.8480     30.0990     38.4320     38.8008
  2149.5000    -25.4458     23.9733     30.7077     37.7063     40.9053
  2149.7500    -25.7012     24.0536     31.1552     37.1291     42.1909
  2150.0000    -25.9978     24.1105     31.4566     36.7293     42.6897
  2150.2500    -26.3182     24.1494     31.6317     36.5623     41.6504
  2150.5000    -26.6397     24.1752     31.7022     36.6567     38.6629
  2150.7500    -26.9383     24.1993     31.6894     36.9584     36.7340
  2151.0000    -27.1934     24.2350     31.6130     37.3368     35.6180
  2151.2500    -27.3910     24.2884     31.4896     37.6401     36.3023
  2151.5000    -27.5251     24.3536     31.3329     37.7437     38.3366
  2151.7500    -27.5988     24.4144     31.1539     37.5797     39.4056
  2152.0000    -27.6230     24.4521     30.9614     37.1636     39.8697
  2152.2500    -27.6077     24.4546     30.7626     36.5946     39.7137
  2152.5000    -27.5520     24.4220     30.5637     35.9991     39.5720
  2152.7500    -27.4406     24.3662     30.3703     35.4557     39.6983
  2153.0000    -27.2535     24.3060     30.1878     34.9854     40.1325
  2153.2500    -26.9792     24.2606     30.0209     34.6072     40.6607
  2153.5000    -26.6230     24.2428     29.8741     34.3587     42.1129
  2153.7500    -26.2060     24.2532     29.7509     34.2218     43.4389
  2154.0000    -25.7599     24.2808     29.6536     34.0563     45.1573
  2154.2500    -25.3202     24.3087     29.5826     33.6969     45.6309
  2154.5000    -24.9144     24.3239     29.5361     33.1584     45.2772
  2154.7500    -24.5495     24.3243     29.5100     32.7154     44.7496
  2155.0000    -24.2105     24.3157     29.4984     32.7311     44.2382
  2155.2500    -23.8730     24.3036     29.4940     33.3715     44.1446
  2155.5000    -23.5257     24.2829     29.4887     34.4473     43.8415
  2155.7500    -23.1817     24.2389     29.4753     35.5169     43.1146
  2156.0000    -22.8755     24.1566     29.4481     36.1715     40.9810
  2156.2500    -22.6485     24.0341     29.4037     36.2682     39.1417
  2156.5000    -22.5328     23.8834     29.3414     35.9422     36.5782
  2156.7500    -22.5371     23.7216     29.2631     35.4337     35.3290
  2157.0000    -22.6410     23.5593     29.1726     34.9046     34.3602
  2157.2500    -22.8033     23.4005     29.0748     34.3732     34.4448
  2157.5000    -22.9833     23.2510     28.9752     33.7870     35.9040
  2157.7500    -23.1603     23.1241     28.8785     33.1598     37.6357
  2158.0000    -23.3372     23.0340     28.7886     32.6558     40.3923
  2158.2500    -23.5279     22.9862     28.7079     32.5377     41.5805
  2158.5000    -23.7372     22.9745     28.6373     32.9905     41.6554
  2158.7500    -23.9488     22.9874     28.5760     33.9306     40.7473
  2159.0000    -24.1256     23.0149     28.5217     34.9612     38.9896
  2159.2500    -24.2275     23.0481     28.4706     35.5763     38.1134
  2159.5000    -24.2353     23.0746     28.4177     35.4891     37.4956
  2159.7500    -24.1658     23.0806     28.3565     34.7976     37.4459
  2160.0000    -24.0654     23.0573     28.2794     33.8489     38.0984
  2160.2500    -23.9843     23.0036     28.1785     32.9935     39.3804
  2160.5000    -23.9493     22.9205     28.0462     32.4853     42.7071
  2160.7500    -23.9531     22.8056     27.8765     32.5132     45.2985
  2161.0000    -23.9646     22.6551     27.6659     33.1573     48.2792
  2161.2500    -23.9483     22.4708     27.4150     34.2397     49.1120
  2161.5000    -23.8818     22.2638     27.1291     35.3007     48.6762
  2161.7500    -23.7621     22.0498     26.8176     35.8406     47.7472
  2162.0000    -23.6020     21.8445     26.4934     35.6193     46.6867
  2162.2500    -23.4229     21.6635     26.1706     34.7310     47.0296
  2162.5000    -23.2484     21.5235     25.8616     33.4488     50.1596
  2162.7500    -23.1002     21.4366     25.5739     32.0345     54.0684
