~Version Information
 VERS.                2.0:  CWLS LOG ASCII STANDARD -VERSION 2.0
 WRAP.                 NO:  ONE LINE PER DEPTH STEP
~WELL INFORMATION BLOCK
#MNEM.UNIT       DATA		            DESCRIPTION OF MNEMONIC
#---------    -------------            ------------------------
 STRT.FT  0.500                          :START DEPTH
 STOP.FT  1808.700                       :STOP DEPTH
 STEP.FT  0.100                          :STEP    UP_HOLE  
 NULL.    -999.25                        :NULL VALUE
 COMP.              EL PASO PRODUCTIONS  :COMPANY
 WELL.                     COREHOLE #38  :WELL
 FLD .                 PURGATOIRE RIVER  :FIELD
 LOC .      15   35S   65W               :LOCATION
 CNTY.                           COLFAX  :COUNTY
 STAT.                     NM            :STATE
 CTRY.                                   :
 SRVC.     O'DRISCOLL                    :SERVICE COMPANY
 DATE.   04/28/05                        :LOG DATE
 API .                                   :API NUMBER
 LIC .                                   :LICENSE NUMBER
~Curve Information Block
#MNEM.UNIT      API CODE     Curve Description
#---------    -------------  ------------------------
 DEPT     .FT        00 001 00 00          :  1  DEPTH   
 GAMMA    .API-GR    00 310 00 00          :  2                GAMMA
 VOLTAGE  .MV        00 000 00 00          :  3              VOLTAGE
 CALIPER  .INCH      00 280 00 00          :  4              CALIPER
 DEN(LS)  .G/CC      00 350 00 00          :  5              DEN(LS)
 DEN(SS)  .G/CC      00 350 00 00          :  6              DEN(SS)
 CURRENT  .UA        00 000 00 00          :  7              CURRENT
 RES(SG)  .OHM-M     00 220 00 00          :  8              RES(SG)
 POR(DEN) .PERCENT   00 890 00 00          :  9             POR(DEN)
 DEN(LS)  .CPS       00 350 00 00          : 10              DEN(LS)
 DEN(SS)  .CPS       00 350 00 00          : 11              DEN(SS)
 COMP     .G/CC      00 356 00 00          : 12                 COMP
 DEN(CDL) .G/CC      00 350 00 00          : 13             DEN(CDL)
 TEMP     .DEG F     00 660 00 00          : 14                 TEMP
 DEL_TEMP .DEG F     00 000 00 00          : 15             DEL_TEMP
 TIME     .MINUTES   00 000 00 00          : 16                 TIME
~Parameter Information Block
#MNEM.UNIT   Information     Description
#---------- ---------------  ------------------------
 FILE.      ORIGINAL           :File Type
 FIID.      9139A              :File Type Identifier
 VERS.      3.58G              :System Version
 SER .      1                  :System Serial Number
 TRUK.      .498775            :Truck Calibration Number
 TOOL.        1245             :Tool Serial Number
 TIME.      1507               :Time    HrHrMinMin
 LAT .       36 59'            :Latitude
 LON .       104 39'           :Longitude
 LMF .            GL           :Log Measured From
 DMF .            GL           :Driller Measured From
 PD  .            GL           :Permanent Data
 PDEV.                         :Elevation Permanent Data
 EKB .M                        :Elevation Kelly Bushing
 ELEV.DF                       :Elevation DF
 EGL .M        7777            :Elevation Ground Level
 DRDP.          1825           :Driller's Depth
 CASD.       10.               :Casing Diameter
 CASB.           300           :Casing Bottom
 CASX.         STEEL           :Casing Type
 CAST.                         :Casing Thickness
 TNOC.                         :Time Circulation Stopped
 LOGU.        108              :Logging Unit
 RECB.           R.SIPES       :Recorded By
 OSR1.          9057           :Other Services
 OSR2.                         :Other Services
 OSR3.                         :Other Services
 BS  .MM         3.5           :Bit Size
 MST .                         :Mean Surface Temperature
 TGRD.                         :Temperature Gradiant
 MAGN.            12           :Magnetic Declination
 MDEN.       2.7               :Density Matrix
 MATR.      SANDSTONE          :Neutron Matrix
 DTMT.            54           :Delta T Matrix
 DTFL.                         :Delta T Fluid
 MUDS.                         :Mud Sample Source
 MRS .                         :Mud Resistivity
 MTP .                         :Mud Temperature
 MFRS.                         :Resistivity Mud Filtrate
 MFTP.                         :Temperature Mud Filtrate
 MCRS.                         :Resistivity Mud Cake
 MCTP.                         :Temperature Mud Cake
 FTYP.                         :Fluid Type
 FD  .K/M3                     :Fluid Density
 DFV .S                        :Fluid Viscosity
 FPH .                         :Fuild PH
 ELCO.       50000             :Electron Cutoff
~Other Information
#MNEM.UNIT  Information      Description
#---------- ---------------  ------------------------
# -------------------------- 
~A DEPTH  GAMMA    VOLTAGE  CALIPER DEN(LS) DEN(SS) CURRENT  RES(SG)  POR(DEN) DEN(LS) DEN(SS) COMP  DEN(CDL) TEMP  DEL_TEMP TIME    
# ...
 607.000     78.4      0.4   3.0  2.79 3.19    29.0      1.1  50.2  390.47 2961.07 -0.940 2.23 33.3  0.00 0.20000 
 607.100     86.0      2.1   3.0  2.76 3.09   131.6      1.1  40.5  415.53 3231.09 -0.745 2.26 33.3  0.00 0.19900 
 607.200     81.3      1.2   3.0  2.87 3.06   111.8      0.8  10.8  325.32 3322.80 -0.358 2.22 33.3  0.00 0.20000 
 607.300     93.6      0.9   2.9  2.84 3.10    58.0      1.2  24.0  350.37 3205.55 -0.545 2.27 33.3  0.00 0.20100 
 607.400    105.8      1.2   3.0  2.83 3.04    82.1      1.1  16.6  355.38 3384.01 -0.413 2.32 33.3  0.00 0.20000 
 607.500    112.4      1.4   3.0  2.73 3.03   103.2      1.0  34.9  435.58 3419.73 -0.628 2.33 33.3  0.00 0.19900 
 607.600    122.8      1.0   3.0  2.73 2.97    95.2      0.8  25.6  435.59 3608.84 -0.470 2.44 33.3  0.00 0.20000 
 607.700    130.4      1.1   3.0  2.82 2.95    58.7      1.3   6.8  365.40 3675.12 -0.234 2.44 33.3  0.00 0.20000 
 607.800    122.8      1.4   3.0  2.96 3.02   102.8      1.0  -8.8  275.24 3440.15 -0.109 2.52 33.3  0.00 0.20100 
 607.900    114.3      2.3   3.0  2.82 3.04    95.8      1.7  16.9  360.39 3404.54 -0.411 2.44 33.3  0.00 0.09900 
 608.000    115.3      2.0   3.0  2.83 3.01   104.9      1.3  12.2  355.42 3481.03 -0.338 2.39 33.3  0.00 0.20000 
 608.100    108.7      2.5   3.0  2.69 3.06   112.1      1.6  49.5  475.68 3322.80 -0.835 2.33 33.3  0.00 0.20100 
 608.200    103.9      2.3   3.0  2.82 3.06   116.7      1.4  20.5  360.40 3327.90 -0.473 2.28 33.3  0.00 0.19900 
 608.300    103.9      2.8   3.0  2.82 2.98   120.7      1.7  10.5  365.41 3578.13 -0.297 2.23 33.3  0.00 0.20000 
 608.400    106.8      3.2   3.0  2.76 3.04   124.8      1.9  30.0  410.51 3399.38 -0.573 2.23 33.3  0.00 0.20000 
 608.500    103.0      2.8   3.0  2.72 2.97   134.3      1.5  28.5  450.62 3613.85 -0.503 2.26 33.3  0.00 0.20000 
 608.600    103.0      2.7   3.0  2.68 3.04   137.1      1.4  49.4  490.73 3384.02 -0.819 2.23 33.3  0.00 0.20100 
 608.700    105.8      2.9   3.0  2.82 2.99   137.3      1.5  10.8  360.40 3542.27 -0.308 2.21 33.3  0.00 0.19900 
 608.800    109.6      1.9   3.0  2.80 3.02   137.1      1.0  19.5  380.44 3455.51 -0.431 2.21 33.3  0.00 0.20000 
 608.900    108.7      1.9   3.0  2.69 2.98   136.7      1.0  36.8  480.69 3572.89 -0.615 2.28 33.3  0.00 0.20000 
 609.000    109.6      2.3   3.0  2.73 2.98   136.9      1.2  27.5  435.57 3567.82 -0.502 2.24 33.3  0.00 0.20000 
 609.100    108.7      2.4   3.0  2.68 2.93   137.1      1.3  30.0  485.71 3741.53 -0.494 2.13 33.3  0.00 0.20000 
 609.200    108.7      2.1   3.0  2.73 2.93   137.5      1.1  21.3  440.58 3731.34 -0.392 2.17 33.3  0.00 0.10000 
 609.300    107.7      1.8   3.0  2.67 3.06   137.2      0.9  53.0  495.74 3343.22 -0.876 2.25 33.3  0.00 0.20000 
 609.400    111.5      0.7   3.0  2.76 2.99   135.8      0.4  22.8  410.51 3547.35 -0.449 2.35 33.3  0.00 0.20000 
 609.500    108.7     -2.7   3.0  2.79 2.89   121.5     -1.6   4.0  385.46 3884.81 -0.161 2.25 33.3  0.00 0.20000 
 609.600    108.7     -2.0   3.0  2.79 2.87   125.7     -1.1   3.1  390.46 3946.21 -0.139 2.41 33.3  0.00 0.20000 
 609.700    107.7      0.7   3.0  2.65 3.01   134.9      0.4  50.8  520.81 3480.99 -0.813 2.37 33.3  0.00 0.20000 
 609.800    103.9      1.6   3.0  2.84 2.96   139.3      0.8   3.8  345.37 3634.19 -0.209 2.28 33.3  0.00 0.20000 
 609.900     95.4      2.1   3.0  2.72 3.02   140.6      1.1  36.0  450.62 3460.57 -0.632 2.26 33.3  0.00 0.20000 
 610.000     93.6      2.0   3.0  2.68 2.93   137.6      1.0  30.8  490.72 3746.65 -0.503 2.37 33.3  0.00 0.20000 
 610.100    105.8      2.1   3.0  2.81 2.94   137.0      1.1   7.2  370.41 3695.57 -0.234 2.27 33.3  0.00 0.20000 
 610.200     96.4      1.2   3.0  2.75 2.94   136.7      0.6  18.3  420.53 3710.86 -0.360 2.31 33.3  0.00 0.20000 
 610.300    100.2      1.7   3.0  2.65 2.92   136.7      0.9  34.5  515.80 3782.47 -0.540 2.34 33.3  0.00 0.20000 
 610.400    100.2      1.4   3.0  2.75 2.97   138.4      0.7  22.6  420.54 3608.67 -0.433 2.33 33.3  0.00 0.20000 
 610.500     99.2      1.4   3.0  2.72 2.93   138.1      0.7  22.1  445.60 3736.67 -0.400 2.30 33.3  0.00 0.20000 
 610.600     79.4      1.8   3.0  2.79 2.94   138.7      0.9  10.2  385.45 3705.76 -0.267 2.36 33.3  0.00 0.20000 
 610.700     92.6      2.0   3.0  2.71 2.96   138.0      1.0  29.4  460.64 3639.31 -0.508 2.39 33.3  0.00 0.10000 
 610.800     92.6      2.4   3.0  2.73 2.89   138.6      1.2  16.1  440.58 3864.29 -0.304 2.44 33.3  0.00 0.20000 
 610.900     95.4      2.3   3.0  2.80 2.98   140.4      1.1  13.7  380.44 3588.21 -0.332 2.37 33.3  0.00 0.20000 
 611.000     95.4      1.7   3.0  2.81 2.94   141.1      0.9   7.6  375.42 3716.03 -0.235 2.45 33.3  0.00 0.20000 
 611.100    105.8      0.4   3.0  2.64 2.87   137.5      0.2  30.1  525.83 3930.82 -0.456 2.45 33.3  0.00 0.20000 
 611.200    100.2     -3.7   3.0  2.82 2.94   133.1     -2.0   5.5  365.41 3710.86 -0.212 2.37 33.3  0.00 0.20000 
 611.300     97.3      1.9   3.0  2.73 2.90   137.9      1.0  17.7  440.60 3823.37 -0.330 2.32 33.3  0.00 0.20000 
 611.400     93.6      2.7   3.0  2.67 2.96   139.1      1.4  36.3  495.74 3649.54 -0.591 2.42 33.3  0.00 0.20000 
 611.500     97.3      2.0   3.0  2.74 2.96   139.5      1.0  22.8  430.56 3649.60 -0.426 2.36 33.3  0.00 0.20000 
 611.600     84.1      2.2   3.0  2.79 2.85   138.3      1.1   0.3  385.45 4002.49 -0.098 2.37 33.3  0.00 0.20000 
 611.700     80.3      2.1   3.0  2.70 2.91   138.1      1.1  22.7  465.66 3818.26 -0.391 2.49 33.3  0.00 0.20000 
 611.800     73.7      2.3   3.0  2.70 2.83   137.3      1.2  13.9  470.68 4079.37 -0.236 2.42 33.3  0.00 0.20000 
 611.900     72.8      1.7   3.0  2.76 2.81   137.9      0.9   0.7  410.52 4166.44 -0.073 2.28 33.3  0.00 0.20000 
 612.000     67.1      2.0   3.0  2.62 2.93   138.2      1.0  43.6  545.91 3726.38 -0.665 2.32 33.3  0.00 0.20000 
 612.100     72.8      1.7   3.0  2.67 2.99   141.2      0.9  42.3  500.76 3552.50 -0.688 2.30 33.3  0.00 0.20000 
 612.200     78.4      1.2   3.0  2.72 2.83   142.6      0.6  10.2  450.61 4084.48 -0.193 2.23 33.3  0.00 0.10000 
 612.300     87.9      2.0   3.0  2.65 2.82   137.9      1.0  21.2  515.81 4110.14 -0.314 2.30 33.3  0.00 0.20000 
 612.400     83.2      0.0   3.0  2.64 2.82   137.1      0.0  22.3  525.83 4130.56 -0.323 2.38 33.3  0.00 0.20000 
 612.500     78.4      2.0   3.0  2.69 2.89   137.2      1.1  22.2  475.68 3879.69 -0.372 2.17 33.3  0.00 0.20000 
 612.600     80.3      2.6   3.0  2.68 2.85   138.3      1.3  19.6  485.71 3997.55 -0.317 2.15 33.3  0.00 0.20000 
 612.700     71.8      2.0   3.0  2.52 2.94   147.9      0.9  69.8  676.38 3695.52 -1.006 2.21 33.3  0.00 0.20000 
 612.800     68.1      2.3   3.0  2.61 2.80   152.3      1.1  26.6  560.95 4197.20 -0.361 2.16 33.3  0.00 0.20000 
 612.900     78.4      2.2   3.0  2.75 2.85   150.7      1.0   7.1  420.53 4017.86 -0.171 2.18 33.3  0.00 0.20000 
 613.000     88.8      2.5   3.0  2.64 2.91   144.9      1.2  35.9  525.84 3797.80 -0.555 2.31 33.3  0.00 0.20000 
 613.100     90.7      2.5   3.0  2.69 2.80   139.5      1.3  12.3  480.69 4181.84 -0.199 2.33 33.3  0.00 0.20000 
 613.200     98.3      2.7   3.0  2.56 2.77   139.4      1.4  32.0  621.16 4289.50 -0.407 2.26 33.3  0.00 0.20000 
 613.300     95.4      2.5   3.0  2.68 2.86   140.2      1.3  20.2  485.71 3982.02 -0.327 2.24 33.3  0.00 0.20000 
 613.400     91.7      1.8   3.0  2.66 2.89   138.7      0.9  30.1  510.79 3859.17 -0.471 2.24 33.3  0.00 0.20000 
 613.500     90.7      2.8   3.0  2.57 2.85   137.3      1.4  41.4  611.12 4022.98 -0.575 2.23 33.3  0.00 0.10000 
 613.600     86.9      2.6   3.0  2.72 2.84   136.9      1.4  11.0  450.61 4058.83 -0.207 2.24 33.3  0.00 0.20000 
 613.700     93.6      2.0   3.0  2.63 2.89   136.9      1.0  34.6  535.87 3874.52 -0.522 2.24 33.3  0.00 0.19900 
 613.800     98.3      2.8   3.0  2.66 2.81   136.8      1.5  17.3  505.77 4166.55 -0.258 2.27 33.3  0.00 0.20100 
 613.900    103.0      2.4   3.0  2.60 2.82   137.1      1.3  32.4  576.00 4115.19 -0.446 2.22 33.3  0.00 0.20000 
