~Version Information
VERS.                      2.0: CWLS Log ASCII Standard - VERSION 2.0
WRAP.                       NO: One line per depth step
~Well Information Block
STRT.FT               750.6000: 
STOP.FT              2495.5000: 
STEP.FT                 0.1000: 
NULL.                -999.2500: 
COMP.                         : COMPANY
WELL.                         : WELL
FLD.                          : FIELD
LOC.                          : LOCATION
CNTY.                         : COUNTY
SRVC.                         : SERVICE COMPANY
DATE.          Sat Feb 28 14:05:57 2004: LOG DATE
UWI.                          : UNIQUE WELL ID
STAT.                         : STATE
~Curve Information Block
DEPT.FT            0 000 00 00: Depth
DCAL.in                       : CDL Caliper
RHOB.g/cc                     : CDL Bulk Density
RHOC.g/cc                     : CDL Density Correction
DPOR.pu                       : CDL Density Porosity
GR.GAPI                       : Gamma Ray
NPOR.pu                       : Neutron Porosity
~Parameter Information Block
~A  Depth       DCAL        RHOB        RHOC        DPOR         GR         NPOR    
# ...
  2027.4000      8.0038      2.5660      0.0811      5.0909     69.7913     27.8300
  2027.5000      8.0195      2.5876      0.0548      3.7803     75.4990     28.2281
  2027.6000      8.0195      2.5696      0.0936      4.8731     83.1879     28.9274
  2027.7000      8.0195      2.5093      0.0916      8.5260     86.5853     29.3521
  2027.8000      8.0342      2.4385     -0.0372     12.8182     86.4771     29.4275
  2027.9000      8.0342      2.4042     -0.0731     14.8988     87.5070     29.7241
  2028.0000      8.0417      2.4239     -0.0499     13.7018     91.5093     30.5178
  2028.1000      8.0417      2.4771      0.0223     10.4773     94.6434     31.1479
  2028.2000      8.0417      2.5314      0.0968      7.1870     91.3511     30.9844
  2028.3000      8.0512      2.5661      0.0763      5.0837     85.3814     30.2690
  2028.4000      8.0512      2.5842      0.0933      3.9855     84.8596     29.8564
  2028.5000      8.0483      2.5982      0.0885      3.1387     85.6570     30.1446
  2028.6000      8.0483      2.6021      0.1238      2.9004     83.5731     30.5512
  2028.7000      8.0483      2.5733      0.1204      4.6505     85.5757     30.5811
  2028.8000      8.0304      2.5230     -0.0157      7.6987     91.5192     30.3252
  2028.9000      8.0304      2.4950     -0.0028      9.3958     93.8409     30.1810
  2029.0000      8.0275      2.4948      0.0729      9.4036     94.8679     30.4994
  2029.1000      8.0275      2.4950      0.0549      9.3913     98.4176     31.1274
  2029.2000      8.0275      2.4867      0.0749      9.8958    100.8075     31.5848
  2029.3000      8.0308      2.4826      0.0094     10.1461     99.7768     31.4997
  2029.4000      8.0308      2.4933      0.0590      9.4979     98.4133     30.9678
  2029.5000      8.0361      2.5101      0.0665      8.4790     97.3756     30.5977
  2029.6000      8.0361      2.5227      0.0648      7.7167     93.5900     30.7160
  2029.7000      8.0361      2.5321      0.0539      7.1476     88.8158     30.8870
  2029.8000      8.0396      2.5322      0.0863      7.1373     86.9693     30.8016
  2029.9000      8.0396      2.5154      0.0700      8.1565     88.0188     30.5673
  2030.0000      8.0384      2.4928      0.0131      9.5250     88.4358     30.1277
  2030.1000      8.0384      2.4826     -0.0290     10.1458     84.8941     29.6111
  2030.2000      8.0384      2.4845      0.0461     10.0290     81.6481     29.3677
  2030.3000      8.0202      2.4857      0.0330      9.9604     81.8577     29.3479
  2030.4000      8.0202      2.4814      0.0535     10.2165     81.2402     29.3297
  2030.5000      8.0169      2.4801      0.0355     10.2999     79.7527     29.4932
  2030.6000      8.0169      2.4909      0.0513      9.6422     82.0023     29.8319
  2030.7000      8.0169      2.5073      0.0594      8.6484     88.0761     30.1826
  2030.8000      8.0113      2.5175      0.0535      8.0315     91.6406     30.5425
  2030.9000      8.0113      2.5205      0.0322      7.8489     89.2292     30.6866
  2031.0000      8.0103      2.5219      0.0796      7.7644     85.5192     30.3896
  2031.1000      8.0103      2.5279      0.0764      7.3994     82.4754     29.8234
  2031.2000      8.0103      2.5362      0.0874      6.8977     80.4082     29.3684
  2031.3000      8.0156      2.5379      0.1181      6.7951     82.8647     29.0564
  2031.4000      8.0156      2.5401      0.0245      6.6616     88.6111     28.8336
  2031.5000      8.0226      2.5500      0.1295      6.0580     89.7754     29.0232
  2031.6000      8.0226      2.5499      0.1154      6.0639     82.7207     29.6098
  2031.7000      8.0226      2.5339      0.0627      7.0380     74.8681     29.9025
  2031.8000      8.0238      2.5174      0.0721      8.0360     73.8326     29.8282
  2031.9000      8.0238      2.5080      0.0763      8.6087     77.2601     29.8192
  2032.0000      8.0248      2.5047      0.0961      8.8038     77.7307     29.9940
  2032.1000      8.0248      2.5038      0.1211      8.8629     74.3420     30.2356
  2032.2000      8.0248      2.4980      0.0590      9.2099     71.9237     30.1304
  2032.3000      8.0166      2.4887      0.0008      9.7731     71.1600     29.6154
  2032.4000      8.0166      2.4829      0.0009     10.1256     69.7893     29.0887
  2032.5000      7.9941      2.4849      0.0026     10.0064     66.0759     28.8195
  2032.6000      7.9941      2.5025     -0.0370      8.9403     60.0886     28.9491
  2032.7000      7.9941      2.5355      0.0380      6.9375     55.9578     29.3341
  2032.8000      7.9927      2.5673      0.0304      5.0095     59.8921     29.4218
  2032.9000      7.9927      2.5813      0.1139      4.1657     66.5790     28.8003
  2033.0000      7.9911      2.5686      0.0620      4.9347     65.3693     27.8855
  2033.1000      7.9911      2.5354      0.0975      6.9479     60.0378     27.3832
  2033.2000      7.9911      2.4996      0.0331      9.1123     60.3857     27.2677
  2033.3000      7.9897      2.4918     -0.0187      9.5904     65.9532     27.3596
  2033.4000      7.9897      2.5285      0.0612      7.3664     69.2206     27.8024
  2033.5000      7.9833      2.5752      0.1141      4.5343     67.5592     28.5274
  2033.6000      7.9833      2.5810      0.1372      4.1831     63.3750     29.0670
  2033.7000      7.9833      2.5442      0.0517      6.4123     59.1168     29.0928
  2033.8000      7.9960      2.5044      0.0660      8.8258     55.9700     28.8463
  2033.9000      7.9960      2.4971     -0.0959      9.2659     55.0116     28.7623
  2034.0000      8.0001      2.5260      0.0443      7.5148     55.0124     28.9386
  2034.1000      8.0001      2.5554      0.0771      5.7316     55.4158     29.2066
  2034.2000      8.0001      2.5565      0.0902      5.6662     60.9912     29.3505
  2034.3000      8.0171      2.5327      0.0795      7.1120     71.0164     29.4238
  2034.4000      8.0171      2.5018      0.0502      8.9837     76.8549     29.8022
  2034.5000      8.0220      2.4797      0.0414     10.3237     76.7788     30.3389
  2034.6000      8.0220      2.4684      0.0482     11.0044     76.8037     30.3476
  2034.7000      8.0220      2.4676      0.0087     11.0521     80.8794     30.0510
  2034.8000      8.0168      2.4813      0.0663     10.2244     86.5805     30.1677
  2034.9000      8.0168      2.4939      0.1331      9.4635     85.8076     30.7409
  2035.0000      8.0266      2.4781      0.1426     10.4152     78.9758     31.3026
  2035.1000      8.0266      2.4289      0.0939     13.3994     77.9472     31.5115
  2035.2000      8.0266      2.3567      0.0368     17.7761     82.0744     31.6091
  2035.3000      8.0192      2.2597      0.0057     23.6531     81.6388     31.7795
  2035.4000      8.0192      2.1346     -0.0269     31.2376     78.9838     31.9814
  2035.5000      8.0128      2.0093     -0.0753     38.8280     81.1146     32.4815
  2035.6000      8.0128      1.9213     -0.0311     44.1631     84.6990     33.1214
  2035.7000      8.0128      1.8676     -0.0324     47.4167     84.2400     33.5416
  2035.8000      8.0143      1.8085      0.0025     50.9995     81.0628     33.7527
  2035.9000      8.0143      1.7162     -0.0620     56.5962     74.1258     33.7937
  2036.0000      8.0172      1.6127     -0.0662     62.8672     61.4791     33.7104
  2036.1000      8.0172      1.5382      0.0187     67.3799     49.7772     33.4808
  2036.2000      8.0172      1.5036      0.0345     69.4760     45.9379     33.2493
  2036.3000      8.0233      1.4966      0.0168     69.9045     48.0993     33.3400
  2036.4000      8.0233      1.5015      0.0711     69.6088     52.3609     33.6734
  2036.5000      8.0795      1.5117      0.0574     68.9866     56.2264     34.0125
  2036.6000      8.0795      1.5381      0.0190     67.3877     55.2955     34.3356
  2036.7000      8.0795      1.5843      0.0687     64.5850     49.8780     34.4509
  2036.8000      8.1736      1.6328      0.1371     61.6460     46.2956     34.1824
  2036.9000      8.1736      1.6846      0.1336     58.5082     46.6236     33.8389
