~Version Information
VERS.                      2.0: CWLS Log ASCII Standard - VERSION 2.0
WRAP.                       NO: One line per depth step
~Well Information Block
STRT.FT               750.0000: 
STOP.FT              2431.5000: 
STEP.FT                 0.1000: 
NULL.                -999.2500: 
COMP.          Petrogulf Corporation: COMPANY
WELL.           McDaniel 9-34V: WELL
FLD.           Purgatorie River: FIELD
LOC.           620' FSL & 1800' FEL: LOCATION
PROV.                 Colorado: PROVINCE
CNTY.               Las Animas: COUNTRY
SRVC.                Patterson: SERVICE COMPANY
DATE.          Wed Sep 28 07:18:04 2005: LOG DATE
UWI.                          : UNIQUE WELL ID
~Curve Information Block
DEPT.FT            0 000 00 00: Depth
DCAL.in                       : CDL Caliper
RHOB.g/cc                     : CDL Bulk Density
RHOC.g/cc                     : CDL Density Correction
DPOR.pu                       : CDL Density Porosity
GR.GAPI                       : Gamma Ray
NPOR.pu                       : Neutron Porosity
~Parameter Information Block
~A  Depth       DCAL        RHOB        RHOC        DPOR         GR         NPOR    
# ...
  2190.0000      7.9459      2.4840     -0.0164     10.0631     97.1936     25.8454
  2190.1000      7.9459      2.4592      0.0024     11.5641     98.8217     25.5868
  2190.2000      7.9459      2.4523      0.0070     11.9826    100.0664     25.4576
  2190.3000      7.9443      2.4540      0.0227     11.8786     99.1521     25.4381
  2190.4000      7.9443      2.4571      0.0276     11.6912     95.5762     25.4293
  2190.5000      7.9403      2.4677      0.0196     11.0465     92.2810     25.4834
  2190.6000      7.9403      2.4859      0.0376      9.9458     91.5162     25.5191
  2190.7000      7.9403      2.5021      0.0021      8.9614     90.7233     25.3729
  2190.8000      7.9355      2.5105      0.0703      8.4551     86.9792     25.1410
  2190.9000      7.9355      2.5085      0.0392      8.5734     83.1906     24.8729
  2191.0000      7.9328      2.5003      0.0589      9.0720     81.9524     24.5282
  2191.1000      7.9328      2.4982      0.0183      9.1999     80.9132     24.4040
  2191.2000      7.9328      2.5133      0.0257      8.2827     79.6262     24.4446
  2191.3000      7.9313      2.5349      0.0816      6.9754     80.9173     24.2011
  2191.4000      7.9313      2.5439      0.0779      6.4309     84.9841     23.8367
  2191.5000      7.9220      2.5435      0.0518      6.4574     88.6541     23.7195
  2191.6000      7.9220      2.5470      0.0413      6.2413     87.9683     23.5468
  2191.7000      7.9220      2.5598      0.0433      5.4692     83.1267     22.9623
  2191.8000      7.9217      2.5783      0.1096      4.3481     78.0674     22.3957
  2191.9000      7.9217      2.5979      0.0925      3.1596     74.7540     22.3205
  2192.0000      7.9285      2.6170      0.1397      2.0027     72.1640     22.3823
  2192.1000      7.9285      2.6343      0.1437      0.9524     69.8255     22.2905
  2192.2000      7.9285      2.6527      0.1043     -0.1623     68.9103     22.2272
  2192.3000      7.9265      2.6635      0.1258     -0.8206     69.0981     22.0894
  2192.4000      7.9265      2.6533      0.0693     -0.2027     69.8670     21.6795
  2192.5000      7.9259      2.6367      0.0846      0.8071     71.6403     21.2969
  2192.6000      7.9259      2.6270      0.1084      1.3914     72.5747     21.3322
  2192.7000      7.9259      2.6170      0.0627      2.0024     71.0894     21.4047
  2192.8000      7.9162      2.6094      0.0530      2.4579     69.4074     20.9510
  2192.9000      7.9162      2.6116      0.0609      2.3263     68.3595     20.4760
  2193.0000      7.9137      2.6134      0.0746      2.2156     66.4472     20.5177
  2193.1000      7.9137      2.5998      0.0809      3.0411     65.7887     20.8067
  2193.2000      7.9137      2.5681      0.0531      4.9612     67.6235     21.2524
  2193.3000      7.9364      2.5378     -0.0156      6.8002     70.9953     21.9960
  2193.4000      7.9364      2.5302      0.0265      7.2619     76.0716     22.8263
  2193.5000      7.9510      2.5322      0.0532      7.1367     80.4284     23.2779
  2193.6000      7.9510      2.5214      0.0010      7.7932     82.7608     23.1252
  2193.7000      7.9510      2.5071     -0.0309      8.6631     85.4869     22.7583
  2193.8000      7.9548      2.5100      0.0177      8.4869     89.5151     22.8972
  2193.9000      7.9548      2.5237      0.0747      7.6536     93.4619     23.6320
  2194.0000      7.9567      2.5247      0.0388      7.5926     95.6654     24.4495
  2194.1000      7.9567      2.5078      0.0232      8.6207     96.3834     25.0969
  2194.2000      7.9567      2.4870      0.0430      9.8796     96.9512     25.5177
  2194.3000      7.9614      2.4797     -0.0142     10.3202     98.4916     25.5231
  2194.4000      7.9614      2.4889      0.0560      9.7634    100.6828     25.2753
  2194.5000      7.9647      2.4987      0.0448      9.1708    101.2873     25.2214
  2194.6000      7.9647      2.5020      0.0195      8.9707     99.3845     25.2766
  2194.7000      7.9647      2.5010      0.0359      9.0309     96.1684     25.1012
  2194.8000      7.9635      2.4958      0.0155      9.3441     92.7138     25.0641
  2194.9000      7.9635      2.4940      0.0057      9.4540     90.0519     25.4844
  2195.0000      7.9662      2.4957      0.0466      9.3542     90.7716     25.8949
  2195.1000      7.9662      2.4899      0.0400      9.7009     94.6691     25.8628
  2195.2000      7.9662      2.4809     -0.0208     10.2470     98.4022     25.6777
  2195.3000      7.9621      2.4811     -0.0079     10.2334    100.2631     25.8755
  2195.4000      7.9621      2.4874      0.0084      9.8535     99.8344     26.5119
  2195.5000      7.9355      2.4907      0.0518      9.6523     97.7600     27.1754
  2195.6000      7.9355      2.4860      0.0187      9.9401     96.4008     27.6526
  2195.7000      7.9355      2.4656      0.0448     11.1736     96.0424     27.8589
  2195.8000      7.9283      2.4284      0.0122     13.4294     95.3586     27.6695
  2195.9000      7.9283      2.3855     -0.0171     16.0325     95.9492     27.3312
  2196.0000      7.9334      2.3353     -0.0219     19.0723     98.9498     27.3098
  2196.1000      7.9334      2.2643     -0.0191     23.3774    101.3093     27.6673
  2196.2000      7.9334      2.1727     -0.0779     28.9249    100.2028     27.9803
  2196.3000      7.9520      2.0712     -0.0558     35.0816     95.7261     27.9182
  2196.4000      7.9520      1.9655     -0.0854     41.4839     90.3792     27.7098
  2196.5000      7.9511      1.8633     -0.1080     47.6763     85.4744     27.9461
  2196.6000      7.9511      1.7724     -0.1447     53.1887     78.7177     28.5333
  2196.7000      7.9511      1.6931     -0.1452     57.9916     69.1812     28.7765
  2196.8000      7.9548      1.6256     -0.0945     62.0841     61.0462     28.7381
  2196.9000      7.9548      1.5752     -0.0361     65.1397     57.2434     29.0900
  2197.0000      8.0010      1.5454      0.0200     66.9449     55.6353     29.9596
  2197.1000      8.0010      1.5283      0.0165     67.9835     54.4804     30.9549
  2197.2000      8.0010      1.5104      0.0000     69.0656     54.2153     31.5941
  2197.3000      8.0245      1.4891     -0.0095     70.3574     53.7748     31.8463
  2197.4000      8.0245      1.4751     -0.0088     71.2057     52.5414     32.3152
  2197.5000      8.1011      1.4765      0.0232     71.1190     51.1846     33.0534
  2197.6000      8.1011      1.4891      0.0349     70.3578     49.7563     33.4867
  2197.7000      8.1011      1.4997      0.0881     69.7153     47.7596     33.3515
  2197.8000      8.1214      1.4941      0.0862     70.0573     44.2211     32.8795
  2197.9000      8.1214      1.4765      0.0210     71.1232     40.0171     32.5920
  2198.0000      8.1559      1.4691      0.0452     71.5719     38.6649     32.6748
  2198.1000      8.1559      1.4930     -0.0241     70.1221     41.6680     32.8046
  2198.2000      8.1559      1.5588      0.0125     66.1349     46.7680     32.9851
  2198.3000      8.3127      1.6480      0.1144     60.7301     51.7273     33.3610
  2198.4000      8.3127      1.7332      0.1346     55.5612     56.7713     33.6348
  2198.5000      8.3822      1.8312      0.0963     49.6220     62.0798     33.4796
  2198.6000      8.3822      1.9755      0.1920     40.8785     66.3472     33.0684
  2198.7000      8.3822      2.1482      0.2504     30.4141     68.5586     32.8368
  2198.8000      8.2799      2.2965      0.2383     21.4260     71.2190     32.6612
  2198.9000      8.2799      2.3920      0.1960     15.6344     76.7737     32.0343
  2199.0000      8.0094      2.4437      0.1693     12.5021     83.7072     31.1498
  2199.1000      8.0094      2.4735      0.1802     10.6983     90.5614     30.6703
  2199.2000      8.0094      2.4978      0.1596      9.2268     95.6807     30.5141
  2199.3000      7.9611      2.5246      0.1154      7.5980     96.6308     30.1381
  2199.4000      7.9611      2.5515      0.1395      5.9689     94.2386     29.5721
  2199.5000      7.9589      2.5689      0.1056      4.9182     92.5133     29.0191
