~Version Information
VERS.                      2.0: CWLS Log ASCII Standard - VERSION 2.0
WRAP.                       NO: One line per depth step
~Well Information Block
STRT.FT                -5.5000: 
STOP.FT              1979.7500: 
STEP.FT                 0.2500: 
NULL.                -999.2500: 
COMP.          Pioneer Natural Resources: COMPANY
WELL.          Bucksnort 41-35: WELL
FLD.           Purgatorie River: FIELD
LOC.           117' FNL & 463' FEL: LOCATION
PROV.                 Colorado: PROVINCE
CNTY.               Las Animas: COUNTRY
SRVC.                Patterson: SERVICE COMPANY
DATE.          Fri Jul 29 10:31:46 2005: LOG DATE
UWI.                          : UNIQUE WELL ID
~Curve Information Block
DEPT.FT            0 000 00 00: Depth
GR.GAPI                       : Gamma Ray
CCL.                          : Casing Collar Locator
TT3.usec                      : CBL 3' Travel Time
AMP3.mV                       : CBL 3' Amplitude
~Parameter Information Block
~A  Depth        GR         CCL         TT3         AMP3    
# ...
  1435.0000    143.2042      0.0000    578.2278      8.9514
  1435.2500    149.2487      0.0000    515.3124      9.1712
  1435.5000    152.3301      0.0000    472.6618      9.3202
  1435.7500    152.7484      0.0000    472.1817      9.3944
  1436.0000    150.9372      0.0000    512.9218      9.4137
  1436.2500    147.0889      0.0000    571.4954      9.3888
  1436.5000    141.7150      0.0000    617.0308      9.3174
  1436.7500    136.0472      0.0000    633.9127      9.2331
  1437.0000    131.3805      0.0000    623.7632      9.1977
  1437.2500    128.1229      0.0000    599.4231      9.2333
  1437.5000    125.5463      0.0000    586.4011      9.3208
  1437.7500    122.3238      0.0000    601.2820      9.4547
  1438.0000    117.5295      0.0000    629.7449      9.6134
  1438.2500    111.5744      0.0000    649.9435      9.7135
  1438.5000    106.2180      0.0000    658.0411      9.6873
  1438.7500    103.4036      0.0000    660.4904      9.5647
  1439.0000    103.8486      0.0000    661.7856      9.4328
  1439.2500    106.7268      0.0000    663.5540      9.3575
  1439.5000    110.8511      0.0000    666.6433      9.3529
  1439.7500    116.0486      0.0000    670.9174      9.3916
  1440.0000    123.0237      0.0000    674.7473      9.4360
  1440.2500    131.8831      0.0000    677.0776      9.4753
  1440.5000    141.2661      0.0000    679.0861      9.5360
  1440.7500    149.2004      0.0000    682.6355      9.6462
  1441.0000    154.6624      0.0000    688.0008      9.7908
  1441.2500    158.0159      0.0000    693.9126      9.9350
  1441.5000    159.9751      0.0000    700.2193     10.0736
  1441.7500    160.5307      0.0000    707.7131     10.1870
  1442.0000    159.1753      0.0000    713.9964     10.1471
  1442.2500    155.8987      0.0000    712.5502      9.7100
  1442.5000    151.4136      0.0000    698.5189      8.7324
  1442.7500    146.2991      0.0000    675.0626      7.4751
  1443.0000    140.3416      0.0000    646.0797      6.4746
  1443.2500    133.0914      0.0000    609.9150      6.0249
  1443.5000    125.0525      0.0000    580.0505      5.9835
  1443.7500    118.0149      0.0000    584.1084      6.0472
  1444.0000    113.9008     -2.0000    619.9498      6.0322
  1444.2500    113.1916     -2.0000    652.6296      5.9172
  1444.5000    114.5261      0.0000    664.1823      5.7385
  1444.7500    115.8175      0.0000    672.7684      5.5107
  1445.0000    115.8014      0.0000    694.5585      5.2991
  1445.2500    114.7903      0.0000    713.3464      5.2963
  1445.5000    114.2289      0.0000    708.6977      5.6311
  1445.7500    115.3277      0.0000    686.8485      6.1548
  1446.0000    117.8183      0.0000    666.3526      6.6169
  1446.2500    120.0318      0.0000    655.4703      6.9080
  1446.5000    120.3055      0.0000    651.8474      7.0279
  1446.7500    118.4078      0.0000    651.9739      7.0140
  1447.0000    115.7440      0.0000    655.5822      6.9421
  1447.2500    114.1524      0.0000    663.5965      6.8945
  1447.5000    114.4882      0.0000    674.0667      6.9073
  1447.7500    116.3853      0.0000    682.6560      6.9582
  1448.0000    119.0992      0.0000    687.1794      7.0022
  1448.2500    122.1484      0.0000    688.4219      7.0226
  1448.5000    125.2714      0.0000    687.6774      7.0388
  1448.7500    128.2597      0.0000    686.4142      7.0692
  1449.0000    131.0271      0.0000    685.4506      7.1206
  1449.2500    133.6420      0.0000    682.0883      7.1947
  1449.5000    136.1304      0.0000    673.4543      7.2773
  1449.7500    138.2586      0.0000    661.9117      7.3311
  1450.0000    139.5678      0.0000    649.4207      7.3106
  1450.2500    139.6959      0.0000    632.2827      7.1961
  1450.5000    138.6738      0.0000    612.0038      7.0163
  1450.7500    136.8225      0.0000    605.2402      6.8290
  1451.0000    134.3459      0.0000    625.9403      6.6938
  1451.2500    131.1557      0.0000    662.0732      6.6420
  1451.5000    127.1704      0.0000    686.7319      6.6463
  1451.7500    122.6541      0.0000    686.9776      6.6554
  1452.0000    118.1792      0.0000    672.6605      6.6519
  1452.2500    114.2691      0.0000    659.6955      6.6398
  1452.5000    111.0725      0.0000    654.3485      6.6020
  1452.7500    108.2826      0.0000    655.1992      6.5087
  1453.0000    105.2986      0.0000    659.4573      6.3574
  1453.2500    101.5450      0.0000    663.8426      6.1762
  1453.5000     96.8347      0.0000    665.5102      6.0014
  1453.7500     91.5281      0.0000    664.1672      5.8616
  1454.0000     86.3403      0.0000    662.8170      5.7631
  1454.2500     82.0582      0.0000    665.9235      5.6900
  1454.5000     79.3907      0.0000    673.8875      5.6287
  1454.7500     78.6659      0.0000    681.9575      5.5879
  1455.0000     79.3890      0.0000    686.4527      5.5791
  1455.2500     80.3632      0.0000    687.7578      5.5751
  1455.5000     80.4946      0.0000    687.6944      5.5246
  1455.7500     79.5100      0.0000    687.3270      5.4087
  1456.0000     78.0876      0.0000    686.9504      5.2630
  1456.2500     77.4133      0.0000    686.6727      5.1440
  1456.5000     78.3020      0.0000    686.5726      5.0789
  1456.7500     80.4561      0.0000    686.5489      5.0563
  1457.0000     82.6939      0.0000    686.3810      5.0510
  1457.2500     84.0491      0.0000    686.0225      5.0420
  1457.5000     84.5691      0.0000    685.6752      5.0245
  1457.7500     84.9818      0.0000    685.5076      5.0014
  1458.0000     85.7324      0.0000    685.4501      4.9667
  1458.2500     86.4405      0.0000    685.3668      4.9210
  1458.5000     86.1639      0.0000    685.2701      4.8839
  1458.7500     84.1936      0.0000    685.1924      4.8684
  1459.0000     80.9439      0.0000    684.9939      4.8637
  1459.2500     78.0596      0.0000    684.5623      4.8559
  1459.5000     77.1723      0.0000    683.9175      4.8495
  1459.7500     78.3528      0.0000    682.4080      4.8552
  1460.0000     80.1031      0.0000    677.9639      4.8685
  1460.2500     81.0152      0.0000    668.9219      4.8689
  1460.5000     81.1455      0.0000    657.3766      4.8427
  1460.7500     81.5943      0.0000    648.1013      4.8097
  1461.0000     83.0553      0.0000    643.4261      4.8044
  1461.2500     85.1309      0.0000    641.9886      4.8318
  1461.5000     87.0140      0.0000    641.7341      4.8740
  1461.7500     88.4266      0.0000    641.6945      4.9228
  1462.0000     89.5926      0.0000    641.6774      4.9780
  1462.2500     90.4967      0.0000    641.6726      5.0266
  1462.5000     90.6137      0.0000    641.6553      5.0478
  1462.7500     89.4101      0.0000    641.6108      5.0424
  1463.0000     86.8592      0.0000    641.3779      5.0371
  1463.2500     83.4463      0.0000    639.5955      5.0463
  1463.5000     79.8529      0.0000    630.8932      5.0508
  1463.7500     76.6636      0.0000    604.2332      5.0366
  1464.0000     74.3075      0.0000    552.1357      5.0307
  1464.2500     73.0681      0.0000    487.0284      5.0720
  1464.5000     72.8416      0.0000    436.2132      5.1690
  1464.7500     72.8649      0.0000    417.7637      5.2985
  1465.0000     71.9722      0.0000    435.7633      5.4181
  1465.2500     69.3470      0.0000    487.0964      5.4950
  1465.5000     65.2742      0.0000    554.6561      5.5446
  1465.7500     61.4238      0.0000    611.6777      5.6092
  1466.0000     60.2355      0.0000    644.2779      5.7003
  1466.2500     63.5149      0.0000    655.9056      5.7944
  1466.5000     71.2687      0.0000    655.3807      5.8631
  1466.7500     81.6599      0.0000    651.3765      5.8900
  1467.0000     91.8890      0.0000    650.4606      5.8865
  1467.2500     99.4249      0.0000    656.2800      5.8868
  1467.5000    103.2742      0.0000    669.8873      5.9067
  1467.7500    104.7020      0.0000    686.2480      5.9055
  1468.0000    106.5348      0.0000    694.1595      5.8152
  1468.2500    111.0833      0.0000    688.1407      5.6526
