~Version Information
VERS.                      2.0: CWLS Log ASCII Standard - VERSION 2.0
WRAP.                       NO: One line per depth step
~Well Information Block
STRT.FT                -7.7500: 
STOP.FT              1383.2500: 
STEP.FT                 0.2500: 
NULL.                -999.2500: 
COMP.          Petrogulf Corporation: COMPANY
WELL.          Great Plains 22-22R: WELL
FLD.           Purgatoire River: FIELD
LOC.           2042' FNL & 1657' FWL SENW 22 33S 67W ----: LOCATION
PROV.                 Colorado: PROVINCE
CNTY.               Las Animas: COUNTRY
SRVC.                         : SERVICE COMPANY
DATE.          Thu Sep 22 14:55:58 2005: LOG DATE
UWI.             07108028     : UNIQUE WELL ID
~Curve Information Block
DEPT.FT            0 000 00 00: Depth
CCL.                          : Casing Collar Locator
TT3.usec                      : CBL 3' Travel Time
AMP3.mV                       : CBL 3' Amplitude
GR.GAPI                       : Gamma Ray
~Parameter Information Block
~A  Depth       CCL         TT3         AMP3         GR     
# ...
   528.2500      0.0000    510.6678     10.2975     91.1396
   528.5000      0.0000    520.0169     10.4295     91.4900
   528.7500      0.0000    544.2379     10.5391     93.1246
   529.0000      0.0000    569.5794     10.5910     95.6796
   529.2500      0.0000    581.6939     10.5691     97.9165
   529.5000      0.0000    576.2635     10.4877     98.4468
   529.7500      0.0000    561.8009     10.3804     96.8185
   530.0000      0.0000    548.6536     10.2762     94.1948
   530.2500      0.0000    536.4966     10.1879     92.8324
   530.5000      0.0000    517.1959     10.1226     94.5419
   530.7500      0.0000    489.1953     10.0936     99.3731
   531.0000      0.0000    463.9326     10.1114    105.7190
   531.2500      0.0000    457.1738     10.1624    111.5774
   531.5000      0.0000    476.6641     10.2094    115.4996
   531.7500      0.0000    516.8154     10.2253    116.6379
   532.0000      0.0000    562.2736     10.2233    114.7422
   532.2500      0.0000    597.9518     10.2468    110.3759
   532.5000      0.0000    618.9595     10.3307    104.7678
   532.7500      0.0000    631.3246     10.4758     99.3636
   533.0000      0.0000    642.8942     10.6565     95.5526
   533.2500      0.0000    655.1789     10.8521     94.4596
   533.5000      0.0000    664.0940     11.0755     96.5571
   533.7500      0.0000    665.8046     11.3710    101.2898
   534.0000      0.0000    660.6563     11.7778    106.9907
   534.2500      0.0000    653.1209     12.2805    111.4184
   534.5000      0.0000    648.5853     12.7958    112.9159
   534.7500      0.0000    648.7563     13.2155    111.2797
   535.0000      0.0000    650.2570     13.4722    107.5392
   535.2500      0.0000    649.0981     13.5639    103.1279
   535.5000      0.0000    646.1799     13.5161     99.3797
   535.7500      0.0000    646.4908     13.3362     97.3312
   536.0000      0.0000    652.9058     13.0139     97.3918
   536.2500      0.0000    662.8275     12.5587     99.0924
   536.5000      0.0000    671.4604     12.0237    101.5749
   536.7500      0.0000    676.4106     11.4963    104.6498
   537.0000      0.0000    678.3125     11.0609    109.1967
   537.2500      0.0000    678.7435     10.7488    116.1496
   537.5000      0.0000    678.7350     10.5175    125.1387
   537.7500      0.0000    678.6606     10.2878    134.4428
   538.0000      0.0000    678.5640     10.0077    142.3578
   538.2500      0.0000    678.3800      9.6774    148.3992
   538.5000      0.0000    678.0742      9.3173    152.8580
   538.7500      0.0000    677.6733      8.9270    155.1321
   539.0000      0.0000    677.2314      8.4871    153.0542
   539.2500      0.0000    676.7321      8.0016    144.5221
   539.5000      0.0000    675.9766      7.5245    129.6829
   539.7500      0.0000    674.4530      7.1297    111.2255
   540.0000      0.0000    671.2203      6.8531     92.9194
   540.2500      0.0000    665.0220      6.6722     77.9827
   540.5000      0.0000    654.5241      6.5449     68.0892
   540.7500      0.0000    638.2983      6.4565     63.1690
   541.0000      0.0000    615.0131      6.4235     61.9783
   541.2500      0.0000    585.0215      6.4618     62.8430
   541.5000      0.0000    552.3370      6.5675     64.0938
   541.7500      0.0000    523.6255      6.7248     64.4962
   542.0000      0.0000    504.0714      6.9207     63.7528
   542.2500      0.0000    494.6959      7.1464     62.2973
   542.5000      0.0000    493.7870      7.3891     60.4499
   542.7500      0.0000    499.2552      7.6297     58.1261
   543.0000      0.0000    507.8180      7.8478     55.4041
   543.2500      0.0000    512.3430      8.0261     52.8555
   543.5000      0.0000    503.3401      8.1538     51.0811
   543.7500      0.0000    476.7518      8.2273     50.2393
   544.0000      0.0000    440.4449      8.2522     50.1312
   544.2500      0.0000    411.2599      8.2448     50.4744
   544.5000      0.0000    405.3846      8.2305     51.0997
   544.7500      0.0000    430.4415      8.2324     52.0621
   545.0000      0.0000    482.1840      8.2588     53.4942
   545.2500      0.0000    545.8051      8.3057     55.2488
   545.5000      0.0000    603.1970      8.3737     56.9653
   545.7500      0.0000    642.8402      8.4804     58.7515
   546.0000      0.0000    664.0185      8.6538     61.5589
   546.2500      0.0000    672.7709      8.9098     66.3831
   546.5000      0.0000    675.6159      9.2362     73.0783
   546.7500      0.0000    676.5361      9.5966     80.3338
   547.0000      0.0000    677.1734      9.9572     86.9755
   547.2500      0.0000    677.9214     10.3116     93.1012
   547.5000      0.0000    678.7280     10.6798     99.7418
   547.7500      0.0000    679.5876     11.0794    107.4364
   548.0000      0.0000    680.7651     11.4983    115.4169
   548.2500      0.0000    682.6266     11.8873    122.3917
   548.5000      0.0000    684.8070     12.1803    127.7048
   548.7500      0.0000    685.2400     12.3303    131.3812
   549.0000      0.0000    680.2363     12.3385    133.7481
   549.2500      0.0000    666.7688     12.2583    135.5761
   549.5000      0.0000    646.3445     12.1702    137.7741
   549.7500      0.0000    626.9150     12.1386    140.2720
   550.0000      0.0000    618.7020     12.1731    141.9838
   550.2500      0.0000    625.8336     12.2147    142.3694
   550.5000      0.0000    642.7089     12.1600    142.2427
   550.7500      0.0000    659.6304     11.9161    142.4492
   551.0000      0.0000    670.7074     11.4589    142.3731
   551.2500      0.0000    675.8365     10.8600    140.6061
   551.5000      0.0000    677.5772     10.2569    136.9710
   551.7500      0.0000    678.1233      9.7776    133.0681
   552.0000      0.0000    678.4732      9.4753    130.5492
   552.2500      0.0000    678.8242      9.3283    129.5612
   552.5000      0.0000    679.0734      9.2921    129.1953
   552.7500      0.0000    679.1146      9.3425    128.8939
   553.0000      0.0000    678.7563      9.4722    128.9705
   553.2500      0.0000    677.4149      9.6628    129.8731
   553.5000      0.0000    673.7949      9.8696    131.3073
   553.7500      0.0000    666.3765     10.0343    132.4294
   554.0000      0.0000    655.3409     10.1121    133.0092
   554.2500      0.0000    644.4821     10.0812    133.9848
   554.5000      0.0000    639.7252      9.9352    136.5659
   554.7500      0.0000    644.0827      9.6862    140.8502
   555.0000      0.0000    654.6277      9.3788    145.2248
   555.2500      0.0000    665.4467      9.0743    147.0278
   555.5000      0.0000    672.6727      8.8000    144.2622
   555.7500      0.0000    676.0212      8.5274    137.3607
   556.0000      0.0000    676.9667      8.2213    129.2524
   556.2500      0.0000    676.8505      7.9000    123.3685
   556.5000      0.0000    676.2886      7.6215    121.6886
   556.7500      0.0000    675.2858      7.4063    124.5260
   557.0000      0.0000    673.4617      7.1846    130.9577
   557.2500      0.0000    670.4251      6.8298    138.6538
   557.5000      0.0000    666.2078      6.2483    144.1964
   557.7500      0.0000    661.2850      5.4589    144.8228
   558.0000      0.0000    655.9004      4.6018    140.1370
   558.2500      0.0000    649.1270      3.8657    132.0542
   558.5000      0.0000    638.6479      3.3960    123.4590
   558.7500      0.0000    621.4949      3.2546    116.8478
   559.0000      0.0000    595.4958      3.4269    113.4638
   559.2500      2.0000    561.0159      3.8357    113.2120
   559.5000     -2.0000    522.8035      4.3592    115.6819
   559.7500      0.0000    490.1799      4.8782    121.3659
   560.0000      0.0000    472.3326      5.3409    131.1892
   560.2500      0.0000    471.2602      5.8078    144.4147
   560.5000      0.0000    482.0186      6.4409    157.5521
   560.7500      0.0000    501.5214      7.4021    166.0092
   561.0000      0.0000    532.1960      8.6913    167.0485
   561.2500      0.0000    574.0524     10.0623    161.4172
   561.5000      0.0000    618.5432     11.1434    152.6320
