~Version Information
VERS.                      2.0: CWLS Log ASCII Standard - VERSION 2.0
WRAP.                       NO: One line per depth step
~Well Information Block
STRT.FT                -3.2500: 
STOP.FT              1637.5000: 
STEP.FT                 0.2500: 
NULL.                -999.2500: 
COMP.          Pioneer Natural Resources: COMPANY
WELL.            Mad Dog 42-31: WELL
FLD.           Purgatorie River: FIELD
LOC.           2064' FNL & 479' FEL--: LOCATION
PROV.                       CO: PROVINCE
CNTY.               Las Animas: COUNTRY
SRVC.                         : SERVICE COMPANY
DATE.          Fri Oct 15 16:13:39 2004: LOG DATE
UWI.          005 071 08195   : UNIQUE WELL ID
~Curve Information Block
DEPT.FT            0 000 00 00: Depth
HVOLTA.V                      : Head Voltage Apparent
GR.GAPI                       : Gamma Ray
CCL.                          : Casing Collar Locator
TT3.usec                      : CBL 3' Travel Time
AMP3.mV                       : CBL 3' Amplitude
~Parameter Information Block
~A  Depth      HVOLTA        GR         CCL         TT3         AMP3    
# ...
  1200.7500     97.3559    118.7443      0.0000    689.6908      4.8631
  1201.0000     97.2425    111.3004      0.0000    697.5787      4.6226
  1201.2500     97.3823    102.5719      0.0000    705.4929      4.5193
  1201.5000     97.2221     94.2306      0.0000    712.1931      4.5548
  1201.7500     97.2257     87.7757      0.0000    717.3975      4.6562
  1202.0000     97.1230     84.5942      0.0000    721.0266      4.7501
  1202.2500     97.1266     85.7964      0.0000    721.8460      4.8085
  1202.5000     97.1779     91.3825      0.0000    718.3628      4.8306
  1202.7500     97.3523     99.7672      0.0000    711.3235      4.8176
  1203.0000     97.1672    108.3752     -2.0000    704.2516      4.7695
  1203.2500     97.3798    114.6381      0.0000    700.9553      4.6937
  1203.5000     97.3391    116.7851      0.0000    702.6757      4.6240
  1203.7500     97.1301    114.5324      0.0000    707.3516      4.6360
  1204.0000     97.1134    109.5033      0.0000    711.1606      4.8119
  1204.2500     97.0513    104.5479      0.0000    711.1003      5.1527
  1204.5000     97.3416    101.8355      0.0000    706.8749      5.5450
  1204.7500     97.2282    101.3794      0.0000    700.9320      5.8502
  1205.0000     97.2221    101.5906      0.0000    696.8608      6.0171
  1205.2500     97.2699    100.9837      0.0000    697.0776      6.0831
  1205.5000     97.1982     98.9257      0.0000    701.1633      6.0996
  1205.7500     97.1708     95.3325      0.0000    706.4125      6.0912
  1206.0000     97.1301     90.7925      0.0000    710.3234      6.0709
  1206.2500     97.2675     87.0319      0.0000    712.2504      6.0551
  1206.5000     97.2221     86.4272      0.0000    712.4311      6.0510
  1206.7500     97.2592     90.6593      0.0000    710.4374      6.0425
  1207.0000     97.7544     99.5950      0.0000    705.6827      6.0009
  1207.2500     97.1996    110.9380      0.0000    698.9297      5.9132
  1207.5000     97.2617    120.9906      0.0000    692.3478      5.7948
  1207.7500     97.3655    126.4840      0.0000    688.3011      5.6752
  1208.0000     97.1505    126.1055      0.0000    688.3093      5.5755
  1208.2500     97.2771    120.4341      0.0000    692.4054      5.5035
  1208.5000     97.1027    110.9163      0.0000    698.9670      5.4671
  1208.7500     97.2532     99.1666      0.0000    705.5572      5.4768
  1209.0000     97.3691     86.7126      0.0000    710.3930      5.5289
  1209.2500     97.2186     74.8486      0.0000    713.1278      5.5937
  1209.5000     97.2389     64.6172      0.0000    714.5355      5.6286
  1209.7500     97.2878     56.9407      0.0000    715.7017      5.6032
  1210.0000     97.1612     52.5920      0.0000    717.2510      5.5158
  1210.2500     97.2507     51.7636      0.0000    718.9125      5.3960
  1210.5000     97.2125     53.6777      0.0000    719.9037      5.2856
  1210.7500     97.4586     56.8548      0.0000    719.8977      5.2092
  1211.0000     97.4276     59.8283      0.0000    719.2543      5.1644
  1211.2500     97.2460     61.5743      0.0000    717.9861      5.1427
  1211.5000     97.3224     61.5339      0.0000    715.0890      5.1485
  1211.7500     97.1612     59.7069      0.0000    709.7045      5.1926
  1212.0000     97.3117     56.8211      0.0000    702.8789      5.2746
  1212.2500     97.1815     54.2719      0.0000    697.4595      5.3802
  1212.5000     97.4204     53.8820      0.0000    695.8091      5.4911
  1212.7500     97.3320     57.5222      0.0000    697.6747      5.5936
  1213.0000     97.2221     66.4318      0.0000    700.5317      5.6805
  1213.2500     97.2425     80.5089      0.0000    702.0307      5.7532
  1213.5000     97.4037     98.1998      0.0000    701.9559      5.8234
  1213.7500     97.2328    117.0420      0.0000    701.7977      5.9142
  1214.0000     97.3905    134.2928      0.0000    702.5247      6.0509
  1214.2500     97.3152    147.4375      0.0000    702.7234      6.2400
  1214.5000     97.3773    154.7639      0.0000    698.2815      6.4521
  1214.7500     97.3691    155.9014      0.0000    683.6681      6.6312
  1215.0000     97.2186    152.0735      0.0000    655.3054      6.7308
  1215.2500     97.3965    145.9231      0.0000    616.7626      6.7476
  1215.5000     97.2114    140.6727      0.0000    581.0353      6.7208
  1215.7500     97.2318    138.6531      0.0000    564.1907      6.6971
  1216.0000     97.2425    140.0677      0.0000    573.4811      6.6945
  1216.2500     97.0955    143.0842      0.0000    601.7903      6.6966
  1216.5000     97.2364    145.0833      0.0000    634.6168      6.6740
  1216.7500     97.2485    143.9227      0.0000    661.5123      6.6065
  1217.0000     97.5171    138.7321      0.0000    680.1727      6.4918
  1217.2500     97.1875    130.3515      0.0000    692.0779      6.3406
  1217.5000     97.3405    120.9309      0.0000    697.7415      6.1692
  1217.7500     97.4108    112.4359      0.0000    696.8236      5.9947
  1218.0000     97.0609    105.3824      0.0000    690.7204      5.8311
  1218.2500     97.0752     99.1707      0.0000    683.1187      5.6875
  1218.5000     97.1362     93.4037      0.0000    677.6921      5.5694
  1218.7500     97.1601     88.5679      0.0000    675.7511      5.4811
  1219.0000     97.3798     85.4567      0.0000    675.9838      5.4215
  1219.2500     97.2186     83.9776      0.0000    676.0946      5.3834
  1219.5000     97.2496     82.5494      0.0000    674.7572      5.3595
  1219.7500     97.3380     78.9798      0.0000    672.3738      5.3474
  1220.0000     97.1911     72.2678      0.0000    670.2205      5.3474
  1220.2500     97.2221     63.5001      0.0000    669.1430      5.3626
  1220.5000     97.3021     54.9180      0.0000    669.0976      5.3990
  1220.7500     97.2985     48.3705      0.0000    669.5998      5.4564
  1221.0000     97.1540     44.5845      0.0000    670.3528      5.5156
  1221.2500     97.1194     43.3119      0.0000    671.6310      5.5483
  1221.5000     97.1444     43.8887      0.0000    674.2816      5.5441
  1221.7500     97.1647     45.9373      0.0000    679.2032      5.5201
  1222.0000     97.1779     49.6336      0.0000    686.3925      5.5028
  1222.2500     97.2471     55.0641      0.0000    694.3320      5.5028
  1222.5000     97.3249     61.4916      0.0000    700.5380      5.5085
  1222.7500     97.3666     67.6348      0.0000    702.9606      5.5019
  1223.0000     97.2974     72.5692      0.0000    701.0958      5.4796
  1223.2500     97.3117     76.0636      0.0000    696.1499      5.4549
  1223.5000     97.4012     78.2619      0.0000    690.2530      5.4406
  1223.7500     97.2232     79.4560      0.0000    685.1044      5.4334
  1224.0000     97.2257     80.1662      0.0000    681.1824      5.4231
  1224.2500     97.2664     81.1031      0.0000    678.4272      5.4104
  1224.5000     97.3117     82.7775      0.0000    677.3725      5.4066
  1224.7500     97.4133     85.0301      0.0000    678.8782      5.4186
  1225.0000     97.3834     86.9406      0.0000    682.6843      5.4418
  1225.2500     97.2532     87.3317      0.0000    686.8342      5.4634
  1225.5000     97.1505     85.6929      0.0000    688.9197      5.4714
  1225.7500     97.0919     82.8319      0.0000    687.7690      5.4619
  1226.0000     97.2806     80.4172      0.0000    683.8911      5.4428
  1226.2500     97.3559     79.6378      0.0000    678.7708      5.4252
  1226.5000     97.2664     80.3933      0.0000    674.0023      5.4115
  1226.7500     97.0681     81.6424      0.0000    670.6704      5.3975
  1227.0000     97.1947     82.1188      0.0000    669.1206      5.3843
  1227.2500     97.2914     80.9517      0.0000    669.2868      5.3830
  1227.5000     97.2735     78.3339      0.0000    671.1796      5.4051
  1227.7500     97.1241     75.4684      0.0000    674.8932      5.4544
  1228.0000     97.2699     73.2966      0.0000    680.1797      5.5259
  1228.2500     97.3320     71.6245      0.0000    686.2245      5.6092
  1228.5000     97.2699     70.0311      0.0000    691.7997      5.6911
