~Version Information
VERS.                      2.0: CWLS Log ASCII Standard - VERSION 2.0
WRAP.                       NO: One line per depth step
~Well Information Block
STRT.FT               870.0000: 
STOP.FT              2517.5000: 
STEP.FT                 0.1000: 
NULL.                -999.2500: 
COMP.          Pioneer Natural Resources: COMPANY
WELL.              Tiaga 23-14: WELL
FLD.           Purgatoire River: FIELD
LOC.           2168' FSL & 2030' FWL: LOCATION
PROV.                 Colorado: PROVINCE
CNTY.               Las Animas: COUNTRY
SRVC.                         : SERVICE COMPANY
DATE.          Sat May 07 09:09:05 2005: LOG DATE
UWI.           05 071 08329 00: UNIQUE WELL ID
~Curve Information Block
DEPT.FT            0 000 00 00: Depth
LTEN.lb                       : Surface Line Tension
DCAL.in                       : CDL Caliper
RHOC.g/cc                     : CDL Density Correction
DPOR.pu                       : CDL Density Porosity
GR.GAPI                       : Gamma Ray
NPOR.pu                       : Neutron Porosity
~Parameter Information Block
~A  Depth       LTEN        DCAL        RHOC        DPOR         GR         NPOR    
# ...
  2502.0000   1290.3550      7.8285      0.1099      0.2429   -999.2500     23.0005
  2502.1000   1290.3550      7.8285      0.1169     -0.6500   -999.2500     23.2311
  2502.2000   1290.3550      7.8285      0.1443     -0.2102   -999.2500     23.1585
  2502.3000   1226.4141      7.8231      0.0946      1.7495   -999.2500     23.0379
  2502.4000   1226.4141      7.8231      0.0300      3.8658   -999.2500     22.5373
  2502.5000   1261.0679      7.8014      0.0907      4.7210   -999.2500     21.7538
  2502.6000   1261.0679      7.8014      0.1013      4.8394   -999.2500     21.5644
  2502.7000   1261.0679      7.8014      0.1047      5.2462   -999.2500     23.7082
  2502.8000   1258.7817      7.8248      0.0665      5.8950   -999.2500     30.6256
  2502.9000   1258.7817      7.8248      0.0251      6.2053   -999.2500     40.8148
  2503.0000   1220.0536      7.8339      0.0622      5.8937   -999.2500     47.9383
  2503.1000   1220.0536      7.8339      0.0791      5.8756   -999.2500     50.4803
  2503.2000   1220.0536      7.8339      0.0253      7.1093   -999.2500     50.9766
  2503.3000   1262.2908      7.8232      0.0205      8.3564   -999.2500     51.0291
  2503.4000   1262.2908      7.8232      0.0369      8.1624   -999.2500     51.0321
  2503.5000   1214.4296      7.8165      0.0583      7.1204   -999.2500   -999.2500
  2503.6000   1214.4296      7.8165      0.1224      6.4372   -999.2500   -999.2500
  2503.7000   1214.4296      7.8165      0.0425      6.1818   -999.2500   -999.2500
  2503.8000   1254.8979      7.8219      0.1379      5.8726   -999.2500   -999.2500
  2503.9000   1254.8979      7.8219      0.0522      5.4924   -999.2500   -999.2500
  2504.0000   1240.3350      7.8210      0.0319      4.5593   -999.2500   -999.2500
  2504.1000   1240.3350      7.8210      0.1071      3.0707   -999.2500   -999.2500
  2504.2000   1240.3350      7.8210      0.1487      2.2733   -999.2500   -999.2500
  2504.3000   1260.0325      7.8239      0.1538      2.6246   -999.2500   -999.2500
  2504.4000   1260.0325      7.8239      0.1175      3.2085   -999.2500   -999.2500
  2504.5000   1221.1984      7.7918      0.1408      3.4913   -999.2500   -999.2500
  2504.6000   1221.1984      7.7918      0.1224      3.7128   -999.2500   -999.2500
  2504.7000   1221.1984      7.7918      0.0342      3.6172   -999.2500   -999.2500
  2504.8000   1246.5190      7.8042      0.1048      3.1837   -999.2500   -999.2500
  2504.9000   1246.5190      7.8042      0.0986      3.1851   -999.2500   -999.2500
  2505.0000   1218.2610      7.8268      0.0928      3.4489   -999.2500   -999.2500
  2505.1000   1218.2610      7.8268      0.1339      3.4211   -999.2500   -999.2500
  2505.2000   1218.2610      7.8268      0.0571      3.3525   -999.2500   -999.2500
  2505.3000   1251.9109      7.8370      0.0648      3.3609   -999.2500   -999.2500
  2505.4000   1251.9109      7.8370      0.1034      3.4581   -999.2500   -999.2500
  2505.5000   1242.9265      7.8416      0.0446      3.7355   -999.2500   -999.2500
  2505.6000   1242.9265      7.8416      0.1058      4.3119   -999.2500   -999.2500
  2505.7000   1242.9265      7.8416      0.0512      5.2589   -999.2500   -999.2500
  2505.8000   1229.6923      7.8413      0.0528      5.8603   -999.2500   -999.2500
  2505.9000   1229.6923      7.8413      0.0327      5.4490   -999.2500   -999.2500
  2506.0000   1297.4464      7.8419      0.1154      4.6800   -999.2500   -999.2500
  2506.1000   1297.4464      7.8419      0.0906      4.7784   -999.2500   -999.2500
  2506.2000   1297.4464      7.8419      0.0827      5.6913   -999.2500   -999.2500
  2506.3000   1235.0468      7.8405      0.0395      6.2455   -999.2500   -999.2500
  2506.4000   1235.0468      7.8405      0.0642      5.5342   -999.2500   -999.2500
  2506.5000   1282.7720      7.8425      0.1059      3.6628   -999.2500   -999.2500
  2506.6000   1282.7720      7.8425      0.1077      1.7110   -999.2500   -999.2500
  2506.7000   1282.7720      7.8425      0.1110      1.1887   -999.2500   -999.2500
  2506.8000   1232.8250      7.8400      0.0776      2.8308   -999.2500   -999.2500
  2506.9000   1232.8250      7.8400      0.0735      5.5195   -999.2500   -999.2500
  2507.0000   1248.9529      7.8233     -0.0103      7.2901   -999.2500   -999.2500
  2507.1000   1248.9529      7.8233      0.0186      7.0960   -999.2500   -999.2500
  2507.2000   1248.9529      7.8233      0.0532      5.4131   -999.2500   -999.2500
  2507.3000   1283.6844      7.8254      0.0659      3.3223   -999.2500   -999.2500
  2507.4000   1283.6844      7.8254      0.1201      1.8670   -999.2500   -999.2500
  2507.5000   1202.2140      7.8227      0.0724      1.4708   -999.2500   -999.2500
  2507.6000   1202.2140      7.8227      0.1138      1.7277   -999.2500   -999.2500
  2507.7000   1202.2140      7.8227      0.1288      2.9397   -999.2500   -999.2500
  2507.8000   1287.9042      7.8336      0.0848      5.1418   -999.2500   -999.2500
  2507.9000   1287.9042      7.8336      0.0661      6.6588   -999.2500   -999.2500
  2508.0000   1234.2789      7.8232      0.0920      6.2257   -999.2500   -999.2500
  2508.1000   1234.2789      7.8232      0.0622      4.6078   -999.2500   -999.2500
  2508.2000   1234.2789      7.8232      0.1228      3.1762   -999.2500   -999.2500
  2508.3000   1251.8638      7.8125      0.1279      2.4081   -999.2500   -999.2500
  2508.4000   1251.8638      7.8125      0.1489      1.9477   -999.2500   -999.2500
  2508.5000   1239.7195      7.7878      0.1994      1.9139   -999.2500   -999.2500
  2508.6000   1239.7195      7.7878      0.1283      2.2499   -999.2500   -999.2500
  2508.7000   1239.7195      7.7878      0.1108      1.7900   -999.2500   -999.2500
  2508.8000   1220.3802      7.7533      0.1801      0.6332   -999.2500   -999.2500
  2508.9000   1220.3802      7.7533      0.1336      0.0636   -999.2500   -999.2500
  2509.0000   1273.7823      7.7666      0.1278      0.2363   -999.2500   -999.2500
  2509.1000   1273.7823      7.7666      0.1277      0.7430   -999.2500   -999.2500
  2509.2000   1273.7823      7.7666      0.1061      1.4389   -999.2500   -999.2500
  2509.3000   1232.6106      7.7998      0.1166      2.1212   -999.2500   -999.2500
  2509.4000   1232.6106      7.7998      0.1354      2.9106   -999.2500   -999.2500
  2509.5000   1209.8604      7.8090      0.0981      3.9121   -999.2500   -999.2500
  2509.6000   1209.8604      7.8090      0.1141      4.8055   -999.2500   -999.2500
  2509.7000   1209.8604      7.8090      0.0776      5.3974   -999.2500   -999.2500
  2509.8000   1274.9387      7.8469      0.0847      5.3929   -999.2500   -999.2500
  2509.9000   1274.9387      7.8469      0.0831      4.4705   -999.2500   -999.2500
  2510.0000   1233.3115      7.8327      0.0767      3.0204   -999.2500   -999.2500
  2510.1000   1233.3115      7.8327      0.1180      1.7664   -999.2500   -999.2500
  2510.2000   1233.3115      7.8327      0.1441      1.2858   -999.2500   -999.2500
  2510.3000   1235.4399      7.8060      0.1601      2.3423   -999.2500   -999.2500
  2510.4000   1235.4399      7.8060      0.1649      5.0709   -999.2500   -999.2500
  2510.5000   1297.1492      7.7225      0.0955      8.1934   -999.2500   -999.2500
  2510.6000   1297.1492      7.7225      0.0701     10.1151   -999.2500   -999.2500
  2510.7000   1297.1492      7.7225      0.0681      9.8231   -999.2500   -999.2500
  2510.8000   1234.1316      7.6844      0.1143      7.3211   -999.2500   -999.2500
  2510.9000   1234.1316      7.6844      0.1802      4.1578   -999.2500   -999.2500
  2511.0000   1241.5518      7.6703      0.1624      1.9256   -999.2500   -999.2500
  2511.1000   1241.5518      7.6703      0.0909      0.4650   -999.2500   -999.2500
  2511.2000   1241.5518      7.6703      0.1802     -0.6884   -999.2500   -999.2500
  2511.3000   1316.6052      7.7566      0.2188     -0.7208   -999.2500   -999.2500
  2511.4000   1316.6052      7.7566      0.1492      0.5814   -999.2500   -999.2500
  2511.5000   1223.2820      7.7651      0.1792      1.9967   -999.2500   -999.2500
