~Version Information
 VERS.                                  2.0 : CWLS LAS VERSION
 WRAP.                                   NO : WRAPING MODE
 SWARE .                 MController 2.5.0E : SOFTWARE VERSION
~Well Information
 WELL.                        Triumph 13 10 : WELL
 COMP.             Evergreen Operating Corp : COMPANY
 FLD.                      Purgatorie River : FIELD
 LOC.                NW/SW Sec 10 T32S R66W : LOCATION
 DATE.                           7/22 23/04 : DATE(S) LOGGED
 SRVC.       Blanco Geological Services LLC : SERVICE COMPANY
 STAT.                                   CO : STATE
 CNTY.                           Las Animas : COUNTY
 CTRY.                                  USA : COUNTRY
 API.                       05 071 08108 00 : API NUMBER
 STRT.FT                             414.00 : START DEPTH
 STOP.FT                            2210.00 : STOP DEPTH
 STEP.FT                               1.00 : DEPTH INCREMENT
 NULL.                                 9999 : NULL VALUE
~Curve information
 DEPTH.FT                                   :
 ROP.MIN/FT                                 :
 GAS.UNITS                                  :
~ASCII Log data
# ...
     1214.00        0.133        869.7 
     1215.00        0.167        875.1 
     1216.00        0.200        898.4 
     1217.00        0.133        918.6 
     1218.00        0.133        930.4 
     1219.00        0.200        919.6 
     1220.00        0.200        901.4 
     1221.00        0.200        875.1 
     1222.00        0.200        832.7 
     1223.00        0.200        782.8 
     1224.00        0.200        765.6 
     1225.00        0.200        725.9 
     1226.00        2.917       2267.3 
     1227.00        0.200       1226.2 
     1228.00        0.267       1223.5 
     1229.00        0.267       1160.8 
     1230.00        0.317       1037.5 
     1231.00        0.267        972.5 
     1232.00        0.267        957.3 
     1233.00        0.233        935.1 
     1234.00        0.200        931.7 
     1235.00        0.233        878.5 
     1236.00        0.267        850.5 
     1237.00        0.167        823.9 
     1238.00        0.200        836.7 
     1239.00        0.133        836.7 
     1240.00        0.167        869.4 
     1241.00        0.200        877.5 
     1242.00        0.167        873.8 
     1243.00        0.167        873.8 
     1244.00        0.233        874.1 
     1245.00        0.167        861.0 
     1246.00        0.183        868.4 
     1247.00        0.167        884.2 
     1248.00        0.200        887.6 
     1249.00        0.200        881.2 
     1250.00        0.267        872.1 
     1251.00        0.200        844.1 
     1252.00        0.200        819.5 
     1253.00        0.233        775.4 
     1254.00        0.200        747.8 
     1255.00        0.200        716.1 
     1256.00        3.150       2888.2 
     1257.00        0.433       1334.7 
     1258.00        0.133       1182.4 
     1259.00        0.167       1152.7 
     1260.00        0.167       1044.3 
     1261.00        0.133       1044.3 
     1262.00        0.167       1036.5 
     1263.00        0.167        997.1 
     1264.00        0.200        977.9 
     1265.00        0.350        955.6 
     1266.00        0.433        920.3 
     1267.00        0.333        928.0 
     1268.00        0.367        927.7 
     1269.00        0.367        919.6 
     1270.00        0.467        894.3 
     1271.00        0.433        841.1 
     1272.00        0.333        814.1 
     1273.00        0.200        833.7 
     1274.00        0.250        840.4 
     1275.00        0.200        854.6 
     1276.00        0.233        861.0 
     1277.00        0.233        865.0 
     1278.00        0.233        871.1 
     1279.00        0.233        871.1 
     1280.00        0.233        861.7 
     1281.00        0.300        822.2 
     1282.00        0.233        830.0 
     1283.00        0.200        827.6 
     1284.00        0.200        801.7 
     1285.00        0.233        766.0 
     1286.00        2.117       1424.6 
     1287.00        0.467       1444.2 
     1288.00        0.200       1351.2 
     1289.00        0.200       1294.2 
     1290.00        0.133       1193.2 
     1291.00        0.133       1155.1 
     1292.00        0.200       1144.0 
     1293.00        0.167       1050.7 
     1294.00        0.167       1033.8 
     1295.00        0.233        963.4 
     1296.00        0.183        944.9 
     1297.00        0.167        928.4 
     1298.00        0.167        925.0 
     1299.00        0.133        918.9 
     1300.00        0.133        914.2 
     1301.00        0.233        908.8 
     1302.00        0.167        908.8 
     1303.00        0.133        912.5 
     1304.00        0.133        906.1 
     1305.00        0.200        882.2 
     1306.00        0.233        872.4 
     1307.00        0.300        874.1 
     1308.00        0.200        877.1 
     1309.00        0.133        879.5 
     1310.00        0.167        872.4 
     1311.00        0.133        830.7 
     1312.00        0.133        830.7 
     1313.00        0.133        773.0 
     1314.00        0.133        741.7 
     1315.00        0.183        719.1 
     1316.00        2.567       1505.2 
     1317.00        0.300       1398.0 
     1318.00        0.267       1312.1 
     1319.00        0.217       1253.1 
     1320.00        0.167       1156.1 
     1321.00        0.167       1154.1 
     1322.00        0.133       1154.1 
     1323.00        0.200       2500.4 
     1324.00        0.167       3346.7 
     1325.00        0.167       4994.9 
     1326.00        0.200       5300.8 
     1327.00        0.167       5625.6 
     1328.00        0.167       5816.6 
     1329.00        0.300       5820.0 
     1330.00        0.367       5822.7 
     1331.00        0.267       5871.6 
     1332.00        0.267       5712.5 
     1333.00        0.233       5461.2 
     1334.00        0.233       5291.1 
     1335.00        0.217       5250.0 
     1336.00        0.233       5324.1 
     1337.00        0.200       5322.7 
     1338.00        0.200       5213.9 
     1339.00        0.200       5055.6 
     1340.00        0.233       4849.0 
     1341.00        0.267       4731.4 
     1342.00        0.233       4541.8 
     1343.00        0.200       4057.3 
     1344.00        0.200       3948.8 
     1345.00        0.167       3996.6 
     1346.00        2.117       6268.8 
     1347.00        0.600       5880.3 
     1348.00        0.267       5233.4 
     1349.00        0.200       4745.3 
     1350.00        0.233       4703.8 
     1351.00        0.200       4521.5 
     1352.00        0.167       4441.7 
     1353.00        0.233       4391.2 
     1354.00        0.233       4342.6 
     1355.00        0.217       4057.3 
     1356.00        0.267       3886.5 
     1357.00        0.200       3773.9 
     1358.00        0.200       3709.9 
     1359.00        0.200       3696.1 
     1360.00        0.167       3684.7 
     1361.00        0.200       3673.2 
     1362.00        0.167       3697.5 
     1363.00        0.167       3734.2 
     1364.00        0.167       3760.5 
     1365.00        0.200       3778.0 
     1366.00        0.167       3774.6 
     1367.00        0.200       3784.0 
     1368.00        0.167       3753.4 
     1369.00        0.200       3700.5 
     1370.00        0.167       3654.3 
     1371.00        0.200       3529.7 
     1372.00        0.200       3375.4 
     1373.00        0.183       3080.2 
     1374.00        0.200       3018.9 
     1375.00        0.200       3155.4 
     1376.00        2.500       5418.4 
     1377.00        0.350       4826.5 
     1378.00        0.333       4303.9 
     1379.00        0.400       3983.8 
     1380.00        0.200       3893.5 
     1381.00        0.300       3878.7 
     1382.00        0.267       3676.6 
     1383.00        0.233       3482.8 
     1384.00        0.167       3471.1 
     1385.00        0.167       3383.8 
     1386.00        0.167       3245.0 
     1387.00        0.200       3174.9 
     1388.00        0.167       3240.6 
     1389.00        0.200       3353.1 
     1390.00        0.167       3349.8 
     1391.00        0.133       3398.3 
     1392.00        0.133       3398.3 
     1393.00        0.217       3639.5 
     1394.00        0.167       3821.8 
     1395.00        0.167       3922.9 
     1396.00        0.133       3870.6 
     1397.00        0.133       3870.6 
     1398.00        0.200       3797.2 
     1399.00        0.200       3744.6 
     1400.00        0.233       3630.7 
     1401.00        0.200       3430.6 
     1402.00        0.200       3245.7 
     1403.00        0.200       3048.2 
     1404.00        0.200       2760.2 
     1405.00        0.167       2800.3 
     1406.00        2.083       5216.3 
     1407.00        0.567       4794.1 
     1408.00        0.367       4013.8 
     1409.00        0.333       3693.4 
     1410.00        0.333       3572.1 
     1411.00        0.333       3505.4 
     1412.00        0.350       3481.2 
     1413.00        0.300       3411.1 
