~Version Information
 VERS.                                  2.0 : CWLS LAS VERSION
 WRAP.                                   NO : WRAPING MODE
 SWARE .                 MController 2.5.0J : SOFTWARE VERSION
~Well Information
 WELL.                         Leier 17-24V : WELL
 COMP.                Petrogulf Corporation : COMPANY
 FLD.                      Purgatoire River : FIELD
 LOC.                SE/NE Sec 17 T33S R67W : LOCATION
 DATE.                             09/21/05 : DATE(S) LOGGED
 SRVC.       BLANCO Geological Services LLC : SERVICE COMPANY
 STAT.                                   CO : STATE
 CNTY.                           Las Animas : COUNTY
 CTRY.                                  USA : COUNTRY
 API.                       05-071-08409-00 : API NUMBER
 STRT.FT                             1.00 : START DEPTH
 STOP.FT                            2455.00 : STOP DEPTH
 STEP.FT                               1.00 : DEPTH INCREMENT
 NULL.                                -9999 : NULL VALUE
~Curve information
 DEPTH.FT                                   :
 ROP.MIN/FT                                 :
 GAS.UNITS                                  :
~ASCII Log data
         1.0     -9999.00         10.7 
         2.0        10.97         10.6 
         3.0         0.35         10.6 
         4.0         0.53          1.3 
         5.0         3.27         12.0 
         6.0         0.33         12.3 
         7.0         0.40         12.8 
         8.0         0.48         12.9 
         9.0         0.33         13.0 
        10.0         0.43         13.3 
        11.0         0.52         13.0 
        12.0         0.33         12.3 
        13.0         0.10         13.1 
        14.0         0.13         12.3 
        15.0         0.27         13.1 
        16.0         0.52         12.3 
        17.0         0.50         12.9 
        18.0         0.87         12.8 
        19.0         0.43         12.8 
        20.0         0.50         12.8 
        21.0         0.25         12.6 
        22.0         0.47         12.6 
        23.0         0.53         13.0 
        24.0         0.47         13.1 
        25.0         6.93         12.9 
        26.0         0.35         11.9 
        27.0         0.43         12.2 
        28.0         0.40         12.0 
        29.0         0.33         12.3 
        30.0         0.30         12.1 
        31.0         0.27         12.2 
        32.0         0.30         12.1 
        33.0         0.33         11.9 
        34.0         0.32         12.0 
        35.0         0.20         11.9 
        36.0         0.20         11.8 
        37.0         0.23         12.1 
        38.0         0.23         12.0 
        39.0         0.27         12.7 
        40.0         0.23         12.9 
        41.0         0.20         12.0 
        42.0         0.23         12.5 
        43.0         0.23         11.8 
        44.0         0.23         69.2 
        45.0         0.22        161.9 
        46.0         0.23        177.0 
        47.0         0.23        153.8 
        48.0         0.23        101.6 
        49.0         0.17         59.3 
        50.0         0.23         40.7 
        51.0         0.23         26.4 
        52.0         0.17         19.1 
        53.0         0.27         15.8 
        54.0         0.27         12.5 
        55.0         0.27         12.6 
        56.0         1.25         13.2 
        57.0         0.20         13.7 
        58.0         0.27         13.6 
        59.0         0.27         13.3 
        60.0         0.27         13.6 
        61.0         0.23         14.2 
        62.0         0.33         13.9 
        63.0         0.43         13.7 
        64.0         0.50         14.0 
        65.0         0.33         14.0 
        66.0         0.35         13.7 
        67.0         0.37         14.0 
        68.0         0.40         14.4 
        69.0         0.40         14.1 
        70.0         0.40         14.4 
        71.0         0.43         14.8 
        72.0         0.37         14.9 
        73.0         0.47         14.9 
        74.0         0.52         15.2 
        75.0         0.47         15.2 
        76.0         0.47         15.6 
        77.0         0.37         15.4 
        78.0         0.27         15.5 
        79.0         0.30         15.6 
        80.0         0.37         15.5 
        81.0         0.37         15.6 
        82.0         0.27         15.9 
        83.0         0.32         15.6 
        84.0         0.37         16.2 
        85.0         0.37         16.1 
        86.0         3.08         17.5 
        87.0         0.33         17.3 
        88.0         0.40         17.3 
        89.0         0.40         17.5 
        90.0         0.37         17.7 
        91.0         0.40         17.8 
        92.0         0.42         17.9 
        93.0         0.37         18.0 
        94.0         0.40         17.8 
        95.0         0.40         18.1 
        96.0         0.43         17.9 
        97.0         0.43         18.2 
        98.0         0.47         18.4 
        99.0         0.48         18.2 
       100.0         0.47         18.4 
       101.0         0.40         18.3 
       102.0         0.33         18.5 
       103.0         0.30         18.5 
       104.0         0.33         18.8 
       105.0         0.20         18.7 
       106.0         0.27         18.8 
       107.0         0.27         18.6 
       108.0         0.32         18.7 
       109.0         0.30         18.9 
       110.0         0.30         18.6 
       111.0         0.30         18.8 
       112.0         0.27         18.4 
       113.0         0.33         18.6 
       114.0         0.30         18.5 
       115.0         0.23         18.7 
       116.0         3.58         19.4 
       117.0         0.27         19.5 
       118.0         0.23         19.3 
       119.0         0.18         18.5 
       120.0         0.23         19.3 
       121.0         0.20         19.2 
       122.0         0.20         19.3 
       123.0         0.17         19.4 
       124.0         0.20         19.7 
       125.0         0.23         19.3 
       126.0         0.20         19.4 
       127.0         0.23         19.6 
       128.0         0.33         19.6 
       129.0         0.30         19.6 
       130.0         0.33         19.8 
       131.0         0.30         19.8 
       132.0         0.32         19.8 
       133.0         0.33         19.8 
       134.0         0.30         19.7 
       135.0         0.27         19.8 
       136.0         0.30         19.8 
       137.0         0.30         19.7 
       138.0         0.27         19.7 
       139.0         0.27         20.0 
       140.0         0.30         19.8 
       141.0         0.27         19.9 
       142.0         0.27         20.3 
       143.0         0.27         20.2 
       144.0         0.28         20.2 
       145.0         0.27         20.0 
       146.0         1.57         19.8 
       147.0         0.23         19.8 
       148.0         0.27         20.0 
       149.0         0.33         20.2 
       150.0         0.27         20.3 
       151.0         0.28         20.2 
       152.0         0.27         20.4 
       153.0         0.27         20.4 
       154.0         0.17         20.2 
       155.0         0.27         20.3 
       156.0         0.30         20.4 
       157.0         0.27         20.5 
       158.0         0.27         20.4 
       159.0         0.30         20.3 
       160.0         0.40         20.2 
       161.0         0.30         20.0 
       162.0         0.30         20.5 
       163.0         0.42         20.3 
       164.0         0.33         20.5 
       165.0         0.30         20.5 
       166.0         0.30         20.4 
       167.0         0.30         20.4 
       168.0         0.27         20.2 
       169.0         0.27         20.1 
       170.0         0.27         20.1 
       171.0         0.20         20.4 
       172.0         0.23         20.4 
       173.0         0.30         20.4 
       174.0         0.28         20.6 
       175.0         0.30         20.6 
       176.0         2.50         20.7 
       177.0         0.30         20.5 
       178.0         0.28         20.2 
       179.0         0.30         20.2 
       180.0         0.27         20.2 
       181.0         0.30         20.3 
       182.0         0.30         20.4 
       183.0         0.40         20.2 
       184.0         0.23         20.2 
       185.0         0.27         20.2 
       186.0         0.30         20.4 
       187.0         0.30         19.7 
       188.0         0.27         20.5 
       189.0         0.32         20.6 
       190.0         0.30         20.5 
       191.0         0.33         20.1 
       192.0         0.30         20.0 
       193.0         0.37         20.0 
       194.0         0.27         20.0 
       195.0         0.27         20.3 
       196.0         0.40         20.2 
       197.0         0.27         19.7 
       198.0         0.30         19.8 
       199.0         0.35         19.8 
       200.0         0.33         19.9 
