~Version Information
VERS.                      2.0: CWLS Log ASCII Standard - VERSION 2.0
WRAP.                       NO: One line per depth step
~Well Information Block
STRT.FT                -8.2500: 
STOP.FT              1175.7500: 
STEP.FT                 0.2500: 
NULL.                -999.2500: 
COMP.          Evergreen Operating Corporation: COMPANY
WELL.             Justin 32-10: WELL
FLD.           Purgatorie River: FIELD
LOC.           2994' FNL & 1449' FEL: LOCATION
PROV.                 Colorado: PROVINCE
CNTY.               Las Animas: COUNTRY
SRVC.                         : SERVICE COMPANY
DATE.          Wed Sep 29 10:00:10 2004: LOG DATE
UWI.           05 071 08053 00: UNIQUE WELL ID
~Curve Information Block
DEPT.FT            0 000 00 00: Depth
GR.GAPI                       : Gamma Ray
CCL.                          : Casing Collar Locator
TT3.usec                      : CBL 3' Travel Time
AMP3.mV                       : CBL 3' Amplitude
~Parameter Information Block
~A  Depth        GR         CCL         TT3         AMP3    
# ...
   226.2500     89.5185      0.0000    654.5485      4.5358
   226.5000     88.0125      0.0000    658.4133      4.4859
   226.7500     88.2250      0.0000    670.8472      4.4787
   227.0000     89.4324      0.0000    697.8389      4.5299
   227.2500     90.4037      0.0000    737.5845      4.6364
   227.5000     90.3532      0.0000    779.8607      4.7816
   227.7500     88.9559      0.0000    812.3593      4.9417
   228.0000     86.0560      0.0000    829.0636      5.0925
   228.2500     81.6836      0.0000    833.5377      5.2169
   228.5000     76.0485      0.0000    834.8825      5.3077
   228.7500     69.4724      0.0000    840.1972      5.3659
   229.0000     62.6221      0.0000    849.6773      5.3986
   229.2500     56.6373      0.0000    857.8063      5.4161
   229.5000     52.5272      0.0000    858.6813      5.4234
   229.7500     50.3525      0.0000    850.7926      5.4179
   230.0000     49.2398      0.0000    838.1220      5.3967
   230.2500     48.2467      0.0000    827.4180      5.3643
   230.5000     47.0618      0.0000    823.6992      5.3299
   230.7500     45.8858      0.0000    827.4904      5.3017
   231.0000     44.9986      0.0000    835.6888      5.2842
   231.2500     44.7326      0.0000    844.3348      5.2760
   231.5000     45.5983      0.0000    850.5305      5.2661
   231.7500     48.0271      0.0000    852.9548      5.2376
   232.0000     51.9500      0.0000    851.7552      5.1854
   232.2500     56.7787      0.0000    848.2456      5.1293
   232.5000     61.7283      0.0000    844.2256      5.1033
   232.7500     66.0558      0.0000    841.0866      5.1310
   233.0000     69.2325      0.0000    839.2818      5.2108
   233.2500     71.1192      0.0000    838.4919      5.3211
   233.5000     71.8419      0.0000    838.0750      5.4319
   233.7500     71.5304      0.0000    837.3501      5.5138
   234.0000     70.5423      0.0000    835.8391      5.5458
   234.2500     69.8147      0.0000    833.7020      5.5242
   234.5000     70.3997      0.0000    832.0955      5.4643
   234.7500     72.4940      0.0000    832.6606      5.3935
   235.0000     75.2318      0.0000    836.0500      5.3395
   235.2500     77.4827      0.0000    840.9648      5.3194
   235.5000     78.7536      0.0000    845.2299      5.3373
   235.7500     79.3316      0.0000    848.1661      5.3883
   236.0000     79.5033      0.0000    851.5705      5.4649
   236.2500     78.7756      0.0000    857.9039      5.5565
   236.5000     76.3651      0.0000    867.3337      5.6457
   236.7500     72.5144      0.0000    876.7244      5.7139
   237.0000     68.6566      0.0000    881.9542      5.7549
   237.2500     66.0499      0.0000    881.5887      5.7827
   237.5000     64.8421      0.0000    878.0798      5.8197
   237.7500     64.6773      0.0000    874.9213      5.8775
   238.0000     65.5742      0.0000    873.0112      5.9470
   238.2500     67.7199      0.0000    870.8447      6.0058
   238.5000     70.7602      0.0000    868.0095      6.0321
   238.7500     73.8693      0.0000    866.4513      6.0150
   239.0000     76.6684      0.0000    867.4818      5.9551
   239.2500     79.7292      0.0000    869.1497      5.8626
   239.5000     83.7736      0.0000    867.8082      5.7556
   239.7500     88.3682      0.0000    861.2712      5.6544
   240.0000     91.8622      0.0000    849.7460      5.5684
   240.2500     92.7586      0.0000    835.2391      5.4882
   240.5000     90.7421      0.0000    820.9399      5.3924
   240.7500     86.3959      0.0000    809.2347      5.2626
   241.0000     80.5608      0.0000    798.3824      5.0939
   241.2500     74.2308      0.0000    782.8387      4.9015
   241.5000     68.6174      0.0000    759.7338      4.7193
   241.7500     64.8299      0.0000    733.9117      4.5843
   242.0000     63.3508      0.0000    712.4927      4.5139
   242.2500     63.8983      0.0000    694.4471      4.4974
   242.5000     65.7556      0.0000    670.6206      4.5093
   242.7500     68.0967      0.0000    635.6349      4.5292
   243.0000     70.1669      0.0000    595.2842      4.5472
   243.2500     71.5767      0.0000    560.4853      4.5592
   243.5000     72.6384      0.0000    537.9158      4.5634
   243.7500     74.2283      0.0000    528.1222      4.5628
   244.0000     77.0102      0.0000    529.9046      4.5644
   244.2500     80.6081      0.0000    543.8855      4.5762
   244.5000     83.5064      0.0000    571.5798      4.6028
   244.7500     83.8638      0.0000    611.7245      4.6411
   245.0000     80.7295      0.0000    658.4268      4.6753
   245.2500     74.8170      0.0000    702.7528      4.6739
   245.5000     68.1620      0.0000    735.3945      4.6010
   245.7500     62.9213      0.0000    750.3508      4.4466
   246.0000     60.3455      0.0000    751.2413      4.2498
   246.2500     60.6245      0.0000    754.2194      4.0669
   246.5000     63.2986      0.0000    777.9513      3.9026
   246.7500     67.5534      0.0000    825.9896      3.7036
   247.0000     72.2400      0.0000    881.2831      3.4446
   247.2500     75.9845      0.0000    922.8898      3.1846
   247.5000     77.6414      0.0000    946.8255      3.0112
   247.7500     76.9548      2.5021    965.6611      2.9633
   248.0000     74.8842      2.2293    988.0954      3.0264
   248.2500     72.9684      0.0000   1005.2054      3.1780
   248.5000     72.0289      0.0000   1000.1332      3.4155
   248.7500     71.5911      0.0000    968.0033      3.7428
   249.0000     70.7555      0.0000    923.3624      4.1396
   249.2500     69.3987      0.0000    889.0154      4.5564
   249.5000     68.4016      0.0000    878.1758      4.9494
   249.7500     68.9323      0.0000    885.0365      5.3002
   250.0000     71.3988      0.0000    890.4615      5.5914
   250.2500     74.7649      0.0000    878.1014      5.7918
   250.5000     77.2038      0.0000    848.4962      5.8845
   250.7500     77.9478      0.0000    819.3844      5.8871
   251.0000     78.2112      0.0000    811.4394      5.8343
   251.2500     79.7321      0.0000    832.7286      5.7516
   251.5000     82.7435      0.0000    874.7448      5.6517
   251.7500     85.9646      0.0000    920.7894      5.5456
   252.0000     88.2065      0.0000    957.3032      5.4441
   252.2500     89.2315      0.0000    980.6937      5.3508
   252.5000     89.2351      0.0000    996.1466      5.2618
   252.7500     88.2312      0.0000   1009.1165      5.1774
   253.0000     86.0748      0.0000   1016.6781      5.1084
   253.2500     82.8006      0.0000   1010.1125      5.0656
   253.5000     78.9293      0.0000    988.2378      5.0473
   253.7500     75.4252      0.0000    962.1974      5.0413
   254.0000     73.1654      0.0000    941.2764      5.0405
   254.2500     72.3687      0.0000    920.3828      5.0505
   254.5000     72.4742      0.0000    889.9763      5.0825
   254.7500     72.4517      0.0000    853.4594      5.1403
   255.0000     71.4595      0.0000    826.6452      5.2159
   255.2500     69.5951      0.0000    823.3256      5.2970
   255.5000     67.9696      0.0000    847.4278      5.3751
   255.7500     67.7292      0.0000    896.1337      5.4473
   256.0000     69.0423      0.0000    962.3559      5.5119
   256.2500     71.1365      0.0000   1030.8246      5.5707
   256.5000     72.9880      0.0000   1077.0811      5.6313
   256.7500     73.7713      0.0000   1081.3710      5.7044
   257.0000     73.1100      0.0000   1047.4579      5.7941
   257.2500     71.3893      0.0000   1001.8321      5.8929
   257.5000     69.5700      0.0000    970.7373      5.9858
   257.7500     68.2728      0.0000    960.4254      6.0637
   258.0000     67.2159      0.0000    957.7205      6.1362
   258.2500     65.9668      0.0000    944.6045      6.2337
   258.5000     65.0718      0.0000    913.5246      6.3906
   258.7500     65.7856      0.0000    872.4753      6.6148
   259.0000     68.4187      0.0000    836.7195      6.8635
   259.2500     71.4836      0.0000    817.1202      7.0554
   259.5000     73.0358      0.0000    816.6260      7.1229
