~Version Information
VERS.                      2.0: CWLS Log ASCII Standard - VERSION 2.0
WRAP.                       NO: One line per depth step
~Well Information Block
STRT.FT               -14.5000: 
STOP.FT              2676.5000: 
STEP.FT                 0.1000: 
NULL.                -999.2500: 
COMP.          Petrogulf Corporation: COMPANY
WELL.          Latiluppe 8-13V: WELL
FLD.           Purgatorie River: FIELD
LOC.           1069' FWL & 1647' FSL: LOCATION
CNTY.               Las Animas: COUNTY
SRVC.                         : SERVICE COMPANY
DATE.          Tue Nov 18 16:12:50 2003: LOG DATE
UWI.                          : UNIQUE WELL ID
STAT.                 Colorado: STATE
~Curve Information Block
DEPT.FT            0 000 00 00: Depth
CCL.                          : Casing Collar Locator
TT3.usec                      : CBL 3' Travel Time
AMP3.mV                       : CBL 3' Amplitude
GR.GAPI                       : Gamma Ray
~Parameter Information Block
~A  Depth       CCL         TT3         AMP3         GR     
# ...
  1231.7000      0.0000    774.4401      4.2387    154.1558
  1231.8000      0.0000    774.2111      4.3326    146.5447
  1231.9000      0.0000    774.2111      4.3326    146.5447
  1232.0000      0.0000    774.9213      4.4801    138.7640
  1232.1000      0.0000    774.9213      4.4801    138.7640
  1232.2000      0.0000    774.9213      4.4801    138.7640
  1232.3000      0.0000    777.0067      4.6457    133.9019
  1232.4000      0.0000    777.0067      4.6457    133.9019
  1232.5000      0.0000    780.7670      4.7815    134.3201
  1232.6000      0.0000    780.7670      4.7815    134.3201
  1232.7000      0.0000    780.7670      4.7815    134.3201
  1232.8000      0.0000    785.7579      4.8490    140.0446
  1232.9000      0.0000    785.7579      4.8490    140.0446
  1233.0000      0.0000    790.9388      4.8493    148.5178
  1233.1000      0.0000    790.9388      4.8493    148.5178
  1233.2000      0.0000    790.9388      4.8493    148.5178
  1233.3000      0.0000    796.0863      4.8240    156.0446
  1233.4000      0.0000    796.0863      4.8240    156.0446
  1233.5000      0.0000    802.2234      4.8165    159.7108
  1233.6000      0.0000    802.2234      4.8165    159.7108
  1233.7000      0.0000    802.2234      4.8165    159.7108
  1233.8000      0.0000    809.4288      4.8242    158.4072
  1233.9000      0.0000    809.4288      4.8242    158.4072
  1234.0000      0.0000    814.7198      4.7931    152.7904
  1234.1000      0.0000    814.7198      4.7931    152.7904
  1234.2000      0.0000    814.7198      4.7931    152.7904
  1234.3000      0.0000    814.1573      4.6745    144.8646
  1234.4000      0.0000    814.1573      4.6745    144.8646
  1234.5000      0.0000    807.5099      4.4822    137.2244
  1234.6000      0.0000    807.5099      4.4822    137.2244
  1234.7000      0.0000    807.5099      4.4822    137.2244
  1234.8000      0.0000    799.3752      4.2923    131.7447
  1234.9000      0.0000    799.3752      4.2923    131.7447
  1235.0000      0.0000    795.2103      4.1991    128.7447
  1235.1000      0.0000    795.2103      4.1991    128.7447
  1235.2000      0.0000    795.2103      4.1991    128.7447
  1235.3000      0.0000    796.9031      4.2510    127.6153
  1235.4000      0.0000    796.9031      4.2510    127.6153
  1235.5000      0.0000    801.9501      4.4073    127.9636
  1235.6000      0.0000    801.9501      4.4073    127.9636
  1235.7000      0.0000    801.9501      4.4073    127.9636
  1235.8000      0.0000    806.1718      4.5662    129.7446
  1235.9000      0.0000    806.1718      4.5662    129.7446
  1236.0000      0.0000    807.1319      4.6345    132.4628
  1236.1000      0.0000    807.1319      4.6345    132.4628
  1236.2000      0.0000    807.1319      4.6345    132.4628
  1236.3000      0.0000    805.3378      4.5559    134.8205
  1236.4000      0.0000    805.3378      4.5559    134.8205
  1236.5000      0.0000    802.8765      4.3136    135.6814
  1236.6000      0.0000    802.8765      4.3136    135.6814
  1236.7000      0.0000    802.8765      4.3136    135.6814
  1236.8000      0.0000    801.7303      3.9497    135.4408
  1236.9000      0.0000    801.7303      3.9497    135.4408
  1237.0000      0.0000    803.5045      3.5554    135.6868
  1237.1000      0.0000    803.5045      3.5554    135.6868
  1237.2000      0.0000    803.5045      3.5554    135.6868
  1237.3000      0.0000    810.0306      3.2132    137.0278
  1237.4000      0.0000    810.0306      3.2132    137.0278
  1237.5000      0.0000    823.3691      2.9534    137.9191
  1237.6000      0.0000    823.3691      2.9534    137.9191
  1237.7000      0.0000    823.3691      2.9534    137.9191
  1237.8000      0.0000    844.8564      2.7583    136.0392
  1237.9000      0.0000    844.8564      2.7583    136.0392
  1238.0000      0.0000    873.5072      2.5932    130.2107
  1238.1000      0.0000    873.5072      2.5932    130.2107
  1238.2000      0.0000    873.5072      2.5932    130.2107
  1238.3000      0.0000    904.4734      2.4448    120.8036
  1238.4000      0.0000    904.4734      2.4448    120.8036
  1238.5000      0.0000    928.8211      2.3333    109.0311
  1238.6000      0.0000    928.8211      2.3333    109.0311
  1238.7000      0.0000    928.8211      2.3333    109.0311
  1238.8000      0.0000    936.5171      2.2741     96.3890
  1238.9000      0.0000    936.5171      2.2741     96.3890
  1239.0000      0.0000    922.6188      2.2446     84.5579
  1239.1000      0.0000    922.6188      2.2446     84.5579
  1239.2000      0.0000    922.6188      2.2446     84.5579
  1239.3000      0.0000    892.4032      2.2070     75.3506
  1239.4000      0.0000    892.4032      2.2070     75.3506
  1239.5000      0.0000    859.6254      2.1431     70.2866
  1239.6000      0.0000    859.6254      2.1431     70.2866
  1239.7000      0.0000    859.6254      2.1431     70.2866
  1239.8000      0.0000    837.5601      2.0540     70.0890
  1239.9000      0.0000    837.5601      2.0540     70.0890
  1240.0000      0.0000    830.3447      1.9517     74.6705
  1240.1000      0.0000    830.3447      1.9517     74.6705
  1240.2000      0.0000    830.3447      1.9517     74.6705
  1240.3000      0.0000    832.4426      1.8716     83.2789
  1240.4000      0.0000    832.4426      1.8716     83.2789
  1240.5000      0.0000    835.3967      1.8719     94.3252
  1240.6000      0.0000    835.3967      1.8719     94.3252
  1240.7000      0.0000    835.3967      1.8719     94.3252
  1240.8000      0.0000    834.2435      1.9965    105.6536
  1240.9000      0.0000    834.2435      1.9965    105.6536
  1241.0000      0.0000    828.6572      2.2420    115.7779
  1241.1000      0.0000    828.6572      2.2420    115.7779
  1241.2000      0.0000    828.6572      2.2420    115.7779
  1241.3000      0.0000    820.6680      2.5767    124.8394
  1241.4000      0.0000    820.6680      2.5767    124.8394
  1241.5000      0.0000    812.6265      2.9881    133.8791
  1241.6000      0.0000    812.6265      2.9881    133.8791
  1241.7000      0.0000    812.6265      2.9881    133.8791
  1241.8000      0.0000    806.3351      3.4884    143.0653
  1241.9000      0.0000    806.3351      3.4884    143.0653
  1242.0000      0.0000    802.5161      4.0609    150.9035
  1242.1000      0.0000    802.5161      4.0609    150.9035
  1242.2000      0.0000    802.5161      4.0609    150.9035
  1242.3000      0.0000    800.7184      4.6246    155.2618
  1242.4000      0.0000    800.7184      4.6246    155.2618
  1242.5000      0.0000    799.9355      5.0739    155.0937
  1242.6000      0.0000    799.9355      5.0739    155.0937
  1242.7000      0.0000    799.9355      5.0739    155.0937
  1242.8000      0.0000    799.4058      5.3410    151.2469
  1242.9000      0.0000    799.4058      5.3410    151.2469
  1243.0000      0.0000    798.9108      5.4097    145.7881
  1243.1000      0.0000    798.9108      5.4097    145.7881
  1243.2000      0.0000    798.9108      5.4097    145.7881
  1243.3000      0.0000    798.5782      5.3051    140.6281
  1243.4000      0.0000    798.5782      5.3051    140.6281
  1243.5000      0.0000    798.7103      5.0942    136.7760
  1243.6000      0.0000    798.7103      5.0942    136.7760
  1243.7000      0.0000    798.7103      5.0942    136.7760
  1243.8000      0.0000    799.8997      4.8702    134.5809
  1243.9000      0.0000    799.8997      4.8702    134.5809
  1244.0000      0.0000    803.3704      4.7057    134.1011
  1244.1000      0.0000    803.3704      4.7057    134.1011
  1244.2000      0.0000    803.3704      4.7057    134.1011
  1244.3000      0.0000    810.7035      4.6307    135.0233
  1244.4000      0.0000    810.7035      4.6307    135.0233
  1244.5000      0.0000    822.1672      4.6557    136.6838
  1244.6000      0.0000    822.1672      4.6557    136.6838
  1244.7000      0.0000    822.1672      4.6557    136.6838
  1244.8000      0.0000    834.9605      4.7765    138.5169
  1244.9000      0.0000    834.9605      4.7765    138.5169
  1245.0000      0.0000    844.3419      4.9422    140.1582
