~Version Information
VERS.                      2.0: CWLS Log ASCII Standard - VERSION 2.0
WRAP.                       NO: One line per depth step
~Well Information Block
STRT.FT               260.0000: 
STOP.FT              1199.2000: 
STEP.FT                 0.1000: 
NULL.                -999.2500: 
COMP.          Evergreen Operating Corporation: COMPANY
WELL.             Justin 32-10: WELL
FLD.           Purgatorie River: FIELD
LOC.           2994' FNL & 1449' FEL: LOCATION
PROV.                 Colorado: PROVINCE
CNTY.               Las Animas: COUNTRY
SRVC.                         : SERVICE COMPANY
DATE.          Mon Aug 30 07:14:35 2004: LOG DATE
UWI.           05 071 08053 00: UNIQUE WELL ID
~Curve Information Block
DEPT.FT            0 000 00 00: Depth
LTEN.lb                       : Surface Line Tension
DCAL.in                       : CDL Caliper
RHOB.g/cc                     : CDL Bulk Density
RHOC.g/cc                     : CDL Density Correction
DPOR.pu                       : CDL Density Porosity
GR.GAPI                       : Gamma Ray
NPOR.pu                       : Neutron Porosity
~Parameter Information Block
~A  Depth       LTEN        DCAL        RHOB        RHOC        DPOR         GR         NPOR    
# ...
  1192.4000    920.1680      7.4804      2.5195      0.1042      7.9094   -999.2500   -999.2500
  1192.5000   1028.2910      7.4733      2.4928      0.1068      9.5260   -999.2500   -999.2500
  1192.6000   1028.2910      7.4733      2.4719      0.0832     10.7965   -999.2500   -999.2500
  1192.7000   1028.2910      7.4733      2.4626      0.0921     11.3581   -999.2500   -999.2500
  1192.8000   1024.8081      7.4744      2.4635      0.0916     11.3013   -999.2500   -999.2500
  1192.9000   1024.8081      7.4744      2.4660      0.0969     11.1509   -999.2500   -999.2500
  1193.0000    951.0211      7.4739      2.4623      0.1001     11.3738   -999.2500   -999.2500
  1193.1000    951.0211      7.4739      2.4534      0.1036     11.9122   -999.2500   -999.2500
  1193.2000    951.0211      7.4739      2.4453      0.0549     12.4048   -999.2500   -999.2500
  1193.3000    936.1389      7.4759      2.4405      0.0575     12.6987   -999.2500   -999.2500
  1193.4000    936.1389      7.4759      2.4407      0.0422     12.6848   -999.2500   -999.2500
  1193.5000   1026.1833      7.4727      2.4521      0.0553     11.9930   -999.2500   -999.2500
  1193.6000   1026.1833      7.4727      2.4662      0.1107     11.1417   -999.2500   -999.2500
  1193.7000   1026.1833      7.4727      2.4622      0.1273     11.3811   -999.2500   -999.2500
  1193.8000    986.8959      7.4733      2.4413      0.0308     12.6511   -999.2500   -999.2500
  1193.9000    986.8959      7.4733      2.4234      0.0682     13.7337   -999.2500   -999.2500
  1194.0000    969.1793      7.4738      2.4153      0.0521     14.2263   -999.2500   -999.2500
  1194.1000    969.1793      7.4738      2.4128      0.0462     14.3731   -999.2500   -999.2500
  1194.2000    969.1793      7.4738      2.4160      0.0581     14.1813   -999.2500   -999.2500
  1194.3000    958.9197      7.4730      2.4268      0.0552     13.5287   -999.2500   -999.2500
  1194.4000    958.9197      7.4730      2.4439      0.0646     12.4901   -999.2500   -999.2500
  1194.5000    978.2171      7.4724      2.4626      0.0866     11.3549   -999.2500   -999.2500
  1194.6000    978.2171      7.4724      2.4818      0.0763     10.1932   -999.2500   -999.2500
  1194.7000    978.2171      7.4724      2.5013      0.1156      9.0106   -999.2500   -999.2500
  1194.8000    970.0032      7.4710      2.5148      0.1065      8.1935   -999.2500   -999.2500
  1194.9000    970.0032      7.4710      2.5121      0.1276      8.3564   -999.2500   -999.2500
  1195.0000    962.5217      7.4706      2.4880      0.1163      9.8170   -999.2500   -999.2500
  1195.1000    962.5217      7.4706      2.4557      0.0812     11.7747   -999.2500   -999.2500
  1195.2000    962.5217      7.4706      2.4406      0.0694     12.6917   -999.2500   -999.2500
  1195.3000    967.1563      7.4602      2.4523      0.0728     11.9818   -999.2500   -999.2500
  1195.4000    967.1563      7.4602      2.4724      0.1131     10.7666   -999.2500   -999.2500
  1195.5000    966.1677      7.4724      2.4802      0.0873     10.2890   -999.2500   -999.2500
  1195.6000    966.1677      7.4724      2.4753      0.1321     10.5873   -999.2500   -999.2500
  1195.7000    966.1677      7.4724      2.4680      0.0893     11.0281   -999.2500   -999.2500
  1195.8000    962.9016      7.4737      2.4718      0.0698     10.7973   -999.2500   -999.2500
  1195.9000    962.9016      7.4737      2.4844      0.0999     10.0344   -999.2500   -999.2500
  1196.0000    970.8336      7.4715      2.4897      0.0806      9.7132   -999.2500   -999.2500
  1196.1000    970.8336      7.4715      2.4842      0.0792     10.0468   -999.2500   -999.2500
  1196.2000    970.8336      7.4715      2.4795      0.0554     10.3328   -999.2500   -999.2500
  1196.3000    955.2850      7.4665      2.5010      0.0818      9.0291   -999.2500   -999.2500
  1196.4000    955.2850      7.4665      2.5851      0.0897      3.9312   -999.2500   -999.2500
  1196.5000    953.4884      7.4195      2.6219      0.0939      1.7044   -999.2500   -999.2500
  1196.6000    953.4884      7.4195      2.2019      0.5604     27.1569   -999.2500   -999.2500
  1196.7000    953.4884      7.4195      1.2543      0.0000     84.5865   -999.2500   -999.2500
  1196.8000    948.5262      6.6003      0.4262      0.0000    134.7751   -999.2500   -999.2500
  1196.9000    948.5262      6.6003      0.0810   -999.2500    155.6952   -999.2500   -999.2500
  1197.0000    948.0059      0.8707      0.0084   -999.2500    160.0995   -999.2500   -999.2500
  1197.1000    948.0059      0.8707      0.0005   -999.2500    160.5785   -999.2500   -999.2500
  1197.2000    948.0059      0.8707      0.0000   -999.2500    160.6061   -999.2500   -999.2500
  1197.3000    977.8639      0.0960      0.0000   -999.2500    160.6061   -999.2500   -999.2500
  1197.4000    977.8639      0.0960   -999.2500   -999.2500   -999.2500   -999.2500   -999.2500
  1197.5000    977.1249   -999.2500   -999.2500   -999.2500   -999.2500   -999.2500   -999.2500
  1197.6000    977.1249   -999.2500   -999.2500   -999.2500   -999.2500   -999.2500   -999.2500
  1197.7000    977.1249   -999.2500   -999.2500   -999.2500   -999.2500   -999.2500   -999.2500
  1197.8000    939.9398   -999.2500   -999.2500   -999.2500   -999.2500   -999.2500   -999.2500
  1197.9000    939.9398   -999.2500   -999.2500   -999.2500   -999.2500   -999.2500   -999.2500
  1198.0000    957.9767   -999.2500   -999.2500   -999.2500   -999.2500   -999.2500   -999.2500
  1198.1000    957.9767   -999.2500   -999.2500   -999.2500   -999.2500   -999.2500   -999.2500
  1198.2000    957.9767   -999.2500   -999.2500   -999.2500   -999.2500   -999.2500   -999.2500
  1198.3000    976.4260   -999.2500   -999.2500   -999.2500   -999.2500   -999.2500   -999.2500
  1198.4000    976.4260   -999.2500   -999.2500   -999.2500   -999.2500   -999.2500   -999.2500
  1198.5000    936.4028   -999.2500   -999.2500   -999.2500   -999.2500   -999.2500   -999.2500
  1198.6000    936.4028   -999.2500   -999.2500   -999.2500   -999.2500   -999.2500   -999.2500
  1198.7000    936.4028   -999.2500   -999.2500   -999.2500   -999.2500   -999.2500   -999.2500
  1198.8000    818.7059   -999.2500   -999.2500   -999.2500   -999.2500   -999.2500   -999.2500
  1198.9000    818.7059   -999.2500   -999.2500   -999.2500   -999.2500   -999.2500   -999.2500
  1199.0000     97.5673   -999.2500   -999.2500   -999.2500   -999.2500   -999.2500   -999.2500
  1199.1000     97.5673   -999.2500   -999.2500   -999.2500   -999.2500   -999.2500   -999.2500
  1199.2000     97.5673   -999.2500   -999.2500   -999.2500   -999.2500   -999.2500   -999.2500
