~Version Information
VERS.                      2.0: CWLS Log ASCII Standard - VERSION 2.0
WRAP.                       NO: One line per depth step
~Well Information Block
STRT.FT               360.0000: 
STOP.FT              1622.7000: 
STEP.FT                 0.1000: 
NULL.                -999.2500: 
COMP.          Pioneer Natural Resources: COMPANY
WELL.                Eric 42-9: WELL
FLD.           Purgatoire River: FIELD
LOC.           2050' FNL & 850' FEL: LOCATION
PROV.                 Colorado: PROVINCE
CNTY.               Las Animas: COUNTRY
SRVC.                Patterson: SERVICE COMPANY
DATE.          Mon Nov 01 08:19:51 2004: LOG DATE
UWI.           05 071 07999 00: UNIQUE WELL ID
~Curve Information Block
DEPT.FT            0 000 00 00: Depth
DCAL.in                       : CDL Caliper
RHOB.g/cc                     : CDL Bulk Density
RHOC.g/cc                     : CDL Density Correction
DPOR.pu                       : CDL Density Porosity
NPOR.pu                       : Neutron Porosity
GR.GAPI                       : Gamma Ray
~Parameter Information Block
~A  Depth       DCAL        RHOB        RHOC        DPOR        NPOR         GR     
# ...
  1588.8000      7.8785      2.6014      0.0196      2.9446      8.4385     85.1582
  1588.9000      7.8785      2.6030      0.0077      2.8510      8.8242     81.0092
  1589.0000      7.8694      2.6108      0.0268      2.3734      9.3210     81.8068
  1589.1000      7.8694      2.6033      0.0203      2.8311      9.6668     83.3009
  1589.2000      7.8694      2.5793     -0.0285      4.2861     10.1284     85.6048
  1589.3000      7.8626      2.5621      0.0158      5.3249     10.7534     90.4799
  1589.4000      7.8626      2.5604      0.0049      5.4320     11.2384     95.8574
  1589.5000      7.8594      2.5594      0.0533      5.4933     11.6756     99.7615
  1589.6000      7.8594      2.5545     -0.0173      5.7852     12.5247    106.1198
  1589.7000      7.8594      2.5584      0.0543      5.5527     13.5614    117.5246
  1589.8000      7.8592      2.5670      0.0177      5.0283     14.0480    127.3981
  1589.9000      7.8592      2.5622      0.0604      5.3208     13.9370    127.5200
  1590.0000      7.8631      2.5443      0.0002      6.4063     13.9805    121.8505
  1590.1000      7.8631      2.5364      0.0076      6.8879     14.7694    121.1767
  1590.2000      7.8631      2.5477      0.0457      6.1988     16.0174    124.0900
  1590.3000      7.8653      2.5661      0.0539      5.0844     16.8901    121.9792
  1590.4000      7.8653      2.5771      0.0658      4.4198     17.2102    108.9423
  1590.5000      7.8635      2.5688      0.0733      4.9200     17.6564     79.1232
  1590.6000      7.8635      2.5494      0.0369      6.0977     18.4087     40.1858
  1590.7000      7.8635      2.5433      0.0602      6.4685     18.9407     12.6687
  1590.8000      7.8620      2.5485      0.0887      6.1532     18.9284      2.3039
  1590.9000      7.8620      2.5411      0.0693      6.5977     18.4951      0.2317
  1591.0000      7.8623      2.5235     -0.0030      7.6684     17.8518      0.0122
  1591.1000      7.8623      2.5210      0.0058      7.8188     17.4557      0.0000
  1591.2000      7.8623      2.5364      0.0372      6.8862     17.6632   -999.2500
  1591.3000      7.8642      2.5450      0.0472      6.3626     18.3377   -999.2500
  1591.4000      7.8642      2.5366      0.0515      6.8722     18.8251   -999.2500
  1591.5000      7.8657      2.5325      0.0049      7.1208     18.3850   -999.2500
  1591.6000      7.8657      2.5538      0.0428      5.8314     17.6393   -999.2500
  1591.7000      7.8657      2.5864      0.0770      3.8529     17.8061   -999.2500
  1591.8000      7.8652      2.5968      0.0746      3.2244     18.4827   -999.2500
  1591.9000      7.8652      2.5764      0.0097      4.4603     18.4035   -999.2500
  1592.0000      7.8631      2.5495      0.0265      6.0915     17.6725   -999.2500
  1592.1000      7.8631      2.5426      0.0323      6.5112     17.3145   -999.2500
  1592.2000      7.8631      2.5619      0.0359      5.3384     17.4264   -999.2500
  1592.3000      7.8619      2.5882      0.0794      3.7425     17.4527   -999.2500
  1592.4000      7.8619      2.5991      0.0713      3.0878     17.3779   -999.2500
  1592.5000      7.8614      2.5988      0.0305      3.1002     17.5123   -999.2500
  1592.6000      7.8614      2.6008      0.0220      2.9832     17.7965   -999.2500
  1592.7000      7.8614      2.5946      0.0663      3.3572     17.8386   -999.2500
  1592.8000      7.8593      2.5697      0.0143      4.8692     17.4892   -999.2500
  1592.9000      7.8593      2.5437     -0.0192      6.4403     17.1597   -999.2500
  1593.0000      7.8513      2.5315      0.0347      7.1827     16.6568   -999.2500
  1593.1000      7.8513      2.5275      0.0135      7.4270     15.2826   -999.2500
  1593.2000      7.8513      2.5340     -0.0121      7.0307     13.6727   -999.2500
  1593.3000      7.8358      2.5517      0.0567      5.9564     12.9478   -999.2500
  1593.4000      7.8358      2.5638      0.0766      5.2263     13.2007   -999.2500
  1593.5000      7.8218      2.5601      0.0520      5.4508     13.7699   -999.2500
  1593.6000      7.8218      2.5484      0.0405      6.1554     14.1574   -999.2500
  1593.7000      7.8218      2.5389      0.0091      6.7348     14.5853   -999.2500
  1593.8000      7.8111      2.5312      0.0390      7.2010     15.3217   -999.2500
  1593.9000      7.8111      2.5207      0.0437      7.8336     16.0248   -999.2500
  1594.0000      7.8042      2.5151      0.0274      8.1762     16.1709   -999.2500
  1594.1000      7.8042      2.5250      0.0097      7.5782     15.6032   -999.2500
  1594.2000      7.8042      2.5413      0.0575      6.5887     14.6451   -999.2500
  1594.3000      7.8063      2.5491      0.0050      6.1136     13.6344   -999.2500
  1594.4000      7.8063      2.5486      0.0474      6.1444     12.6970   -999.2500
  1594.5000      7.8110      2.5386      0.0385      6.7534     12.1879   -999.2500
  1594.6000      7.8110      2.5229      0.0078      7.7056     12.0875   -999.2500
  1594.7000      7.8110      2.5118      0.0594      8.3740     11.8764   -999.2500
  1594.8000      7.8113      2.5069      0.0271      8.6739     11.6413   -999.2500
  1594.9000      7.8113      2.5110      0.0136      8.4269     11.7854   -999.2500
  1595.0000      7.8061      2.5219      0.0537      7.7651     12.1610   -999.2500
  1595.1000      7.8061      2.5247      0.0454      7.5922     12.2972   -999.2500
  1595.2000      7.8061      2.5192      0.0135      7.9243     12.0939   -999.2500
  1595.3000      7.7968      2.5212      0.0187      7.8059     11.9423   -999.2500
  1595.4000      7.7968      2.5297      0.0516      7.2939     12.2512   -999.2500
  1595.5000      7.7874      2.5290      0.0483      7.3361     12.6792   -999.2500
  1595.6000      7.7874      2.5187      0.0443      7.9566     12.6208   -999.2500
  1595.7000      7.7874      2.5123      0.0356      8.3460     12.2434   -999.2500
  1595.8000      7.7813      2.5117      0.0343      8.3788     12.2806   -999.2500
  1595.9000      7.7813      2.5132      0.0128      8.2935     14.5159   -999.2500
  1596.0000      7.7798      2.5166      0.0460      8.0835     22.8460   -999.2500
  1596.1000      7.7798      2.5206      0.0733      7.8449     37.3338   -999.2500
  1596.2000      7.7798      2.5237      0.0916      7.6517     48.2303   -999.2500
  1596.3000      7.7805      2.5313      0.0393      7.1949     52.1370   -999.2500
  1596.4000      7.7805      2.5444      0.0808      6.3987     52.8974   -999.2500
  1596.5000      7.7810      2.5501      0.0776      6.0543     52.9780   -999.2500
  1596.6000      7.7810      2.5428      0.0721      6.4943     52.9826   -999.2500
  1596.7000      7.7810      2.5348      0.0561      6.9789   -999.2500   -999.2500
  1596.8000      7.7806      2.5353      0.0405      6.9502   -999.2500   -999.2500
  1596.9000      7.7806      2.5418      0.0377      6.5596   -999.2500   -999.2500
  1597.0000      7.7798      2.5467      0.0580      6.2610   -999.2500   -999.2500
  1597.1000      7.7798      2.5465      0.0437      6.2718   -999.2500   -999.2500
  1597.2000      7.7798      2.5478      0.0558      6.1963   -999.2500   -999.2500
  1597.3000      7.7792      2.5539      0.0661      5.8266   -999.2500   -999.2500
  1597.4000      7.7792      2.5570      0.0382      5.6357   -999.2500   -999.2500
  1597.5000      7.7796      2.5508      0.0810      6.0140   -999.2500   -999.2500
  1597.6000      7.7796      2.5418      0.0407      6.5563   -999.2500   -999.2500
  1597.7000      7.7796      2.5469      0.0430      6.2471   -999.2500   -999.2500
  1597.8000      7.7813      2.5657      0.0635      5.1076   -999.2500   -999.2500
  1597.9000      7.7813      2.5800      0.0896      4.2438   -999.2500   -999.2500
  1598.0000      7.7826      2.5837      0.0618      4.0173   -999.2500   -999.2500
  1598.1000      7.7826      2.5807      0.0762      4.1998   -999.2500   -999.2500
  1598.2000      7.7826      2.5703      0.0765      4.8322   -999.2500   -999.2500
  1598.3000      7.7825      2.5564      0.0488      5.6752   -999.2500   -999.2500
