~Version Information
VERS.                      2.0: CWLS Log ASCII Standard - VERSION 2.0
WRAP.                       NO: One line per depth step
~Well Information Block
STRT.FT               510.0000: 
STOP.FT              1861.5000: 
STEP.FT                 0.1000: 
NULL.                -999.2500: 
COMP.          Pioneer Natural Resources: COMPANY
WELL.           Guajardo 24-16: WELL
FLD.           Purgatoire River: FIELD
LOC.           883' FSL & 2147' FWL: LOCATION
PROV.                 Colorado: PROVINCE
CNTY.               Las Animas: COUNTRY
SRVC.                Patterson: SERVICE COMPANY
DATE.          Mon Aug 08 09:13:01 2005: LOG DATE
UWI.           05 071 08377 00: UNIQUE WELL ID
~Curve Information Block
DEPT.FT            0 000 00 00: Depth
DCAL.in                       : CDL Caliper
RHOB.g/cc                     : CDL Bulk Density
RHOC.g/cc                     : CDL Density Correction
DPOR.pu                       : CDL Density Porosity
GR.GAPI                       : Gamma Ray
NPOR.pu                       : Neutron Porosity
~Parameter Information Block
~A  Depth       DCAL        RHOB        RHOC        DPOR         GR         NPOR    
# ...
  1489.2000      8.1502      2.4266      0.0991     13.5399     89.6946     21.1667
  1489.3000      8.1557      2.4237      0.0665     13.7139     89.2121     20.8795
  1489.4000      8.1557      2.4245      0.1167     13.6683     88.4487     20.6375
  1489.5000      8.1803      2.4240      0.1033     13.6996     83.0858     20.6736
  1489.6000      8.1803      2.4259      0.0208     13.5836     76.6156     21.0424
  1489.7000      8.1803      2.4431      0.0834     12.5396     75.5029     21.3700
  1489.8000      8.2351      2.4620      0.1248     11.3936     77.9530     21.5053
  1489.9000      8.2351      2.4651      0.1168     11.2084     78.9139     21.7762
  1490.0000      8.2855      2.4601      0.0697     11.5106     80.0747     22.3532
  1490.1000      8.2855      2.4539      0.1126     11.8824     83.3310     22.6705
  1490.2000      8.2855      2.4434      0.0749     12.5215     82.7371     22.2178
  1490.3000      8.1141      2.4374      0.0419     12.8829     76.6555      9.7759
  1490.4000      8.1141      2.4513      0.0908     12.0438     73.5480      9.8620
  1490.5000      8.0342      2.4844      0.0896     10.0389     79.7874      9.7224
  1490.6000      8.0342      2.5150      0.1427      8.1804     90.7244      8.7936
  1490.7000      8.0342      2.5200      0.0919      7.8776     96.6858      7.8279
  1490.8000      7.9934      2.5016      0.1050      8.9925     95.0657      7.5380
  1490.9000      7.9934      2.4820      0.0519     10.1817     90.2601      7.9292
  1491.0000      8.0060      2.4720      0.0592     10.7856     85.4968      8.6464
  1491.1000      8.0060      2.4563      0.0551     11.7376     82.1840      9.2956
  1491.2000      8.0060      2.4238      0.0074     13.7076     83.5586     10.0315
  1491.3000      8.0338      2.3799      0.0578     16.3705     93.2031     10.7648
  1491.4000      8.0338      2.3281      0.0272     19.5085    106.7057     11.0518
  1491.5000      8.0460      2.2741     -0.0112     22.7837    114.5157     11.1636
  1491.6000      8.0460      2.2215     -0.0206     25.9695    111.3113     11.6227
  1491.7000      8.0460      2.1809     -0.0420     28.4299    100.3416     12.8521
  1491.8000      8.0561      2.1764     -0.0729     28.7034     91.9741     15.4010
  1491.9000      8.0561      2.2081      0.0163     26.7813     92.4773     18.9427
  1492.0000      8.0792      2.2464      0.0724     24.4586     99.1357     21.4007
  1492.1000      8.0792      2.2822      0.0908     22.2886    110.9053     21.6369
  1492.2000      8.0792      2.3302      0.1436     19.3835    127.8884     20.8754
  1492.3000      8.0893      2.3836      0.2019     16.1451    142.7777     20.5867
  1492.4000      8.0893      2.4273      0.1234     13.4940    149.5854     21.3348
  1492.5000      8.0720      2.4674      0.0983     11.0651    147.1190     22.3451
  1492.6000      8.0720      2.5086      0.0818      8.5685    136.9050     22.2320
  1492.7000      8.0720      2.5457      0.1119      6.3203    126.6001     21.5174
  1492.8000      8.0281      2.5710      0.0856      4.7861    124.4688     21.5244
  1492.9000      8.0281      2.5806      0.1169      4.2050    130.8577     21.9218
  1493.0000      8.0256      2.5762      0.0878      4.4742    138.3130     21.6340
  1493.1000      8.0256      2.5506      0.1057      6.0224    142.4570     20.1764
  1493.2000      8.0256      2.5059     -0.0032      8.7323    144.3248     18.2730
  1493.3000      8.0261      2.4743      0.0223     10.6486    143.6233     17.5099
  1493.4000      8.0261      2.4766     -0.0100     10.5099    141.3160     18.1850
  1493.5000      8.0242      2.4913      0.0807      9.6158    142.2107     18.9858
  1493.6000      8.0242      2.4888      0.0447      9.7703    149.1087     19.3264
  1493.7000      8.0242      2.4770      0.0264     10.4826    153.6674     19.9403
  1493.8000      8.0286      2.4783      0.0663     10.4068    148.5622     20.4741
  1493.9000      8.0286      2.4862      0.0555      9.9248    143.5374     20.0483
  1494.0000      8.0241      2.4761      0.1140     10.5399    146.9358     19.4128
  1494.1000      8.0241      2.4484      0.0119     12.2172    154.7098     19.4909
  1494.2000      8.0241      2.4384      0.0100     12.8232    160.7717     20.0316
  1494.3000      8.0264      2.4587      0.0476     11.5956    160.2788     20.3279
  1494.4000      8.0264      2.4855      0.0631      9.9708    153.2202     20.3774
  1494.5000      8.0329      2.5001      0.0741      9.0839    144.8251     20.6839
  1494.6000      8.0329      2.4975      0.0905      9.2432    140.4615     21.2121
  1494.7000      8.0329      2.4896      0.0251      9.7216    140.3196     21.6188
  1494.8000      8.0414      2.4980      0.0329      9.2150    142.5674     21.4417
  1494.9000      8.0414      2.5256      0.0258      7.5369    143.7843     20.5204
  1495.0000      8.0441      2.5569      0.0920      5.6447    140.9227     19.7104
  1495.1000      8.0441      2.5706      0.1055      4.8102    138.2722     19.8878
  1495.2000      8.0441      2.5526      0.1306      5.9043    138.8442     20.7770
  1495.3000      8.0384      2.5081      0.1098      8.6015    140.1456     21.2177
  1495.4000      8.0384      2.4624      0.0357     11.3700    141.6020     21.3037
  1495.5000      8.0278      2.4380     -0.0387     12.8470    142.8423     21.7624
  1495.6000      8.0278      2.4387      0.0017     12.8066    141.6634     22.0129
  1495.7000      8.0278      2.4457      0.0332     12.3795    138.8032     21.7617
  1495.8000      8.0294      2.4384      0.0211     12.8256    139.2838     21.7962
  1495.9000      8.0294      2.4177     -0.0255     14.0782    143.6292     22.2913
  1496.0000      8.0302      2.3991     -0.0413     15.2044    146.5722     22.1527
  1496.1000      8.0302      2.3948     -0.0359     15.4650    148.0403     21.0372
  1496.2000      8.0302      2.4010      0.0280     15.0910    151.8623     20.2185
  1496.3000      8.0473      2.4076     -0.0018     14.6935    154.3257     20.6028
  1496.4000      8.0473      2.4203     -0.0196     13.9225    148.4503     21.5201
  1496.5000      8.0323      2.4521      0.0272     11.9959    137.3011     21.7168
  1496.6000      8.0323      2.4948      0.0807      9.4034    131.6063     20.8320
  1496.7000      8.0323      2.5243      0.0665      7.6192    132.3252     19.9240
  1496.8000      8.0250      2.5250      0.1008      7.5758    133.3450     20.0694
  1496.9000      8.0250      2.4981      0.0841      9.2072    135.3731     21.1676
  1497.0000      8.0298      2.4551      0.0519     11.8128    141.6597     22.2614
  1497.1000      8.0298      2.4028      0.0485     14.9847    147.9409     22.5884
  1497.2000      8.0298      2.3393     -0.0226     18.8280    150.1107     22.1764
  1497.3000      8.0362      2.2677     -0.0579     23.1691    152.3509     21.4063
  1497.4000      8.0362      2.1945     -0.0452     27.6071    153.7379     20.7154
  1497.5000      8.0327      2.1252     -0.1013     31.8064    147.8008     20.5623
  1497.6000      8.0327      2.0646     -0.0947     35.4790    136.2663     21.2562
  1497.7000      8.0327      2.0223     -0.0937     38.0395    125.3186     22.7308
  1497.8000      8.0463      2.0144     -0.0566     38.5186    118.7573     23.8721
  1497.9000      8.0463      2.0449     -0.0239     36.6716    117.5211     23.8956
  1498.0000      8.0612      2.1013      0.0337     33.2571    120.2584     23.6725
  1498.1000      8.0612      2.1684      0.0749     29.1871    123.6607     23.7476
  1498.2000      8.0612      2.2389      0.1517     24.9123    125.3775     23.8468
  1498.3000      8.0393      2.3140      0.1620     20.3645    124.4852     24.0616
  1498.4000      8.0393      2.3853      0.2108     16.0415    121.9715     24.3498
  1498.5000      8.0548      2.4235      0.2334     13.7269    118.7842     24.6552
  1498.6000      8.0548      2.4201      0.1330     13.9351    115.6416     25.0145
  1498.7000      8.0548      2.4086      0.0560     14.6308    117.0432     25.2059
