~Version Information
 VERS.                                  2.0 : CWLS LAS VERSION
 WRAP.                                   NO : WRAPING MODE
 SWARE .                 MController 2.5.0J : SOFTWARE VERSION
~Well Information
 WELL.                     Old Yeller 31-32 : WELL
 COMP.    Pioneer Natural Resources USA Inc : COMPANY
 FLD.                      Purgatoire River : FIELD
 LOC.                NW/NE Sec 32 T32S R67W : LOCATION
 DATE.                           8/23-28/05 : DATE(S) LOGGED
 SRVC.       BLANCO Geological Services LLC : SERVICE COMPANY
 STAT.                                   CO : STATE
 CNTY.                           Las Animas : COUNTY
 CTRY.                                  USA : COUNTRY
 API.                       05-071-08356-00 : API NUMBER
 STRT.FT                            1664.00 : START DEPTH
 STOP.FT                            2951.00 : STOP DEPTH
 STEP.FT                               1.00 : DEPTH INCREMENT
 NULL.                                -9999 : NULL VALUE
~Curve information
 DEPTH.FT                                   :
 ROP.MIN/FT                                 :
 GAS.UNITS                                  :
~ASCII Log data
# ...
      2064.0         0.85        -11.3 
      2065.0         1.00        -11.3 
      2066.0         0.73        -11.3 
      2067.0         0.60        -11.3 
      2068.0         0.58        -11.3 
      2069.0         0.67        -11.2 
      2070.0         0.57        -11.2 
      2071.0        15.98        -11.3 
      2072.0         0.70        -11.3 
      2073.0         1.32        -11.3 
      2074.0         0.90        -11.3 
      2075.0         0.60        -11.3 
      2076.0         0.43        -11.3 
      2077.0         0.27        -11.3 
      2078.0         0.30        -11.3 
      2079.0         0.47        -11.2 
      2080.0         1.05        -11.1 
      2081.0         0.90        -11.3 
      2082.0         0.70        -11.3 
      2083.0         0.40        -11.3 
      2084.0         0.55        -11.3 
      2085.0         0.60        -11.3 
      2086.0         0.60        -11.3 
      2087.0         0.57        -11.1 
      2088.0         0.63        -11.3 
      2089.0         0.57        -11.3 
      2090.0         0.62        -11.3 
      2091.0         0.67        -11.3 
      2092.0         0.77        -11.3 
      2093.0         0.63        -11.3 
      2094.0         0.72        -11.3 
      2095.0         0.53        -11.3 
      2096.0         0.50        -11.3 
      2097.0         0.40        -11.3 
      2098.0         0.40        -11.1 
      2099.0         0.33        -11.3 
      2100.0         0.60        -11.3 
      2101.0         8.75        -11.3 
      2102.0         0.67        -11.3 
      2103.0         1.05        -11.1 
      2104.0         0.57        -11.3 
      2105.0         1.17        -11.3 
      2106.0         1.15        -11.2 
      2107.0         1.00        -11.3 
      2108.0         0.50        -11.2 
      2109.0         0.63        -11.1 
      2110.0         0.83        -11.3 
      2111.0         0.78        -11.3 
      2112.0         0.80        -11.3 
      2113.0         0.50        -11.2 
      2114.0         0.42        -11.3 
      2115.0         0.33        -11.3 
      2116.0         0.33        -11.3 
      2117.0         0.60        -11.3 
      2118.0         0.57        -11.3 
      2119.0         0.53        -11.1 
      2120.0         0.62        -11.3 
      2121.0         0.47        -11.3 
      2122.0         0.47        -11.3 
      2123.0         0.53        -11.3 
      2124.0         0.63        -11.3 
      2125.0         0.63        -11.3 
      2126.0         0.65        -11.3 
      2127.0         0.77        -11.3 
      2128.0         0.67        -11.3 
      2129.0         0.50        -11.3 
      2130.0         0.43        -11.3 
      2131.0         6.70        -11.2 
      2132.0         0.53        -11.2 
      2133.0         0.38        -11.2 
      2134.0         1.00        -11.3 
      2135.0         1.10        -11.3 
      2136.0         1.22        -11.3 
      2137.0         1.37        -11.3 
      2138.0         0.63        -11.3 
      2139.0         0.87        -11.2 
      2140.0         0.72        -11.3 
      2141.0         0.57        -11.3 
      2142.0         0.47        -11.2 
      2143.0         0.67        -11.3 
      2144.0         0.47        -11.3 
      2145.0         0.52        -11.3 
      2146.0         0.53        -11.3 
      2147.0         0.63        -11.3 
      2148.0         0.40        -11.3 
      2149.0         0.47        -11.3 
      2150.0         0.40        -11.1 
      2151.0         0.37        -11.2 
      2152.0         0.42        -11.3 
      2153.0         0.40        -11.3 
      2154.0         0.43        -11.3 
      2155.0         0.37        -11.3 
      2156.0         0.40        -11.3 
      2157.0         0.33        -11.3 
      2158.0         0.33        -11.3 
      2159.0         0.27        -11.3 
      2160.0         0.43        -11.3 
      2161.0        11.80        -11.3 
      2162.0         0.80        -11.4 
      2163.0         0.52        -11.3 
      2164.0         0.77        -11.3 
      2165.0         1.00        -11.3 
      2166.0         0.67        -11.3 
      2167.0         0.68        -11.3 
      2168.0         0.77        -11.3 
      2169.0         0.77        -11.3 
      2170.0         0.70        -11.3 
      2171.0         0.77        -11.3 
      2172.0         0.52        -11.3 
      2173.0         0.33        -11.2 
      2174.0         0.87        -11.3 
      2175.0         0.90        -11.3 
      2176.0         0.85        -11.3 
      2177.0         0.77        -11.3 
      2178.0         0.70        -11.3 
      2179.0         0.63        -11.3 
      2180.0         0.63        -11.3 
      2181.0         0.85        -11.3 
      2182.0         0.90        -11.2 
      2183.0         0.67        -11.3 
      2184.0         0.70        -11.3 
      2185.0         0.75        -11.3 
      2186.0         0.73        -11.3 
      2187.0         0.83        -11.1 
      2188.0         1.00        -11.3 
      2189.0         0.72        -11.3 
      2190.0         0.70        -11.3 
      2191.0         8.27        -11.3 
      2192.0         0.55        -11.3 
      2193.0         0.97        -11.2 
      2194.0         0.67        -11.3 
      2195.0         0.73        -11.3 
      2196.0         0.80        -11.1 
      2197.0         0.55        -11.3 
      2198.0         0.57        -11.3 
      2199.0         0.70        -11.3 
      2200.0         0.47        -11.2 
      2201.0         0.47        -11.3 
      2202.0         0.62        -11.3 
      2203.0         0.73        -11.3 
      2204.0         1.07        -11.3 
      2205.0         0.70        -11.3 
      2206.0         0.40        -11.3 
      2207.0         0.52        -11.2 
      2208.0         0.50        -11.1 
      2209.0         0.40        -11.3 
      2210.0         0.37        -11.3 
      2211.0         0.70        -11.3 
      2212.0         0.90        -11.3 
      2213.0         0.52        -11.1 
      2214.0         0.40        -11.3 
      2215.0         0.37        -11.3 
      2216.0         0.33        -11.3 
      2217.0         0.33        -11.1 
      2218.0         0.43        -11.3 
      2219.0         0.43        -11.1 
      2220.0         0.65        -11.3 
      2221.0         6.80        -11.2 
      2222.0         0.83        -11.3 
      2223.0         0.97        -11.3 
      2224.0         0.93        -11.3 
      2225.0         0.85        -11.3 
      2226.0         0.83        -11.2 
      2227.0         0.87        -11.3 
      2228.0         0.80        -11.1 
      2229.0         0.82        -11.3 
      2230.0         0.87        -11.3 
      2231.0         0.90        -11.3 
      2232.0         0.57        -11.2 
      2233.0         0.48        -11.1 
      2234.0         0.40        -11.3 
      2235.0         0.47        -11.3 
      2236.0         0.53        -11.1 
      2237.0         0.53        -11.3 
      2238.0         0.70        -11.3 
      2239.0         0.65        -11.3 
      2240.0         0.60        -11.3 
      2241.0         0.63        -11.3 
      2242.0         0.73        -11.3 
      2243.0         0.72        -11.3 
      2244.0         0.63        -11.3 
      2245.0         0.63        -11.3 
      2246.0         0.63        -11.1 
      2247.0         0.63        -11.3 
      2248.0         0.92        -11.3 
      2249.0         0.43        -11.3 
      2250.0         0.50        -11.3 
      2251.0        11.77        -11.2 
      2252.0         0.70        -11.3 
      2253.0         0.83        -11.3 
      2254.0         0.37        -11.3 
      2255.0         0.50        -11.3 
      2256.0         0.77        -11.3 
      2257.0         0.82        -11.3 
      2258.0         0.80        -11.3 
      2259.0         0.80        -11.1 
      2260.0         0.87        -11.3 
      2261.0         1.25        -11.1 
      2262.0         1.13        -11.3 
      2263.0         0.83        -11.3 
