~Version Information
VERS.                      2.0: CWLS Log ASCII Standard - VERSION 2.0
WRAP.                       NO: One line per depth step
~Well Information Block
STRT.FT                -4.2500: 
STOP.FT              2018.7500: 
STEP.FT                 0.2500: 
NULL.                -999.2500: 
COMP.          Petrogulf Corporation: COMPANY
WELL.             State 16-21R: WELL
FLD.           Purgatoire River: FIELD
LOC.           203' FNL & 1560' FWL----: LOCATION
PROV.                 Colorado: PROVINCE
CNTY.               Las Animas: COUNTRY
SRVC.                         : SERVICE COMPANY
DATE.          Thu Sep 29 11:32:19 2005: LOG DATE
API.           05-071-08313 : API Number
~Curve Information Block
DEPT.FT            0 000 00 00: Depth
GR.GAPI                       : Gamma Ray
CCL.                          : Casing Collar Locator
AMP3.mV                       : CBL 3' Amplitude
AMP5.mV                       : CBL 5' Amplitude
~Parameter Information Block
~A  Depth        GR         CCL         AMP3        AMP5    
# ...
  1838.2500    139.9642      0.0000      4.4831      0.3847
  1838.5000    141.4090      0.0000      4.4003      0.3901
  1838.7500    142.5555      0.0000      4.3117      0.3984
  1839.0000    144.2187      0.0000      4.2374      0.4090
  1839.2500    146.6181      0.0000      4.1998      0.4189
  1839.5000    149.1041      0.0000      4.2056      0.4253
  1839.7500    150.5927      0.0000      4.2423      0.4276
  1840.0000    150.0581      0.0000      4.2878      0.4267
  1840.2500    147.0225      0.0000      4.3243      0.4238
  1840.5000    142.2191      0.0000      4.3452      0.4200
  1840.7500    137.4587      0.0000      4.3504      0.4165
  1841.0000    134.2112      0.0000      4.3370      0.4145
  1841.2500    132.4255      0.0000      4.3004      0.4146
  1841.5000    130.9548      0.0000      4.2434      0.4149
  1841.7500    129.0025      0.0000      4.1784      0.4110
  1842.0000    126.9846      0.0000      4.1201      0.3999
  1842.2500    125.9562      0.0000      4.0765      0.3838
  1842.5000    126.3354      0.0000      4.0468      0.3683
  1842.7500    127.4217      0.0000      4.0238      0.3601
  1843.0000    128.0953      0.0000      3.9992      0.3622
  1843.2500    127.7867      0.0000      3.9697      0.3694
  1843.5000    126.8803      0.0000      3.9402      0.3684
  1843.7500    126.3195      0.0000      3.9225      0.3505
  1844.0000    126.6996      0.0000      3.9229      0.3208
  1844.2500    127.8336      0.0000      3.9323      0.2937
  1844.5000    129.2816      0.0000      3.9313      0.2799
  1844.7500    130.7771      0.0000      3.9084      0.2815
  1845.0000    131.7520      0.0000      3.8685      0.2954
  1845.2500    131.1776      0.0000      3.8258      0.3169
  1845.5000    128.6485      0.0000      3.7936      0.3387
  1845.7500    125.2438      0.0000      3.7812      0.3518
  1846.0000    122.6246      0.0000      3.7949      0.3504
  1846.2500    121.4002      0.0000      3.8383      0.3374
  1846.5000    120.7257      0.0000      3.9069      0.3219
  1846.7500    119.3598      0.0000      3.9799      0.3127
  1847.0000    116.8621      0.0000      4.0264      0.3126
  1847.2500    113.8132      0.0000      4.0292      0.3178
  1847.5000    111.1921      0.0000      4.0014      0.3209
  1847.7500    109.7676      0.0000      3.9739      0.3149
  1848.0000    109.8147      0.0000      3.9699      0.2979
  1848.2500    110.8752      0.0000      3.9915      0.2729
  1848.5000    111.7589      0.0000      4.0250      0.2436
  1848.7500    111.2387      0.0000      4.0499      0.2116
  1849.0000    108.9840      0.0000      4.0455      0.1797
  1849.2500    105.7040      0.0000      3.9960      0.1542
  1849.5000    102.5946      0.0000      3.8950      0.1404
  1849.7500    100.8678      0.0000      3.7500      0.1388
  1850.0000    101.3163      0.0000      3.5825      0.1455
  1850.2500    103.7714      0.0000      3.4217      0.1553
  1850.5000    107.1135      0.0000      3.2902      0.1644
  1850.7500    110.1748      0.0000      3.1924      0.1714
  1851.0000    112.5745      0.0000      3.1116      0.1751
  1851.2500    114.4236      0.0000      3.0228      0.1730
  1851.5000    115.5897      0.0000      2.9126      0.1633
  1851.7500    115.9406      0.0000      2.7885      0.1497
  1852.0000    116.0232      0.0000      2.6678      0.1406
  1852.2500    116.6394      0.0000      2.5639      0.1426
  1852.5000    117.7496      0.0000      2.4817      0.1538
  1852.7500    118.3515      0.0000      2.4221      0.1638
  1853.0000    117.5935      0.0000      2.3861      0.1633
  1853.2500    115.8648      0.0000      2.3735      0.1521
  1853.5000    114.7118      0.0000      2.3787      0.1379
  1853.7500    115.3688      0.0000      2.3906      0.1302
  1854.0000    117.3166      0.0000      2.4037      0.1335
  1854.2500    118.8425      0.0000      2.4285      0.1458
  1854.5000    119.0912      0.0000      2.4873      0.1592
  1854.7500    118.7371      0.0000      2.5980      0.1679
  1855.0000    118.3259      0.0000      2.7655      0.1747
  1855.2500    116.8191      0.0000      2.9812      0.1883
  1855.5000    112.4913      0.0000      3.2256      0.2114
  1855.7500    105.0412      0.0000      3.4683      0.2375
  1856.0000     96.4330      0.0000      3.6738      0.2579
  1856.2500     89.7041      0.0000      3.8148      0.2695
  1856.5000     86.9032      0.0000      3.8829      0.2753
  1856.7500     87.8561      0.0000      3.8916      0.2780
  1857.0000     90.6000      0.0000      3.8675      0.2773
  1857.2500     92.9487      0.0000      3.8347      0.2726
  1857.5000     93.9700      0.0000      3.8034      0.2665
  1857.7500     94.3837      0.0000      3.7722      0.2648
  1858.0000     95.7700      0.0000      3.7396      0.2716
  1858.2500     99.3654      0.0000      3.7143      0.2866
  1858.5000    105.3183      0.0000      3.7143      0.3068
  1858.7500    112.6116      0.0000      3.7515      0.3281
  1859.0000    119.5753      0.0000      3.8176      0.3466
  1859.2500    124.8550      0.0000      3.8872      0.3589
  1859.5000    128.1422      0.0000      3.9375      0.3632
  1859.7500    129.9426      0.0000      3.9633      0.3607
  1860.0000    130.8020      0.0000      3.9741      0.3547
  1860.2500    131.0626      0.0000      3.9814      0.3468
  1860.5000    130.9823      0.0000      3.9896      0.3359
  1860.7500    130.4745      0.0000      3.9975      0.3226
  1861.0000    129.0729      0.0000      4.0046      0.3123
  1861.2500    126.8302      0.0000      4.0107      0.3088
  1861.5000    124.9192      0.0000      4.0105      0.3091
  1861.7500    124.5863      0.0000      3.9933      0.3069
  1862.0000    125.5921      0.0000      3.9498      0.3008
  1862.2500    126.3414      0.0000      3.8792      0.2947
  1862.5000    125.6423      0.0000      3.7938      0.2921
  1862.7500    123.6947      0.0000      3.7171      0.2936
  1863.0000    121.2528      0.0000      3.6722      0.2993
  1863.2500    118.7121      0.0000      3.6684      0.3102
  1863.5000    116.6226      0.0000      3.6981      0.3268
  1863.7500    116.3073      0.0000      3.7430      0.3446
  1864.0000    118.8632      0.0000      3.7851      0.3541
  1864.2500    123.5981      0.0000      3.8163      0.3466
  1864.5000    128.1114      0.0000      3.8400      0.3207
  1864.7500    129.9896      0.0000      3.8636      0.2832
  1865.0000    128.3521      0.0000      3.8883      0.2431
  1865.2500    124.3066      0.0000      3.9062      0.2072
  1865.5000    120.2267      0.0000      3.9005      0.1783
  1865.7500    118.1592      0.0000      3.8523      0.1567
  1866.0000    118.5686      0.0000      3.7575      0.1422
  1866.2500    120.4335      0.0000      3.6401      0.1358
  1866.5000    122.2281      0.0000      3.5402      0.1389
  1866.7500    122.8525      0.0000      3.4828      0.1511
  1867.0000    122.1724      0.0000      3.4631      0.1700
  1867.2500    120.9753      0.0000      3.4619      0.1905
  1867.5000    120.4663      0.0000      3.4682      0.2060
  1867.7500    121.7344      0.0000      3.4887      0.2126
  1868.0000    125.3124      0.0000      3.5468      0.2122
  1868.2500    130.7503      0.0000      3.6706      0.2103
  1868.5000    136.5258      0.0000      3.8657      0.2113
  1868.7500    140.5217      0.0000      4.0914      0.2163
  1869.0000    140.9587      0.0000      4.2749      0.2249
  1869.2500    137.5369      0.0000      4.3570      0.2360
  1869.5000    132.0523      0.0000      4.3264      0.2473
  1869.7500    127.4818      0.0000      4.2165      0.2557
  1870.0000    125.7890      0.0000      4.0806      0.2609
  1870.2500    126.5243      0.0000      3.9645      0.2657
  1870.5000    127.8054      0.0000      3.8900      0.2748
  1870.7500    128.3997      0.0000      3.8511      0.2918
  1871.0000    128.4204      0.0000      3.8260      0.3173
  1871.2500    128.3151      0.0000      3.8005      0.3471
  1871.5000    127.8892      0.0000      3.7812      0.3720
