~Version Information
VERS.                      2.0: CWLS Log ASCII Standard - VERSION 2.0
WRAP.                       NO: One line per depth step
~Well Information Block
STRT.FT               440.0000: 
STOP.FT              1003.5000: 
STEP.FT                 0.2500: 
NULL.                -999.2500: 
COMP.          Pioneer Natural Resources: COMPANY
WELL.              Dylan 42-25: WELL
FLD.           Purgatoire River: FIELD
LOC.           2160' FNL & 855' FEL: LOCATION
PROV.                 Colorado: PROVINCE
CNTY.               Las Animas: COUNTRY
SRVC.                Patterson: SERVICE COMPANY
DATE.          Sat Apr 23 11:21:51 2005: LOG DATE
UWI.           05 071 08229 00: UNIQUE WELL ID
~Curve Information Block
DEPT.FT            0 000 00 00: Depth
SN.Ohm-m                      : IEL Short Normal
SP.mV                         : IEL Spontaneous Potential
DIR.Ohm-m                     : IEL Induction Resistivity
GR.GAPI                       : Gamma Ray
~Parameter Information Block
~A  Depth        SN          SP         DIR          GR     
# ...
   574.0000     32.5496    -32.4404     21.0665     71.9953
   574.2500     32.2499    -33.5741     20.5037     77.6917
   574.5000     31.0425    -34.8123     19.7333     88.5441
   574.7500     29.1429    -36.0597     18.7892     96.8756
   575.0000     26.7296    -37.2049     17.7390    109.9897
   575.2500     23.8913    -38.1442     16.6674    118.5413
   575.5000     20.7996    -38.8120     15.6454    129.9250
   575.7500     17.8483    -39.2054     14.7141    135.8510
   576.0000     15.5065    -39.3831     13.8877    141.4708
   576.2500     14.0236    -39.4332     13.1664    143.0012
   576.5000     13.3384    -39.4338     12.5453    142.4684
   576.7500     13.2210    -39.4357     12.0171    140.7404
   577.0000     13.3864    -39.4647     11.5729    137.4205
   577.2500     13.5539    -39.5261     11.2049    135.7036
   577.5000     13.5693    -39.6077     10.9094    135.0752
   577.7500     13.4634    -39.6871     10.6871    135.8207
   578.0000     13.3593    -39.7428     10.5406    137.0220
   578.2500     13.3603    -39.7613     10.4719    136.7347
   578.5000     13.4993    -39.7385     10.4821    133.9160
   578.7500     13.7436    -39.6759     10.5716    131.0360
   579.0000     14.0465    -39.5804     10.7382    127.1783
   579.2500     14.3926    -39.4686     10.9764    125.7748
   579.5000     14.7925    -39.3662     11.2780    125.4611
   579.7500     15.2549    -39.2982     11.6367    125.8418
   580.0000     15.7447    -39.2758     12.0523    126.3885
   580.2500     16.1598    -39.2927     12.5300    126.6985
   580.5000     16.4119    -39.3288     13.0758    127.3915
   580.7500     16.5111    -39.3556     13.6943    127.8339
   581.0000     16.5473    -39.3424     14.3899    127.3168
   581.2500     16.7131    -39.2673     15.1700    125.4993
   581.5000     17.3389    -39.1298     16.0408    120.3096
   581.7500     18.7701    -38.9528     16.9960    115.5627
   582.0000     21.1640    -38.7665     18.0054    107.1934
   582.2500     24.3437    -38.5835     19.0191    101.0245
   582.5000     27.8039    -38.3863     19.9906     91.5250
   582.7500     30.9481    -38.1416     20.9015     85.8301
   583.0000     33.4011    -37.8225     21.7620     80.1697
   583.2500     35.0853    -37.4207     22.5799     79.2381
   583.5000     36.0672    -36.9449     23.3223     82.1907
   583.7500     36.4316    -36.4107     23.9000     86.0652
   584.0000     36.2508    -35.8290     24.1922     92.1771
   584.2500     35.5598    -35.1977     24.1006     95.1985
   584.5000     34.3273    -34.5049     23.5962     97.1961
   584.7500     32.4874    -33.7404     22.7305     97.0319
   585.0000     30.0430    -32.9064     21.6129     95.9587
   585.2500     27.1559    -32.0188     20.3775     95.8886
   585.5000     24.1711    -31.1020     19.1532     98.6731
   585.7500     21.5463    -30.1838     18.0401    102.9970
   586.0000     19.6523    -29.2962     17.0953    112.4181
   586.2500     18.5704    -28.4724     16.3315    119.3694
   586.5000     18.0961    -27.7349     15.7260    128.5119
   586.7500     17.9328    -27.0854     15.2368    133.1161
   587.0000     17.8550    -26.5087     14.8207    138.1166
   587.2500     17.7484    -25.9866     14.4490    140.7124
   587.5000     17.5960    -25.5088     14.1123    144.0150
   587.7500     17.4263    -25.0768     13.8133    145.7312
   588.0000     17.2319    -24.7003     13.5545    146.9621
   588.2500     16.9523    -24.3901     13.3327    146.4271
   588.5000     16.5541    -24.1524     13.1434    143.1895
   588.7500     16.0983    -23.9905     12.9886    139.7725
   589.0000     15.7205    -23.9113     12.8787    134.2767
   589.2500     15.5645    -23.9273     12.8282    131.2174
   589.5000     15.7177    -24.0497     12.8500    128.2462
   589.7500     16.1524    -24.2783     12.9507    127.4419
   590.0000     16.7238    -24.5946     13.1269    127.8503
   590.2500     17.2426    -24.9642     13.3637    128.8202
   590.5000     17.5662    -25.3486     13.6346    130.2433
   590.7500     17.6690    -25.7212     13.9088    130.5684
   591.0000     17.6345    -26.0787     14.1623    129.4657
   591.2500     17.5463    -26.4373     14.3865    127.5610
   591.5000     17.4084    -26.8091     14.5857    123.4387
   591.7500     17.1723    -27.1801     14.7653    120.4615
   592.0000     16.8138    -27.5131     14.9200    116.5272
   592.2500     16.4063    -27.7681     15.0359    114.3987
   592.5000     16.1358    -27.9207     15.1065    111.9164
   592.7500     16.2199    -27.9671     15.1488    110.7733
   593.0000     16.7787    -27.9222     15.2036    109.7191
   593.2500     17.7490    -27.8133     15.3168    109.1742
   593.5000     18.8937    -27.6696     15.5200    108.3028
   593.7500     19.9137    -27.5078     15.8223    107.9169
   594.0000     20.6023    -27.3270     16.2165    108.2252
   594.2500     20.9372    -27.1171     16.6900    109.0155
   594.5000     21.0560    -26.8729     17.2319    110.5915
   594.7500     21.1517    -26.6013     17.8324    111.8076
   595.0000     21.3700    -26.3166     18.4785    114.0147
   595.2500     21.7618    -26.0324     19.1508    115.4604
   595.5000     22.3108    -25.7532     19.8275    116.3228
   595.7500     22.9883    -25.4724     20.4937    115.4891
   596.0000     23.7894    -25.1788     21.1556    112.4007
   596.2500     24.7487    -24.8683     21.8474    109.6378
   596.5000     25.9118    -24.5519     22.6255    104.9645
   596.7500     27.2752    -24.2515     23.5500    101.5310
   597.0000     28.7788    -23.9856     24.6613     95.9598
   597.2500     30.3815    -23.7570     25.9632     92.1247
   597.5000     32.1233    -23.5537     27.4223     86.4823
   597.7500     34.0665    -23.3607     28.9877     82.7653
   598.0000     36.1834    -23.1745     30.6202     76.7301
   598.2500     38.3613    -23.0099     32.3062     72.1285
   598.5000     40.5503    -22.8954     34.0405     64.8299
   598.7500     42.8352    -22.8631     35.7958     60.5025
   599.0000     45.2665    -22.9424     37.5184     55.9712
   599.2500     47.6654    -23.1579     39.1598     54.3476
   599.5000     49.6954    -23.5305     40.7112     53.5530
   599.7500     51.1024    -24.0748     42.1986     53.8618
   600.0000     51.8464    -24.7952     43.6389     55.1074
   600.2500     52.0804    -25.6808     45.0008     55.9737
   600.5000     52.0546    -26.7052     46.2156     56.4329
   600.7500     52.0136    -27.8290     47.2279     55.9955
   601.0000     52.1506    -29.0038     48.0370     54.5099
   601.2500     52.6021    -30.1732     48.6944     53.0837
   601.5000     53.4008    -31.2772     49.2759     50.1043
   601.7500     54.4370    -32.2652     49.8636     47.5706
   602.0000     55.5851    -33.1105     50.5373     43.5982
   602.2500     56.8635    -33.8111     51.3581     41.2423
   602.5000     58.3633    -34.3752     52.3333     38.2173
   602.7500     60.0614    -34.8094     53.3781     36.3859
   603.0000     61.7569    -35.1219     54.3016     34.0000
   603.2500     63.1863    -35.3322     54.8487     32.8996
   603.5000     64.2015    -35.4695     54.8080     32.2780
   603.7500     64.7976    -35.5625     54.1380     32.5436
   604.0000     64.9958    -35.6329     53.0013     33.8443
   604.2500     64.7689    -35.6904     51.6718     35.2557
   604.5000     64.0605    -35.7297     50.3981     37.9753
   604.7500     62.8382    -35.7290     49.3245     39.8737
   605.0000     61.1444    -35.6566     48.4792     42.0578
   605.2500     59.1356    -35.4836     47.7901     42.7318
   605.5000     57.0499    -35.1987     47.1115     42.6497
   605.7500     55.0913    -34.8159     46.2580     42.2734
   606.0000     53.3376    -34.3716     45.0517     42.1353
   606.2500     51.7415    -33.9108     43.3682     42.8063
   606.5000     50.1698    -33.4686     41.1706     45.5609
   606.7500     48.4427    -33.0557     38.5260     48.8425
   607.0000     46.3952    -32.6528     35.5876     56.4031
   607.2500     43.9524    -32.2189     32.5450     63.3191
