~Version Information
VERS.                      2.0: CWLS Log ASCII Standard - VERSION 2.0
WRAP.                       NO: One line per depth step
~Well Information Block
STRT.FT               260.0000: 
STOP.FT              2611.5000: 
STEP.FT                 0.2500: 
NULL.                -999.2500: 
COMP.          Pioneer Natural Resources: COMPANY
WELL.           Costello 44-24: WELL
FLD.           Purgatoire River: FIELD
LOC.           327' FSL & 378' FEL: LOCATION
PROV.                 Colorado: PROVINCE
CNTY.               Las Animas: COUNTRY
SRVC.                Patterson: SERVICE COMPANY
DATE.          Mon Jul 11 00:49:32 2005: LOG DATE
UWI.           05 071 08413 00: UNIQUE WELL ID
~Curve Information Block
DEPT.FT            0 000 00 00: Depth
SN.Ohm-m                      : IEL Short Normal
SP.mV                         : IEL Spontaneous Potential
DIR.Ohm-m                     : IEL Induction Resistivity
GR.GAPI                       : Gamma Ray
~Parameter Information Block
~A  Depth        SN          SP         DIR          GR     
# ...
  2102.5000   2000.0000    200.0000      8.2531    101.8439
  2102.7500   2000.0000    200.0000      8.4200    101.3127
  2103.0000   2000.0000    200.0000      8.5862    101.5744
  2103.2500   2000.0000    200.0000      8.7409    102.1270
  2103.5000   2000.0000    200.0000      8.8867    102.8036
  2103.7500   2000.0000    200.0000      9.0364    102.8498
  2104.0000   2000.0000    200.0000      9.2032    102.3682
  2104.2500   2000.0000    200.0000      9.3919    102.0381
  2104.5000   2000.0000    200.0000      9.5965    102.0015
  2104.7500   2000.0000    200.0000      9.8035    102.0921
  2105.0000   2000.0000    200.0000      9.9993    101.5529
  2105.2500   2000.0000    200.0000     10.1760    100.5206
  2105.5000   2000.0000    200.0000     10.3346     98.6639
  2105.7500   2000.0000    200.0000     10.4872     97.9858
  2106.0000   2000.0000    200.0000     10.6564     98.7139
  2106.2500   2000.0000    200.0000     10.8709    100.3477
  2106.5000   2000.0000    200.0000     11.1586    103.6960
  2106.7500   2000.0000    200.0000     11.5399    105.7818
  2107.0000   2000.0000    200.0000     12.0224    107.2974
  2107.2500   2000.0000    200.0000     12.6019    106.5602
  2107.5000   2000.0000    200.0000     13.2664    102.1931
  2107.7500   2000.0000    200.0000     13.9995     96.9795
  2108.0000   2000.0000    200.0000     14.7811     85.7971
  2108.2500   2000.0000    200.0000     15.5844     76.5420
  2108.5000   2000.0000    200.0000     16.3797     61.8072
  2108.7500   2000.0000    200.0000     17.1478     52.9087
  2109.0000   2000.0000    200.0000     17.8937     43.0168
  2109.2500   2000.0000    200.0000     18.6442     39.1273
  2109.5000   2000.0000    200.0000     19.4276     36.6875
  2109.7500   2000.0000    200.0000     20.2477     36.5802
  2110.0000   2000.0000    200.0000     21.0696     37.5955
  2110.2500   2000.0000    200.0000     21.8232     38.6325
  2110.5000   2000.0000    200.0000     22.4232     40.1300
  2110.7500   2000.0000    200.0000     22.7967     40.7262
  2111.0000   2000.0000    200.0000     22.9046     40.6702
  2111.2500   2000.0000    200.0000     22.7492     40.2124
  2111.5000   2000.0000    200.0000     22.3673     39.9557
  2111.7500   2000.0000    200.0000     21.8193     40.7121
  2112.0000   2000.0000    200.0000     21.1783     43.4738
  2112.2500   2000.0000    200.0000     20.5203     45.8951
  2112.5000   2000.0000    200.0000     19.9149     49.1589
  2112.7500   2000.0000    200.0000     19.4174     50.6990
  2113.0000   2000.0000    200.0000     19.0647     52.2064
  2113.2500   2000.0000    200.0000     18.8736     52.8896
  2113.5000   2000.0000    200.0000     18.8368     53.3616
  2113.7500   2000.0000    200.0000     18.9196     53.0627
  2114.0000   2000.0000    200.0000     19.0682     51.5130
  2114.2500   2000.0000    200.0000     19.2329     49.9448
  2114.5000   2000.0000    200.0000     19.3932     47.3090
  2114.7500   2000.0000    200.0000     19.5632     45.4704
  2115.0000   2000.0000    200.0000     19.7721     42.3958
  2115.2500   2000.0000    200.0000     20.0412     40.0904
  2115.5000   2000.0000    200.0000     20.3742     36.7919
  2115.7500   2000.0000    200.0000     20.7648     35.2742
  2116.0000   2000.0000    200.0000     21.2113     34.8170
  2116.2500   2000.0000    200.0000     21.7229     35.9012
  2116.5000   2000.0000    200.0000     22.3113     39.5374
  2116.7500   2000.0000    200.0000     22.9775     43.0959
  2117.0000   2000.0000    200.0000     23.7112     49.4857
  2117.2500   2000.0000    200.0000     24.5119     53.9560
  2117.5000   2000.0000    200.0000     25.4171     60.2052
  2117.7500   2000.0000    200.0000     26.5062     63.7786
  2118.0000   2000.0000    200.0000     27.8711     68.1927
  2118.2500   2000.0000    200.0000     29.5721     70.7349
  2118.5000   2000.0000    200.0000     31.6070     74.4035
  2118.7500   2000.0000    200.0000     33.9121     76.7395
  2119.0000   2000.0000    200.0000     36.3924     79.4945
  2119.2500   2000.0000    200.0000     38.9613     80.5420
  2119.5000   2000.0000    200.0000     41.5589     81.1998
  2119.7500   2000.0000    200.0000     44.1431     81.5310
  2120.0000   2000.0000    200.0000     46.6780     82.5485
  2120.2500   2000.0000    200.0000     49.1499     83.6208
  2120.5000   2000.0000    200.0000     51.5981     85.4935
  2120.7500   2000.0000    200.0000     54.1243     86.7161
  2121.0000   2000.0000    200.0000     56.8407     88.3033
  2121.2500   2000.0000    200.0000     59.7745     89.1073
  2121.5000   2000.0000    200.0000     62.7960     89.8566
  2121.7500   2000.0000    200.0000     65.6544     90.1738
  2122.0000   2000.0000    200.0000     68.1389     90.8560
  2122.2500   2000.0000    200.0000     70.2439     91.6597
  2122.5000   2000.0000    200.0000     72.1714     93.2555
  2122.7500   2000.0000    200.0000     74.1325     94.2755
  2123.0000   2000.0000    200.0000     76.1150     95.3408
  2123.2500   2000.0000    200.0000     77.7770     95.8579
  2123.5000   2000.0000    200.0000     78.5542     97.1120
  2123.7500   2000.0000    200.0000     77.9387     98.6234
  2124.0000   2000.0000    200.0000     75.7492    101.5323
  2124.2500   2000.0000    200.0000     72.2082    103.1459
  2124.5000   2000.0000    200.0000     67.8214    103.8466
  2124.7500   2000.0000    200.0000     63.1889    103.0418
  2125.0000   2000.0000    200.0000     58.8383    100.8692
  2125.2500   2000.0000    200.0000     55.1307     99.5056
  2125.5000   2000.0000    200.0000     52.2460     98.0545
  2125.7500   2000.0000    200.0000     50.2188     97.2689
  2126.0000   2000.0000    200.0000     48.9831     96.0097
  2126.2500   2000.0000    200.0000     48.4155     95.1822
  2126.5000   2000.0000    200.0000     48.3779     94.1757
  2126.7500   2000.0000    200.0000     48.7519     93.6219
  2127.0000   2000.0000    200.0000     49.4412     92.8043
  2127.2500   2000.0000    200.0000     50.3369     92.2897
  2127.5000   2000.0000    200.0000     51.2855     91.7293
  2127.7500   2000.0000    200.0000     52.0973     91.5272
  2128.0000   2000.0000    200.0000     52.5881     91.4541
  2128.2500   2000.0000    200.0000     52.6043     91.6175
  2128.5000   2000.0000    200.0000     52.0229     92.3406
  2128.7500   2000.0000    200.0000     50.7603     93.0996
  2129.0000   2000.0000    200.0000     48.7884     94.3100
  2129.2500   2000.0000    200.0000     46.1404     94.9604
  2129.5000   2000.0000    200.0000     42.8902     95.5542
  2129.7500   2000.0000    200.0000     39.1571     95.7515
  2130.0000   2000.0000    200.0000     35.1581     96.1920
  2130.2500   2000.0000    200.0000     31.2272     96.9818
  2130.5000   2000.0000    200.0000     27.7281     99.2741
  2130.7500   2000.0000    200.0000     24.9173    101.2654
  2131.0000   2000.0000    200.0000     22.8761    103.8864
  2131.2500   2000.0000    200.0000     21.5420    104.9716
  2131.5000   2000.0000    200.0000     20.7857    105.7592
  2131.7500   2000.0000    200.0000     20.4948    105.9857
  2132.0000   2000.0000    200.0000     20.6599    105.8877
  2132.2500   2000.0000    200.0000     21.4721    105.3988
  2132.5000   2000.0000    200.0000     23.5157    104.1038
  2132.7500   2000.0000    200.0000     28.4535    103.0105
  2133.0000   2000.0000    200.0000     43.0170    100.9613
  2133.2500   2000.0000    200.0000    163.0867     99.0778
  2133.5000   2000.0000    200.0000 100000.0000     95.1803
  2133.7500   2000.0000    200.0000 100000.0000     92.0607
  2134.0000   2000.0000    200.0000 100000.0000     87.5602
  2134.2500   2000.0000    200.0000 100000.0000     85.1943
  2134.5000   2000.0000    200.0000 100000.0000     82.6108
  2134.7500   2000.0000    200.0000 100000.0000     81.1064
  2135.0000   2000.0000    200.0000 100000.0000     78.6290
  2135.2500   2000.0000    200.0000 100000.0000     76.9283
  2135.5000   2000.0000    200.0000 100000.0000     74.8934
  2135.7500   2000.0000    200.0000 100000.0000     74.1740
