~Version Information
VERS.                      2.0: CWLS Log ASCII Standard - VERSION 2.0
WRAP.                       NO: One line per depth step
~Well Information Block
STRT.FT               899.1000: 
STOP.FT              2501.5000: 
STEP.FT                 0.1000: 
NULL.                -999.2500: 
COMP.          Petrogulf Corporation: COMPANY
WELL.           Deremer 17-21V: WELL
FLD.           Purgatorie River: FIELD
LOC.           851' FNL & 963' FWL: LOCATION
CNTY.               Las Animas: COUNTY
SRVC.                         : SERVICE COMPANY
DATE.          Tue Nov 18 09:12:06 2003: LOG DATE
UWI.                          : UNIQUE WELL ID
STAT.                 Colorado: STATE
~Curve Information Block
DEPT.FT            0 000 00 00: Depth
DPOR.pu                       : CDL Density Porosity
NEU.NAPI                      : Neutron
NPOR.pu                       : Neutron Porosity
RHOB.g/cc                     : CDL Bulk Density
RHOC.g/cc                     : CDL Density Correction
GR.GAPI                       : Gamma Ray
DCAL.in                       : CDL Caliper
~Parameter Information Block
~A  Depth       DPOR        NEU         NPOR        RHOB        RHOC         GR         DCAL    
# ...
  1453.5000     -0.4808   1076.8264     27.4921      2.6579      0.7514    140.0921      8.5259
  1453.6000     -4.8278   1074.4381     27.5942      2.7297      0.7909    136.6547      8.5259
  1453.7000     -5.7732   1064.6510     28.0120      2.7453      0.6497    141.3366      8.5259
  1453.8000     -6.4284   1061.4760     28.1473      2.7561      0.6069    153.8051      8.5163
  1453.9000     -6.9481   1069.4124     27.8088      2.7646      0.5976    162.7490      8.5163
  1454.0000     -4.9014   1074.5220     27.5906      2.7309      0.4208    160.4406      8.3905
  1454.1000     -0.5509   1077.3743     27.4687      2.6591      0.2686    155.7551      8.3905
  1454.2000      3.6366   1085.4158     27.1245      2.5900      0.2620    158.0456      8.3905
  1454.3000      6.5267   1100.7462     26.4668      2.5423      0.1817    161.3159      8.2973
  1454.4000      8.7134   1126.2052     25.3693      2.5062      0.1988    158.1575      8.2973
  1454.5000     10.9721   1156.9902     24.0325      2.4690      0.0890    150.7294      8.2540
  1454.6000     12.6824   1185.5182     22.7832      2.4407      0.0101    143.1510      8.2540
  1454.7000     13.0425   1217.5344     21.3679      2.4348      0.0943    138.0976      8.2540
  1454.8000     12.4465   1256.6285     19.6186      2.4446      0.0689    139.0193      8.2302
  1454.9000     11.7012   1292.1655     18.0062      2.4569      0.1293    144.5811      8.2302
  1455.0000     11.4704   1314.9785     16.9590      2.4607      0.1409    149.9007      8.2203
  1455.1000     12.2902   1326.1484     16.4426      2.4472      0.1553    154.6400      8.2203
  1455.2000     14.4219   1328.4283     16.3369      2.4120      0.0539    159.3066      8.2203
  1455.3000     17.6153   1323.1062     16.5835      2.3593      0.0201    161.6018      8.2137
  1455.4000     21.3271   1309.3239     17.2195      2.2981      0.0378    160.5405      8.2137
  1455.5000     24.6099   1289.3801     18.1334      2.2439      0.0176    156.2181      8.2048
  1455.6000     27.0500   1275.2543     18.7763      2.2037      0.1407    152.1092      8.2048
  1455.7000     29.3317   1270.7557     18.9803      2.1660      0.0323    150.4047      8.2048
  1455.8000     30.9737   1266.9027     19.1547      2.1389      0.0237    148.5153      8.2029
  1455.9000     30.4931   1255.7130     19.6598      2.1469     -0.0004    144.7515      8.2029
  1456.0000     28.0949   1233.2166     20.6691      2.1864      0.1347    140.5662      8.2279
  1456.1000     25.8189   1200.5862     22.1190      2.2240      0.1771    134.1815      8.2279
  1456.2000     24.9420   1163.6107     23.7435      2.2385      0.2095    123.3844      8.2279
  1456.3000     25.0002   1127.1138     25.3300      2.2375      0.1995    113.7365      8.2825
  1456.4000     25.3337   1097.1954     26.6193      2.2320      0.2602    110.3255      8.2825
  1456.5000     26.2101   1078.9572     27.4010      2.2175      0.2169    110.7184      8.3025
  1456.6000     28.3383   1067.2999     27.8990      2.1824      0.2006    111.0600      8.3025
  1456.7000     31.6642   1053.4331     28.4899      2.1275      0.0749    112.8743      8.3025
  1456.8000     34.4901   1040.5474     29.0376      2.0809      0.0413    116.5289      8.2514
  1456.9000     35.7829   1035.8164     29.2384      2.0596      0.0946    120.3698      8.2514
  1457.0000     36.9759   1032.1616     29.3934      2.0399      0.1498    126.9495      8.2225
  1457.1000     39.1115   1020.7051     29.8787      2.0047      0.1492    135.0934      8.2225
  1457.2000     40.5814   1005.2827     30.5307      1.9804      0.1115    138.7759      8.2225
  1457.3000     39.7530    995.5047     30.9434      1.9941      0.2300    138.4200      8.2536
  1457.4000     36.5484    996.9353     30.8830      2.0470      0.2008    140.3661      8.2536
  1457.5000     30.1319   1011.9246     30.2501      2.1528      0.2644    150.2517      8.2764
  1457.6000     19.2731   1042.5267     28.9536      2.3320      0.3248    166.6478      8.2764
  1457.7000      5.4670   1082.6270     27.2439      2.5598      0.6622    179.1032      8.2764
  1457.8000     -6.4457   1117.4197     25.7488      2.7564      0.8613    178.6189      8.2569
  1457.9000    -11.9631   1143.1589     24.6345      2.8474      0.8403    165.1000      8.2569
  1458.0000    -10.0541   1163.9998     23.7265      2.8159      0.7353    147.4523      8.2484
  1458.1000     -3.4965   1178.2136     23.1041      2.7077      0.4348    138.9379      8.2484
  1458.2000      2.8431   1187.2004     22.7092      2.6031      0.2442    143.6427      8.2484
  1458.3000      6.9122   1198.9752     22.1901      2.5359      0.2181    151.5588      8.2684
  1458.4000     10.2563   1210.6376     21.6741      2.4808      0.1236    152.6687      8.2684
  1458.5000     13.8206   1207.7976     21.7999      2.4220      0.0255    149.6844      8.2568
  1458.6000     17.4735   1185.7689     22.7722      2.3617      0.0949    149.9628      8.2568
  1458.7000     20.7995   1154.7792     24.1289      2.3068      0.0070    153.0658      8.2568
  1458.8000     22.2045   1127.3354     25.3204      2.2836      0.0453    155.4621      8.2053
  1458.9000     20.8179   1107.2703     26.1862      2.3065      0.1237    157.2990      8.2053
  1459.0000     18.1504   1098.2368     26.5746      2.3505      0.2370    159.7884      8.2002
  1459.1000     15.0598   1100.8613     26.4619      2.4015      0.1453    162.8899      8.2002
  1459.2000     10.4959   1102.6139     26.3865      2.4768      0.2397    163.8098      8.2002
  1459.3000      5.2579   1092.5411     26.8191      2.5632      0.4233    160.8381      8.2797
  1459.4000      1.5257   1071.8624     27.7042      2.6248      0.4680    157.4565      8.2797
  1459.5000      0.2112   1051.1622     28.5865      2.6465      0.5700    155.7222      8.3995
  1459.6000      1.8946   1042.8788     28.9386      2.6187      0.5212    155.6413      8.3995
  1459.7000      6.1838   1049.5264     28.6561      2.5480      0.3054    157.7605      8.3995
  1459.8000     10.4479   1062.8215     28.0900      2.4776      0.1353    161.0927      8.4926
  1459.9000     12.5919   1077.2245     27.4751      2.4422      0.1525    162.0513      8.4926
  1460.0000     13.4705   1095.2051     26.7048      2.4277      0.1435    158.0766      8.5076
  1460.1000     14.3883   1116.0004     25.8100      2.4126      0.1048    154.2746      8.5076
  1460.2000     14.9586   1129.6145     25.2218      2.4032      0.0917    156.7648      8.5076
  1460.3000     15.0589   1131.8431     25.1253      2.4015      0.2126    160.8824      8.4360
  1460.4000     15.7387   1126.8027     25.3434      2.3903      0.1859    160.1070      8.4360
  1460.5000     17.3156   1116.6399     25.7824      2.3643      0.1680    157.1441      8.3694
  1460.6000     19.3323   1106.0493     26.2387      2.3310      0.1662    156.5494      8.3694
  1460.7000     21.2804   1104.6990     26.2968      2.2989      0.1396    160.3207      8.3694
  1460.8000     22.0826   1112.6112     25.9562      2.2856      0.1215    163.9046      8.3610
  1460.9000     20.1840   1118.5074     25.7018      2.3170      0.1480    161.2664      8.3610
  1461.0000     14.8208   1120.5137     25.6152      2.4055      0.2373    157.1440      8.3865
  1461.1000      7.4930   1125.6404     25.3937      2.5264      0.4508    156.8176      8.3865
  1461.2000      2.2032   1137.7539     24.8691      2.6136      0.6621    158.9869      8.3865
  1461.3000      2.0287   1155.9878     24.0762      2.6165      0.5944    160.2780      8.4099
  1461.4000      6.1581   1177.0031     23.1572      2.5484      0.4988    160.1609      8.4099
  1461.5000     12.0290   1189.1469     22.6236      2.4515      0.3659    162.3172      8.4241
  1461.6000     17.8039   1180.5087     23.0034      2.3562      0.2191    170.3027      8.4241
  1461.7000     21.7836   1164.3096     23.7130      2.2906      0.1543    179.3636      8.4241
  1461.8000     21.8273   1163.2626     23.7587      2.2898      0.1958    180.4494      8.4510
