~Version Information
 VERS.                                  2.0 : CWLS LAS VERSION
 WRAP.                                   NO : WRAPING MODE
 SWARE .                 MController 2.5.0I : SOFTWARE VERSION
~Well Information
 WELL.                      Anderson 18-43v : WELL
 COMP.                       Petrogulf Corp : COMPANY
 FLD.                      Purgatorie River : FIELD
 LOC.                NE/SE Sec 18 T33S R67W : LOCATION
 DATE.                              9/01/04 : DATE(S) LOGGED
 SRVC.       Blanco geological services LLC : SERVICE COMPANY
 STAT.                                   CO : STATE
 CNTY.                           Las Animas : COUNTY
 CTRY.                                  USA : COUNTRY
 API.                       05-071-08156-00 : API NUMBER
 STRT.FT                             158.00 : START DEPTH
 STOP.FT                            2300.00 : STOP DEPTH
 STEP.FT                               1.00 : DEPTH INCREMENT
 NULL.                                -9999 : NULL VALUE
~Curve information
 DEPTH.FT                                   :
 ROP.MIN/FT                                 :
 GAS.UNITS                                  :
~ASCII Log data
# ...
       758.0          0.2          3.6 
       759.0          0.1          3.8 
       760.0          0.2          3.9 
       761.0          0.1          4.1 
       762.0          0.2          4.0 
       763.0          0.1          4.0 
       764.0          0.2          4.1 
       765.0          0.2          4.2 
       766.0          0.1          4.1 
       767.0          0.2          4.0 
       768.0          0.1          4.0 
       769.0          0.2          4.2 
       770.0          0.2          4.1 
       771.0          0.2          4.3 
       772.0          0.2          4.4 
       773.0          0.2          4.4 
       774.0          0.2          4.3 
       775.0          0.2          4.4 
       776.0          0.2          4.5 
       777.0          0.2          4.5 
       778.0          1.5          9.5 
       779.0          0.4          9.3 
       780.0          0.3          7.8 
       781.0          0.2          7.1 
       782.0          0.2          6.3 
       783.0          0.2          6.2 
       784.0          0.2          5.6 
       785.0          0.2          5.3 
       786.0          0.2          5.3 
       787.0          0.2          5.5 
       788.0          0.2          5.8 
       789.0          0.2          5.8 
       790.0          0.2          5.7 
       791.0          0.2          6.1 
       792.0          0.2          5.9 
       793.0          0.2          6.2 
       794.0          0.2          6.6 
       795.0          0.2          6.7 
       796.0          0.2          7.0 
       797.0          0.2          7.0 
       798.0          0.2          7.2 
       799.0          0.2          7.0 
       800.0          0.2          6.8 
       801.0          0.2          6.9 
       802.0          0.2          6.7 
       803.0          0.2          6.4 
       804.0          0.2          6.0 
       805.0          0.1          5.9 
       806.0          0.2          6.0 
       807.0          0.2          5.6 
       808.0          1.2          9.0 
       809.0          0.3          9.2 
       810.0          0.2          8.3 
       811.0          0.3          7.1 
       812.0          0.2          5.9 
       813.0          0.3          5.3 
       814.0          0.2          4.6 
       815.0          0.2          4.6 
       816.0          0.2          4.5 
       817.0          0.2          4.6 
       818.0          0.2          4.6 
       819.0          0.2          4.3 
       820.0          0.2          4.2 
       821.0          0.2          4.5 
       822.0          0.2          4.4 
       823.0          0.2          4.2 
       824.0          0.1          4.1 
       825.0          0.1          4.4 
       826.0          0.2          4.4 
       827.0          0.1          4.4 
       828.0          0.2          4.4 
       829.0          0.2          4.3 
       830.0          0.2          4.5 
       831.0          0.2          4.4 
       832.0          0.1          4.7 
       833.0          0.2          4.4 
       834.0          0.2          4.4 
       835.0          0.1          4.4 
       836.0          0.2          4.4 
       837.0          0.2          4.4 
       838.0          1.3          6.6 
       839.0          0.3          6.9 
       840.0          0.3          6.7 
       841.0          0.1          5.8 
       842.0          0.1          5.9 
       843.0          0.1          5.6 
       844.0          0.1          5.3 
       845.0          0.1          5.2 
       846.0          0.2          5.3 
       847.0          0.2          5.2 
       848.0          0.3          5.0 
       849.0          0.2          5.0 
       850.0          0.1          5.1 
       851.0          0.2          4.9 
       852.0          0.1          5.1 
       853.0          0.2          5.0 
       854.0          0.1          5.1 
       855.0          0.1          5.0 
       856.0          0.1          5.3 
       857.0          0.2          5.5 
       858.0          0.2          5.6 
       859.0          0.2          5.5 
       860.0          0.2          5.6 
       861.0          0.2          5.9 
       862.0          0.2          5.9 
       863.0          0.2          5.7 
       864.0          0.2          5.7 
       865.0          0.2          5.8 
       866.0          0.2          5.9 
       867.0          0.1          6.0 
       868.0          1.5          6.7 
       869.0          0.3          7.5 
       870.0          0.3          6.3 
       871.0          0.2          5.5 
       872.0          0.2          5.1 
       873.0          0.2          4.8 
       874.0          0.2          4.7 
       875.0          0.2          4.5 
       876.0          0.2          4.6 
       877.0          0.2          4.1 
       878.0          0.2          4.3 
       879.0          0.1          4.2 
       880.0          0.1          4.2 
       881.0          0.1          4.5 
       882.0          0.2          4.5 
       883.0          0.2          4.4 
       884.0          0.2          4.5 
       885.0          0.2          4.4 
       886.0          0.2          4.2 
       887.0          0.2          4.5 
       888.0          0.2          4.3 
       889.0          0.2          4.4 
       890.0          0.2          4.3 
       891.0          0.2          4.4 
       892.0          0.2          4.4 
       893.0          0.2          4.4 
       894.0          0.2          4.5 
       895.0          0.2          4.4 
       896.0          0.2          4.4 
       897.0          0.2          4.4 
       898.0          1.7          5.3 
       899.0          0.3          4.7 
       900.0          0.3          4.7 
       901.0          0.2          4.3 
       902.0          0.2          4.1 
       903.0          0.2          4.3 
       904.0          0.2          4.3 
       905.0          0.2          4.5 
       906.0          0.1          4.4 
       907.0          0.2          4.6 
       908.0          0.2          4.9 
       909.0          0.1          4.8 
       910.0          0.2          5.1 
       911.0          0.1          5.2 
       912.0          0.1          5.3 
       913.0          0.1          5.2 
       914.0          0.1          4.9 
       915.0          0.1          5.1 
       916.0          0.2          5.4 
       917.0          0.2          5.3 
       918.0          0.2          5.3 
       919.0          0.2          5.4 
       920.0          0.2          5.3 
       921.0          0.3          5.4 
       922.0          0.2          5.1 
       923.0          0.1          4.9 
       924.0          0.1          5.0 
       925.0          0.1          5.0 
       926.0          0.1          5.2 
       927.0          0.1          4.6 
       928.0          1.1          6.8 
       929.0          0.2          7.6 
       930.0          0.2          7.6 
       931.0          0.2          7.5 
       932.0          0.1          7.1 
       933.0          0.1          6.7 
       934.0          0.2          6.6 
       935.0          0.2          6.2 
       936.0          0.2          6.1 
       937.0          0.2          6.0 
       938.0          0.2          6.2 
       939.0          0.2          5.8 
       940.0          0.2          5.7 
       941.0          0.2          5.5 
       942.0          0.3          5.7 
       943.0          0.2          5.6 
       944.0          0.2          5.6 
       945.0          0.2          5.7 
       946.0          0.2          5.3 
       947.0          0.2          5.1 
       948.0          0.2          5.1 
       949.0          0.2          5.0 
       950.0          0.2          5.1 
       951.0          0.1          4.8 
       952.0          0.1          5.2 
       953.0          0.1          5.1 
       954.0          0.1          5.0 
       955.0          0.1          5.3 
       956.0          0.2          5.2 
       957.0          0.2          5.3 
