~Version Information
VERS.                      2.0: CWLS Log ASCII Standard - VERSION 2.0
WRAP.                       NO: One line per depth step
~Well Information Block
STRT.FT               -14.0000: 
STOP.FT              2565.5000: 
STEP.FT                 0.5000: 
NULL.                -999.2500: 
COMP.          Pioneer Natural Resources: COMPANY
WELL.             Carbon 34-21: WELL
FLD.           Purgatorie River: FIELD
LOC.           56' FSL & 2304' FEL: LOCATION
PROV.                 Colorado: PROVINCE
CNTY.               Las Animas: COUNTRY
SRVC.          Patterson Wireline: SERVICE COMPANY
DATE.          Mon Nov 08 08:55:10 2004: LOG DATE
UWI.           05-071-08117-00: UNIQUE WELL ID
~Curve Information Block
DEPT.FT            0 000 00 00: Depth
TT3.usec                      : CBL 3' Travel Time
AMP3.mV                       : CBL 3' Amplitude
GR.GAPI                       : Gamma Ray
CCL.                          : Casing Collar Locator
~Parameter Information Block
~A  Depth       TT3         AMP3         GR         CCL     
# ...
  1661.0000    282.7621     63.1146    141.8262      0.0000
  1661.5000    282.8380     63.2869    143.5352      0.0000
  1662.0000    282.8385     63.0646    140.4171      0.0000
  1662.5000    282.7470     62.9465    144.6204      0.0000
  1663.0000    282.6736     63.2284    148.0178      0.0000
  1663.5000    282.6736     63.5909    143.7155      0.0000
  1664.0000    282.6862     63.8268    138.5582      0.0000
  1664.5000    282.6905     63.9818    141.4162      0.0000
  1665.0000    282.7035     64.0010    155.6472      0.0000
  1665.5000    282.7109     63.8714    167.2621      0.0000
  1666.0000    282.6815     63.7398    165.9995      0.0000
  1666.5000    282.6329     63.9025    154.9464      0.0000
  1667.0000    282.6252     64.2820    140.4641      0.0000
  1667.5000    282.6438     64.7149    133.2985      0.0000
  1668.0000    282.6691     65.0093    140.9727      0.0000
  1668.5000    282.6960     64.3462    158.6966      0.0000
  1669.0000    282.6765     62.9292    174.1550      0.0000
  1669.5000    282.6313     62.3791    170.5313      0.0000
  1670.0000    282.6188     62.5702    152.0335      0.0000
  1670.5000    282.6161     62.7676    139.8693      0.0000
  1671.0000    282.6212     63.1192    135.7667      0.0000
  1671.5000    282.6499     63.0453    132.9422      0.0000
  1672.0000    282.6745     62.5180    122.7528      0.0000
  1672.5000    282.6868     62.2874    100.7035      0.0000
  1673.0000    282.6777     62.6295     76.4037      0.0000
  1673.5000    282.6375     63.2407     61.3038      0.0000
  1674.0000    282.6000     63.8213     59.0546      0.0000
  1674.5000    282.5974     64.2528     63.0574      0.0000
  1675.0000    282.6055     64.3911     62.9391      0.0000
  1675.5000    282.5991     64.1913     60.6730      0.0000
  1676.0000    282.5878     63.7875     57.2112      0.0000
  1676.5000    282.5933     63.3687     52.7122      0.0000
  1677.0000    282.6085     63.0804     49.7951      0.0000
  1677.5000    282.6076     63.0642     48.5295      0.0000
  1678.0000    282.5963     62.9815     51.1634      0.0000
  1678.5000    282.5920     62.5935     64.5615      0.0000
  1679.0000    282.6374     62.1983     94.0066      0.0000
  1679.5000    283.0891     61.3017    127.4659      0.0000
  1680.0000    284.9411     58.3580    150.3586      0.0000
  1680.5000    288.3437     52.3170    161.1391      0.0000
  1681.0000    290.9901     45.6650    157.6684      0.0000
  1681.5000    291.6726     43.0583    137.8602      0.0000
  1682.0000    291.6974     42.7459    114.0634      2.5946
  1682.5000    291.8864     42.2440    102.2353      0.0000
  1683.0000    291.6818     42.9557    102.0738      0.0000
  1683.5000    289.3822     49.0990    108.6879      0.0000
  1684.0000    285.7249     58.3807    120.5154      0.0000
  1684.5000    283.5373     63.4383    128.6896      0.0000
  1685.0000    282.9938     64.2033    132.6974      0.0000
  1685.5000    282.9228     64.5562    140.6373      0.0000
  1686.0000    282.9347     65.4427    145.7607      0.0000
  1686.5000    282.9778     65.9518    144.4610      0.0000
  1687.0000    282.9436     66.1484    131.4735      0.0000
  1687.5000    282.8587     66.0462    107.8744      0.0000
  1688.0000    282.8018     65.6078     94.7095      0.0000
  1688.5000    282.7884     65.2824     94.3155      0.0000
  1689.0000    282.8158     65.0521     97.1254      0.0000
  1689.5000    282.8087     64.7382     98.2751      0.0000
  1690.0000    282.6991     64.4172    101.4079      0.0000
  1690.5000    282.5685     63.9019    105.9755      0.0000
  1691.0000    282.5093     63.4521    108.5979      0.0000
  1691.5000    282.5109     63.6020    106.4528      0.0000
  1692.0000    282.5486     64.0536     98.1340      0.0000
  1692.5000    282.6018     64.2974     90.4498      0.0000
  1693.0000    282.6181     64.1469     89.2515      0.0000
  1693.5000    282.5732     63.7563     94.5750      0.0000
  1694.0000    282.5373     63.7727     99.9000      0.0000
  1694.5000    282.5828     64.2709    103.6756      0.0000
  1695.0000    282.6322     64.6250    108.8230      0.0000
  1695.5000    282.6109     64.5779    111.9334      0.0000
  1696.0000    282.5534     64.2760    115.3467      0.0000
  1696.5000    282.5202     64.0246    120.1354      0.0000
  1697.0000    282.5164     63.9211    127.0567      0.0000
  1697.5000    282.5188     63.9286    140.9697      0.0000
  1698.0000    282.5183     63.8866    161.0993      0.0000
  1698.5000    282.4944     63.6851    175.0686      0.0000
  1699.0000    282.4692     63.3295    174.4464      0.0000
  1699.5000    282.4733     63.0678    164.8849      0.0000
  1700.0000    282.4854     63.1364    162.5634      0.0000
  1700.5000    282.4945     63.3979    161.1169      0.0000
  1701.0000    282.5116     63.6383    155.2894      0.0000
  1701.5000    282.5438     63.7921    156.7836      0.0000
  1702.0000    282.5825     63.9307    157.3804      0.0000
  1702.5000    282.6102     64.1497    147.3262      0.0000
  1703.0000    282.6205     64.4408    141.1764      0.0000
  1703.5000    282.6149     64.7355    149.5636      0.0000
  1704.0000    282.6432     65.0224    167.1918      0.0000
  1704.5000    282.7142     65.3017    178.9489      0.0000
  1705.0000    282.7702     65.4555    175.4958      0.0000
  1705.5000    282.8004     65.5020    170.4181      0.0000
  1706.0000    282.8310     65.5854    171.2981      0.0000
  1706.5000    282.8638     65.7387    169.2488      0.0000
  1707.0000    282.8869     65.8783    172.7987      0.0000
  1707.5000    282.9153     65.8708    184.7412      0.0000
  1708.0000    282.9553     65.6817    191.9070      0.0000
  1708.5000    283.0114     65.2320    189.7541      0.0000
  1709.0000    283.0768     64.5137    186.5145      0.0000
  1709.5000    283.1311     63.8680    187.1260      0.0000
  1710.0000    283.1852     63.5947    181.3354      0.0000
  1710.5000    283.2485     63.9596    167.3344      0.0000
  1711.0000    283.2766     65.1136    149.8266      0.0000
  1711.5000    283.3454     65.4337    127.3468      0.0000
  1712.0000    283.5801     63.1877    108.7288      0.0000
  1712.5000    283.8196     60.2947    108.8275      0.0000
  1713.0000    283.9496     58.8851    124.9592      0.0000
  1713.5000    284.0056     59.0463    140.2702      0.0000
  1714.0000    283.8864     60.9073    148.9942      0.0000
  1714.5000    283.5965     63.4779    159.6748      0.0000
  1715.0000    283.4774     63.9724    172.8722      0.0000
  1715.5000    283.5658     63.2058    180.8504      0.0000
  1716.0000    283.7049     62.5128    183.6358      0.0000
  1716.5000    283.8050     60.7339    185.5812      0.0000
  1717.0000    283.6353     59.8495    178.9096      0.0000
  1717.5000    283.1547     62.4566    159.4677      0.0000
  1718.0000    282.7925     65.9960    140.6306      0.0000
  1718.5000    282.7552     67.4532    135.2719      0.0000
  1719.0000    282.8329     66.6555    141.4729      0.0000
  1719.5000    282.8193     65.2031    147.0501      0.0000
  1720.0000    282.7234     64.8080    144.1535      0.0000
  1720.5000    282.6728     65.1051    135.0301      0.0000
  1721.0000    282.6815     65.2186    120.3809      0.0000
  1721.5000    282.7088     65.1587    114.4138      0.0000
  1722.0000    282.7461     64.9942    130.8351      0.0000
  1722.5000    282.8514     64.7291    159.0641      0.0000
  1723.0000    283.7143     63.9109    170.1169      0.0000
  1723.5000    288.1053     60.8840    157.5525      0.0000
  1724.0000    296.4091     53.4822    141.8165      0.0000
  1724.5000    298.9677     45.7449    133.0792      0.0000
  1725.0000    294.7554     43.3976    131.0315      0.0000
  1725.5000    292.3813     43.3022    142.6806      0.0000
  1726.0000    292.0600     43.8034    162.3546      0.0000
  1726.5000    291.2167     48.2635    168.6189      0.0000
  1727.0000    288.6048     56.0669    158.4868      0.0000
  1727.5000    285.3727     60.8600    137.8695      0.0000
