~Version Information
VERS.                      2.0: CWLS Log ASCII Standard - VERSION 2.0
WRAP.                       NO: One line per depth step
~Well Information Block
STRT.FT               858.7000: 
STOP.FT              2478.2000: 
STEP.FT                 0.1000: 
NULL.                -999.2500: 
COMP.          Petrogulf Corporation: COMPANY
WELL.           Torcom 17-33 V: WELL
FLD.           Purgatoire River: FIELD
LOC.           1544' FSL & 1746' FEL: LOCATION
PROV.                 Colorado: PROVINCE
CNTY.               Las Animas: COUNTRY
SRVC.                Patterson: SERVICE COMPANY
DATE.          Wed Dec 03 09:22:08 2003: LOG DATE
UWI.                          : UNIQUE WELL ID
~Curve Information Block
DEPT.FT            0 000 00 00: Depth
DCAL.in                       : CDL Caliper
RHOB.g/cc                     : CDL Bulk Density
RHOC.g/cc                     : CDL Density Correction
DPOR.pu                       : CDL Density Porosity
GR.GAPI                       : Gamma Ray
NPOR.pu                       : Neutron Porosity
~Parameter Information Block
~A  Depth       DCAL        RHOB        RHOC        DPOR         GR         NPOR    
# ...
   887.5000      8.4374      2.1381     -0.3905     31.0259     76.7825     52.1034
   887.6000      8.4374      2.1383     -0.3602     31.0108     77.4172     51.9769
   887.7000      8.4374      2.1375     -0.4159     31.0626     81.6093     51.6547
   887.8000      8.4327      2.1482     -0.3645     30.4128     85.7829     51.6082
   887.9000      8.4327      2.1795     -0.3853     28.5153     84.6940     51.9886
   888.0000      8.4305      2.2212     -0.3078     25.9882     81.0830     52.4308
   888.1000      8.4305      2.2513     -0.2950     24.1658     80.8368     52.6707
   888.2000      8.4305      2.2606     -0.2876     23.5999     82.2892     52.8388
   888.3000      8.4807      2.2554     -0.3204     23.9165     82.8720     53.0806
   888.4000      8.4807      2.2394     -0.2770     24.8842     84.2281     53.2412
   888.5000      8.4306      2.2187     -0.3756     26.1421     85.7521     53.1435
   888.6000      8.4306      2.1980     -0.3496     27.3925     85.5048     52.9468
   888.7000      8.4306      2.1658     -0.3426     29.3444     85.3316     52.7731
   888.8000      8.4242      2.1197     -0.3925     32.1411     88.9474     52.3302
   888.9000      8.4242      2.0918     -0.4042     33.8279     94.2723     51.5686
   889.0000      8.4179      2.1123     -0.4296     32.5882     96.1618     51.0005
   889.1000      8.4179      2.1670     -0.2971     29.2733     92.4345     51.1065
   889.2000      8.4179      2.2175     -0.2900     26.2100     84.5174     51.7129
   889.3000      8.4251      2.2467     -0.3143     24.4423     81.1651     52.0775
   889.4000      8.4251      2.2574     -0.3058     23.7931     86.6972     52.0153
   889.5000      8.4231      2.2555     -0.2972     23.9069     90.8391     51.8192
   889.6000      8.4231      2.2532     -0.3416     24.0475     85.2940     51.4518
   889.7000      8.4231      2.2623     -0.2519     23.4976     75.8053     50.9239
   889.8000      8.4258      2.2794     -0.2719     22.4586     69.0667     50.5919
   889.9000      8.4258      2.2981     -0.2646     21.3253     66.7324     50.7661
   890.0000      8.4300      2.3117     -0.2826     20.5028     69.1941     51.1119
   890.1000      8.4300      2.3104     -0.2794     20.5816     73.7353     51.0381
   890.2000      8.4300      2.2917     -0.2977     21.7124     75.8841     50.6568
   890.3000      8.4325      2.2631     -0.3238     23.4471     74.8215     50.6670
   890.4000      8.4325      2.2332     -0.3416     25.2618     73.8494     51.1755
   890.5000      8.4293      2.2103     -0.3672     26.6494     74.1062     51.4900
   890.6000      8.4293      2.1997     -0.3081     27.2906     73.0824     51.0444
   890.7000      8.4293      2.2047     -0.3953     26.9908     71.4929     50.2736
   890.8000      8.4343      2.2263     -0.3425     25.6771     73.6590     50.1668
   890.9000      8.4343      2.2453     -0.2483     24.5244     80.1990     50.7638
   891.0000      8.4325      2.2422     -0.3340     24.7130     86.5496     51.3842
   891.1000      8.4325      2.2335     -0.3426     25.2452     88.5594     51.4742
   891.2000      8.4325      2.2379     -0.3067     24.9743     85.5243     51.0358
   891.3000      8.4381      2.2484     -0.3246     24.3367     78.5806     50.7849
   891.4000      8.4381      2.2500     -0.2667     24.2404     71.6605     51.0255
   891.5000      8.4394      2.2375     -0.3083     25.0026     68.9869     51.1933
   891.6000      8.4394      2.2261     -0.3197     25.6921     71.3227     51.1450
   891.7000      8.4394      2.2350     -0.3665     25.1512     75.7578     51.1761
   891.8000      8.4405      2.2554     -0.2662     23.9177     78.8324     51.2672
   891.9000      8.4405      2.2640     -0.2733     23.3953     78.2423     51.3165
   892.0000      8.4242      2.2711     -0.3118     22.9613     75.9261     51.2731
   892.1000      8.4242      2.2932     -0.2621     21.6227     76.8556     51.2246
   892.2000      8.4242      2.3068     -0.2333     20.7990     81.8611     51.3519
   892.3000      8.4343      2.2952     -0.3227     21.5036     86.4474     51.5814
   892.4000      8.4343      2.2790     -0.2800     22.4850     90.1996     51.6812
   892.5000      8.4379      2.2739     -0.3008     22.7929     96.0700     51.4303
   892.6000      8.4379      2.2771     -0.3456     22.5978     99.0340     50.8813
   892.7000      8.4379      2.2770     -0.2731     22.6090     94.9222     50.5687
   892.8000      8.4327      2.2620     -0.3467     23.5138     88.6601     50.8883
   892.9000      8.4327      2.2347     -0.3095     25.1668     83.7224     51.5193
   893.0000      8.4294      2.2043     -0.2982     27.0110     80.1094     51.7818
   893.1000      8.4294      2.1894     -0.4054     27.9157     79.1643     51.4991
   893.2000      8.4294      2.2020     -0.2727     27.1530     80.5747     51.1540
   893.3000      8.4271      2.2212     -0.2783     25.9856     79.3430     51.1690
   893.4000      8.4271      2.2275     -0.3590     25.6056     71.8519     51.4658
   893.5000      8.4088      2.2220     -0.3342     25.9397     64.5285     51.7458
   893.6000      8.4088      2.2152     -0.3541     26.3520     64.8071     51.9205
   893.7000      8.4088      2.2276     -0.3710     25.5972     69.5206     52.0519
   893.8000      8.4227      2.2654     -0.3382     23.3080     72.5476     52.0512
   893.9000      8.4227      2.2934     -0.2603     21.6127     74.9106     51.7040
   894.0000      8.4154      2.2786     -0.3014     22.5084     78.1722     51.1773
   894.1000      8.4154      2.2422     -0.3169     24.7141     77.9143     50.8684
   894.2000      8.4154      2.2192     -0.3431     26.1111     75.9249     50.7778
   894.3000      8.4249      2.2229     -0.4033     25.8860     78.0540     50.7740
   894.4000      8.4249      2.2451     -0.2962     24.5382     81.3382     50.7439
   894.5000      8.4242      2.2577     -0.2562     23.7775     81.5355     50.5533
   894.6000      8.4242      2.2507     -0.3268     24.2002     79.3014     50.6085
   894.7000      8.4242      2.2436     -0.3896     24.6330     77.4489     51.0785
   894.8000      8.4276      2.2343     -0.2262     25.1933     78.7540     51.4451
   894.9000      8.4276      2.1976     -0.3036     27.4167     80.5961     51.5700
   895.0000      8.4346      2.1497     -0.3307     30.3216     79.0589     51.7369
   895.1000      8.4346      2.1282     -0.3629     31.6235     78.2982     52.1733
   895.2000      8.4346      2.1274     -0.3354     31.6729     82.9988     52.5934
   895.3000      8.4649      2.1143     -0.3242     32.4684     88.9479     52.4119
   895.4000      8.4649      2.0851     -0.3675     34.2386     91.1983     51.9164
   895.5000      8.4344      2.0617     -0.3804     35.6571     90.2818     51.8576
   895.6000      8.4344      2.0448     -0.3555     36.6797     88.3779     52.0476
   895.7000      8.4344      2.0309     -0.4589     37.5199     85.4973     51.8678
   895.8000      8.4338      2.0278     -0.3643     37.7088     82.7299     51.5106
   895.9000      8.4338      2.0341     -0.4499     37.3278     83.0974     51.3910
   896.0000      8.4334      2.0568     -0.3959     35.9498     85.2415     51.3016
   896.1000      8.4334      2.1044     -0.4014     33.0657     83.9666     51.0604
   896.2000      8.4334      2.1607     -0.2962     29.6558     78.5324     50.9758
   896.3000      8.4324      2.1899     -0.2795     27.8873     74.1307     51.4724
   896.4000      8.4324      2.1709     -0.2553     29.0388     72.6506     52.3228
   896.5000      8.4323      2.1257     -0.3675     31.7754     74.1003     52.5805
   896.6000      8.4323      2.0994     -0.3937     33.3703     77.4720     52.1198
   896.7000      8.4323      2.0986     -0.3352     33.4166     79.6527     51.7520
   896.8000      8.4315      2.1000     -0.3910     33.3339     80.9059     51.8997
   896.9000      8.4315      2.1030     -0.3501     33.1506     81.6943     52.4983
   897.0000      8.4260      2.1140     -0.3114     32.4821     82.0896     53.2531
