~Version Information
VERS.                      2.0: CWLS Log ASCII Standard - VERSION 2.0
WRAP.                       NO: One line per depth step
~Well Information Block
STRT.FT               580.0000: 
STOP.FT              1756.0000: 
STEP.FT                 0.1000: 
NULL.                -999.2500: 
COMP.          Pioneer Natural Resources: COMPANY
WELL.          Lookout Point 31-23 Tr: WELL
FLD.           Purgatoire River: FIELD
LOC.           541' FNL & 1768' FEL: LOCATION
PROV.                 Colorado: PROVINCE
CNTY.               Las Animas: COUNTRY
SRVC.                Patterson: SERVICE COMPANY
DATE.          Mon Jan 24 07:20:20 2005: LOG DATE
UWI.           05 071 08260 00: UNIQUE WELL ID
~Curve Information Block
DEPT.FT            0 000 00 00: Depth
DCAL.in                       : CDL Caliper
DPOR.pu                       : CDL Density Porosity
GR.GAPI                       : Gamma Ray
NPOR.pu                       : Neutron Porosity
RHOB.g/cc                     : CDL Bulk Density
RHOC.g/cc                     : CDL Density Correction
~Parameter Information Block
~A  Depth       DCAL        DPOR         GR         NPOR        RHOB        RHOC    
# ...
   887.2000      7.9620      7.9221     39.0289     13.8424      2.5193      0.0721
   887.3000      7.9608      7.9322     43.7509     13.2801      2.5191      0.0550
   887.4000      7.9608      7.6312     46.8914     12.9241      2.5241      0.0697
   887.5000      7.9597      7.0209     48.9431     13.4047      2.5342      0.0621
   887.6000      7.9597      5.8274     50.4736     14.1846      2.5538      0.0534
   887.7000      7.9597      3.8138     52.1834     14.1709      2.5871      0.0978
   887.8000      7.9595      2.0946     53.0842     13.8388      2.6154      0.1365
   887.9000      7.9595      2.2181     53.3118     14.0814      2.6134      0.1518
   888.0000      7.9617      3.9609     54.2567     14.4055      2.5846      0.0943
   888.1000      7.9617      5.4828     55.7979     14.2290      2.5595      0.0794
   888.2000      7.9617      5.5183     56.9983     13.9566      2.5589      0.0780
   888.3000      7.9642      4.1610     55.6946     13.8286      2.5813      0.0796
   888.4000      7.9642      2.2399     52.6564     13.3515      2.6130      0.1035
   888.5000      7.9651      0.7100     51.8887     12.6065      2.6383      0.1223
   888.6000      7.9651     -0.1304     54.8919     12.4276      2.6522      0.1102
   888.7000      7.9651     -0.3668     59.0504     12.9370      2.6561      0.1568
   888.8000      7.9655      0.2589     60.2712     13.6386      2.6457      0.0798
   888.9000      7.9655      1.8354     56.9270     14.0186      2.6197      0.0864
   889.0000      7.9658      3.8292     51.8792     13.6648      2.5868      0.0366
   889.1000      7.9658      5.5509     48.3358     12.7205      2.5584      0.0526
   889.2000      7.9658      7.0113     45.8770     11.6548      2.5343      0.0360
   889.3000      7.9650      8.2274     45.3492     10.9539      2.5142      0.0191
   889.4000      7.9650      8.6891     48.3260     11.1599      2.5066      0.0235
   889.5000      7.9644      8.2513     50.9237     12.1587      2.5139      0.0477
   889.6000      7.9644      7.1658     49.0796     12.8832      2.5318      0.0481
   889.7000      7.9644      5.3310     46.1685     12.7890      2.5620      0.0355
   889.8000      7.9651      3.0601     46.1518     12.6122      2.5995      0.0835
   889.9000      7.9651      1.6408     47.7977     13.0054      2.6229      0.1372
   890.0000      7.9656      1.5813     49.0922     13.4464      2.6239      0.0767
   890.1000      7.9656      1.9145     47.8676     13.2101      2.6184      0.0816
   890.2000      7.9656      2.1920     44.1712     12.6578      2.6138      0.0421
   890.3000      7.9660      2.9347     43.3418     12.0665      2.6016      0.1007
   890.4000      7.9660      4.0739     47.7067     11.3770      2.5828      0.0561
   890.5000      7.9658      4.6686     52.2086     11.2222      2.5730      0.0392
   890.6000      7.9658      4.6952     54.0525     11.7619      2.5725      0.1123
   890.7000      7.9658      4.8349     53.8658     12.0283      2.5702      0.0514
   890.8000      7.9642      4.9196     50.7713     11.6743      2.5688      0.0730
   890.9000      7.9642      4.7629     47.7441     11.5343      2.5714      0.0513
   891.0000      7.9626      4.3090     48.9145     12.0030      2.5789      0.0237
   891.1000      7.9626      3.5348     51.8909     12.4669      2.5917      0.0548
   891.2000      7.9626      2.9693     52.0441     12.1182      2.6010      0.0670
   891.3000      7.9643      3.0720     50.1234     11.2697      2.5993      0.0761
   891.4000      7.9643      3.1599     49.4120     10.8231      2.5979      0.0229
   891.5000      7.9676      1.9084     50.0351     10.9571      2.6185      0.0404
   891.6000      7.9676     -0.7706     51.0392     11.2182      2.6627      0.0606
   891.7000      7.9676     -3.1919     51.7127     11.5023      2.7027      0.1151
   891.8000      7.9685     -3.4010     50.6632     11.9487      2.7061      0.1313
   891.9000      7.9685     -1.6519     47.6020     12.1062      2.6773      0.1108
   892.0000      7.9647      0.0815     43.4637     11.7031      2.6487      0.0772
   892.1000      7.9647      1.2827     40.4028     11.2194      2.6288      0.1230
   892.2000      7.9647      2.6581     41.0584     11.1678      2.6061      0.0509
   892.3000      7.9580      3.8505     44.8447     11.5964      2.5865      0.0523
   892.4000      7.9580      4.3940     48.4893     12.0810      2.5775      0.1019
   892.5000      7.9544      4.6768     50.4027     12.4877      2.5728      0.0689
   892.6000      7.9544      4.9197     49.6620     12.9906      2.5688      0.0534
   892.7000      7.9544      5.1690     46.1833     13.5393      2.5647      0.0718
   892.8000      7.9579      5.5122     43.3091     13.9759      2.5590      0.0694
   892.9000      7.9579      5.5400     43.6431     14.5027      2.5586      0.0288
   893.0000      7.9630      5.1017     45.7463     15.4290      2.5658      0.0817
   893.1000      7.9630      5.1527     47.4298     16.5535      2.5650      0.0902
   893.2000      7.9630      5.8895     48.0947     17.4307      2.5528      0.0579
   893.3000      7.9663      5.9574     48.4033     18.0547      2.5517      0.0214
   893.4000      7.9663      4.7594     51.0601     19.0012      2.5715      0.0446
   893.5000      7.9681      3.7612     56.6145     20.3871      2.5879      0.1037
   893.6000      7.9681      3.9109     62.5964     21.3416      2.5855      0.0571
   893.7000      7.9681      4.2373     67.2733     21.3586      2.5801      0.0425
   893.8000      7.9688      4.1563     71.7438     20.9781      2.5814      0.0494
   893.9000      7.9688      4.3144     76.8799     20.9484      2.5788      0.0622
   894.0000      7.9687      5.0710     80.6583     21.1681      2.5663      0.0073
   894.1000      7.9687      5.6942     83.2516     21.1972      2.5560      0.0163
   894.2000      7.9687      5.5943     87.1256     21.2618      2.5577      0.0177
   894.3000      7.9674      5.5244     91.3896     21.5863      2.5588      0.1046
   894.4000      7.9674      6.1587     93.4162     21.7370      2.5484      0.0452
   894.5000      7.9676      6.2508     92.3007     21.2792      2.5469      0.0161
   894.6000      7.9676      4.7868     90.2843     20.6966      2.5710      0.0648
   894.7000      7.9676      3.2089     89.3604     20.9487      2.5971      0.1286
   894.8000      7.9706      3.4834     89.0587     22.2915      2.5925      0.0937
   894.9000      7.9706      5.6711     92.1019     23.6284      2.5564      0.0552
   895.0000      7.9702      8.2691     97.0769     23.9146      2.5136      0.0248
   895.1000      7.9702      9.8881     97.3689     23.2145      2.4868      0.0243
   895.2000      7.9702     10.1108     93.7327     22.2217      2.4832      0.0217
   895.3000      7.9650      9.5721     90.7850     21.6503      2.4921      0.0916
   895.4000      7.9650      9.3299     88.1158     21.4726      2.4961      0.0756
   895.5000      7.9591      9.6492     84.4157     21.0478      2.4908      0.0646
   895.6000      7.9591     10.1644     81.7604     20.3957      2.4823      0.0595
   895.7000      7.9591     10.6092     81.7302     20.1232      2.4749      0.0401
   895.8000      7.9512     10.5657     82.6359     20.0699      2.4757      0.0454
   895.9000      7.9512     10.1148     83.7958     19.5458      2.4831      0.1099
   896.0000      7.9450      9.7828     86.6022     18.8080      2.4886      0.0751
   896.1000      7.9450      9.2387     89.4372     18.5847      2.4976      0.0548
   896.2000      7.9450      8.0790     90.5185     18.7384      2.5167      0.1182
   896.3000      7.9580      6.3345     89.6209     18.8659      2.5455      0.1034
   896.4000      7.9580      3.2509     85.3350     19.2339      2.5964      0.0786
   896.5000      7.9805     -1.5638     78.5718     20.2998      2.6758      0.1501
   896.6000      7.9805     -6.7967     74.3040     21.8104      2.7621      0.1559
   896.7000      7.9805    -10.9988     75.2379     22.6660      2.8315      0.1900
