~Version Information
 VERS.                                  2.0 : CWLS LAS VERSION
 WRAP.                                   NO : WRAPING MODE
 SWARE .                 MController 2.5.0J : SOFTWARE VERSION
~Well Information
 WELL.                                  N/A : WELL
 COMP.                                  N/A : COMPANY
 FLD.                                   N/A : FIELD
 LOC.                                   N/A : LOCATION
 DATE.                                  N/A : DATE(S) LOGGED
 SRVC.                                  N/A : SERVICE COMPANY
 STAT.                                  N/A : STATE
 CNTY.                                  N/A : COUNTY
 CTRY.                                  N/A : COUNTRY
 API.                                   N/A : API NUMBER
 STRT.FT                             986.00 : START DEPTH
 STOP.FT                            2126.00 : STOP DEPTH
 STEP.FT                               1.00 : DEPTH INCREMENT
 NULL.                                -9999 : NULL VALUE
~Curve information
 DEPTH.FT                                   :
 ROP.MIN/FT                                 :
 GAS.UNITS                                  :
~ASCII Log data
# ...
      1186.0         0.20         31.9 
      1187.0         0.22         30.9 
      1188.0         0.23         29.5 
      1189.0         0.27         29.1 
      1190.0         0.23         28.2 
      1191.0         0.27         26.7 
      1192.0         0.20         26.1 
      1193.0         0.20         26.8 
      1194.0         0.23         30.1 
      1195.0         0.43         35.3 
      1196.0         1.00         43.4 
      1197.0         0.25         32.5 
      1198.0         0.37         30.4 
      1199.0         0.47         29.6 
      1200.0         0.50         29.7 
      1201.0         2.48         52.5 
      1202.0         0.37         40.2 
      1203.0         0.27         33.1 
      1204.0         0.37         29.8 
      1205.0         0.37         27.5 
      1206.0         0.33         25.9 
      1207.0         0.30         25.6 
      1208.0         0.30         25.3 
      1209.0         0.32         24.8 
      1210.0         0.30         24.2 
      1211.0         0.30         24.0 
      1212.0         0.27         24.4 
      1213.0         0.27         24.2 
      1214.0         0.27         24.7 
      1215.0         0.27         25.1 
      1216.0         0.27         30.8 
      1217.0         0.27         47.4 
      1218.0         0.33         53.0 
      1219.0         0.30         50.6 
      1220.0         0.33         40.4 
      1221.0         0.35         32.2 
      1222.0         0.37         29.3 
      1223.0         0.27         26.6 
      1224.0         0.27         37.2 
      1225.0         0.27         66.4 
      1226.0         2.68        234.5 
      1227.0         0.30         44.1 
      1228.0         0.50         39.9 
      1229.0         0.50         32.1 
      1230.0         0.40         26.7 
      1231.0         0.37         25.1 
      1232.0         0.33         24.9 
      1233.0         0.32         24.6 
      1234.0         0.33         24.5 
      1235.0         0.30         24.6 
      1236.0         0.30         24.8 
      1237.0         0.33         24.8 
      1238.0         0.33         24.6 
      1239.0         0.33         24.8 
      1240.0         0.30         25.0 
      1241.0         0.33         24.7 
      1242.0         0.33         24.8 
      1243.0         0.35         24.8 
      1244.0         0.37         24.7 
      1245.0         0.40         25.1 
      1246.0         0.37         25.4 
      1247.0         0.33         25.3 
      1248.0         0.40         25.3 
      1249.0         0.37         25.3 
      1250.0         0.37         26.2 
      1251.0         0.37         27.3 
      1252.0         0.32         28.0 
      1253.0         0.30         27.0 
      1254.0         0.30         25.5 
      1255.0         0.23         30.1 
      1256.0         2.68        243.7 
      1257.0         0.23         46.6 
      1258.0         0.23         36.8 
      1259.0         0.33         31.8 
      1260.0         0.30         28.8 
      1261.0         0.23         29.7 
      1262.0         0.20         29.9 
      1263.0         0.27         28.6 
      1264.0         0.20         27.0 
      1265.0         0.40         26.5 
      1266.0         0.38         25.7 
      1267.0         0.30         25.4 
      1268.0         0.37         25.1 
      1269.0         0.37         25.2 
      1270.0         0.30         24.7 
      1271.0         0.23         24.4 
      1272.0         0.17         24.3 
      1273.0         0.20         24.3 
      1274.0         0.17         24.7 
      1275.0         0.17         25.3 
      1276.0         0.23         27.4 
      1277.0         0.23         32.2 
      1278.0         0.30         34.4 
      1279.0         0.38         32.2 
      1280.0         0.23         26.8 
      1281.0         0.17         25.6 
      1282.0         0.20         25.0 
      1283.0         0.20         24.6 
      1284.0         0.17         27.4 
      1285.0         0.20         38.3 
      1286.0         1.77        248.1 
      1287.0         0.22        158.4 
      1288.0         0.17        103.9 
      1289.0         0.30         75.4 
      1290.0         0.47         45.2 
      1291.0         0.37         29.4 
      1292.0         0.37         26.8 
      1293.0         0.27         26.6 
      1294.0         0.30         26.2 
      1295.0         0.37         25.3 
      1296.0         0.40         24.8 
      1297.0         0.38         24.5 
      1298.0         0.33         24.4 
      1299.0         0.37         24.6 
      1300.0         0.40         24.6 
      1301.0         0.27         24.5 
      1302.0         0.30         24.6 
      1303.0         0.50         24.5 
      1304.0         0.33         24.7 
      1305.0         0.47         24.5 
      1306.0         0.35         24.4 
      1307.0         0.27         24.5 
      1308.0         0.27         24.4 
      1309.0         0.33         24.6 
      1310.0         0.33         24.7 
      1311.0         0.23         24.7 
      1312.0         0.27         24.5 
      1313.0         0.23         25.3 
      1314.0         0.27         27.1 
      1315.0         0.27         29.0 
      1316.0         3.93        191.6 
      1317.0         0.37         28.7 
      1318.0         0.33         26.2 
      1319.0         0.40         25.5 
      1320.0         0.53         25.5 
      1321.0         0.47         25.5 
      1322.0         0.33         25.1 
      1323.0         0.23         25.8 
      1324.0         0.33         29.1 
      1325.0         0.28         31.6 
      1326.0         0.27         33.0 
      1327.0         0.37         33.7 
      1328.0         0.33         33.3 
      1329.0         0.40         37.9 
      1330.0         0.30         38.1 
      1331.0         0.23         42.4 
      1332.0         0.27         46.1 
      1333.0         0.20         47.1 
      1334.0         0.23         45.6 
      1335.0         0.33         40.9 
      1336.0         0.32         39.1 
      1337.0         0.27         43.7 
      1338.0         0.20         46.5 
      1339.0         0.23         45.1 
      1340.0         0.20         39.4 
      1341.0         0.23         34.3 
      1342.0         0.20         29.4 
      1343.0         0.23         31.5 
      1344.0         0.20         36.1 
      1345.0         0.17         42.2 
      1346.0         4.28        276.5 
      1347.0         0.28         93.4 
      1348.0         0.27         62.6 
      1349.0         0.30         43.2 
      1350.0         0.27         31.8 
      1351.0         0.30         27.7 
      1352.0         0.30         25.7 
      1353.0         0.33         24.7 
      1354.0         0.43         24.5 
      1355.0         0.40         24.6 
      1356.0         0.27         25.0 
      1357.0         0.25         24.8 
      1358.0         0.23         24.8 
      1359.0         0.23         24.8 
      1360.0         0.27         24.6 
      1361.0         0.27         24.5 
      1362.0         0.23         24.5 
      1363.0         0.23         24.6 
      1364.0         0.20         24.6 
      1365.0         0.20         24.6 
      1366.0         0.33         24.4 
      1367.0         0.37         24.4 
      1368.0         0.33         24.3 
      1369.0         0.27         24.3 
      1370.0         0.38         24.5 
      1371.0         0.30         24.4 
      1372.0         0.20         24.5 
      1373.0         0.20         24.2 
      1374.0         0.23         24.3 
      1375.0         0.20         24.5 
      1376.0         3.65        421.7 
      1377.0         0.57         50.3 
      1378.0         0.47         47.0 
      1379.0         0.37         52.0 
      1380.0         0.45         46.9 
      1381.0         0.37         31.4 
      1382.0         0.27         26.1 
      1383.0         0.30         25.5 
      1384.0         0.33         24.3 
      1385.0         0.40         24.4 
