~Version Information
VERS.                      2.0: CWLS Log ASCII Standard - VERSION 2.0
WRAP.                       NO: One line per depth step
~Well Information Block
STRT.FT                -9.0000: 
STOP.FT              2518.0000: 
STEP.FT                 0.2500: 
NULL.                -999.2500: 
COMP.          Petrogulf Corporation: COMPANY
WELL.            Montoya 7-12V: WELL
FLD.           Purgatorie River: FIELD
LOC.           1764' FNL & 728' FWL: LOCATION
CNTY.               Las Animas: COUNTY
SRVC.                         : SERVICE COMPANY
DATE.          Mon Mar 08 16:11:04 2004: LOG DATE
UWI.           05-071-07887-00: UNIQUE WELL ID
STAT.                 Colorado: STATE
~Curve Information Block
DEPT.FT            0 000 00 00: Depth
GR.GAPI                       : Gamma Ray
CCL.                          : Casing Collar Locator
TT3.usec                      : CBL 3' Travel Time
AMP3.mV                       : CBL 3' Amplitude
~Parameter Information Block
~A  Depth        GR         CCL         TT3         AMP3    
# ...
  2135.0000     76.5293      0.0000    561.9353      1.3577
  2135.2500     68.0637      0.0000    560.3165      1.3809
  2135.5000     59.4724      0.0000    572.0331      1.3958
  2135.7500     53.0505      0.0000    589.0117      1.3802
  2136.0000     49.7151      0.0000    602.7480      1.3412
  2136.2500     48.8165      0.0000    609.7493      1.2808
  2136.5000     49.0323      0.0000    609.8580      1.1926
  2136.7500     49.1797      0.0000    605.5887      1.1061
  2137.0000     48.5824      0.0000    600.2219      1.0650
  2137.2500     47.2494      0.0000    593.7487      1.0825
  2137.5000     45.8952      0.0000    582.7293      1.1507
  2137.7500     45.5014      0.0000    564.5113      1.2558
  2138.0000     46.4439      0.0000    543.6771      1.3712
  2138.2500     48.0433      0.0000    531.1639      1.4522
  2138.5000     49.2947      0.0000    531.0322      1.4700
  2138.7500     49.9420      0.0000    540.2128      1.4510
  2139.0000     50.5282      0.0000    556.1354      1.4434
  2139.2500     51.6021      0.0000    571.3787      1.4646
  2139.5000     53.2337      0.0000    576.0084      1.5040
  2139.7500     55.1089      0.0000    570.3198      1.5424
  2140.0000     56.7310      0.0000    564.0078      1.5708
  2140.2500     57.6465      0.0000    562.4517      1.5979
  2140.5000     57.7583      0.0000    555.0115      1.6242
  2140.7500     57.3944      0.0000    522.9623      1.6376
  2141.0000     56.9177      0.0000    470.5834      1.6344
  2141.2500     56.3382      0.0000    426.2590      1.6213
  2141.5000     55.4549      0.0000    408.9233      1.5960
  2141.7500     54.3198      0.0000    417.8568      1.5506
  2142.0000     53.4562      0.0000    440.0342      1.4997
  2142.2500     53.5172      0.0000    453.2256      1.4788
  2142.5000     54.5611      0.0000    446.8672      1.4967
  2142.7500     55.6821      0.0000    439.3118      1.5252
  2143.0000     55.6028      0.0000    450.6133      1.5516
  2143.2500     53.7194      0.0000    474.5611      1.5801
  2143.5000     50.5756      0.0000    494.9100      1.5901
  2143.7500     47.5125      0.0000    508.7707      1.5640
  2144.0000     45.9663      0.0000    521.7401      1.5186
  2144.2500     46.8499      0.0000    531.6379      1.4728
  2144.5000     50.1662      0.0000    526.3019      1.4394
  2144.7500     54.8620      0.0000    500.9019      1.4324
  2145.0000     59.1565      0.0000    470.5263      1.4378
  2145.2500     61.5271      0.0000    452.9438      1.4363
  2145.5000     61.6708      0.0000    443.1244      1.4552
  2145.7500     60.4539      0.0000    426.2042      1.5251
  2146.0000     58.9556      0.0000    404.8437      1.6144
  2146.2500     57.7686      0.0000    390.3551      1.6629
  2146.5000     57.1125      0.0000    384.6132      1.6536
  2146.7500     57.0664      0.0000    383.0819      1.6143
  2147.0000     57.3851      0.0000    382.2461      1.5704
  2147.2500     57.4632      0.0000    380.3910      1.5262
  2147.5000     56.8352      0.0000    376.9136      1.4900
  2147.7500     55.5826      0.0000    374.9416      1.4924
  2148.0000     54.0562      0.0000    383.4092      1.5490
  2148.2500     52.4208      0.0000    406.8192      1.6195
  2148.5000     50.7575      0.0000    432.5680      1.6402
  2148.7500     49.4088      0.0000    442.9202      1.5942
  2149.0000     48.8420      0.0000    434.0078      1.5367
  2149.2500     49.1686      0.0000    413.9682      1.5386
  2149.5000     49.9735      3.6292    394.4048      1.6011
  2149.7500     50.6488      0.0000    382.5950      1.6609
  2150.0000     50.8399      0.0000    377.7573      1.6668
  2150.2500     50.6600      0.0000    376.8752      1.6065
  2150.5000     50.5237      0.0000    381.3302      1.5135
  2150.7500     50.8201      0.0000    398.3334      1.4865
  2151.0000     51.6893      0.0000    434.2860      1.5982
  2151.2500     52.9793      0.0000    481.8690      1.7641
  2151.5000     54.4801      0.0000    522.7278      1.8540
  2151.7500     56.6168      0.0000    551.0014      1.8862
  2152.0000     60.9160      0.0000    576.9977      1.9238
  2152.2500     69.1627      0.0000    603.7594      1.9341
  2152.5000     81.5956      0.0000    622.4750      1.8837
  2152.7500     95.9981      0.0000    629.2093      1.8103
  2153.0000    108.7868      0.0000    629.2181      1.7899
  2153.2500    117.2393      0.0000    627.6572      1.9040
  2153.5000    121.1288      0.0000    625.0165      2.1881
  2153.7500    122.5833      0.0000    620.3102      2.6129
  2154.0000    124.1501      0.0000    614.5917      3.1198
  2154.2500    126.5674      0.0000    610.4412      3.6507
  2154.5000    128.5048      0.0000    608.3385      4.1985
  2154.7500    128.7033      0.0000    602.9312      4.8362
  2155.0000    127.8466      0.0000    581.1521      5.6489
  2155.2500    127.6312      0.0000    530.4748      6.6305
  2155.5000    128.3055      0.0000    457.9566      7.6566
  2155.7500    128.2290      0.0000    390.6953      8.5524
  2156.0000    126.1326      0.0000    349.3820      9.2102
  2156.2500    122.8689      0.0000    333.1282      9.6331
  2156.5000    120.3099      0.0000    329.4861      9.8546
  2156.7500    119.2285      0.0000    329.8210      9.8889
  2157.0000    118.9401      0.0000    334.0973      9.7605
  2157.2500    118.4171      0.0000    344.1522      9.4928
  2157.5000    117.0355      0.0000    359.6987      9.0878
  2157.7500    114.6599      0.0000    380.2783      8.5659
  2158.0000    111.6217      0.0000    404.0560      7.9803
  2158.2500    108.6341      0.0000    427.3149      7.3517
  2158.5000    106.5340      0.0000    448.3954      6.6522
  2158.7500    105.8024      0.0000    471.5893      5.8913
  2159.0000    105.9401      0.0000    504.2824      5.1355
  2159.2500    105.2722      0.0000    544.2773      4.4509
  2159.5000    101.8439      0.0000    578.1827      3.8884
  2159.7500     94.9134      0.0000    597.3295      3.4585
  2160.0000     85.7105      0.0000    603.3209      3.1187
  2160.2500     76.9726      0.0000    601.8929      2.8350
  2160.5000     71.6713      0.0000    600.3629      2.5978
  2160.7500     71.4312      0.0000    602.9364      2.4121
  2161.0000     75.5940      0.0000    608.7065      2.3003
  2161.2500     81.9923      0.0000    618.5933      2.2637
  2161.5000     88.7178      0.0000    634.9124      2.2751
  2161.7500     94.8950      0.0000    653.7720      2.3220
  2162.0000    100.1085      0.0000    667.4048      2.4197
  2162.2500    103.9313      0.0000    671.6804      2.5923
  2162.5000    106.0264      0.0000    668.2358      2.8351
  2162.7500    106.1312      0.0000    662.3661      3.0931
  2163.0000    104.0231      0.0000    657.0571      3.2994
  2163.2500     99.8690      0.0000    648.9521      3.4242
  2163.5000     94.3974      0.0000    629.6754      3.4709
  2163.7500     88.3634      0.0000    594.4612      3.4594
  2164.0000     82.0779      0.0000    551.4774      3.4231
  2164.2500     75.8837      0.0000    510.9565      3.3739
  2164.5000     70.9270      0.0000    472.8588      3.3043
  2164.7500     68.7820      0.0000    438.7508      3.2250
  2165.0000     69.9762      0.0000    419.6682      3.1434
  2165.2500     73.3100      0.0000    428.0931      3.0456
  2165.5000     77.2533      0.0000    467.0299      2.9202
  2165.7500     81.8800      0.0000    521.4690      2.7711
  2166.0000     88.5986      0.0000    568.5440      2.6193
  2166.2500     97.6716      0.0000    599.1458      2.4988
  2166.5000    106.6620      0.0000    619.3058      2.4392
  2166.7500    111.8442      0.0000    634.8299      2.4400
  2167.0000    110.9884      0.0000    644.8896      2.4807
  2167.2500    104.7377      0.0000    649.2565      2.5548
  2167.5000     95.7327      0.0000    651.4842      2.6623
  2167.7500     86.7001      0.0000    651.9861      2.7881
  2168.0000     79.2364      0.0000    648.3621      2.9063
  2168.2500     73.9360      0.0000    642.1603      2.9943
