~Version Information
VERS.                      2.0: CWLS Log ASCII Standard - VERSION 2.0
WRAP.                       NO: One line per depth step
~Well Information Block
STRT.FT               -12.5000: 
STOP.FT              1613.0000: 
STEP.FT                 0.2500: 
NULL.                -999.2500: 
COMP.          Pioneer Natural Resources: COMPANY
WELL.          Peregrine 12-20: WELL
FLD.           Purgatorie River: FIELD
LOC.           1722' FNL & 999' FWL--: LOCATION
PROV.                       CO: PROVINCE
CNTY.               Las Animas: COUNTRY
SRVC.          Patterson Wireline: SERVICE COMPANY
DATE.          Fri Jul 22 12:50:00 2005: LOG DATE
UWI.           05 071 08428 00: UNIQUE WELL ID
~Curve Information Block
DEPT.FT            0 000 00 00: Depth
CCL.                          : Casing Collar Locator
TT3.usec                      : CBL 3' Travel Time
AMP3.mV                       : CBL 3' Amplitude
GR.GAPI                       : Gamma Ray
~Parameter Information Block
~A  Depth       CCL         TT3         AMP3         GR     
# ...
    88.0000      0.0000    901.8079      4.4904     77.3567
    88.2500      0.0000    886.6388      4.6505     76.7301
    88.5000      0.0000    885.8694      4.7612     76.4838
    88.7500      0.0000    893.3162      4.8165     76.7020
    89.0000      0.0000    905.2920      4.8205     77.6768
    89.2500      0.0000    922.1806      4.7839     79.8433
    89.5000      0.0000    946.8383      4.7252     82.9701
    89.7500      0.0000    980.7130      4.6719     85.7699
    90.0000      0.0000   1021.4296      4.6537     86.5433
    90.2500      0.0000   1063.3063      4.6904     84.4756
    90.5000      0.0000   1098.7891      4.7829     80.6910
    90.7500      0.0000   1120.5693      4.9136     77.7683
    91.0000      0.0000   1125.4247      5.0552     77.4507
    91.2500      0.0000   1117.4623      5.1786     78.7705
    91.5000      0.0000   1106.1256      5.2623     78.8907
    91.7500      0.0000   1098.6846      5.3022     75.9781
    92.0000      0.0000   1094.3638      5.3154     71.1696
    92.2500      0.0000   1087.1206      5.3297     67.7232
    92.5000      0.0000   1073.6478      5.3654     68.3001
    92.7500      0.0000   1056.7302      5.4281     73.1117
    93.0000      0.0000   1041.4725      5.5099     80.3211
    93.2500      0.0000   1030.6605      5.5930     87.5487
    93.5000      0.0000   1023.7230      5.6527     93.0401
    93.7500      0.0000   1018.0355      5.6672     96.3061
    94.0000      0.0000   1010.4194      5.6307     98.1313
    94.2500      0.0000    998.7604      5.5600     99.6144
    94.5000      0.0000    983.6434      5.4862    100.9586
    94.7500      0.0000    968.2169      5.4368    101.2597
    95.0000      0.0000    955.4657      5.4207     99.3604
    95.2500      0.0000    946.0021      5.4271     94.7046
    95.5000      0.0000    939.5162      5.4367     87.5698
    95.7500      0.0000    937.2209      5.4364     78.9880
    96.0000      0.0000    940.4162      5.4244     70.5914
    96.2500      0.0000    946.6927      5.4035     64.1029
    96.5000      0.0000    950.2471      5.3707     60.7091
    96.7500      0.0000    948.1299      5.3165     61.0117
    97.0000      0.0000    945.7778      5.2350     65.2196
    97.2500      0.0000    954.3185      5.1312     72.5907
    97.5000      0.0000    980.6844      5.0141     80.7682
    97.7500      0.0000   1019.0921      4.8861     86.6713
    98.0000      0.0000   1051.8057      4.7435     88.5370
    98.2500      0.0000   1060.2017      4.5871     86.8965
    98.5000      0.0000   1038.5155      4.4284     83.5923
    98.7500      0.0000    999.1041      4.2815     80.2556
    99.0000      0.0000    963.8337      4.1529     77.7063
    99.2500      0.0000    947.5537      4.0433     76.0794
    99.5000      0.0000    947.2352      3.9565     74.9898
    99.7500      0.0000    946.7769      3.8963     73.7657
   100.0000      0.0000    934.0223      3.8546     71.8440
   100.2500      0.0000    912.9202      3.8085     69.1127
   100.5000      0.0000    897.1047      3.7373     65.9722
   100.7500      0.0000    893.5774      3.6424     63.1018
   101.0000      0.0000    897.7322      3.5512     61.2900
   101.2500      0.0000    904.3993      3.5021     61.4268
   101.5000      0.0000    917.4266      3.5198     64.2175
   101.7500      0.0000    944.8423      3.5972     69.7148
   102.0000      0.0000    987.0686      3.6969     77.1055
   102.2500      0.0000   1031.8387      3.7742     84.6866
   102.5000      0.0000   1060.1563      3.8034     90.0691
   102.7500      0.0000   1058.1567      3.7859     91.2153
   103.0000      0.0000   1025.7236      3.7388     87.9805
   103.2500      0.0000    976.5733      3.6829     82.6499
   103.5000      0.0000    932.1805      3.6411     78.4958
   103.7500      0.0000    913.3819      3.6377     77.3746
   104.0000      0.0000    931.3254      3.6896     78.4610
   104.2500      0.0000    981.1639      3.7955     79.1838
   104.5000      0.0000   1044.4438      3.9330     77.2902
   104.7500      0.0000   1100.5710      4.0664     72.2564
   105.0000      0.0000   1138.2577      4.1641     65.3465
   105.2500      0.0000   1157.9481      4.2163     58.6819
   105.5000      0.0000   1166.0569      4.2406     53.9687
   105.7500      0.0000   1168.5555      4.2648     51.6967
   106.0000      0.0000   1168.3981      4.3013     51.2017
   106.2500      0.0000   1165.9326      4.3381     51.3364
   106.5000      0.0000   1160.4156      4.3543     51.3288
   106.7500      0.0000   1152.1003      4.3426     51.3867
   107.0000      0.0000   1143.8789      4.3175     52.4569
   107.2500      0.0000   1140.1975      4.3061     55.2289
   107.5000      0.0000   1143.3026      4.3314     59.2987
   107.7500      0.0000   1151.0277      4.4011     63.1406
   108.0000      0.0000   1159.0278      4.5073     64.8461
   108.2500      0.0000   1164.4984      4.6340     63.2978
   108.5000      0.0000   1167.2756      4.7653     58.9941
   108.7500      0.0000   1168.4683      4.8871     53.7709
   109.0000      0.0000   1169.0464      4.9856     49.7464
   109.2500      0.0000   1169.4354      5.0495     48.3739
   109.5000      0.0000   1169.7174      5.0740     49.8641
   109.7500      0.0000   1169.8751      5.0616     53.1178
   110.0000      0.0000   1169.8883      5.0173     56.5628
   110.2500      0.0000   1169.5869      4.9481     59.4794
   110.5000      0.0000   1168.2898      4.8639     62.4190
   110.7500      0.0000   1164.2659      4.7736     66.2153
   111.0000      0.0000   1154.5709      4.6781     70.7867
   111.2500      0.0000   1136.3203      4.5688     75.0948
   111.5000      0.0000   1109.3986      4.4420     78.1231
   111.7500      0.0000   1078.1793      4.3124     79.5584
   112.0000      0.0000   1049.6835      4.2048     79.6028
   112.2500      0.0000   1029.4332      4.1316     78.7130
   112.5000      0.0000   1018.8284      4.0827     77.6103
   112.7500      0.0000   1015.7200      4.0406     76.8268
   113.0000      0.0000   1016.7366      4.0003     76.0565
   113.2500      0.0000   1019.5922      3.9698     74.6993
   113.5000      0.0000   1023.9451      3.9563     73.2024
   113.7500      0.0000   1029.8232      3.9538     73.0684
   114.0000      0.0000   1034.8378      3.9463     75.3167
   114.2500      0.0000   1034.1077      3.9202     79.4620
   114.5000      0.0000   1025.3683      3.8777     83.9707
   114.7500      0.0000   1014.7371      3.8399     87.1379
   115.0000      0.0000   1014.9639      3.8341     87.7010
   115.2500      0.0000   1035.1401      3.8717     85.4838
   115.5000      0.0000   1071.8121      3.9349     81.7403
   115.7500      0.0000   1111.5293      3.9896     78.4873
   116.0000      0.0000   1141.9194      4.0136     77.2073
   116.2500      0.0000   1159.2252      4.0078     77.9874
   116.5000      0.0000   1166.6997      3.9855     79.6815
   116.7500      0.0000   1169.0775      3.9572     80.9167
   117.0000      0.0000   1169.1255      3.9281     81.0058
   117.2500      0.0000   1166.8884      3.9003     79.9946
   117.5000      0.0000   1159.5591      3.8740     78.1594
   117.7500      0.0000   1141.7550      3.8488     75.8170
   118.0000      0.0000   1108.2811      3.8272     73.5329
   118.2500      0.0000   1060.0045      3.8145     72.1632
   118.5000      0.0000   1008.2811      3.8163     72.5825
   118.7500      0.0000    971.0871      3.8337     75.2750
   119.0000      0.0000    960.6771      3.8590     79.8110
   119.2500      0.0000    972.4518      3.8764     84.5584
   119.5000      0.0000    986.5511      3.8710     87.4904
   119.7500      0.0000    983.3141      3.8389     87.8095
   120.0000      0.0000    958.8386      3.7911     86.5128
   120.2500      0.0000    925.1254      3.7474     85.0380
   120.5000      0.0000    896.6811      3.7243     83.8073
   120.7500      0.0000    879.6122      3.7243     82.4325
   121.0000      0.0000    871.8452      3.7366     80.7520
   121.2500      0.0000    868.9406      3.7448     79.0986
