~Version Information
VERS.                      2.0: CWLS Log ASCII Standard - VERSION 2.0
WRAP.                       NO: One line per depth step
~Well Information Block
STRT.FT                12.0000: 
STOP.FT              1671.7500: 
STEP.FT                 0.2500: 
NULL.                -999.2500: 
COMP.          Pioneer Natural Resources: COMPANY
WELL.          Scott Canyon 11-18 Tr: WELL
FLD.           Purgatoire River: FIELD
LOC.           411' FNL & 580' FWL: LOCATION
PROV.                 Colorado: PROVINCE
CNTY.               Las Animas: COUNTRY
SRVC.                Patterson: SERVICE COMPANY
DATE.          Tue Feb 22 09:52:18 2005: LOG DATE
UWI.           05 071 08286 00: UNIQUE WELL ID
~Curve Information Block
DEPT.FT            0 000 00 00: Depth
GR.GAPI                       : Gamma Ray
CCL.                          : Casing Collar Locator
TT3.usec                      : CBL 3' Travel Time
AMP3.mV                       : CBL 3' Amplitude
~Parameter Information Block
~A  Depth        GR         CCL         TT3         AMP3    
# ...
  1218.0000    134.5472      0.0000    950.3668      9.9808
  1218.2500    130.7630      0.0000    915.5323     10.0780
  1218.5000    128.4154      0.0000    881.1887     10.1316
  1218.7500    127.5594      0.0000    855.6678     10.1476
  1219.0000    127.0494      0.0000    840.2230     10.1378
  1219.2500    125.6943      0.0000    832.3083     10.1177
  1219.5000    123.3054      0.0000    829.4045     10.1052
  1219.7500    120.6151      0.0000    829.8613     10.1147
  1220.0000    118.6988      0.0000    832.0768     10.1507
  1220.2500    118.7829      0.0000    834.4382     10.2078
  1220.5000    121.7932      0.0000    835.9802     10.2786
  1220.7500    127.1764      0.0000    836.5922     10.3580
  1221.0000    132.4678      0.0000    836.6323     10.4400
  1221.2500    134.8329      0.0000    836.4877     10.5142
  1221.5000    133.3000      0.0000    836.3900     10.5684
  1221.7500    129.5229      0.0000    836.4116     10.5950
  1222.0000    126.4205      0.0000    836.5475     10.5952
  1222.2500    125.8511      0.0000    836.8251     10.5765
  1222.5000    127.2590      0.0000    837.4899     10.5475
  1222.7500    128.5637      0.0000    839.4120     10.5143
  1223.0000    128.3347      0.0000    844.6261     10.4774
  1223.2500    126.9148      0.0000    856.1050     10.4304
  1223.5000    125.5310      0.0000    875.4546     10.3604
  1223.7500    124.7953      0.0000    899.4990     10.2542
  1224.0000    124.3755      0.0000    920.6442     10.1060
  1224.2500    123.7677      0.0000    933.7399      9.9206
  1224.5000    122.8911      0.0000    942.4172      9.7130
  1224.7500    122.0394      0.0000    955.1859      9.5064
  1225.0000    121.7165      0.0000    974.6719      9.3235
  1225.2500    122.4874      0.0000    993.2839      9.1775
  1225.5000    124.4907      0.0000    999.4929      9.0702
  1225.7500    127.0012      0.0000    986.4498      8.9979
  1226.0000    128.7906      0.0000    955.9131      8.9532
  1226.2500    129.1058      0.0000    916.8441      8.9230
  1226.5000    128.3095      0.0000    880.1337      8.8924
  1226.7500    127.5990      0.0000    852.7108      8.8532
  1227.0000    127.9835      0.0000    835.6337      8.8084
  1227.2500    129.4054      0.0000    826.8584      8.7707
  1227.5000    130.9266      0.0000    824.6608      8.7575
  1227.7500    131.8533      0.0000    828.7443      8.7827
  1228.0000    132.4575      0.0000    839.1214      8.8472
  1228.2500    133.2923      0.0000    853.8786      8.9339
  1228.5000    134.0565      0.0000    867.7084      9.0155
  1228.7500    133.7823      0.0000    873.8376      9.0714
  1229.0000    132.2449      0.0000    868.9208      9.1036
  1229.2500    130.5861      0.0000    855.5641      9.1351
  1229.5000    130.2062      0.0000    839.3040      9.1889
  1229.7500    131.2685      0.0000    824.1871      9.2680
  1230.0000    132.4346      0.0000    811.7949      9.3585
  1230.2500    131.9616      0.0000    802.6207      9.4462
  1230.5000    129.0831      0.0000    796.7357      9.5263
  1230.7500    124.6240      0.0000    793.5871      9.6027
  1231.0000    120.3930      0.0000    792.1633      9.6856
  1231.2500    117.7659      0.0000    791.5488      9.7854
  1231.5000    116.8055      0.0000    791.2135      9.9033
  1231.7500    116.7770      0.0000    790.9728     10.0283
  1232.0000    117.0977      0.0000    790.8192     10.1477
  1232.2500    117.3824      0.0000    790.7997     10.2533
  1232.5000    116.9513      0.0000    790.9340     10.3388
  1232.7500    114.9852      0.0000    791.1849     10.4052
  1233.0000    111.4019      0.0000    791.4889     10.4740
  1233.2500    107.4573      0.0000    791.8142     10.5820
  1233.5000    105.3584      0.0000    792.1735     10.7533
  1233.7500    107.1402      0.0000    792.5687     10.9818
  1234.0000    113.4132      0.0000    792.9752     11.2402
  1234.2500    122.6034      0.0000    793.4814     11.4928
  1234.5000    131.3270      0.0000    794.5037     11.7004
  1234.7500    136.2361      0.0000    796.7532     11.8280
  1235.0000    136.2248      0.0000    800.6000     11.8558
  1235.2500    132.9730      0.0000    805.0881     11.7876
  1235.5000    129.3090      0.0000    807.7723     11.6478
  1235.7500    127.0892      0.0000    806.3089     11.4715
  1236.0000    126.4166      0.0000    800.6887     11.2937
  1236.2500    126.4178      0.0000    793.6641     11.1405
  1236.5000    126.4441      0.0000    788.6426     11.0255
  1236.7500    126.3804      0.0000    787.1240     10.9512
  1237.0000    125.9831      0.0000    787.9050     10.9122
  1237.2500    124.5055      0.0000    788.0634     10.8995
  1237.5000    121.3512      0.0000    784.0777     10.9019
  1237.7500    116.8463      0.0000    772.6440     10.9066
  1238.0000    112.2344      0.0000    752.3222     10.9012
  1238.2500    109.2210      0.0000    725.1674     10.8786
  1238.5000    109.3040      0.0000    695.2440     10.8405
  1238.7500    112.7951      0.0000    665.6706     10.7903
  1239.0000    118.2478      0.0000    640.5789     10.7268
  1239.2500    123.3909      0.0000    629.5958     10.6452
  1239.5000    126.9812      0.0000    643.2474     10.5448
  1239.7500    129.5519      0.0000    680.8750     10.4300
  1240.0000    132.2284      0.0000    728.2789     10.3049
  1240.2500    135.0912      0.0000    769.6722     10.1730
  1240.5000    136.9626      0.0000    798.3710     10.0402
  1240.7500    136.6966      0.0000    815.8457      9.9157
  1241.0000    134.4610      0.0000    825.4359      9.8075
  1241.2500    131.7359      0.0000    829.2373      9.7195
  1241.5000    130.2181      0.0000    828.5353      9.6533
  1241.7500    130.6344      0.0000    824.7533      9.6099
  1242.0000    132.3864      0.0000    819.5908      9.5901
  1242.2500    134.2556      0.0000    814.6060      9.5941
  1242.5000    135.5595      0.0000    810.7153      9.6196
  1242.7500    136.7683      0.0000    807.8859      9.6581
  1243.0000    138.9392      0.0000    805.3026      9.6922
  1243.2500    142.3739      0.0000    802.2346      9.6994
  1243.5000    145.9734      0.0000    798.8326      9.6579
  1243.7500    148.0363      0.0000    795.8952      9.5512
  1244.0000    147.5198      0.0000    794.0239      9.3695
  1244.2500    144.5854      0.0000    793.2985      9.1089
  1244.5000    140.3229      0.0000    793.7947      8.7638
  1244.7500    135.9905      0.0000    796.4331      8.3119
  1245.0000    132.2556      0.0000    803.7351      7.7135
  1245.2500    129.0406      0.0000    819.7432      6.9547
  1245.5000    126.0789      0.0000    848.6727      6.1189
  1245.7500    123.4343      0.0000    893.2949      5.3801
  1246.0000    121.3439      0.0000    954.3932      4.8725
  1246.2500    119.6384      0.0000   1029.6514      4.5875
  1246.5000    117.6039      0.0000   1110.2605      4.4448
  1246.7500    114.6296      0.0000   1180.6051      4.4192
  1247.0000    111.0227      0.0000   1226.9861      4.5317
  1247.2500    108.1201      0.0000   1247.9852      4.7666
  1247.5000    107.5070     -2.3022   1253.8876      5.0753
  1247.7500    109.8826      0.0000   1257.4362      5.4539
  1248.0000    114.4405      0.0000   1267.0073      5.9980
  1248.2500    119.3600      0.0000   1282.1179      6.8762
  1248.5000    123.2268      0.0000   1288.4570      8.1947
  1248.7500    126.0394      0.0000   1262.4105      9.8115
  1249.0000    128.5508      0.0000   1190.3622     11.3302
  1249.2500    130.6939      0.0000   1084.6556     12.3932
  1249.5000    131.1590      0.0000    976.4545     12.9950
  1249.7500    128.7594      0.0000    892.6938     13.4312
  1250.0000    123.8448      0.0000    841.4543     13.9461
  1250.2500    118.1254      0.0000    815.6950     14.4994
  1250.5000    113.3828      0.0000    804.5585     14.8711
  1250.7500    110.4919      0.0000    800.2420     14.9077
  1251.0000    109.1615      0.0000    798.8913     14.6273
  1251.2500    108.1998      0.0000    799.3093     14.1497
