~Version Information
VERS.                      2.0: CWLS Log ASCII Standard - VERSION 2.0
WRAP.                       NO: One line per depth step
~Well Information Block
STRT.FT               780.0000: 
STOP.FT              3152.2500: 
STEP.FT                 0.2500: 
NULL.                -999.2500: 
COMP.          Pioneer Natural Resources: COMPANY
WELL.            Paradise 13-8: WELL
FLD.           Purgatoire River: FIELD
LOC.           1896' FSL & 1120' FWL: LOCATION
PROV.                 Colorado: PROVINCE
CNTY.               Las Animas: COUNTRY
SRVC.                Patterson: SERVICE COMPANY
DATE.          Sat Jan 22 20:39:47 2005: LOG DATE
UWI.           05 071 07946 00: UNIQUE WELL ID
~Curve Information Block
DEPT.FT            0 000 00 00: Depth
SN.Ohm-m                      : IEL Short Normal
SP.mV                         : IEL Spontaneous Potential
DIR.Ohm-m                     : IEL Induction Resistivity
GR.GAPI                       : Gamma Ray
~Parameter Information Block
~A  Depth        SN          SP         DIR          GR     
# ...
  2354.5000     27.4919   -149.4630     28.1528     72.2981
  2354.7500     25.8725   -146.5318     26.4369     72.4181
  2355.0000     24.2234   -142.9275     24.3514     78.3029
  2355.2500     22.6500   -138.9194     22.1797     85.7268
  2355.5000     21.2176   -134.7897     20.1707     99.9923
  2355.7500     19.9488   -130.7954     18.4492    110.1520
  2356.0000     18.8323   -127.1407     17.0140    124.2065
  2356.2500     17.8402   -123.9626     15.7957    131.7898
  2356.5000     16.9460   -121.3278     14.7224    139.5464
  2356.7500     16.1367   -119.2419     13.7597    142.3728
  2357.0000     15.4152   -117.6636     12.9108    144.1390
  2357.2500     14.7959   -116.5216     12.1929    144.5064
  2357.5000     14.2928   -115.7294     11.6157    145.0032
  2357.7500     13.9073   -115.1955     11.1757    145.5103
  2358.0000     13.6228   -114.8312     10.8625    146.0194
  2358.2500     13.4118   -114.5545     10.6628    145.6837
  2358.5000     13.2484   -114.2951     10.5593    143.7910
  2358.7500     13.1183   -114.0001     10.5236    141.8893
  2359.0000     13.0210   -113.6419     10.5154    139.1066
  2359.2500     12.9666   -113.2281     10.4939    137.9390
  2359.5000     12.9676   -112.8072     10.4361    138.2532
  2359.7500     13.0314   -112.4685     10.3490    140.3388
  2360.0000     13.1611   -112.3316     10.2626    146.1088
  2360.2500     13.3571   -112.5265     10.2142    150.5820
  2360.5000     13.6160   -113.1704     10.2356    155.4002
  2360.7500     13.9297   -114.3448     10.3491    156.3334
  2361.0000     14.2883   -116.0768     10.5674    154.4725
  2361.2500     14.6816   -118.3247     10.8951    151.4462
  2361.5000     15.0990   -120.9683     11.3321    143.6132
  2361.7500     15.5402   -123.8057     11.8809    135.3379
  2362.0000     16.0440   -126.5666     12.5534    118.3284
  2362.2500     16.7147   -128.9470     13.3725    105.5234
  2362.5000     17.7108   -130.6668     14.3651     88.3917
  2362.7500     19.1832   -131.5344     15.5484     80.4165
  2363.0000     21.1829   -131.4976     16.9135     75.1616
  2363.2500     23.5972   -130.6607     18.4094     76.0553
  2363.5000     26.1661   -129.2618     19.9367     82.8967
  2363.7500     28.5758   -127.6168     21.3600     90.0647
  2364.0000     30.5728   -126.0521     22.5419    102.3246
  2364.2500     32.0313   -124.8419     23.3865    109.9760
  2364.5000     32.9519   -124.1623     23.8708    118.2985
  2364.7500     33.4168   -124.0674     24.0499    120.7367
  2365.0000     33.5411   -124.4841     24.0359    119.1952
  2365.2500     33.4411   -125.2281     23.9632    115.2876
  2365.5000     33.2088   -126.0359     23.9539    107.2913
  2365.7500     32.8843   -126.6100     24.0850    101.9494
  2366.0000     32.4403   -126.6702     24.3572     95.6984
  2366.2500     31.8024   -126.0011     24.6727     93.2673
  2366.5000     30.9014   -124.4882     24.8452     92.6667
  2366.7500     29.7265   -122.1351     24.6639     94.3464
  2367.0000     28.3401   -119.0591     23.9983     99.5933
  2367.2500     26.8458   -115.4677     22.8756    104.3645
  2367.5000     25.3345   -111.6215     21.4581    112.2402
  2367.7500     23.8520   -107.7919     19.9493    117.4028
  2368.0000     22.4106   -104.2213     18.5104    124.6115
  2368.2500     21.0216   -101.0926     17.2302    129.1309
  2368.5000     19.7152    -98.5122     16.1352    135.7475
  2368.7500     18.5346    -96.5069     15.2119    140.0395
  2369.0000     17.5164    -95.0363     14.4291    145.5761
  2369.2500     16.6742    -94.0133     13.7569    147.8278
  2369.5000     15.9945    -93.3283     13.1781    147.7996
  2369.7500     15.4448    -92.8704     12.6870    145.5292
  2370.0000     14.9898    -92.5419     12.2805    140.0996
  2370.2500     14.6049    -92.2645     11.9480    136.0880
  2370.5000     14.2802    -91.9816     11.6695    130.6935
  2370.7500     14.0128    -91.6577     11.4180    128.1320
  2371.0000     13.7932    -91.2787     11.1664    126.9681
  2371.2500     13.5989    -90.8518     10.8941    128.2817
  2371.5000     13.4035    -90.4033     10.5912    132.5520
  2371.7500     13.1922    -89.9719     10.2598    135.8666
  2372.0000     12.9675    -89.5977      9.9123    140.0848
  2372.2500     12.7372    -89.3109      9.5678    142.2466
  2372.5000     12.4960    -89.1229      9.2485    145.1411
  2372.7500     12.2245    -89.0254      8.9754    147.2199
  2373.0000     11.9068    -88.9964      8.7647    150.7041
  2373.2500     11.5475    -89.0115      8.6259    153.0568
  2373.5000     11.1730    -89.0598      8.5617    155.9413
  2373.7500     10.8214    -89.1579      8.5704    156.9778
  2374.0000     10.5304    -89.3581      8.6491    156.6064
  2374.2500     10.3339    -89.7449      8.7973    154.8729
  2374.5000     10.2700    -90.4179      9.0191    150.0134
  2374.7500     10.3969    -91.4649      9.3231    145.6200
  2375.0000     10.8006    -92.9332      9.7198    138.5788
  2375.2500     11.5779    -94.8113     10.2185    134.2400
  2375.5000     12.7820    -97.0233     10.8225    128.2985
  2375.7500     14.3545    -99.4359     11.5256    124.2540
  2376.0000     16.0975   -101.8702     12.3070    117.5327
  2376.2500     17.7294   -104.1181     13.1281    112.7412
  2376.5000     19.0071   -105.9659     13.9316    105.7480
  2376.7500     19.8287   -107.2327     14.6489    101.6423
  2377.0000     20.2461   -107.8152     15.2160     97.0123
  2377.2500     20.3945   -107.7260     15.5974     95.3229
  2377.5000     20.4058   -107.1019     15.8030     95.4273
  2377.7500     20.3606   -106.1730     15.8827     97.4062
  2378.0000     20.2831   -105.2005     15.8980    102.9262
  2378.2500     20.1564   -104.4081     15.8916    107.7468
  2378.5000     19.9409   -103.9319     15.8729    115.1628
  2378.7500     19.5914   -103.8016     15.8244    119.0312
  2379.0000     19.0756   -103.9543     15.7191    121.0619
  2379.2500     18.3925   -104.2638     15.5377    119.2191
  2379.5000     17.5890   -104.5734     15.2768    112.5333
  2379.7500     16.7569   -104.7225     14.9493    107.0028
  2380.0000     15.9957   -104.5671     14.5772    100.1266
  2380.2500     15.3563   -103.9974     14.1827     97.8359
  2380.5000     14.8131   -102.9561     13.7777     99.0033
  2380.7500     14.2903   -101.4514     13.3576    102.8456
  2381.0000     13.7158    -99.5610     12.9040    112.0246
  2381.2500     13.0571    -97.4198     12.3951    119.1878
  2381.5000     12.3247    -95.1922     11.8200    129.1349
  2381.7500     11.5596    -93.0379     11.1887    134.1651
  2382.0000     10.8166    -91.0819     10.5309    138.7449
  2382.2500     10.1463    -89.3984      9.8864    140.4114
  2382.5000      9.5794    -88.0114      9.2915    142.7794
  2382.7500      9.1225    -86.9086      8.7705    145.1438
  2383.0000      8.7649    -86.0605      8.3323    149.9053
  2383.2500      8.4891    -85.4358      7.9745    153.2762
  2383.5000      8.2801    -85.0097      7.6890    157.6112
  2383.7500      8.1277    -84.7640      7.4675    159.7737
  2384.0000      8.0252    -84.6826      7.3045    161.9596
  2384.2500      7.9666    -84.7461      7.1975    162.8687
  2384.5000      7.9461    -84.9292      7.1453    163.8237
  2384.7500      7.9583    -85.2031      7.1473    164.3132
  2385.0000      7.9993    -85.5397      7.2012    164.2673
  2385.2500      8.0672    -85.9154      7.3006    163.0392
  2385.5000      8.1602    -86.3117      7.4333    158.7282
  2385.7500      8.2742    -86.7143      7.5824    154.5378
  2386.0000      8.4025    -87.1108      7.7312    147.7472
  2386.2500      8.5410    -87.4928      7.8688    143.8144
  2386.5000      8.6906    -87.8609      7.9933    139.9864
  2386.7500      8.8547    -88.2308      8.1089    139.0269
  2387.0000      9.0311    -88.6361      8.2215    139.1884
  2387.2500      9.2092    -89.1241      8.3361    139.4848
  2387.5000      9.3761    -89.7444      8.4585    139.2662
  2387.7500      9.5271    -90.5340      8.5982    138.8530
