~Version Information
VERS.                      2.0: CWLS Log ASCII Standard - VERSION 2.0
WRAP.                       NO: One line per depth step
~Well Information Block
STRT.FT               550.0000: 
STOP.FT              2359.0000: 
STEP.FT                 0.1000: 
NULL.                -999.2500: 
COMP.          Pioneer Natural Resources: COMPANY
WELL.              Whinny 42-2: WELL
FLD.           Purgatoire River: FIELD
LOC.           1836' FNL & 466' FEL: LOCATION
PROV.                 Colorado: PROVINCE
CNTY.               Las Animas: COUNTRY
SRVC.                Patterson: SERVICE COMPANY
DATE.          Mon Aug 22 07:28:42 2005: LOG DATE
UWI.           05 071 08406 00: UNIQUE WELL ID
~Curve Information Block
DEPT.FT            0 000 00 00: Depth
DCAL.in                       : CDL Caliper
RHOB.g/cc                     : CDL Bulk Density
RHOC.g/cc                     : CDL Density Correction
DPOR.pu                       : CDL Density Porosity
GR.GAPI                       : Gamma Ray
NPOR.pu                       : Neutron Porosity
~Parameter Information Block
~A  Depth       DCAL        RHOB        RHOC        DPOR         GR         NPOR    
# ...
  1270.0000      8.0954      2.5502      0.0850      6.0472    155.5660     30.2419
  1270.1000      8.0954      2.5508      0.1107      6.0147    156.5656     30.1986
  1270.2000      8.0954      2.5564      0.0337      5.6740    156.6906     29.7506
  1270.3000      8.0443      2.5665      0.0341      5.0593    155.3874     28.9428
  1270.4000      8.0443      2.5699      0.0569      4.8534    154.8327     27.8878
  1270.5000      8.0352      2.5549      0.0554      5.7629    156.5630     27.0549
  1270.6000      8.0352      2.5330      0.0253      7.0884    159.5133     26.7248
  1270.7000      8.0352      2.5266      0.0213      7.4800    164.4331     26.6985
  1270.8000      8.0247      2.5370      0.0077      6.8505    170.2189     26.7579
  1270.9000      8.0247      2.5441      0.0270      6.4197    172.3929     26.8932
  1271.0000      8.0253      2.5380      0.0263      6.7871    166.7467     27.1582
  1271.1000      8.0253      2.5291     -0.0085      7.3276    158.2173     27.3841
  1271.2000      8.0253      2.5165      0.0496      8.0884    156.1423     27.3391
  1271.3000      8.0287      2.4942     -0.0831      9.4428    156.3904     27.3030
  1271.4000      8.0287      2.4802      0.0021     10.2926    152.3456     27.5121
  1271.5000      8.0429      2.4853      0.0052      9.9815    149.8953     27.7671
  1271.6000      8.0429      2.4957      0.0019      9.3537    152.6522     28.0467
  1271.7000      8.0429      2.5038     -0.0245      8.8614    155.8317     28.1385
  1271.8000      8.0584      2.5218     -0.0196      7.7671    158.2556     27.7640
  1271.9000      8.0584      2.5611      0.0388      5.3892    163.7378     27.3897
  1272.0000      8.0560      2.6120      0.0901      2.3040    168.8168     27.2146
  1272.1000      8.0560      2.6526      0.0907     -0.1546    168.5333     26.7455
  1272.2000      8.0560      2.6652      0.1415     -0.9194    166.0190     26.1679
  1272.3000      8.0073      2.6486      0.0877      0.0840    163.4016     26.0387
  1272.4000      8.0073      2.6165      0.0813      2.0282    158.6112     25.9774
  1272.5000      7.9989      2.5859      0.0324      3.8834    153.1673     25.3971
  1272.6000      7.9989      2.5700      0.0327      4.8461    149.6814     24.7614
  1272.7000      7.9989      2.5580      0.0396      5.5732    145.8034     24.7905
  1272.8000      7.9983      2.5326      0.0228      7.1151    141.2108     25.2389
  1272.9000      7.9983      2.5146     -0.0682      8.2040    142.6364     25.5205
  1273.0000      7.9908      2.5293      0.0313      7.3131    147.2872     25.6399
  1273.1000      7.9908      2.5622      0.0328      5.3199    145.6316     25.7318
  1273.2000      7.9908      2.5904      0.0439      3.6140    139.8419     25.5802
  1273.3000      7.9791      2.6041      0.0939      2.7791    134.6105     24.8104
  1273.4000      7.9791      2.6089      0.0837      2.4932    131.3835     23.6720
  1273.5000      7.9760      2.6155      0.0699      2.0899    129.1904     23.2637
  1273.6000      7.9760      2.6190      0.0639      1.8806    125.1571     23.4991
  1273.7000      7.9760      2.6194      0.0033      1.8561    122.4379     23.3517
  1273.8000      7.9913      2.6264      0.0520      1.4315    122.6116     22.9333
  1273.9000      7.9913      2.6316      0.0659      1.1139    122.3651     22.8813
  1274.0000      7.9776      2.6252      0.0600      1.5007    121.3628     23.2565
  1274.1000      7.9776      2.6130      0.0546      2.2415    119.4688     23.5432
  1274.2000      7.9776      2.6053      0.0134      2.7115    115.2764     23.2476
  1274.3000      7.9888      2.6056      0.0428      2.6884    110.1769     22.7999
  1274.4000      7.9888      2.6046      0.1039      2.7498    109.6602     22.4738
  1274.5000      7.9938      2.5903      0.0818      3.6211    113.2482     21.6656
  1274.6000      7.9938      2.5701      0.0496      4.8413    112.7820     20.3854
  1274.7000      7.9938      2.5667      0.0041      5.0512    107.6424     19.5353
  1274.8000      7.9647      2.5825      0.0665      4.0889    105.0050     19.5522
  1274.9000      7.9647      2.5917      0.1207      3.5329    107.7850     19.9780
  1275.0000      7.9417      2.5852      0.0421      3.9285    112.7116     20.3647
  1275.1000      7.9417      2.5770      0.0676      4.4221    115.6309     20.5557
  1275.2000      7.9417      2.5659      0.0684      5.0997    113.8320     20.4798
  1275.3000      7.9283      2.5509      0.0776      6.0056    106.9464     20.0639
  1275.4000      7.9283      2.5437      0.0678      6.4402     95.6584     19.2904
  1275.5000      7.9262      2.5446      0.0915      6.3907     83.2412     18.4261
  1275.6000      7.9262      2.5547      0.0477      5.7745     74.7368     18.0037
  1275.7000      7.9262      2.5802      0.0851      4.2284     71.6538     18.4369
  1275.8000      7.9271      2.6048      0.1386      2.7391     72.1719     19.2890
  1275.9000      7.9271      2.6118      0.0783      2.3123     72.5228     19.3686
  1276.0000      7.9181      2.6163      0.0300      2.0412     68.5292     18.6619
  1276.1000      7.9181      2.6254      0.1080      1.4889     62.1060     18.5651
  1276.2000      7.9181      2.6234      0.0596      1.6103     57.8432     19.2584
  1276.3000      7.9187      2.6121      0.0585      2.2971     55.1473     19.4961
  1276.4000      7.9187      2.6007      0.1274      2.9906     52.0449     19.0677
  1276.5000      7.9079      2.5940      0.0152      3.3962     49.2143     18.4919
  1276.6000      7.9079      2.6008      0.0183      2.9845     47.8673     17.8187
  1276.7000      7.9079      2.6125      0.0722      2.2745     49.0025     17.4565
  1276.8000      7.9188      2.6083      0.0925      2.5259     52.2410     17.5444
  1276.9000      7.9188      2.5889      0.0142      3.7002     56.5876     17.2158
  1277.0000      7.9203      2.5718      0.0459      4.7381     62.5440     16.1572
  1277.1000      7.9203      2.5544      0.0047      5.7969     68.2077     15.3374
  1277.2000      7.9203      2.5219      0.0409      7.7623     70.0452     15.3569
  1277.3000      7.9429      2.4788      0.0349     10.3787     66.7379     15.7735
  1277.4000      7.9429      2.4488     -0.0238     12.1943     61.6198     16.1754
  1277.5000      7.9469      2.4463      0.0470     12.3483     63.9644     16.7764
  1277.6000      7.9469      2.4590      0.0453     11.5773     75.2157     17.8093
  1277.7000      7.9469      2.4713      0.0579     10.8315     83.9459     19.2754
  1277.8000      7.9279      2.4779      0.0380     10.4323     81.1951     20.6714
  1277.9000      7.9279      2.4797      0.0721     10.3200     72.7868     21.1151
  1278.0000      7.9347      2.4805      0.0921     10.2707     70.0798     20.7071
  1278.1000      7.9347      2.4879      0.0259      9.8238     76.7023     20.6935
  1278.2000      7.9347      2.5036      0.1130      8.8729     86.5626     21.7718
  1278.3000      7.9509      2.5198      0.1190      7.8921     94.9089     23.1494
  1278.4000      7.9509      2.5359      0.0819      6.9170    103.8953     23.4911
  1278.5000      7.9979      2.5519      0.0458      5.9483    113.2411     23.3262
  1278.6000      7.9979      2.5591      0.0778      5.5116    119.4790     24.2373
  1278.7000      7.9979      2.5492      0.1184      6.1102    120.6485     25.6864
  1278.8000      7.9848      2.5378      0.0370      6.8015    122.2337     26.3934
  1278.9000      7.9848      2.5470      0.0777      6.2405    127.8700     26.1418
  1279.0000      8.0056      2.5574      0.0975      5.6122    130.3215     24.8324
  1279.1000      8.0056      2.5427      0.0517      6.5029    128.8101     23.1532
  1279.2000      8.0056      2.5156      0.0606      8.1448    128.9216     22.2964
  1279.3000      8.0487      2.5027     -0.0243      8.9303    128.4399     22.4055
  1279.4000      8.0487      2.5111      0.0635      8.4173    125.4750     22.8259
  1279.5000      8.0052      2.5222      0.0668      7.7462    128.3722     23.0033
