~Version Information
VERS.                      2.0: CWLS Log ASCII Standard - VERSION 2.0
WRAP.                       NO: One line per depth step
~Well Information Block
STRT.FT               395.0000: 
STOP.FT              1998.0000: 
STEP.FT                 0.2500: 
NULL.                -999.2500: 
COMP.          Pioneer Natural Resources: COMPANY
WELL.          Easton 12-30 Tr: WELL
FLD.           Purgatoire River: FIELD
LOC.           549' FWL & 2416' FNL--: LOCATION
PROV.                 Colorado: PROVINCE
CNTY.               Las Animas: COUNTRY
SRVC.                Patterson: SERVICE COMPANY
DATE.          Wed Jun 01 17:36:02 2005: LOG DATE
UWI.           05 071 08379 00: UNIQUE WELL ID
~Curve Information Block
DEPT.FT            0 000 00 00: Depth
SN.Ohm-m                      : IEL Short Normal
SP.mV                         : IEL Spontaneous Potential
DIR.Ohm-m                     : IEL Induction Resistivity
GR.GAPI                       : Gamma Ray
~Parameter Information Block
~A  Depth        SN          SP         DIR          GR     
   395.0000   2000.0000   -999.2500      8.0501    108.8790
   395.2500   2000.0000   -999.2500      8.0949    106.2013
   395.5000   2000.0000   -999.2500      8.2349    101.2132
   395.7500   2000.0000   -999.2500      8.4583     97.9770
   396.0000   2000.0000   -999.2500      8.6843     95.0036
   396.2500   2000.0000   -999.2500      8.7740     95.0279
   396.5000   2000.0000   -999.2500      8.6200     98.0560
   396.7500   2000.0000   -999.2500      8.2487    101.4035
   397.0000   2000.0000   -999.2500      7.8042    107.1249
   397.2500   2000.0000   -999.2500      7.4360    110.8526
   397.5000   2000.0000   -999.2500      7.2361    115.4187
   397.7500   2000.0000   -999.2500      7.2596    117.1774
   398.0000   2000.0000   -999.2500      7.5885     78.1327
   398.2500   2000.0000   -999.2500      8.4102     77.0786
   398.5000   2000.0000   -999.2500     10.1281     74.7322
   398.7500   2000.0000   -999.2500     13.5281     73.3082
   399.0000   2000.0000   -999.2500     19.5252     72.2812
   399.2500   2000.0000   -999.2500     25.3286     72.4905
   399.5000   2000.0000   -999.2500     22.0649     73.6001
   399.7500   2000.0000   -999.2500     14.4414     74.3638
   400.0000   2000.0000   -999.2500      9.6022     75.3538
   400.2500   2000.0000   -999.2500      7.2540     76.4096
   400.5000   2000.0000   -999.2500      6.2709     79.6689
   400.7500   2000.0000   -999.2500      6.0688     83.1244
   401.0000   2000.0000   -999.2500      6.3560     89.5507
   401.2500   2000.0000   -999.2500      6.8427     94.0025
   401.5000   2000.0000   -999.2500      6.9987     99.8427
   401.7500   2000.0000   -999.2500      6.2860    102.7147
   402.0000   2000.0000   -999.2500      4.9538    105.3424
   402.2500   2000.0000   -999.2500      3.7344    106.3996
   402.5000   2000.0000   -999.2500      2.9553    108.1787
   402.7500   2000.0000   -999.2500      2.5993    110.0228
   403.0000   2000.0000   -999.2500      2.6109    113.6729
   403.2500   2000.0000   -999.2500      3.0293    116.1123
   403.5000   2000.0000   -999.2500      4.0910    118.7362
   403.7500   2000.0000   -999.2500      6.5822    119.6300
   404.0000   2000.0000   -999.2500     14.0296    120.3004
   404.2500   2000.0000   -999.2500    105.2273    120.8493
   404.5000   2000.0000   -999.2500 100000.0000    122.4546
   404.7500   2000.0000   -999.2500 100000.0000    124.0982
   405.0000   2000.0000   -999.2500 100000.0000    126.9461
   405.2500   2000.0000   -999.2500 100000.0000    128.5037
   405.5000   2000.0000   -999.2500 100000.0000    128.9538
   405.7500   2000.0000   -999.2500 100000.0000    127.2655
   406.0000   2000.0000   -999.2500 100000.0000    121.4371
   406.2500   2000.0000   -999.2500    149.4418    116.0436
   406.5000   2000.0000   -999.2500     50.3139    107.9291
   406.7500   2000.0000   -999.2500     39.3498    103.6095
   407.0000   2000.0000   -999.2500     38.4505     99.0863
   407.2500   2000.0000   -999.2500     41.0275     96.8018
   407.5000   2000.0000   -999.2500     45.1436     93.5624
   407.7500   2000.0000   -999.2500     49.9975     91.5077
   408.0000   2000.0000   -999.2500     55.4012     88.9768
   408.2500   2000.0000   -999.2500     61.7146     87.6764
   408.5000   2000.0000   -999.2500     69.7008     85.8970
   408.7500   2000.0000   -999.2500     79.7280     84.6445
   409.0000   2000.0000   -999.2500     89.4030     82.7914
   409.2500   2000.0000   -999.2500     91.7011     81.7520
   409.5000   2000.0000   -999.2500     82.0162     80.4774
   409.7500   2000.0000   -999.2500     66.5383     79.4643
   410.0000   2000.0000   -999.2500     53.1069     76.7291
   410.2500   2000.0000   -999.2500     43.9279     73.7709
   410.5000   2000.0000   -999.2500     38.1936     68.2450
   410.7500   2000.0000   -999.2500     34.6822     64.7415
   411.0000   2000.0000   -999.2500     32.4955     61.0712
   411.2500   2000.0000   -999.2500     31.1392     59.7879
   411.5000   2000.0000   -999.2500     30.4419     58.7521
   411.7500   2000.0000   -999.2500     30.4087     58.0002
   412.0000   2000.0000   -999.2500     31.0580     56.1765
   412.2500   2000.0000   -999.2500     32.3024     54.5886
   412.5000   2000.0000   -999.2500     33.9012     52.3088
   412.7500   2000.0000   -999.2500     35.5036     51.2414
   413.0000   2000.0000   -999.2500     36.7795     50.4563
   413.2500   2000.0000   -999.2500     37.5471     50.2021
   413.5000   2000.0000   -999.2500     37.7976     49.6455
   413.7500   2000.0000   -999.2500     37.6212     49.1445
   414.0000   2000.0000   -999.2500     37.1313     48.9434
   414.2500   2000.0000   -999.2500     36.4362     49.7904
   414.5000   2000.0000   -999.2500     35.6401     53.3393
   414.7500   2000.0000   -999.2500     34.8385     57.5608
   415.0000   2000.0000   -999.2500     34.1033     67.2383
   415.2500   2000.0000   -999.2500     33.4669     75.9954
   415.5000   2000.0000   -999.2500     32.9224     91.4185
   415.7500   2000.0000   -999.2500     32.4413    101.7613
   416.0000   2000.0000   -999.2500     32.0002    114.6473
   416.2500   2000.0000   -999.2500     31.5969    120.4603
   416.5000   2000.0000   -999.2500     31.2449    124.7854
   416.7500   2000.0000   -999.2500     30.9494    125.4735
   417.0000   2000.0000   -999.2500     30.6882    125.2295
   417.2500   2000.0000   -999.2500     30.4177    125.0438
   417.5000   2000.0000   -999.2500     30.0985    124.5221
   417.7500   2000.0000   -999.2500     29.7178    123.2525
   418.0000   2000.0000   -999.2500     29.2879    119.1580
   418.2500   2000.0000   -999.2500     28.8257    115.3344
   418.5000   2000.0000   -999.2500     28.3379    109.7663
   418.7500   2000.0000   -999.2500     27.8257    107.3588
   419.0000   2000.0000   -999.2500     27.2993    106.9222
   419.2500   2000.0000   -999.2500     26.7827    108.7128
   419.5000   2000.0000   -999.2500     26.3049    113.4703
   419.7500   2000.0000   -999.2500     25.8852    117.1486
   420.0000   2000.0000   -999.2500     25.5269    121.9458
   420.2500   2000.0000   -999.2500     25.2208    124.0749
   420.5000   2000.0000   -999.2500     24.9527    125.4989
   420.7500   2000.0000   -999.2500     24.7056    125.5386
   421.0000   2000.0000   -999.2500     24.4571    124.6836
   421.2500   2000.0000   -999.2500     24.1766    123.6467
   421.5000   2000.0000   -999.2500     23.8322    121.7973
   421.7500   2000.0000   -999.2500     23.4071    120.7888
   422.0000   2000.0000   -999.2500     22.9107    120.3133
   422.2500   2000.0000   -999.2500     22.3754    120.8579
   422.5000   2000.0000   -999.2500     21.8420    122.7691
   422.7500   2000.0000   -999.2500     21.3451    124.4164
   423.0000   2000.0000   -999.2500     20.9076    126.6637
   423.2500   2000.0000   -999.2500     20.5423    127.7540
   423.5000   2000.0000   -999.2500     20.2545    129.1274
   423.7500   2000.0000   -999.2500     20.0436    130.2972
   424.0000   2000.0000   -999.2500     19.9033    132.3916
   424.2500   2000.0000   -999.2500     19.8226    133.3361
   424.5000   2000.0000   -999.2500     19.7876    132.9874
   424.7500   2000.0000   -999.2500     19.7852    131.7162
   425.0000   2000.0000   -999.2500     19.8061    129.5932
   425.2500   2000.0000   -999.2500     19.8465    128.7053
   425.5000   2000.0000   -999.2500     19.9075    128.1360
   425.7500   2000.0000   -999.2500     19.9928    127.6212
   426.0000   2000.0000   -999.2500     20.1063    125.4474
   426.2500   2000.0000   -999.2500     20.2516    122.9229
   426.5000   2000.0000   -999.2500     20.4321    118.5373
   426.7500   2000.0000   -999.2500     20.6510    116.0793
   427.0000   2000.0000   -999.2500     20.9109    113.9321
   427.2500   2000.0000   -999.2500     21.2139    113.4330
   427.5000   2000.0000   -999.2500     21.5617    113.3404
   427.7500   2000.0000   -999.2500     21.9532    113.3256
   428.0000   2000.0000   -999.2500     22.3809    113.3282
   428.2500   2000.0000   -999.2500     22.8290    113.7195
