~Version Information
VERS.                      2.0: CWLS Log ASCII Standard - VERSION 2.0
WRAP.                       NO: One line per depth step
~Well Information Block
STRT.FT               720.0000: 
STOP.FT              2730.2000: 
STEP.FT                 0.1000: 
NULL.                -999.2500: 
COMP.          Evergreen Operating Corporation: COMPANY
WELL.            Rangely 22-28: WELL
FLD.           Purgatoire River: FIELD
LOC.           1741' FNL & 2335' FWL: LOCATION
PROV.                 Colorado: PROVINCE
CNTY.               Las Animas: COUNTRY
SRVC.                Patterson: SERVICE COMPANY
DATE.          Thu Sep 16 15:10:36 2004: LOG DATE
UWI.           05 071 08044 00: UNIQUE WELL ID
~Curve Information Block
DEPT.FT            0 000 00 00: Depth
DCAL.in                       : CDL Caliper
DPOR.pu                       : CDL Density Porosity
NPOR.pu                       : Neutron Porosity
RHOB.g/cc                     : CDL Bulk Density
RHOC.g/cc                     : CDL Density Correction
GR.GAPI                       : Gamma Ray
~Parameter Information Block
~A  Depth       DCAL        DPOR        NPOR        RHOB        RHOC         GR     
# ...
  1056.0000      8.1382      9.6152     26.6810      2.4913      0.0670    133.5943
  1056.1000      8.1382     10.4946     27.1401      2.4768      0.0642    126.8214
  1056.2000      8.1382     11.5327     27.4195      2.4597      0.0544    127.2824
  1056.3000      8.1363     12.3058     27.6072      2.4470     -0.0070    131.8854
  1056.4000      8.1363     12.6238     27.9656      2.4417      0.0641    139.7825
  1056.5000      8.1365     13.2724     28.3555      2.4310      0.0231    148.6846
  1056.6000      8.1365     14.4125     28.3376      2.4122      0.0006    152.9288
  1056.7000      8.1365     16.5422     27.7420      2.3771      0.0652    149.8822
  1056.8000      8.1371     20.2624     27.0471      2.3157      0.0057    141.0731
  1056.9000      8.1371     23.8916     26.7322      2.2558     -0.0364    133.0566
  1057.0000      8.1360     25.8212     26.2928      2.2239     -0.0163    132.1425
  1057.1000      8.1360     26.5571     25.2373      2.2118     -0.0519    134.9007
  1057.2000      8.1360     26.8818     24.2845      2.2064     -0.0527    134.2375
  1057.3000      8.1347     26.9088     24.0137      2.2060     -0.0498    132.6387
  1057.4000      8.1347     26.5495     23.8205      2.2119      0.0167    132.9651
  1057.5000      8.1347     25.8704     23.0265      2.2231      0.0401    131.9993
  1057.6000      8.1347     24.5888     21.7760      2.2443      0.0505    130.8586
  1057.7000      8.1347     21.8676     20.5337      2.2892      0.1002    130.5150
  1057.8000      8.1354     17.8275     19.7652      2.3558      0.2178    125.6207
  1057.9000      8.1354     13.8669     19.8766      2.4212      0.2291    118.7373
  1058.0000      8.1357     11.0125     20.6561      2.4683      0.1493    115.4083
  1058.1000      8.1357      9.3489     21.6913      2.4957      0.1026    113.2032
  1058.2000      8.1357      8.3096     22.9232      2.5129      0.0966    111.3453
  1058.3000      8.1357      7.3995     24.0265      2.5279      0.0897    110.7565
  1058.4000      8.1357      6.8301     24.4961      2.5373      0.1005    110.9186
  1058.5000      8.1365      6.9075     24.6864      2.5360      0.0893    109.7057
  1058.6000      8.1365      6.9529     25.3376      2.5353      0.0346    105.3763
  1058.7000      8.1365      6.0211     26.2496      2.5507      0.0745     99.9094
  1058.8000      8.1390      4.5141     26.8836      2.5755      0.1138     95.9484
  1058.9000      8.1390      3.6752     27.4220      2.5894      0.1288     93.6787
  1059.0000      8.1399      4.2570     28.0033      2.5798      0.1102     94.3172
  1059.1000      8.1399      6.0329     28.2798      2.5505      0.0842    100.5665
  1059.2000      8.1399      7.7429     28.1014      2.5222      0.0286    112.1278
  1059.3000      8.1384      7.2755     27.5430      2.5300     -0.0146    122.9572
  1059.4000      8.1384      3.6480     26.9380      2.5898      0.0283    125.2456
  1059.5000      8.1377     -1.2816     26.7835      2.6711      0.1054    120.7086
  1059.6000      8.1377     -5.3344     26.9716      2.7380      0.0940    117.1875
  1059.7000      8.1377     -8.1173     27.0797      2.7839      0.1472    116.0855
  1059.8000      8.1371     -9.8605     27.3292      2.8127      0.1456    114.0570
  1059.9000      8.1371    -10.9007     28.0252      2.8299      0.1145    108.1857
  1060.0000      8.1354    -11.2817     28.9993      2.8361      0.1290     99.9011
  1060.1000      8.1354    -10.3751     30.0450      2.8212      0.1096     96.3858
  1060.2000      8.1354     -8.1620     30.7836      2.7847      0.0019     99.0112
  1060.3000      8.1352     -5.2551     30.5458      2.7367     -0.0470     99.5885
  1060.4000      8.1352     -1.2362     29.2555      2.6704     -0.0001     94.5622
  1060.5000      8.1369      3.5425     27.7191      2.5915     -0.1610     89.8153
  1060.6000      8.1369      6.7046     26.4347      2.5394     -0.1495     89.9275
  1060.7000      8.1369      7.5361     25.5016      2.5257     -0.0208     96.1784
  1060.8000      8.1374      7.3915     25.1249      2.5280     -0.0013    106.6000
  1060.9000      8.1374      7.1714     25.1815      2.5317      0.0521    111.9612
  1061.0000      8.1362      7.3414     25.4271      2.5289      0.0630    108.1099
  1061.1000      8.1362      8.0206     25.7983      2.5177      0.0396    102.6116
  1061.2000      8.1362      8.4278     26.1713      2.5109      0.0209     99.5554
  1061.3000      8.1358      7.8284     26.3601      2.5208      0.0473     95.4731
  1061.4000      8.1358      6.8045     26.3797      2.5377      0.0630     93.6696
  1061.5000      8.1370      6.3773     26.5388      2.5448      0.0624     99.6310
  1061.6000      8.1370      6.6195     27.0030      2.5408      0.0314    107.4463
  1061.7000      8.1370      7.0805     27.5763      2.5332      0.0300    110.1800
  1061.8000      8.1358      7.4781     27.9453      2.5266      0.0150    109.6544
  1061.9000      8.1358      7.7639     28.0895      2.5219      0.0500    110.0094
  1062.0000      8.1338      8.0773     28.2991      2.5167      0.0099    111.8849
  1062.1000      8.1338      8.5644     28.6441      2.5087      0.0394    114.8290
  1062.2000      8.1338      9.2624     28.8937      2.4972      0.0155    120.0415
  1062.3000      8.1368      9.8572     29.0209      2.4874      0.0196    129.6284
  1062.4000      8.1368     10.0660     29.1463      2.4839      0.0254    141.8502
  1062.5000      8.1407     10.0743     29.0019      2.4838      0.0384    152.5595
  1062.6000      8.1407     10.1446     28.2874      2.4826      0.0555    157.5698
  1062.7000      8.1407     10.1053     27.3392      2.4833      0.0391    154.4893
  1062.8000      8.1410      9.6957     26.6919      2.4900      0.0405    147.8427
  1062.9000      8.1410      9.4180     26.3065      2.4946      0.0694    143.5956
  1063.0000      8.1400      9.5969     26.0650      2.4917      0.0394    140.1542
  1063.1000      8.1400      9.8403     25.9644      2.4876      0.0611    137.5878
  1063.2000      8.1400     10.0944     25.9402      2.4834      0.0371    141.8460
  1063.3000      8.1402     10.0078     26.1096      2.4849      0.0388    150.8831
  1063.4000      8.1402      8.2517     26.4033      2.5138      0.0294    155.5295
  1063.5000      8.1404      4.4626     26.6551      2.5764      0.0858    152.0539
  1063.6000      8.1404      0.5008     26.9119      2.6417      0.0996    143.9987
  1063.7000      8.1404     -1.8448     27.3105      2.6804      0.1138    136.4358
  1063.8000      8.1379     -2.4458     27.8314      2.6904      0.1040    131.4843
  1063.9000      8.1379     -2.0221     28.2630      2.6834      0.1062    128.1201
  1064.0000      8.1339     -0.7816     28.4983      2.6629      0.1226    123.9625
  1064.1000      8.1339      1.2948     28.5699      2.6286      0.0382    118.6585
  1064.2000      8.1339      3.4526     28.6195      2.5930      0.0204    114.2980
  1064.3000      8.1335      4.9590     28.6540      2.5682     -0.0085    112.0872
  1064.4000      8.1335      5.8903     28.5297      2.5528     -0.0393    109.7939
  1064.5000      8.1382      6.5864     28.1902      2.5413     -0.0671    104.8982
  1064.6000      8.1382      6.7799     27.7012      2.5381     -0.0683    100.1991
  1064.7000      8.1382      6.5060     27.2473      2.5427     -0.0436    100.7755
  1064.8000      8.1450      6.8975     27.0220      2.5362      0.0018    104.7491
  1064.9000      8.1450      8.5480     27.0440      2.5090     -0.0252    107.6482
  1065.0000      8.1466     10.4484     27.0972      2.4776     -0.0260    108.1382
  1065.1000      8.1466     11.3266     26.9921      2.4631     -0.0357    106.8217
  1065.2000      8.1466     11.2298     26.9642      2.4647      0.0038    107.7536
  1065.3000      8.1459     11.2756     27.0348      2.4640      0.0011    111.7148
  1065.4000      8.1459     11.9458     26.7396      2.4529     -0.0196    114.4701
  1065.5000      8.1498     12.7810     26.1908      2.4391     -0.0337    116.8158
