~Version Information
VERS.                      2.0: CWLS Log ASCII Standard - VERSION 2.0
WRAP.                       NO: One line per depth step
~Well Information Block
STRT.FT                10.0000: 
STOP.FT               859.0000: 
STEP.FT                 0.2500: 
NULL.                -999.2500: 
COMP.          Pioneer Natural Resources: COMPANY
WELL.          Prospector 12-19: WELL
FLD.           Purgatoire River: FIELD
LOC.           2262' FNL & 634' FWL: LOCATION
PROV.                 Colorado: PROVINCE
CNTY.               Las Animas: COUNTRY
SRVC.                Patterson: SERVICE COMPANY
DATE.          Tue May 10 11:52:48 2005: LOG DATE
UWI.           05 071 08191 00: UNIQUE WELL ID
~Curve Information Block
DEPT.FT            0 000 00 00: Depth
CCL.                          : Casing Collar Locator
TT3.usec                      : CBL 3' Travel Time
AMP3.mV                       : CBL 3' Amplitude
GR.GAPI                       : Gamma Ray
~Parameter Information Block
~A  Depth       CCL         TT3         AMP3         GR     
# ...
   110.5000      0.0000   1392.4038      6.8872     93.6627
   110.7500      0.0000   1429.9270      6.8626     95.8298
   111.0000      0.0000   1450.7534      6.7925    101.0931
   111.2500      0.0000   1459.8375      6.7370    106.5497
   111.5000      0.0000   1462.7092      6.7522    109.8292
   111.7500      0.0000   1462.3180      6.8351    110.4918
   112.0000      0.0000   1457.6836      6.9235    109.5424
   112.2500      0.0000   1442.9230      6.9521    108.1212
   112.5000      0.0000   1407.3965      6.9113    106.6797
   112.7500      0.0000   1340.8757      6.8535    104.9937
   113.0000      0.0000   1243.6858      6.8425    102.7972
   113.2500      0.0000   1133.0710      6.8951    100.4239
   113.5000      0.0000   1036.1996      6.9727     98.6588
   113.7500      0.0000    975.0454      7.0260     97.9341
   114.0000      0.0000    956.8123      7.0441     98.1147
   114.2500      0.0000    973.0670      7.0601     99.0883
   114.5000      0.0000   1003.2347      7.1117    100.9453
   114.7500      0.0000   1024.8868      7.2051    103.2873
   115.0000      0.0000   1031.1376      7.3130    104.9814
   115.2500      0.0000   1039.1547      7.3955    105.1233
   115.5000      0.0000   1075.6868      7.4275    103.9756
   115.7500      0.0000   1151.4694      7.4236    102.5405
   116.0000      0.0000   1250.3892      7.4330    101.4348
   116.2500      0.0000   1342.8102      7.4932    100.5573
   116.5000      0.0000   1407.6152      7.5900     99.6273
   116.7500      0.0000   1441.5608      7.6767     98.6469
   117.0000      0.0000   1451.5459      7.7333     97.9615
   117.2500      0.0000   1441.8921      7.7925     98.1926
   117.5000      0.0000   1408.6975      7.8998    100.0626
   117.7500      0.0000   1345.4370      8.0553    103.9374
   118.0000      0.0000   1255.3679      8.2011    109.3242
   118.2500      0.0000   1159.0331      8.2694    114.9462
   118.5000      0.0000   1085.5092      8.2435    119.5416
   118.7500      0.0000   1051.9390      8.1675    122.3787
   119.0000      0.0000   1051.4714      8.0852    122.8263
   119.2500      0.0000   1064.2257      7.9673    120.1132
   119.5000      0.0000   1081.3418      7.7144    114.3555
   119.7500      0.0000   1114.2452      7.2547    107.3672
   120.0000      0.0000   1176.7094      6.6521    101.3847
   120.2500      0.0000   1262.5216      6.0992     96.9274
   120.5000      0.0000   1347.1866      5.7681     92.5560
   120.7500      0.0000   1409.0380      5.6679     86.7038
   121.0000      0.0000   1443.2489      5.6725     79.2558
   121.2500      0.0000   1457.7273      5.6710     71.3447
   121.5000      0.0000   1462.2910      5.6515     64.1332
   121.7500      0.0000   1462.5707      5.6575     58.1765
   122.0000      2.0000   1459.2869      5.7169     53.7560
   122.2500      2.0000   1449.0361      5.8159     51.2370
   122.5000      0.0000   1425.7078      5.9257     50.7938
   122.7500      0.0000   1384.1307      6.0601     51.9643
   123.0000      0.0000   1324.3188      6.2976     53.6619
   123.2500      0.0000   1251.5433      6.7095     54.7274
   123.5000      0.0000   1172.4332      7.2536     54.6298
   123.7500      0.0000   1093.7341      7.7763     53.6751
   124.0000      0.0000   1024.1445      8.1360     52.4401
   124.2500      0.0000    972.2332      8.3045     51.1162
   124.5000      0.0000    940.8127      8.3538     49.6222
   124.7500      0.0000    925.6317      8.3695     48.1618
   125.0000      0.0000    919.7555      8.3804     47.2052
   125.2500      0.0000    917.8832      8.3583     46.8865
   125.5000      0.0000    917.3976      8.2773     46.8946
   125.7500      0.0000    917.4862      8.1629     47.0810
   126.0000      0.0000    918.2947      8.0751     47.7177
   126.2500      0.0000    920.4153      8.0416     48.9473
   126.5000      0.0000    924.5848      8.0234     50.2995
   126.7500      0.0000    931.6831      7.9570     51.0449
   127.0000      0.0000    943.3436      7.8272     51.0427
   127.2500      0.0000    962.7513      7.6851     51.0707
   127.5000      0.0000    993.4235      7.5914     52.0180
   127.7500      0.0000   1034.8054      7.5511     53.7911
   128.0000      0.0000   1078.2399      7.5152     55.4288
   128.2500      0.0000   1110.7382      7.4446     56.2924
   128.5000      0.0000   1125.9950      7.3605     56.6934
   128.7500      0.0000   1129.3539      7.3223     57.2654
   129.0000      0.0000   1129.2904      7.3593     58.1139
   129.2500      0.0000   1129.5828      7.4362     58.7136
   129.5000      0.0000   1135.1478      7.4961     58.5139
   129.7500      0.0000   1158.1389      7.5281     57.5635
   130.0000      0.0000   1206.9558      7.5745     56.5377
   130.2500      0.0000   1269.7114      7.6694     56.2273
   130.5000      0.0000   1316.7250      7.7896     57.0486
   130.7500      0.0000   1323.5791      7.8841     58.8680
   131.0000      0.0000   1291.7515      7.9439     61.1228
   131.2500      0.0000   1247.7454      8.0213     63.1365
   131.5000      0.0000   1222.7889      8.1705     64.3497
   131.7500      0.0000   1232.2701      8.3796     64.3694
   132.0000      0.0000   1270.2524      8.5758     63.0765
   132.2500      0.0000   1316.1200      8.6999     60.6830
   132.5000      0.0000   1343.8054      8.7615     57.4805
   132.7500      0.0000   1332.4797      8.8133     53.6167
   133.0000      0.0000   1277.4811      8.8785     49.2762
   133.2500      0.0000   1193.3892      8.9241     44.8730
   133.5000      0.0000   1104.8519      8.9077     40.8893
   133.7500      0.0000   1032.6879      8.8371     37.7120
   134.0000      0.0000    986.1216      8.7616     35.7434
   134.2500      0.0000    963.6604      8.7086     35.3746
   134.5000      0.0000    957.9779      8.6510     36.5514
   134.7500      0.0000    960.7899      8.5490     38.4830
   135.0000      0.0000    965.8175      8.4076     40.0536
   135.2500      0.0000    969.6730      8.2697     40.5824
   135.5000      0.0000    971.8677      8.1605     40.1083
   135.7500      0.0000    974.9053      8.0638     39.0499
   136.0000      0.0000    982.8897      7.9615     37.8330
   136.2500      0.0000    997.5659      7.8671     36.7659
   136.5000      0.0000   1015.2128      7.8016     36.1006
   136.7500      0.0000   1028.4089      7.7506     36.2468
   137.0000      0.0000   1031.2404      7.6779     37.8183
   137.2500      0.0000   1022.7914      7.5788     41.0425
   137.5000      0.0000   1006.4156      7.4947     45.0214
   137.7500      0.0000    986.8087      7.4594     47.9718
   138.0000      0.0000    967.9713      7.4479     48.5196
   138.2500      0.0000    952.6359      7.4031     46.7855
   138.5000      0.0000    941.8436      7.3076     44.2048
   138.7500      0.0000    934.7375      7.2072     42.4490
   139.0000      0.0000    929.7592      7.1545     42.6218
   139.2500      0.0000    926.4299      7.1457     45.1400
   139.5000      0.0000    925.9410      7.1309     49.7838
   139.7500      0.0000    930.9346      7.0791     55.7895
   140.0000      0.0000    946.0458      7.0103     62.4275
   140.2500      0.0000    978.2490      6.9586     69.6416
   140.5000      0.0000   1032.7814      6.9271     77.6056
   140.7500      0.0000   1104.7670      6.8964     85.3659
   141.0000      0.0000   1177.0400      6.8619     90.5047
   141.2500      0.0000   1231.3002      6.8343     90.8970
   141.5000      0.0000   1260.3578      6.8088     86.9451
   141.7500      0.0000   1265.8234      6.7645     81.7789
   142.0000      0.0000   1249.0245      6.7002     78.9074
   142.2500      0.0000   1211.1760      6.6421     79.4386
   142.5000      0.0000   1160.5052      6.6021     81.5114
   142.7500      0.0000   1113.4865      6.5571     82.5296
   143.0000      0.0000   1085.4177      6.4912     81.8658
   143.2500      0.0000   1078.3541      6.4344     81.1265
   143.5000      0.0000   1082.1902      6.4306     82.0141
   143.7500      0.0000   1091.1522      6.4818     84.5791
