~Version Information
VERS.                      2.0: CWLS Log ASCII Standard - VERSION 2.0
WRAP.                       NO: One line per depth step
~Well Information Block
STRT.FT                15.0000: 
STOP.FT              1211.0000: 
STEP.FT                 0.2500: 
NULL.                -999.2500: 
COMP.          Pioneer Natural Resources: COMPANY
WELL.          Santa Fe 43-27 Tr: WELL
FLD.           Purgatoire River: FIELD
LOC.           2018' FSL & 534' FEL: LOCATION
PROV.                 Colorado: PROVINCE
CNTY.               Las Animas: COUNTRY
SRVC.                Patterson: SERVICE COMPANY
DATE.          Mon Mar 14 15:43:40 2005: LOG DATE
UWI.           05 071 08303 00: UNIQUE WELL ID
~Curve Information Block
DEPT.FT            0 000 00 00: Depth
GR.GAPI                       : Gamma Ray
CCL.                          : Casing Collar Locator
TT3.usec                      : CBL 3' Travel Time
AMP3.mV                       : CBL 3' Amplitude
AMP5.mV                       : CBL 5' Amplitude
~Parameter Information Block
~A  Depth        GR         CCL         TT3         AMP3        AMP5    
# ...
  1107.0000     91.7312      0.0000   1093.2416     13.5272      2.3947
  1107.2500     96.1975      0.0000   1091.9786     13.3716      2.3757
  1107.5000    101.3541      0.0000   1089.3180     13.1891      2.3532
  1107.7500    106.9091      0.0000   1076.8535     13.0073      2.3262
  1108.0000    112.4592      0.0000   1054.7310     12.8618      2.2989
  1108.2500    117.1902      0.0000   1033.6230     12.7765      2.2755
  1108.5000    120.1490      0.0000   1026.5092     12.7467      2.2569
  1108.7500    121.0746      0.0000   1038.8474     12.7339      2.2403
  1109.0000    120.7085      0.0000   1065.4832     12.6918      2.2254
  1109.2500    119.9772      0.0000   1095.2476     12.6060      2.2164
  1109.5000    119.0654      0.0000   1118.5997     12.5080      2.2198
  1109.7500    117.5800      0.0000   1132.3140     12.4477      2.2383
  1110.0000    115.4096      0.0000   1138.4799     12.4533      2.2682
  1110.2500    112.9838      0.0000   1140.6793     12.5176      2.3019
  1110.5000    110.6878      0.0000   1141.3679     12.6187      2.3361
  1110.7500    108.4203      0.0000   1141.4550     12.7498      2.3741
  1111.0000    105.9340      0.0000   1140.7454     12.9221      2.4207
  1111.2500    103.3746      0.0000   1137.8627     13.1446      2.4761
  1111.5000    101.3078      0.0000   1129.6202     13.4125      2.5344
  1111.7500    100.3986      0.0000   1110.9741     13.7210      2.5895
  1112.0000    101.2585      0.0000   1077.8223     14.0805      2.6399
  1112.2500    104.3626      0.0000   1031.9030     14.5109      2.6866
  1112.5000    109.7330      0.0000    981.9432     15.0235      2.7290
  1112.7500    116.6216      0.0000    937.1904     15.6040      2.7655
  1113.0000    123.6955      0.0000    900.2104     16.2050      2.7972
  1113.2500    129.6396      0.0000    868.3425     16.7549      2.8301
  1113.5000    133.4793      0.0000    840.4964     17.1878      2.8711
  1113.7500    134.5378      0.0000    818.9774     17.4737      2.9220
  1114.0000    132.8100      0.0000    805.5951     17.6240      2.9776
  1114.2500    129.6681      0.0000    799.1421     17.6723      3.0281
  1114.5000    127.5305      0.0000    796.7653     17.6543      3.0640
  1114.7500    128.0727      0.0000    796.1192     17.5934      3.0810
  1115.0000    130.7534      0.0000    796.0264     17.4900      3.0808
  1115.2500    133.5994      0.0000    796.0940     17.3215      3.0698
  1115.5000    135.4696      0.0000    796.2201     17.0667      3.0552
  1115.7500    136.8803      0.0000    796.3455     16.7335      3.0400
  1116.0000    138.6339      0.0000    796.4293     16.3510      3.0203
  1116.2500    140.7286      0.0000    796.4523     15.9390      2.9888
  1116.5000    142.9893      0.0000    796.4326     15.5055      2.9415
  1116.7500    145.7264      0.0000    796.5377     15.0735      2.8825
  1117.0000    149.1177      0.0000    797.3059     14.6886      2.8221
  1117.2500    152.4511      0.0000    799.7053     14.3917      2.7702
  1117.5000    154.3724      0.0000    804.6653     14.1963      2.7302
  1117.7500    153.7392      0.0000    812.1890     14.0973      2.6996
  1118.0000    150.3022      0.0000    820.8826     14.0883      2.6767
  1118.2500    144.9352      0.0000    828.6557     14.1632      2.6640
  1118.5000    139.2740      0.0000    834.0869     14.3115      2.6662
  1118.7500    134.9264      0.0000    837.1317     14.5142      2.6842
  1119.0000    132.8047      0.0000    838.8494     14.7435      2.7139
  1119.2500    133.0103      0.0000    841.0369     14.9752      2.7496
  1119.5000    135.0379      0.0000    846.4875     15.2096      2.7868
  1119.7500    137.9003      0.0000    859.0125     15.4746      2.8229
  1120.0000    140.2836      0.0000    881.3873     15.7951      2.8559
  1120.2500    140.9196      0.0000    911.1114     16.1576      2.8839
  1120.5000    138.9903      0.0000    938.3068     16.5094      2.9054
  1120.7500    134.3600      0.0000    950.9314     16.7873      2.9199
  1121.0000    127.6930      0.0000    945.1761     16.9532      2.9277
  1121.2500    120.3581      0.0000    930.6176     17.0104      2.9285
  1121.5000    113.9282      0.0000    922.8956     16.9938      2.9223
  1121.7500    109.4713      0.0000    929.6560     16.9381      2.9111
  1122.0000    107.1932      0.0000    943.4718     16.8534      2.8986
  1122.2500    106.7746      0.0000    948.8172     16.7298      2.8884
  1122.5000    107.9411      0.0000    935.9466     16.5602      2.8826
  1122.7500    110.5097      0.0000    908.0667     16.3533      2.8826
  1123.0000    113.9834      0.0000    876.3016     16.1300      2.8892
  1123.2500    117.5949      0.0000    849.8915     15.9219      2.9018
  1123.5000    120.9700      0.0000    831.7757     15.7803      2.9189
  1123.7500    124.4716      0.0000    820.8248     15.7688      2.9386
  1124.0000    128.5252      0.0000    815.1691     15.9233      2.9596
  1124.2500    132.6405      0.0000    813.3726     16.2114      2.9838
  1124.5000    135.3803      0.0000    814.6154     16.5449      3.0166
  1124.7500    135.3333      0.0000    818.9626     16.8374      3.0641
  1125.0000    131.9859      0.0000    827.8022     17.0556      3.1271
  1125.2500    125.9108      0.0000    844.2219     17.2308      3.1998
  1125.5000    118.5787      0.0000    871.8538     17.4348      3.2724
  1125.7500    111.8334      0.0000    911.1301     17.7395      3.3357
  1126.0000    106.9211      0.0000    956.5404     18.1833      3.3851
  1126.2500    103.8459      0.0000    999.2595     18.7608      3.4198
  1126.5000    101.8285      0.0000   1032.4086     19.4326      3.4400
  1126.7500    100.2638      0.0000   1052.5857     20.1321      3.4456
  1127.0000     99.0375      0.0000   1058.6721     20.7617      3.4390
  1127.2500     98.1162      0.0000   1053.5571     21.2071      3.4269
  1127.5000     97.2563      0.0000   1046.4930     21.3893      3.4172
  1127.7500     96.2462      0.0000   1048.0098     21.3171      3.4133
  1128.0000     95.1986      0.0000   1059.7574     21.0823      3.4108
  1128.2500     94.3360      0.0000   1072.2122     20.7863      3.4029
  1128.5000     93.6038      0.0000   1073.9480     20.4631      3.3883
  1128.7500     92.8523      0.0000   1060.6327     20.0738      3.3726
  1129.0000     92.3168      0.0000   1034.4647     19.5727      3.3640
  1129.2500     92.4970      0.0000    999.4272     18.9727      3.3658
  1129.5000     93.6193      0.0000    960.5731     18.3487      3.3734
  1129.7500     95.6264      0.0000    925.1603     17.7946      3.3762
  1130.0000     98.7024      0.0000    899.7053     17.3811      3.3625
  1130.2500    103.2774      0.0000    886.1595     17.1356      3.3249
  1130.5000    109.1948      0.0000    883.7311     17.0425      3.2639
  1130.7500    115.1491      0.0000    892.2939     17.0571      3.1876
  1131.0000    119.2807      0.0000    910.3280     17.1237      3.1082
  1131.2500    120.3297      0.0000    931.7115     17.1847      3.0348
  1131.5000    118.2546      0.0000    949.3546     17.1869      2.9704
  1131.7500    113.9205      0.0000    961.6960     17.0997      2.9144
  1132.0000    108.3680      0.0000    972.6984     16.9379      2.8669
  1132.2500    102.5733      0.0000    985.7824     16.7564      2.8283
  1132.5000     97.8599      0.0000    999.5429     16.6075      2.7986
  1132.7500     95.9231      0.0000   1008.4161     16.4993      2.7777
  1133.0000     97.9213      0.0000   1005.8256     16.3924      2.7672
  1133.2500    103.4519      0.0000    987.7075     16.2334      2.7685
  1133.5000    110.4493      0.0000    955.7458     15.9907      2.7773
  1133.7500    116.1872      0.0000    918.5427     15.6726      2.7805
  1134.0000    118.7469      0.0000    888.3936     15.3304      2.7582
  1134.2500    117.9278      0.0000    874.9824     15.0418      2.6903
  1134.5000    115.1424      0.0000    880.0935     14.8622      2.5671
  1134.7500    112.5210      0.0000    896.0309     14.7631      2.3938
