~Version Information
VERS.                      2.0: CWLS Log ASCII Standard - VERSION 2.0
WRAP.                       NO: One line per depth step
~Well Information Block
STRT.FT                -3.0000: 
STOP.FT              2043.2500: 
STEP.FT                 0.2500: 
NULL.                -999.2500: 
COMP.          Pioneer Natural Resources: COMPANY
WELL.           Galloway 32-13: WELL
FLD.           Purgatorie River: FIELD
LOC.           1809' FNL & 2004' FEL--: LOCATION
PROV.                       CO: PROVINCE
CNTY.               Las Animas: COUNTRY
SRVC.          Patterson Wireline: SERVICE COMPANY
DATE.          Thu Jul 14 13:02:15 2005: LOG DATE
UWI.           05 071 08423 00: UNIQUE WELL ID
~Curve Information Block
DEPT.FT            0 000 00 00: Depth
CCL.                          : Casing Collar Locator
TT3.usec                      : CBL 3' Travel Time
AMP3.mV                       : CBL 3' Amplitude
GR.GAPI                       : Gamma Ray
~Parameter Information Block
~A  Depth       CCL         TT3         AMP3         GR     
# ...
   131.0000      0.0000    754.2880      3.5257     81.2859
   131.2500      0.0000    759.2477      3.4945     83.9125
   131.5000      0.0000    762.0778      3.4492     85.7407
   131.7500      0.0000    763.3064      3.4022     85.6563
   132.0000      0.0000    763.6612      3.3590     83.9271
   132.2500      0.0000    763.6799      3.3076     82.1509
   132.5000      0.0000    763.6649      3.2345     82.0573
   132.7500      0.0000    763.7284      3.1481     83.9717
   133.0000      0.0000    763.8137      3.0777     86.4385
   133.2500      0.0000    763.7118      3.0464     87.5005
   133.5000      0.0000    763.0699      3.0491     86.3690
   133.7500      0.0000    761.5330      3.0579     84.0010
   134.0000      0.0000    759.1665      3.0471     82.3683
   134.2500      0.0000    756.8523      3.0113     82.9747
   134.5000      0.0000    755.9193      2.9670     85.5223
   134.7500      0.0000    757.0079      2.9373     87.9069
   135.0000      0.0000    759.4348      2.9329     87.7594
   135.2500      0.0000    761.8885      2.9443     83.9796
   135.5000      0.0000    763.5394      2.9522     77.0338
   135.7500      0.0000    764.3405      2.9470     68.6337
   136.0000      0.0000    764.6130      2.9374     61.4290
   136.2500      0.0000    764.6526      2.9373     57.9988
   136.5000      0.0000    764.6206      2.9476     59.1159
   136.7500      0.0000    764.5354      2.9529     63.0276
   137.0000      0.0000    764.2165      2.9363     66.8369
   137.2500      0.0000    763.2073      2.8971     68.6443
   137.5000      0.0000    760.8608      2.8565     68.3518
   137.7500      0.0000    756.8889      2.8435     66.8492
   138.0000      0.0000    752.1908      2.8721     65.0113
   138.2500      0.0000    748.9143      2.9276     63.4839
   138.5000      0.0000    749.0064      2.9756     62.8971
   138.7500      0.0000    752.4523      2.9875     63.7961
   139.0000      0.0000    757.2745      2.9610     66.2544
   139.2500      0.0000    761.2922      2.9191     69.5689
   139.5000      0.0000    763.5784      2.8906     72.3935
   139.7500      0.0000    764.4183      2.8873     73.5081
   140.0000      0.0000    764.4912      2.8994     72.7577
   140.2500      0.0000    764.2704      2.9126     71.0328
   140.5000      0.0000    763.8503      2.9246     69.1477
   140.7500      0.0000    762.9792      2.9437     67.0166
   141.0000      0.0000    761.2486      2.9717     64.1714
   141.2500      0.0000    758.4861      2.9964     60.8762
   141.5000      0.0000    755.0562      3.0049     58.3704
   141.7500      0.0000    751.5469      2.9994     57.8772
   142.0000      0.0000    748.1138      2.9940     59.4954
   142.2500      0.0000    744.5156      2.9965     62.2738
   142.5000      0.0000    740.7788      3.0030     65.2968
   142.7500      0.0000    737.1997      3.0089     68.3573
   143.0000      0.0000    733.7067      3.0178     71.4493
   143.2500      0.0000    729.9769      3.0314     74.0177
   143.5000      0.0000    726.1978      3.0406     75.1345
   143.7500      0.0000    723.0832      3.0329     74.3967
   144.0000      0.0000    721.1319      3.0053     72.3852
   144.2500      0.0000    720.2625      2.9637     70.2129
   144.5000      0.0000    720.1006      2.9149     68.7432
   144.7500      0.0000    720.3467      2.8679     68.1349
   145.0000      0.0000    720.9279      2.8374     67.8456
   145.2500      0.0000    722.0658      2.8345     67.0673
   145.5000      0.0000    724.2156      2.8550     65.3846
   145.7500      0.0000    727.6592      2.8812     63.0982
   146.0000      0.0000    731.9063      2.8972     60.8952
   146.2500      0.0000    735.5717      2.8997     59.2973
   146.5000      0.0000    737.1201      2.8949     58.3857
   146.7500      0.0000    735.9473      2.8872     57.9120
   147.0000      0.0000    732.9406      2.8755     57.6000
   147.2500      0.0000    730.1548      2.8577     57.3756
   147.5000      0.0000    729.8198      2.8341     57.2759
   147.7500      0.0000    733.2139      2.8061     57.1908
   148.0000      0.0000    739.9600      2.7749     56.8473
   148.2500      0.0000    748.1646      2.7419     56.0602
   148.5000      0.0000    755.4995      2.7134     54.8663
   148.7500      0.0000    760.5398      2.7016     53.4494
   149.0000      0.0000    763.2515      2.7160     52.1045
   149.2500      0.0000    764.4296      2.7500     51.2927
   149.5000      0.0000    764.8886      2.7815     51.4894
   149.7500      0.0000    765.1078      2.7926     52.7261
   150.0000      0.0000    765.2853      2.7855     54.2775
   150.2500      0.0000    765.4857      2.7758     55.0026
   150.5000      0.0000    765.7209      2.7731     54.1646
   150.7500      0.0000    765.9747      2.7756     51.9753
   151.0000      0.0000    766.2158      2.7828     49.4370
   151.2500      0.0000    766.4192      2.8048     47.7186
   151.5000      0.0000    766.5792      2.8522     47.5044
   151.7500      0.0000    766.7029      2.9195     48.6238
   152.0000      0.0000    766.7977      2.9878     50.1966
   152.2500      0.0000    766.8684      3.0392     51.2717
   152.5000      0.0000    766.9124      3.0646     51.4796
   152.7500      0.0000    766.9106      3.0626     51.1606
   153.0000      0.0000    766.8336      3.0412     51.0284
   153.2500      0.0000    766.6704      3.0165     51.7235
   153.5000      0.0000    766.4468      3.0026     53.3790
   153.7500      0.0000    766.2183      3.0047     55.3898
   154.0000      0.0000    766.0535      3.0197     56.7813
   154.2500      0.0000    766.0110      3.0384     56.9293
   154.5000      0.0000    766.1045      3.0479     55.8415
   154.7500      0.0000    766.2849      3.0423     53.8946
   155.0000      0.0000    766.4844      3.0323     51.6556
   155.2500      0.0000    766.7205      3.0363     49.7575
   155.5000      0.0000    767.2198      3.0590     48.4539
   155.7500      0.0000    768.5011      3.0845     47.3713
   156.0000      0.0000    771.2424      3.0952     46.1411
   156.2500      0.0000    775.6851      3.0932     45.2361
   156.5000      0.0000    780.8491      3.0956     45.8669
   156.7500      0.0000    784.6248      3.1115     49.0126
   157.0000      0.0000    785.4072      3.1331     54.5420
   157.2500      0.0000    783.7971      3.1505     61.0319
   157.5000      0.0000    782.1251      3.1666     66.2644
   157.7500      0.0000    782.0718      3.1908     68.2283
   158.0000      0.0000    783.1334      3.2247     66.2420
   158.2500      0.0000    783.4439      3.2640     61.3283
   158.5000      0.0000    781.6481      3.3097     55.3879
   158.7500      0.0000    777.9316      3.3676     50.0844
   159.0000      0.0000    773.6528      3.4362     46.4810
   159.2500      0.0000    770.2468      3.5039     45.1710
   159.5000      0.0000    768.4793      3.5608     46.4144
   159.7500      0.0000    768.6354      3.6097     50.3949
   160.0000      0.0000    771.1167      3.6590     57.2547
   160.2500      0.0000    776.4136      3.7076     66.3616
   160.5000      0.0000    784.1967      3.7442     75.7597
   160.7500      0.0000    792.5181      3.7606     83.1396
   161.0000      0.0000    798.3914      3.7557     87.4395
   161.2500      0.0000    799.6927      3.7318     89.1302
   161.5000      0.0000    796.8165      3.6954     89.2168
   161.7500      0.0000    792.5068      3.6586     88.5046
   162.0000      0.0000    789.9371      3.6327     87.6718
   162.2500      0.0000    790.7747      3.6221     87.3414
   162.5000      0.0000    794.7310      3.6287     87.7977
   162.7500      0.0000    800.2285      3.6549     88.9226
   163.0000      0.0000    805.1208      3.6924     90.5746
   163.2500      0.0000    807.1344      3.7175     92.7630
   163.5000      0.0000    804.3386      3.7117     95.1927
   163.7500      0.0000    795.9699      3.6851     96.9619
   164.0000      0.0000    783.7199      3.6653     97.2949
   164.2500      0.0000    772.2583      3.6569     96.4365
