~Version Information
VERS.                      2.0: CWLS Log ASCII Standard - VERSION 2.0
WRAP.                       NO: One line per depth step
~Well Information Block
STRT.FT               702.7000: 
STOP.FT              2529.2000: 
STEP.FT                 0.1000: 
NULL.                -999.2500: 
COMP.          Pioneer Natural Resources: COMPANY
WELL.          Aztec Federal 41-15: WELL
FLD.           Purgatorie River: FIELD
LOC.           706' FNL & 1253' FEL: LOCATION
CNTY.               Las Animas: COUNTY
SRVC.          Superior Well Services: SERVICE COMPANY
DATE.          Tue Mar 18 09-36-47 2008: LOG DATE
UWI.           05-071-08342-00: UNIQUE WELL ID
STAT.                       CO: STATE
~Curve Information Block
DEPT.FT            0 000 00 00: Depth
DCAL.in                       : CDL Caliper
DPOR.pu                       : CDL Density Porosity
GR.GAPI                       : Gamma Ray
RHOB.g/cc                     : CDL Bulk Density
RHOC.g/cc                     : CDL Density Correction
~Parameter Information Block
~A  Depth       DCAL        DPOR         GR         RHOB        RHOC    
# ...
  1677.1000      7.8244      2.9248    101.4473      2.6017      0.0579
  1677.2000      7.8254      2.4789     99.9414      2.6091      0.0708
  1677.3000      7.8291      2.1237     98.2802      2.6150      0.0842
  1677.4000      7.8344      2.8411     99.0209      2.6031      0.0857
  1677.5000      7.8396      4.3315    103.3197      2.5785      0.0722
  1677.6000      7.8431      5.1460    107.9680      2.5651      0.0572
  1677.7000      7.8440      4.4950    108.5305      2.5758      0.0588
  1677.8000      7.8425      3.0496    106.9759      2.5997      0.0811
  1677.9000      7.8392      1.9585    107.3057      2.6177      0.1096
  1678.0000      7.8355      1.8925    108.3460      2.6188      0.1230
  1678.1000      7.8321      2.3272    106.4330      2.6116      0.1168
  1678.2000      7.8297      2.2039    103.1580      2.6136      0.1083
  1678.3000      7.8281      1.9760    104.1298      2.6174      0.1044
  1678.4000      7.8273      2.8503    108.3071      2.6030      0.0923
  1678.5000      7.8270      4.1587    109.0503      2.5814      0.0717
  1678.6000      7.8268      4.8910    105.5463      2.5693      0.0568
  1678.7000      7.8264      5.9427    102.2894      2.5519      0.0454
  1678.8000      7.8258      7.0369    100.8645      2.5339      0.0338
  1678.9000      7.8250      6.1416    101.5194      2.5487      0.0379
  1679.0000      7.8241      3.5509    103.6655      2.5914      0.0607
  1679.1000      7.8233      1.8677    104.4590      2.6192      0.0793
  1679.2000      7.8226      2.0130    103.6881      2.6168      0.0838
  1679.3000      7.8223      2.8670    104.8455      2.6027      0.0826
  1679.4000      7.8223      3.6829    108.1960      2.5892      0.0761
  1679.5000      7.8234      4.5922    109.9071      2.5742      0.0595
  1679.6000      7.8259      6.0514    109.4650      2.5502      0.0337
  1679.7000      7.8301      7.5390    109.4842      2.5256      0.0155
  1679.8000      7.8362      7.4022    109.2313      2.5279      0.0222
  1679.9000      7.8440      5.4528    106.9951      2.5600      0.0421
  1680.0000      7.8533      3.6094    104.7794      2.5904      0.0527
  1680.1000      7.8636      3.1139    105.4848      2.5986      0.0509
  1680.2000      7.8744      3.6301    107.0197      2.5901      0.0424
  1680.3000      7.8850      3.7888    105.6796      2.5875      0.0341
  1680.4000      7.8951      2.6444    102.5371      2.6064      0.0323
  1680.5000      7.9046      2.0329    102.0262      2.6165      0.0275
  1680.6000      7.9142      2.7644    104.2695      2.6044      0.0195
  1680.7000      7.9245      2.0087    106.8845      2.6169      0.0291
  1680.8000      7.9361     -1.1230    110.4244      2.6685      0.0581
  1680.9000      7.9491     -3.3975    114.1795      2.7061      0.0798
  1681.0000      7.9624     -2.5341    115.2390      2.6918      0.0765
  1681.1000      7.9738     -0.2827    112.8321      2.6547      0.0610
  1681.2000      7.9807      1.2386    109.4670      2.6296      0.0509
  1681.3000      7.9811      1.5781    108.0223      2.6240      0.0493
  1681.4000      7.9749      1.8316    108.2088      2.6198      0.0460
  1681.5000      7.9638      3.1434    107.8169      2.5981      0.0338
  1681.6000      7.9508      4.5964    107.0539      2.5742      0.0241
  1681.7000      7.9385      4.7321    106.3710      2.5719      0.0274
  1681.8000      7.9285      3.6702    105.3689      2.5894      0.0404
  1681.9000      7.9205      2.9933    105.7350      2.6006      0.0494
  1682.0000      7.9135      3.5618    108.4661      2.5912      0.0432
  1682.1000      7.9062      4.7158    112.3146      2.5722      0.0294
  1682.2000      7.8982      5.7520    114.6184      2.5551      0.0248
  1682.3000      7.8900      5.7646    115.2055      2.5549      0.0389
  1682.4000      7.8828      4.2860    116.1825      2.5793      0.0704
  1682.5000      7.8775      2.8513    116.9642      2.6030      0.1043
  1682.6000      7.8748      2.2220    116.9141      2.6133      0.1354
  1682.7000      7.8746      1.1978    116.6699      2.6302      0.1741
  1682.8000      7.8762      0.4346    116.0152      2.6428      0.2029
  1682.9000      7.8790      1.8173    116.5256      2.6200      0.1988
  1683.0000      7.8827      4.9981    119.1346      2.5675      0.1755
  1683.1000      7.8880      7.6975    121.6913      2.5230      0.1608
  1683.2000      7.8961      8.7972    123.9501      2.5048      0.1572
  1683.3000      7.9077      9.7144    128.3393      2.4897      0.1440
  1683.4000      7.9221     11.4352    133.7771      2.4613      0.1167
  1683.5000      7.9378     13.2071    137.2164      2.4321      0.0876
  1683.6000      7.9527     14.6646    137.4452      2.4080      0.0572
  1683.7000      7.9657     15.5400    133.2681      2.3936      0.0291
  1683.8000      7.9758     15.2065    125.2639      2.3991      0.0198
  1683.9000      7.9824     13.8395    118.6819      2.4216      0.0272
  1684.0000      7.9848     11.6208    118.2435      2.4583      0.0356
  1684.1000      7.9823      9.1953    121.1254      2.4983      0.0406
  1684.2000      7.9749      8.0958    122.1585      2.5164      0.0443
  1684.3000      7.9633      7.9745    121.5847      2.5184      0.0503
  1684.4000      7.9495      7.6424    122.6649      2.5239      0.0595
  1684.5000      7.9353      6.6358    126.5674      2.5405      0.0750
  1684.6000      7.9228      5.3581    130.8909      2.5616      0.0920
  1684.7000      7.9128      5.3987    133.0429      2.5609      0.0913
  1684.8000      7.9057      6.5949    132.4513      2.5412      0.0766
  1684.9000      7.9011      6.8517    128.6199      2.5369      0.0695
  1685.0000      7.8983      5.8367    124.6344      2.5537      0.0719
  1685.1000      7.8963      4.4097    125.0814      2.5772      0.0774
  1685.2000      7.8941      2.9497    126.2829      2.6013      0.0880
  1685.3000      7.8911      2.1402    124.0600      2.6147      0.0991
  1685.4000      7.8866      3.1875    122.6362      2.5974      0.0931
  1685.5000      7.8810      5.4562    124.0730      2.5600      0.0680
  1685.6000      7.8746      6.5433    124.2330      2.5420      0.0454
  1685.7000      7.8682      5.9869    120.1641      2.5512      0.0338
  1685.8000      7.8625      5.0371    114.2233      2.5669      0.0290
  1685.9000      7.8581      4.3817    110.5373      2.5777      0.0346
  1686.0000      7.8550      4.0677    108.8226      2.5829      0.0439
  1686.1000      7.8527      4.2751    106.5166      2.5795      0.0410
  1686.2000      7.8510      5.0678    102.1068      2.5664      0.0261
  1686.3000      7.8496      5.6674     96.4526      2.5565      0.0182
  1686.4000      7.8487      5.7364     93.2995      2.5553      0.0234
  1686.5000      7.8486      5.7479     93.8183      2.5552      0.0261
  1686.6000      7.8495      5.6405     96.7449      2.5569      0.0249
  1686.7000      7.8516      5.5922    100.9798      2.5577      0.0264
  1686.8000      7.8546      6.0176    105.0715      2.5507      0.0242
  1686.9000      7.8582      6.6208    108.8915      2.5408      0.0168
  1687.0000      7.8619      7.0660    111.9486      2.5334      0.0112
  1687.1000      7.8653      6.6449    110.4510      2.5404      0.0167
  1687.2000      7.8681      5.2321    103.3605      2.5637      0.0372
  1687.3000      7.8703      4.0593     96.5302      2.5830      0.0588
  1687.4000      7.8723      4.2219     95.5375      2.5803      0.0621
  1687.5000      7.8745      4.9615    100.1864      2.5681      0.0551
  1687.6000      7.8773      4.3411    106.4627      2.5784      0.0649
  1687.7000      7.8808      2.7378    110.1949      2.6048      0.0878
  1687.8000      7.8849      1.7009    110.2535      2.6219      0.1061
  1687.9000      7.8892      1.3313    108.7144      2.6280      0.1156
  1688.0000      7.8939      1.6864    108.7126      2.6222      0.1119
  1688.1000      7.8989      2.7542    111.1482      2.6046      0.1001
  1688.2000      7.9043      3.5926    114.6238      2.5907      0.1003
