~Version Information
VERS.                      2.0: CWLS Log ASCII Standard - VERSION 2.0
WRAP.                       NO: One line per depth step
~Well Information Block
STRT.FT               472.0000: 
STOP.FT              2641.5000: 
STEP.FT                 0.1000: 
NULL.                -999.2500: 
COMP.          Pioneer Natural Resources: COMPANY
WELL.              Wagner 13-9: WELL
FLD.           Purgatoire River: FIELD
LOC.           1819' FSL & 1111' FWL: LOCATION
PROV.                 Colorado: PROVINCE
CNTY.               Las Animas: COUNTRY
SRVC.                Patterson: SERVICE COMPANY
DATE.          Tue Apr 19 08:56:38 2005: LOG DATE
UWI.           05 071 08302 00: UNIQUE WELL ID
~Curve Information Block
DEPT.FT            0 000 00 00: Depth
DCAL.in                       : CDL Caliper
RHOB.g/cc                     : CDL Bulk Density
RHOC.g/cc                     : CDL Density Correction
DPOR.pu                       : CDL Density Porosity
GR.GAPI                       : Gamma Ray
NPOR.pu                       : Neutron Porosity
~Parameter Information Block
~A  Depth       DCAL        RHOB        RHOC        DPOR         GR         NPOR    
# ...
  1336.0000      7.9349      2.6471     -0.1025      0.1748    137.1739     29.4208
  1336.1000      7.9349      2.6330     -0.0752      1.0275    141.7205     29.3109
  1336.2000      7.9349      2.6167     -0.0081      2.0155    148.1033     27.1739
  1336.3000      7.9350      2.5818     -0.0533      4.1330    151.7911     23.5190
  1336.4000      7.9350      2.5525     -0.0819      5.9118    150.2689     18.3034
  1336.5000      7.9348      2.5528     -0.0205      5.8938    147.7339     12.9499
  1336.6000      7.9348      2.5744     -0.0254      4.5800    147.3095     12.2491
  1336.7000      7.9348      2.6047      0.0015      2.7463    147.5749     18.1524
  1336.8000      7.9346      2.6340      0.0530      0.9676    145.2373     25.9096
  1336.9000      7.9346      2.6517      0.0340     -0.1013    141.8716     30.4000
  1337.0000      7.9346      2.6528      0.0435     -0.1692    142.1443     31.6509
  1337.1000      7.9346      2.6370      0.0392      0.7883    145.1693     31.3687
  1337.2000      7.9346      2.6124      0.0177      2.2810    146.7604     29.9144
  1337.3000      7.9350      2.5847      0.0935      3.9585    143.6298     26.3289
  1337.4000      7.9350      2.5479      0.0433      6.1881    137.1257     20.5583
  1337.5000      7.9354      2.5109      0.0048      8.4278    135.7396     15.9975
  1337.6000      7.9354      2.5033     -0.0295      8.8933    142.5921     16.3880
  1337.7000      7.9354      2.5440     -0.0471      6.4260    149.5969     21.4887
  1337.8000      7.9357      2.6152      0.0772      2.1094    152.0811     27.5339
  1337.9000      7.9357      2.6832      0.0928     -2.0106    149.7211     30.9513
  1338.0000      7.9351      2.7339      0.1316     -5.0827    142.2732     31.6774
  1338.1000      7.9351      2.7623      0.1842     -6.8083    132.1320     31.3721
  1338.2000      7.9351      2.7639      0.1207     -6.9056    123.3029     31.1371
  1338.3000      7.9341      2.7459      0.1106     -5.8140    119.9523     31.1012
  1338.4000      7.9341      2.7251      0.1001     -4.5488    123.8798     31.1045
  1338.5000      7.9338      2.7180      0.0246     -4.1189    132.2794     31.0048
  1338.6000      7.9338      2.7182      0.1083     -4.1349    139.1541     30.5158
  1338.7000      7.9338      2.6989      0.0569     -2.9658    141.7173     30.0807
  1338.8000      7.9335      2.6597     -0.0058     -0.5877    142.8849     30.6344
  1338.9000      7.9335      2.6284     -0.0090      1.3093    145.8774     31.6815
  1339.0000      7.9337      2.6189      0.0155      1.8832    149.5442     32.1606
  1339.1000      7.9337      2.6122      0.1018      2.2902    150.9731     32.3308
  1339.2000      7.9337      2.5879      0.0495      3.7652    149.9815     32.6165
  1339.3000      7.9349      2.5578      0.0572      5.5902    144.6851     32.2930
  1339.4000      7.9349      2.5379      0.0803      6.7929    136.7759     30.4080
  1339.5000      7.9369      2.5259      0.0761      7.5217    134.6033     27.5144
  1339.6000      7.9369      2.5159      0.0614      8.1300    139.5652     26.0428
  1339.7000      7.9369      2.5078      0.0237      8.6190    147.0930     26.9157
  1339.8000      7.9382      2.5107      0.0044      8.4426    152.1642     28.6534
  1339.9000      7.9382      2.5364      0.0551      6.8823    149.5922     30.2994
  1340.0000      7.9370      2.5823      0.0802      4.1001    143.0945     31.1796
  1340.1000      7.9370      2.6290      0.1223      1.2707    140.6099     30.6023
  1340.2000      7.9370      2.6576      0.0996     -0.4612    140.3057     28.5882
  1340.3000      7.9357      2.6623      0.1070     -0.7447    136.8003     27.0380
  1340.4000      7.9357      2.6467      0.0697      0.1997    132.2544     27.9867
  1340.5000      7.9356      2.6223      0.0774      1.6761    133.2966     30.0616
  1340.6000      7.9356      2.6031      0.0460      2.8449    139.4636     31.1651
  1340.7000      7.9356      2.6002     -0.0208      3.0170    141.9765     30.7136
  1340.8000      7.9352      2.6165      0.0311      2.0292    135.4948     28.4315
  1340.9000      7.9352      2.6379      0.0871      0.7318    125.9206     25.2284
  1341.0000      7.9348      2.6478      0.0701      0.1345    122.8032     23.3805
  1341.1000      7.9348      2.6434      0.0674      0.3999    128.4975     22.2893
  1341.2000      7.9348      2.6357      0.0126      0.8675    139.2524     18.7500
  1341.3000      7.9344      2.6311      0.0437      1.1442    148.1519     13.8786
  1341.4000      7.9344      2.6209     -0.0064      1.7611    150.8055     13.5847
  1341.5000      7.9343      2.5995      0.0107      3.0601    147.5592     19.5883
  1341.6000      7.9343      2.5736     -0.0207      4.6283    142.0436     26.9483
  1341.7000      7.9343      2.5567     -0.0546      5.6530    139.1019     31.3110
  1341.8000      7.9343      2.5526     -0.0293      5.9002    139.2386     32.7947
  1341.9000      7.9343      2.5494     -0.0013      6.0981    140.0680     32.9282
  1342.0000      7.9338      2.5479     -0.0552      6.1872    140.4501     32.0745
  1342.1000      7.9338      2.5604      0.0244      5.4301    139.4419     28.9727
  1342.2000      7.9338      2.5796      0.0449      4.2677    136.6148     24.2298
  1342.3000      7.9322      2.5983      0.0072      3.1333    134.5611     22.8275
  1342.4000      7.9322      2.6180      0.0463      1.9399    138.0894     26.4553
  1342.5000      7.9310      2.6271      0.0494      1.3849    146.3580     30.3820
  1342.6000      7.9310      2.6146      0.0450      2.1479    151.7870     31.5379
  1342.7000      7.9310      2.5872     -0.0167      3.8044    150.1141     30.1871
  1342.8000      7.9323      2.5630     -0.0114      5.2713    145.3917     27.2684
  1342.9000      7.9323      2.5537     -0.0242      5.8371    142.1353     25.2585
  1343.0000      7.9337      2.5594     -0.0206      5.4929    139.1727     26.6114
  1343.1000      7.9337      2.5756     -0.0120      4.5116    135.7778     29.5165
  1343.2000      7.9337      2.5981      0.0474      3.1434    134.2193     30.6370
  1343.3000      7.9341      2.6224      0.0340      1.6725    134.7615     28.9980
  1343.4000      7.9341      2.6408      0.0662      0.5567    134.2753     26.7447
  1343.5000      7.9334      2.6479      0.0279      0.1254    130.7052     27.4680
  1343.6000      7.9334      2.6508      0.0422     -0.0509    128.8484     30.7616
  1343.7000      7.9334      2.6554      0.0994     -0.3297    134.4685     33.4073
  1343.8000      7.9326      2.6535      0.0916     -0.2106    143.9355     34.3352
  1343.9000      7.9326      2.6421      0.0447      0.4788    152.5026     33.9071
  1344.0000      7.9333      2.6261      0.0555      1.4496    159.0497     32.2887
  1344.1000      7.9333      2.6039      0.0525      2.7946    161.3796     30.3771
  1344.2000      7.9333      2.5785      0.0546      4.3334    158.0264     28.9790
  1344.3000      7.9340      2.5581     -0.0183      5.5671    152.0713     26.7854
  1344.4000      7.9340      2.5414      0.0380      6.5818    149.8398     24.3042
  1344.5000      7.9336      2.5197      0.0165      7.8952    150.7913     24.9734
  1344.6000      7.9336      2.4993      0.0145      9.1342    147.2497     28.5440
  1344.7000      7.9336      2.4895      0.0590      9.7261    139.6779     31.6014
  1344.8000      7.9338      2.4871      0.0097      9.8715    135.3734     33.1839
  1344.9000      7.9338      2.4922     -0.0060      9.5645    135.8765     33.9841
  1345.0000      7.9330      2.5072      0.0302      8.6525    138.7787     33.9303
  1345.1000      7.9330      2.5204      0.0696      7.8549    140.8676     32.5613
  1345.2000      7.9330      2.5206      0.0203      7.8447    140.9216     30.3356
  1345.3000      7.9301      2.5155      0.0427      8.1491    140.2099     29.3603
  1345.4000      7.9301      2.5116      0.0390      8.3898    138.5336     30.5775
  1345.5000      7.9280      2.5032      0.0497      8.8980    137.2668     31.8295
