~Version Information
VERS.                      2.0: CWLS Log ASCII Standard - VERSION 2.0
WRAP.                       NO: One line per depth step
~Well Information Block
STRT.FT               583.0000: 
STOP.FT              1700.0000: 
STEP.FT                 0.1000: 
NULL.                -999.2500: 
COMP.          Pioneer Natural Resources: COMPANY
WELL.          Scott Canyon 11-18 Tr: WELL
FLD.           Purgatoire River: FIELD
LOC.           411' FNL & 580' FWL: LOCATION
PROV.                 Colorado: PROVINCE
CNTY.               Las Animas: COUNTRY
SRVC.                Patterson: SERVICE COMPANY
DATE.          Thu Feb 17 15:41:32 2005: LOG DATE
UWI.           05 071 08286 00: UNIQUE WELL ID
~Curve Information Block
DEPT.FT            0 000 00 00: Depth
DCAL.in                       : CDL Caliper
RHOB.g/cc                     : CDL Bulk Density
RHOC.g/cc                     : CDL Density Correction
DPOR.pu                       : CDL Density Porosity
GR.GAPI                       : Gamma Ray
NPOR.pu                       : Neutron Porosity
~Parameter Information Block
~A  Depth       DCAL        RHOB        RHOC        DPOR         GR         NPOR    
# ...
   727.0000      7.8972      2.5204      0.0565      7.8546    134.1681     26.2922
   727.1000      7.8972      2.5495      0.0811      6.0923    131.7628     26.6868
   727.2000      7.8972      2.5799      0.0941      4.2487    128.5734     26.5441
   727.3000      7.8988      2.5968      0.1028      3.2226    128.6801     26.1826
   727.4000      7.8988      2.5924      0.0900      3.4910    133.3907     26.1286
   727.5000      7.8977      2.5791      0.0458      4.2964    136.8711     26.5266
   727.6000      7.8977      2.5789      0.0834      4.3090    131.5074     27.0582
   727.7000      7.8977      2.5917      0.1043      3.5312    121.6694     27.3056
   727.8000      7.8980      2.6026      0.0793      2.8746    115.2383     27.0654
   727.9000      7.8980      2.6085      0.0818      2.5137    112.2589     26.5677
   728.0000      7.8989      2.6096      0.1126      2.4461    115.0378     26.1364
   728.1000      7.8989      2.5969      0.1441      3.2197    125.3028     25.7896
   728.2000      7.8989      2.5687      0.0948      4.9259    136.2189     25.6809
   728.3000      7.8977      2.5458      0.0266      6.3144    140.2616     26.0397
   728.4000      7.8977      2.5481      0.0582      6.1772    136.7853     26.6428
   728.5000      7.8994      2.5667      0.0810      5.0513    131.6476     27.1904
   728.6000      7.8994      2.5822      0.0452      4.1072    129.8808     27.5154
   728.7000      7.8994      2.5869      0.0408      3.8268    130.8351     27.4048
   728.8000      7.9071      2.5773      0.0093      4.4081    131.8599     27.1205
   728.9000      7.9071      2.5542      0.0501      5.8073    133.6425     27.1397
   729.0000      7.8990      2.5313      0.0676      7.1932    136.9721     27.3458
   729.1000      7.8990      2.5375      0.0206      6.8178    141.2664     27.5849
   729.2000      7.8990      2.5786      0.0558      4.3268    147.0159     27.8407
   729.3000      7.8996      2.6229      0.0516      1.6395    152.7343     28.1322
   729.4000      7.8996      2.6440      0.0859      0.3634    155.2334     28.3592
   729.5000      7.8977      2.6305      0.1345      1.1826    154.5962     28.5431
   729.6000      7.8977      2.5983      0.0480      3.1331    152.0389     28.9304
   729.7000      7.8977      2.5989      0.0623      3.0953    145.8994     29.4364
   729.8000      7.8921      2.6571      0.1884     -0.4292    134.9039     29.8891
   729.9000      7.8921      2.7507      0.2189     -6.1010    124.0647     30.2725
   730.0000      7.8818      2.8621      0.2112    -12.8564    116.3108     30.4476
   730.1000      7.8818      2.9749      0.2748    -19.6909    111.8221     30.4295
   730.2000      7.8818      3.0733      0.2834    -25.6532    115.8064     30.2391
   730.3000      7.9389      3.1498      0.3702    -30.2925    125.8931     29.5406
   730.4000      7.9389      3.1707      0.3937    -31.5603    132.5439     28.2224
   730.5000      8.0682      3.1093      0.2998    -27.8380    135.2014     26.7275
   730.6000      8.0682      2.9958      0.1363    -20.9563    136.3107     25.6485
   730.7000      8.0682      2.8765      0.0293    -13.7265    133.9904     25.1234
   730.8000      8.2006      2.7677     -0.0324     -7.1321    128.4348     24.7516
   730.9000      8.2006      2.6697     -0.1131     -1.1949    122.3138     24.1359
   731.0000      8.2444      2.5895     -0.1416      3.6692    118.5199     23.4003
   731.1000      8.2444      2.5361     -0.1746      6.9009    118.4539     23.1501
   731.2000      8.2444      2.5097     -0.1326      8.5041    124.1876     23.4320
   731.3000      8.2470      2.4963     -0.0570      9.3151    135.1881     23.5540
   731.4000      8.2470      2.4818     -0.0365     10.1955    146.1139     23.1758
   731.5000      8.2435      2.4598      0.0919     11.5257    151.3715     22.5415
   731.6000      8.2435      2.4266      0.0844     13.5383    150.7818     21.9579
   731.7000      8.2435      2.3843      0.1181     16.1031    150.0224     21.4811
   731.8000      8.1560      2.3410      0.1142     18.7246    151.8111     21.1986
   731.9000      8.1560      2.3051      0.0795     20.9058    152.9144     21.1491
   732.0000      8.1453      2.2721      0.0463     22.9037    153.3544     20.6749
   732.1000      8.1453      2.2322      0.0038     25.3230    157.8257     19.5771
   732.2000      8.1453      2.1947     -0.0197     27.5929    165.5296     18.6343
   732.3000      8.1462      2.1661      0.0450     29.3253    168.9927     18.3535
   732.4000      8.1462      2.1311      0.1106     31.4500    164.1709     18.8744
   732.5000      8.1423      2.0884      0.1141     34.0365    155.5523     20.1118
   732.6000      8.1423      2.0516      0.2243     36.2664    146.8846     21.4780
   732.7000      8.1423      2.0195      0.2126     38.2142    134.5954     22.4125
   732.8000      8.1464      1.9979      0.1312     39.5227    119.8859     23.0042
   732.9000      8.1464      2.0053      0.1386     39.0754    111.3161     23.5814
   733.0000      8.1478      2.0371      0.1897     37.1452    113.0291     24.2615
   733.1000      8.1478      2.0755      0.1755     34.8180    122.7894     25.0786
   733.2000      8.1478      2.1273      0.1766     31.6760    134.4415     26.2275
   733.3000      8.1326      2.2119      0.1539     26.5526    143.8590     27.6494
   733.4000      8.1326      2.3168      0.2899     20.1932    151.6563     28.4906
   733.5000      8.1449      2.4102      0.2504     14.5345    156.8387     28.2634
   733.6000      8.1449      2.4847      0.1418     10.0199    156.6405     27.7105
   733.7000      8.1449      2.5398      0.0864      6.6806    152.3413     27.7164
   733.8000      8.1308      2.5733      0.0816      4.6506    147.4970     28.3064
   733.9000      8.1308      2.5986      0.0425      3.1134    145.8794     28.8104
   734.0000      8.0343      2.6255      0.0558      1.4820    149.7330     28.8180
   734.1000      8.0343      2.6437      0.0649      0.3843    155.1528     28.6588
   734.2000      8.0343      2.6413      0.0549      0.5247    156.9949     28.6264
   734.3000      8.0225      2.6250      0.0619      1.5162    155.2717     28.5505
   734.4000      8.0225      2.6052      0.0636      2.7154    152.1257     28.4218
   734.5000      8.0214      2.5832      0.0316      4.0469    148.6319     28.3858
   734.6000      8.0214      2.5605      0.0182      5.4252    144.4289     28.1967
   734.7000      8.0214      2.5450     -0.0095      6.3618    137.8181     27.6034
   734.8000      8.0222      2.5421      0.0290      6.5379    131.8576     27.0414
   734.9000      8.0222      2.5439      0.0148      6.4297    131.5220     26.9196
   735.0000      8.0220      2.5404      0.0208      6.6439    133.8193     26.9046
   735.1000      8.0220      2.5360     -0.0174      6.9105    134.2782     26.7239
   735.2000      8.0220      2.5467     -0.0237      6.2600    134.5909     26.4879
   735.3000      8.0223      2.5654      0.0644      5.1263    134.1178     26.4211
   735.4000      8.0223      2.5637      0.0461      5.2295    128.9389     26.6059
   735.5000      8.0241      2.5482      0.0471      6.1682    123.8240     26.7589
   735.6000      8.0241      2.5533     -0.0338      5.8592    126.4827     26.7736
   735.7000      8.0241      2.5832      0.0408      4.0485    131.9636     26.8116
   735.8000      8.0218      2.6139      0.0519      2.1894    130.5467     26.6594
   735.9000      8.0218      2.6337      0.0907      0.9864    121.5399     26.0318
   736.0000      8.0233      2.6458      0.0557      0.2548    113.1880     25.3154
   736.1000      8.0233      2.6504      0.1101     -0.0227    112.7871     24.9746
   736.2000      8.0233      2.6406      0.0633      0.5671    117.0246     24.9667
   736.3000      8.0369      2.6216      0.0071      1.7221    115.0836     25.0924
   736.4000      8.0369      2.6064      0.0457      2.6417    105.9998     25.1722
   736.5000      8.0226      2.5969      0.0534      3.2153     97.6158     25.2175
