~Version Information
VERS.                      2.0: CWLS Log ASCII Standard - VERSION 2.0
WRAP.                       NO: One line per depth step
~Well Information Block
STRT.FT               510.5000: 
STOP.FT              2075.5000: 
STEP.FT                 0.1000: 
NULL.                -999.2500: 
COMP.          Petrogulf Corporation: COMPANY
WELL.          Robinson 15-11V: WELL
FLD.           Purgatorie River: FIELD
LOC.           226' FNL & 592' FWL: LOCATION
CNTY.               Las Animas: COUNTY
SRVC.                         : SERVICE COMPANY
DATE.          Wed Aug 04 06:17:53 2004: LOG DATE
UWI.           05 071 08027 00: UNIQUE WELL ID
STAT.                 Colorado: STATE
~Curve Information Block
DEPT.FT            0 000 00 00: Depth
DCAL.in                       : CDL Caliper
RHOB.g/cc                     : CDL Bulk Density
RHOC.g/cc                     : CDL Density Correction
DPOR.pu                       : CDL Density Porosity
GR.GAPI                       : Gamma Ray
NPOR.pu                       : Neutron Porosity
~Parameter Information Block
~A  Depth       DCAL        RHOB        RHOC        DPOR         GR         NPOR    
# ...
  1134.5000      7.9124      2.5518      0.0233      5.9506    135.9812     27.4587
  1134.6000      7.9124      2.5406      0.0148      6.6326    133.3827     27.6325
  1134.7000      7.9124      2.5448      0.0502      6.3772    132.2260     27.7863
  1134.8000      7.9099      2.5594      0.0256      5.4928    136.7495     27.9542
  1134.9000      7.9099      2.5736      0.0783      4.6277    144.5049     27.9144
  1135.0000      7.9074      2.5748      0.0687      4.5589    148.1328     27.6534
  1135.1000      7.9074      2.5634      0.0200      5.2489    146.9424     27.3761
  1135.2000      7.9074      2.5513      0.0057      5.9825    146.2130     27.1795
  1135.3000      7.8937      2.5447     -0.0046      6.3845    146.3571     26.9848
  1135.4000      7.8937      2.5486      0.0201      6.1443    142.8773     26.7931
  1135.5000      7.8866      2.5623      0.0447      5.3136    136.3419     26.9190
  1135.6000      7.8866      2.5712      0.0144      4.7745    133.1625     27.4157
  1135.7000      7.8866      2.5656      0.0239      5.1164    135.2868     27.8729
  1135.8000      7.8900      2.5515      0.0129      5.9723    140.9392     27.9178
  1135.9000      7.8900      2.5434      0.0137      6.4601    146.3520     27.5562
  1136.0000      7.9172      2.5513      0.0334      5.9805    149.4050     27.1626
  1136.1000      7.9172      2.5682      0.0777      4.9603    152.1822     26.9723
  1136.2000      7.9172      2.5771      0.0927      4.4177    153.9769     26.9938
  1136.3000      7.9003      2.5779      0.0576      4.3678    150.6858     27.2010
  1136.4000      7.9003      2.5850      0.0550      3.9422    144.4876     27.4189
  1136.5000      7.9218      2.5939      0.1442      3.4004    141.4557     27.4178
  1136.6000      7.9218      2.5909      0.0593      3.5793    142.4765     27.2284
  1136.7000      7.9218      2.5824      0.0849      4.0988    146.2956     27.0235
  1136.8000      7.9256      2.5841      0.0505      3.9967    150.2365     26.9557
  1136.9000      7.9256      2.5987      0.0967      3.1074    150.0672     27.0696
  1137.0000      7.9258      2.6068      0.1023      2.6165    147.0308     27.0670
  1137.1000      7.9258      2.5899      0.1398      3.6433    147.0796     26.6522
  1137.2000      7.9258      2.5569      0.0502      5.6408    150.5618     25.8917
  1137.3000      7.9291      2.5360      0.0467      6.9064    154.5819     25.1387
  1137.4000      7.9291      2.5341      0.0636      7.0237    158.8651     24.6364
  1137.5000      7.9698      2.5317      0.0769      7.1700    161.8395     24.3103
  1137.6000      7.9698      2.5181      0.0463      7.9935    164.0054     24.2686
  1137.7000      7.9698      2.5025      0.0331      8.9368    166.0372     24.5883
  1137.8000      7.9784      2.4957      0.0490      9.3502    164.4404     24.8591
  1137.9000      7.9784      2.5034      0.0271      8.8841    161.2743     24.7196
  1138.0000      7.9908      2.5200      0.1211      7.8792    163.5795     24.1796
  1138.1000      7.9908      2.5245      0.1475      7.6062    169.8127     23.6951
  1138.2000      7.9908      2.5146      0.0723      8.2087    174.2238     23.8137
  1138.3000      8.0004      2.5121      0.0877      8.3603    176.1373     24.4100
  1138.4000      8.0004      2.5243      0.0969      7.6191    175.7252     24.9137
  1138.5000      8.0025      2.5365      0.1155      6.8786    169.8730     25.2714
  1138.6000      8.0025      2.5387      0.1101      6.7445    159.4186     25.8087
  1138.7000      8.0025      2.5415      0.0709      6.5772    154.5054     26.2926
  1138.8000      7.9873      2.5530      0.1501      5.8759    158.5455     26.1578
  1138.9000      7.9873      2.5581      0.1692      5.5706    159.3308     25.5459
  1139.0000      7.8821      2.5473      0.0947      6.2222    151.5350     24.9859
  1139.1000      7.8821      2.5329      0.0767      7.0959    144.8703     24.5142
  1139.2000      7.8821      2.5254      0.0765      7.5522    147.6507     24.1260
  1139.3000      7.8648      2.5289      0.0659      7.3397    158.2551     24.0370
  1139.4000      7.8648      2.5389      0.0899      6.7330    168.4957     24.2081
  1139.5000      7.8665      2.5460      0.0499      6.3025    169.9154     24.4170
  1139.6000      7.8665      2.5500      0.0736      6.0617    162.3848     24.6185
  1139.7000      7.8665      2.5496      0.0786      6.0846    154.6718     24.8110
  1139.8000      7.8657      2.5397      0.0931      6.6875    150.9383     24.8751
  1139.9000      7.8657      2.5237      0.0441      7.6529    146.8461     24.8594
  1140.0000      7.8630      2.5151      0.0448      8.1739    141.4736     25.0541
  1140.1000      7.8630      2.5238      0.0352      7.6463    138.8358     25.4748
  1140.2000      7.8630      2.5445      0.0712      6.3950    140.4216     25.7002
  1140.3000      7.8632      2.5562      0.0982      5.6854    145.3964     25.6666
  1140.4000      7.8632      2.5536      0.0494      5.8429    148.5674     25.7023
  1140.5000      7.8623      2.5566      0.0796      5.6610    146.3276     25.5943
  1140.6000      7.8623      2.5674      0.1178      5.0090    141.6937     24.9623
  1140.7000      7.8623      2.5647      0.0981      5.1675    137.3497     24.3164
  1140.8000      7.8629      2.5469      0.0345      6.2507    134.9658     24.2528
  1140.9000      7.8629      2.5363      0.0484      6.8891    135.5024     24.5513
  1141.0000      7.8631      2.5388      0.0866      6.7384    137.8416     24.8751
  1141.1000      7.8631      2.5398      0.0807      6.6804    140.0992     25.0706
  1141.2000      7.8631      2.5407      0.0158      6.6248    139.5077     24.9596
  1141.3000      7.8634      2.5534      0.0779      5.8543    137.0215     24.6946
  1141.4000      7.8634      2.5685      0.1210      4.9409    136.7981     24.6852
  1141.5000      7.8633      2.5674      0.1287      5.0079    135.6736     24.8815
  1141.6000      7.8633      2.5496      0.0698      6.0863    130.3774     24.9415
  1141.7000      7.8633      2.5240      0.0873      7.6350    124.1137     24.7761
  1141.8000      7.8621      2.5010      0.0385      9.0331    120.2129     24.4703
  1141.9000      7.8621      2.4968      0.0502      9.2838    121.6184     24.1733
  1142.0000      7.8642      2.5130      0.0390      8.3009    125.2568     24.0147
  1142.1000      7.8642      2.5312      0.0460      7.1994    125.3226     23.8588
  1142.2000      7.8642      2.5357      0.0831      6.9272    123.4558     23.5902
  1142.3000      7.8653      2.5262      0.0496      7.5017    121.0979     23.3727
  1142.4000      7.8653      2.5114      0.0736      8.4006    117.8392     23.2070
  1142.5000      7.8683      2.4959      0.0635      9.3393    117.0686     22.8491
  1142.6000      7.8683      2.4860      0.0663      9.9366    120.6541     22.3205
  1142.7000      7.8683      2.4861      0.1274      9.9343    122.2170     21.9650
  1142.8000      7.8711      2.4882      0.1115      9.8081    117.8425     22.0015
  1142.9000      7.8711      2.4798      0.1089     10.3169    110.4978     22.4475
  1143.0000      7.8696      2.4587      0.0816     11.5937    103.8928     23.1625
  1143.1000      7.8696      2.4441      0.0753     12.4801    101.7724     23.8383
  1143.2000      7.8696      2.4575      0.1188     11.6660    102.8834     24.3710
  1143.3000      7.8689      2.4968      0.1153      9.2846    103.3487     24.8160
  1143.4000      7.8689      2.5450      0.1401      6.3638    104.0273     25.0878
  1143.5000      7.8655      2.5939      0.1505      3.3997    107.8929     25.1676
  1143.6000      7.8655      2.6437      0.1872      0.3845    112.1132     25.1829
  1143.7000      7.8655      2.6830      0.2470     -2.0010    111.4313     25.2032
  1143.8000      7.8628      2.6952      0.2435     -2.7394    108.1920     25.2150
  1143.9000      7.8628      2.6856      0.1745     -2.1571    107.3266     25.2942
  1144.0000      7.8629      2.6752      0.1524     -1.5255    108.0460     25.5080
