~Version Information
VERS.                      2.0: CWLS Log ASCII Standard - VERSION 2.0
WRAP.                       NO: One line per depth step
~Well Information Block
STRT.FT                60.5000: 
STOP.FT              1875.7500: 
STEP.FT                 0.2500: 
NULL.                -999.2500: 
COMP.          Petrogulf Corporation: COMPANY
WELL.             State 16-14R: WELL
FLD.           Purgatorie River: FIELD
LOC.           598' FSL & 682' FWL--: LOCATION
PROV.                       CO: PROVINCE
CNTY.               Las Animas: COUNTRY
SRVC.                         : SERVICE COMPANY
DATE.          Fri Nov 12 08:50:45 2004: LOG DATE
UWI.            005 071 08034 : UNIQUE WELL ID
~Curve Information Block
DEPT.FT            0 000 00 00: Depth
GR.GAPI                       : Gamma Ray
CCL.                          : Casing Collar Locator
TT3.usec                      : CBL 3' Travel Time
AMP3.mV                       : CBL 3' Amplitude
~Parameter Information Block
~A  Depth        GR         CCL         TT3         AMP3    
# ...
  1836.0000     65.8230      0.0000    706.0695      1.8351
  1836.2500     65.0446      0.0000    695.9368      1.8539
  1836.5000     64.9166      0.0000    680.1236      1.8707
  1836.7500     65.3441      0.0000    664.5986      1.8912
  1837.0000     66.1982      0.0000    653.4445      1.9082
  1837.2500     67.1646      0.0000    647.3446      1.9062
  1837.5000     67.7347      0.0000    644.7913      1.8748
  1837.7500     67.1876      0.0000    644.0223      1.8191
  1838.0000     64.8156      0.0000    643.9738      1.7574
  1838.2500     60.4827      0.0000    644.2216      1.7088
  1838.5000     54.9772      0.0000    644.6328      1.6825
  1838.7500     49.6191      0.0000    645.1375      1.6795
  1839.0000     45.3775      0.0000    645.6774      1.6959
  1839.2500     42.3824      0.0000    646.2528      1.7227
  1839.5000     40.2652      0.0000    647.1368      1.7462
  1839.7500     38.7469      0.0000    649.2486      1.7534
  1840.0000     37.7702      0.0000    654.4937      1.7402
  1840.2500     37.1557      0.0000    665.0536      1.7168
  1840.5000     36.3677      0.0000    680.7091      1.7042
  1840.7500     34.8887      0.0000    696.1607      1.7204
  1841.0000     32.8558      0.0000    703.1244      1.7702
  1841.2500     31.1059      0.0000    697.5533      1.8481
  1841.5000     30.5261      0.0000    684.3016      1.9506
  1841.7500     31.4988      0.0000    673.5209      2.0818
  1842.0000     33.9003      0.0000    673.6790      2.2471
  1842.2500     37.3449      0.0000    688.1302      2.4431
  1842.5000     41.3856      0.0000    714.6545      2.6538
  1842.7500     45.6978      2.0000    744.9360      2.8570
  1843.0000     50.2699     -1.7096    766.3697      3.0377
  1843.2500     55.5213      0.0000    769.5009      3.1917
  1843.5000     62.0782      0.0000    755.9628      3.3085
  1843.7500     70.0370      0.0000    736.9761      3.3557
  1844.0000     78.4397      0.0000    722.5300      3.2992
  1844.2500     85.8918      0.0000    713.1570      3.1506
  1844.5000     91.6937      0.0000    702.5198      2.9778
  1844.7500     95.9963      0.0000    685.9030      2.8604
  1845.0000     99.0872      0.0000    665.1160      2.8370
  1845.2500    101.2428      0.0000    646.4720      2.8923
  1845.5000    103.0673      0.0000    635.9565      2.9766
  1845.7500    105.0822      0.0000    636.6380      3.0401
  1846.0000    107.0186      0.0000    648.6513      3.0613
  1846.2500    108.2716      0.0000    668.8210      3.0486
  1846.5000    108.8841      0.0000    689.8101      3.0198
  1846.7500    109.3724      0.0000    702.0353      2.9858
  1847.0000    109.7006      0.0000    699.1660      2.9496
  1847.2500    108.9473      0.0000    682.6669      2.9126
  1847.5000    106.0520      0.0000    660.5436      2.8843
  1847.7500    100.9060      0.0000    641.3063      2.8825
  1848.0000     94.7997      0.0000    628.9628      2.9207
  1848.2500     89.6574      0.0000    622.8099      2.9902
  1848.5000     86.6965      0.0000    620.3015      3.0626
  1848.7500     85.8821      0.0000    619.4454      3.1122
  1849.0000     86.4811      0.0000    619.4382      3.1348
  1849.2500     87.6912      0.0000    620.3270      3.1448
  1849.5000     88.7883      0.0000    622.4543      3.1590
  1849.7500     89.2584      0.0000    625.7289      3.1849
  1850.0000     89.0906      0.0000    629.0663      3.2167
  1850.2500     88.7729      0.0000    630.8171      3.2387
  1850.5000     88.8484      0.0000    630.1495      3.2346
  1850.7500     89.5143      0.0000    627.8287      3.1986
  1851.0000     90.6694      0.0000    625.3832      3.1386
  1851.2500     92.1848      0.0000    623.7729      3.0696
  1851.5000     93.8917      0.0000    623.0585      3.0049
  1851.7500     95.4110      0.0000    623.0001      2.9547
  1852.0000     96.3000      0.0000    623.6340      2.9254
  1852.2500     96.4095      0.0000    625.2559      2.9172
  1852.5000     95.9687      0.0000    627.8181      2.9243
  1852.7500     95.3526      0.0000    630.3370      2.9388
  1853.0000     94.6826      0.0000    631.2913      2.9518
  1853.2500     93.4217      0.0000    630.0535      2.9525
  1853.5000     90.6215      0.0000    627.7762      2.9345
  1853.7500     86.1827      0.0000    626.4958      2.9041
  1854.0000     81.8719      0.0000    627.3361      2.8780
  1854.2500     80.4458      0.0000    629.6866      2.8695
  1854.5000     83.4540      0.0000    632.0139      2.8762
  1854.7500     89.7822      0.0000    633.2468      2.8785
  1855.0000     96.2661      0.0000    633.2712      2.8513
  1855.2500    100.0510      0.0000    632.5852      2.7854
  1855.5000    100.8539      0.0000    632.2037      2.6988
  1855.7500    100.9813      0.0000    633.5593      2.6250
  1856.0000    102.8767      0.0000    637.6587      2.5907
  1856.2500    106.5615      0.0000    644.7878      2.6018
  1856.5000    109.7318      0.0000    655.9691      2.6470
  1856.7500    110.3782      0.0000    673.2819      2.7159
  1857.0000    108.8115      0.0000    696.0273      2.8112
  1857.2500    106.9000      0.0000    717.1157      2.9398
  1857.5000    105.8687      0.0000    727.3387      3.0920
  1857.7500    105.4272      0.0000    725.2493      3.2320
  1858.0000    104.9268      0.0000    720.5873      3.3167
  1858.2500    104.8140      0.0000    726.1331      3.3252
  1858.5000    106.7149      0.0000    746.8974      3.2733
  1858.7500    111.9897      0.0000    777.3765      3.1993
  1859.0000    119.9180      0.0000    807.7944      3.1367
  1859.2500    127.1860      0.0000    832.0111      3.1010
  1859.5000    129.6819      0.0000    849.9786      3.0920
  1859.7500    125.5331      0.0000    864.1874      3.1013
  1860.0000    116.6042      0.0000    874.9097      3.1194
  1860.2500    107.0190      0.0000    878.7219      3.1436
  1860.5000    100.4072      0.0000    871.1180      3.1811
  1860.7500     98.3408      0.0000    850.7966      3.2421
  1861.0000    100.5218      0.0000    821.6574      3.3313
  1861.2500    105.7001      0.0000    790.4121      3.4496
  1861.5000    112.2349      0.0000    762.7184      3.6002
  1861.7500    118.2746      0.0000    742.1529      3.7877
  1862.0000    122.3203      0.0000    730.4487      4.0035
  1862.2500    124.0773      0.0000    724.6595      4.2009
  1862.5000    124.3172      0.0000    712.5605      4.2615
  1862.7500    123.5973      0.0000    673.3759      3.9890
  1863.0000    121.7447      0.0000    588.5158      3.1977
  1863.2500    119.0112      0.0000    457.7784      1.8833
  1863.5000    116.9366      0.0000    306.4756      0.3152
  1863.7500    117.2564      0.0000    171.9316     -1.1006
  1864.0000    120.1666      0.0000     79.2091     -2.0846
  1864.2500    123.9357      0.0000     29.5312     -2.6146
  1864.5000    125.8203      0.0000      8.8140     -2.8364
  1864.7500    123.5401      0.0000      2.0871     -2.9086
  1865.0000    117.0121      0.0000      0.3863     -2.9269
  1865.2500    109.0821      0.0000      0.0514     -2.9305
  1865.5000    103.5569      0.0000   -999.2500   -999.2500
  1865.7500    101.8674      0.0000   -999.2500   -999.2500
  1866.0000    102.2821      0.0000   -999.2500   -999.2500
  1866.2500    102.4949      0.0000   -999.2500   -999.2500
  1866.5000    101.7682      0.0000   -999.2500   -999.2500
  1866.7500    100.4347      0.0000   -999.2500   -999.2500
  1867.0000     98.9688      0.0000   -999.2500   -999.2500
  1867.2500     98.3892      0.0000   -999.2500   -999.2500
  1867.5000    100.4567      0.0000   -999.2500   -999.2500
  1867.7500    106.4014      0.0000   -999.2500   -999.2500
  1868.0000    115.4587      0.0000   -999.2500   -999.2500
  1868.2500    124.8514      0.0000   -999.2500   -999.2500
  1868.5000    131.3453      0.0000   -999.2500   -999.2500
  1868.7500    133.4056      0.0000   -999.2500   -999.2500
  1869.0000    132.2791      0.0000   -999.2500   -999.2500
  1869.2500    130.7218      0.0000   -999.2500   -999.2500
