~Version Information
VERS.                      2.0: CWLS Log ASCII Standard - VERSION 2.0
WRAP.                       NO: One line per depth step
~Well Information Block
STRT.FT               650.0000: 
STOP.FT              1080.5000: 
STEP.FT                 0.2500: 
NULL.                -999.2500: 
COMP.          Pioneer Natural Resources: COMPANY
WELL.            Galileo 21-11: WELL
FLD.           Purgatoire River: FIELD
LOC.           407' FNL & 2394' FWL: LOCATION
PROV.                 Colorado: PROVINCE
CNTY.               Las Animas: COUNTRY
SRVC.                Patterson: SERVICE COMPANY
DATE.          Mon Apr 11 11:14:18 2005: LOG DATE
UWI.           05 071 08353 00: UNIQUE WELL ID
~Curve Information Block
DEPT.FT            0 000 00 00: Depth
SN.Ohm-m                      : IEL Short Normal
SP.mV                         : IEL Spontaneous Potential
DIR.Ohm-m                     : IEL Induction Resistivity
GR.GAPI                       : Gamma Ray
~Parameter Information Block
~A  Depth        SN          SP         DIR          GR     
# ...
   985.0000    122.0844    248.5644     22.3113     91.7991
   985.2500     89.0119    252.1872     21.9075     91.1006
   985.5000     58.5885    254.7681     21.4951     91.2064
   985.7500     45.6156    256.8703     21.0907     92.3274
   986.0000     44.7703    258.6110     20.7290     95.6672
   986.2500     44.3661    259.6632     20.4497     98.7214
   986.5000     39.8274    259.6526     20.2779    103.6049
   986.7500     34.6709    258.4921     20.2140    106.4084
   987.0000     32.2343    256.3934     20.2392    108.9377
   987.2500     31.9041    253.6328     20.3288    109.1817
   987.5000     32.1904    250.2755     20.4610    107.6654
   987.7500     32.6133    246.0126     20.6184    106.1175
   988.0000     33.1335    240.1641     20.7856    104.6902
   988.2500     33.6885    231.7940     20.9499    105.1056
   988.5000     34.2448    219.8091     21.1038    107.9261
   988.7500     34.7931    202.9858     21.2482    110.6250
   989.0000     35.2263    180.1313     21.3924    114.2204
   989.2500     35.4569    150.7506     21.5500    115.4830
   989.5000     35.6573    116.2671     21.7327    115.1523
   989.7500     36.0074     81.0108     21.9465    113.7945
   990.0000     36.1129     51.6638     22.1930    111.4829
   990.2500     34.9252     34.7235     22.4759    110.6740
   990.5000     31.7687     33.4760     22.8065    111.3474
   990.7500     28.2053     46.8169     23.2029    112.7725
   991.0000     27.6432     70.6494     23.6821    114.9053
   991.2500     30.9442    100.3003     24.2485    115.3500
   991.5000     34.1701    132.0058     24.8864    113.4614
   991.7500     32.8816    162.9872     25.5620    110.4252
   992.0000     26.6791    190.9527     26.2359    104.0999
   992.2500     18.8163    213.9526     26.8765     99.6181
   992.5000     13.4845    230.7812     27.4645     93.9858
   992.7500     13.7152    241.4317     27.9826     91.4130
   993.0000     19.7865    247.0585     28.4028     89.3145
   993.2500     28.4377    249.4027     28.6872     88.8988
   993.5000     35.3313    250.0976     28.8065     89.6219
   993.7500     39.0271    250.2410     28.7616     90.9736
   994.0000     40.9233    250.3239     28.5890     93.8665
   994.2500     42.1615    250.4090     28.3451     95.8833
   994.5000     42.5418    250.4374     28.0792     98.3060
   994.7500     41.6662    250.5237     27.8141     99.3096
   995.0000     39.7238    251.0625     27.5450     99.7291
   995.2500     37.3898    252.5661     27.2527     99.1563
   995.5000     35.4985    255.3544     26.9181     96.8440
   995.7500     34.4032    259.2919     26.5310     94.4745
   996.0000     33.5374    263.7115     26.0912     90.5604
   996.2500     32.2257    267.6261     25.6088     88.4361
   996.5000     30.8801    270.1954     25.1024     86.9013
   996.7500     30.7924    271.1499     24.5932     87.0402
   997.0000     32.4124    270.8225     24.0983     88.3238
   997.2500     34.5903    269.7984     23.6290     89.3565
   997.5000     36.0165    268.5346     23.1938     90.4596
   997.7500     36.3555    267.2276     22.8027     90.6724
   998.0000     35.8947    265.8956     22.4671     90.2141
   998.2500     35.0338    264.4880     22.1966     89.6865
   998.5000     34.1684    262.9388     21.9937     89.3795
   998.7500     33.6045    261.1976     21.8486     89.8654
   999.0000     33.4041    259.2580     21.7414     91.6256
   999.2500     33.3612    257.1604     21.6511     93.1725
   999.5000     33.1919    254.9709     21.5680     95.4884
   999.7500     32.8421    252.7717     21.4974     96.8431
  1000.0000     32.5112    250.6625     21.4518     98.3707
  1000.2500     32.3162    248.7262     21.4408     98.9206
  1000.5000     32.1396    246.9877     21.4690     98.9107
  1000.7500     31.7684    245.5060     21.5410     98.3075
  1001.0000     31.1690    244.6214     21.6628     96.3879
  1001.2500     30.5961    245.0391     21.8371     94.4622
  1001.5000     30.0323    247.4143     22.0580     91.1875
  1001.7500     28.6593    251.6773     22.3142     89.3056
  1002.0000     25.9742    256.8394     22.5948     87.5693
  1002.2500     23.6923    261.5831     22.8920     87.0524
  1002.5000     24.7174    265.0525     23.1989     86.5732
  1002.7500     29.3416    267.1188     23.5085     86.1671
  1003.0000     34.5854    268.1050     23.8176     85.6621
  1003.2500     37.7710    268.4371     24.1272     85.8589
  1003.5000     38.6650    268.4860     24.4355     87.5264
  1003.7500     38.3492    268.5301     24.7270     89.3792
  1004.0000     37.8041    268.7316     24.9702     92.2050
  1004.2500     37.6070    269.1223     25.1302     93.5218
  1004.5000     37.9428    269.6235     25.1875     94.3800
  1004.7500     38.5532    270.1113     25.1471     94.4143
  1005.0000     38.9667    270.5099     25.0284     94.0198
  1005.2500     38.8763    270.8503     24.8486     93.5738
  1005.5000     38.2605    271.2384     24.6122     92.9840
  1005.7500     37.2893    271.7676     24.3134     92.9574
  1006.0000     36.1687    272.4581     23.9457     93.6799
  1006.2500     35.0343    273.2721     23.5102     94.4611
  1006.5000     33.9855    274.1931     23.0173     95.5355
  1006.7500     33.1004    275.3018     22.4845     95.9798
  1007.0000     32.3835    276.7586     21.9326     96.0050
  1007.2500     31.8219    278.6761     21.3816     95.4469
  1007.5000     31.4388    281.0030     20.8469     93.8573
  1007.7500     31.2659    283.5454     20.3361     92.8704
  1008.0000     31.3219    286.0913     19.8487     93.0983
  1008.2500     31.5347    288.4937     19.3802     94.9887
  1008.5000     31.7213    290.6489     18.9299     99.7334
  1008.7500     31.7353    292.4321     18.5048    102.8817
  1009.0000     31.5616    293.6893     18.1177    105.4323
  1009.2500     31.2525    294.3075     17.7792    105.3779
  1009.5000     30.8809    294.3026     17.4923    104.0708
  1009.7500     30.5315    293.8421     17.2518    103.5554
  1010.0000     30.2561    293.1715     17.0507    104.1296
  1010.2500     30.0448    292.4772     16.8855    105.0004
  1010.5000     29.8332    291.7752     16.7584    106.0329
  1010.7500     29.5592    290.9371     16.6725    106.3824
  1011.0000     29.2150    289.8531     16.6253    106.7024
  1011.2500     28.7685    288.5668     16.6074    106.8606
  1011.5000     28.1446    287.2298     16.6083    106.7419
  1011.7500     27.3627    285.9368     16.6277    106.2786
  1012.0000     26.5837    284.6313     16.6800    105.1789
  1012.2500     26.1081    283.1796     16.7874    104.4381
  1012.5000     26.3172    281.5073     16.9648    103.5973
  1012.7500     27.3844    279.6374     17.2081    103.2217
  1013.0000     28.9818    277.6008     17.4959    103.0000
  1013.2500     30.3817    275.3373     17.8010    103.2444
  1013.5000     30.9707    272.6791     18.1046    104.4408
  1013.7500     30.6522    269.3915     18.4006    105.7388
  1014.0000     29.7855    265.2099     18.6895    108.0565
  1014.2500     28.9229    259.8886     18.9681    109.5511
  1014.5000     28.5702    253.2979     19.2229    111.1888
  1014.7500     28.9980    245.5121     19.4335    111.6600
  1015.0000     30.2559    236.7189     19.5803    111.5285
  1015.2500     32.3726    226.8437     19.6512    111.2519
  1015.5000     35.1939    215.1149     19.6431    111.4104
  1015.7500     37.6196    200.0993     19.5610    112.2589
  1016.0000     38.1017    180.5822     19.4178    114.5855
  1016.2500     37.8745    156.9455     19.2352    116.3297
  1016.5000     44.7932    131.9615     19.0403    118.0773
  1016.7500     76.7201    110.0040     18.8588    118.3853
  1017.0000    159.6820     94.9079     18.7046    118.3095
  1017.2500    303.0283     88.0904     18.5731    118.6744
  1017.5000    464.0686     88.4493     18.4427    120.4061
  1017.7500    565.6343     93.9002     18.2855    121.8749
  1018.0000    566.8119    103.0505     18.0813    123.0957
  1018.2500    495.6124    115.7470     17.8265    122.8243
