~Version Information
 VERS.                                  2.0 : CWLS LAS VERSION
 WRAP.                                   NO : WRAPING MODE
 SWARE .                 MController 2.5.0J : SOFTWARE VERSION
~Well Information
 WELL.              Cock-A-Doodle-Doo 44-27 : WELL
 COMP.      Pioneer Natural Resources, Inc. : COMPANY
 FLD.                      Purgatoire River : FIELD
 LOC.                SE/SE Sec.27 T32S R67W : LOCATION
 DATE.                              6/30/05 : DATE(S) LOGGED
 SRVC.       BLANCO Geological Services LLC : SERVICE COMPANY
 STAT.                                   CO : STATE
 CNTY.                           Las Animas : COUNTY
 CTRY.                                  USA : COUNTRY
 API.                             071 08429 : API NUMBER
 STRT.FT                             394.00 : START DEPTH
 STOP.FT                            2540.00 : STOP DEPTH
 STEP.FT                               1.00 : DEPTH INCREMENT
 NULL.                                -9999 : NULL VALUE
~Curve information
 DEPTH.FT                                   :
 ROP.MIN/FT                                 :
 GAS.UNITS                                  :
~ASCII Log data
# ...
       994.0         0.23        302.8 
       995.0         0.23        239.5 
       996.0         0.20        190.7 
       997.0         0.20        164.2 
       998.0         0.20        144.1 
       999.0         0.20        130.7 
      1000.0         0.22        121.3 
      1001.0         0.20        114.0 
      1002.0         0.17        108.9 
      1003.0         0.27        105.5 
      1004.0         0.17        101.3 
      1005.0         0.20         99.2 
      1006.0         0.17         97.4 
      1007.0         0.20         96.0 
      1008.0         0.17         93.8 
      1009.0         0.17         91.9 
      1010.0         0.20         90.6 
      1011.0         0.17         89.3 
      1012.0         0.23         88.6 
      1013.0         0.23         87.8 
      1014.0         0.13         88.1 
      1015.0         0.13         88.5 
      1016.0         1.58         88.2 
      1017.0         0.10         62.3 
      1018.0         0.17         82.6 
      1019.0         0.37        178.0 
      1020.0         0.63        429.3 
      1021.0         0.33        422.7 
      1022.0         0.20        327.6 
      1023.0         0.30        276.1 
      1024.0         0.42        210.4 
      1025.0         0.33        151.6 
      1026.0         0.20        123.9 
      1027.0         0.20        112.8 
      1028.0         0.20        105.2 
      1029.0         0.17         98.3 
      1030.0         0.23         93.3 
      1031.0         0.17         86.6 
      1032.0         0.20         83.8 
      1033.0         0.20         82.5 
      1034.0         0.20         82.5 
      1035.0         0.13         82.3 
      1036.0         0.17         82.1 
      1037.0         0.17         82.3 
      1038.0         0.27         82.6 
      1039.0         0.22         82.3 
      1040.0         0.10         80.5 
      1041.0         0.13         78.7 
      1042.0         0.17         80.4 
      1043.0         0.20         93.0 
      1044.0         0.20        109.3 
      1045.0         0.27        120.6 
      1046.0         2.13        310.5 
      1047.0         0.55       1274.7 
      1048.0         0.27       1184.1 
      1049.0         0.27        898.4 
      1050.0         0.23        752.2 
      1051.0         0.23        694.2 
      1052.0         0.20        639.3 
      1053.0         0.17        599.5 
      1054.0         0.20        566.9 
      1055.0         0.20        532.5 
      1056.0         0.17        503.2 
      1057.0         0.27        485.3 
      1058.0         0.17        465.1 
      1059.0         0.20        456.3 
      1060.0         0.23        447.9 
      1061.0         0.25        441.5 
      1062.0         0.27        440.0 
      1063.0         0.27         91.1 
      1064.0         0.30         99.3 
      1065.0         0.37        101.7 
      1066.0         0.37        100.5 
      1067.0         0.33         96.2 
      1068.0         0.33         91.4 
      1069.0         0.37         88.8 
      1070.0         0.37         86.1 
      1071.0         0.45         84.8 
      1072.0         0.47         85.0 
      1073.0         0.17         83.2 
      1074.0         0.17         82.5 
      1075.0         0.13         83.3 
      1076.0         2.58        435.1 
      1077.0         0.27        422.5 
      1078.0         0.27        317.5 
      1079.0         0.30        214.5 
      1080.0         0.33        180.0 
      1081.0         0.23        163.5 
      1082.0         0.27        143.8 
      1083.0         0.23        124.4 
      1084.0         0.23        115.0 
      1085.0         0.20        109.0 
      1086.0         0.23        104.3 
      1087.0         0.23         99.5 
      1088.0         0.22         95.2 
      1089.0         0.27         92.3 
      1090.0         0.20         88.5 
      1091.0         0.27         85.8 
      1092.0         0.27         83.1 
      1093.0         0.20         80.6 
      1094.0         0.20         77.9 
      1095.0         0.17         75.8 
      1096.0         0.20         72.9 
      1097.0         0.20         68.8 
      1098.0         0.27         65.5 
      1099.0         0.20         64.9 
      1100.0         0.23         66.8 
      1101.0         0.20         68.1 
      1102.0         0.20         68.9 
      1103.0         0.22         69.5 
      1104.0         0.17         70.0 
      1105.0         0.17         70.2 
      1106.0         1.60         85.6 
      1107.0         0.27        126.1 
      1108.0         0.27        194.2 
      1109.0         0.17        247.3 
      1110.0         0.17        299.1 
      1111.0         0.33        336.7 
      1112.0         0.32        329.5 
      1113.0         0.30        286.2 
      1114.0         0.27        268.4 
      1115.0         0.33        237.1 
      1116.0         0.30        181.0 
      1117.0         0.27        145.3 
      1118.0         0.33        126.2 
      1119.0         0.23        114.6 
      1120.0         0.13        115.0 
      1121.0         0.30        115.3 
      1122.0         0.23        113.5 
      1123.0         0.27        107.0 
      1124.0         0.25        115.9 
      1125.0         0.23        135.4 
      1126.0         0.23        142.8 
      1127.0         0.27        142.9 
      1128.0         0.20        138.4 
      1129.0         0.20        131.6 
      1130.0         0.30        124.5 
      1131.0         0.27        114.3 
      1132.0         0.27        105.8 
      1133.0         0.17        100.5 
      1134.0         0.20         99.2 
      1135.0         0.23         97.6 
      1136.0         1.15         94.5 
      1137.0         0.23         69.0 
      1138.0         0.33        120.0 
      1139.0         0.30        177.5 
      1140.0         0.23        216.6 
      1141.0         0.20        237.2 
      1142.0         0.17        239.0 
      1143.0         0.10        235.1 
      1144.0         0.30        226.0 
      1145.0         0.20        184.6 
      1146.0         0.23        156.3 
      1147.0         0.20        133.2 
      1148.0         0.20        124.8 
      1149.0         0.17        122.6 
      1150.0         0.28        122.2 
      1151.0         0.23        121.0 
      1152.0         0.20        118.8 
      1153.0         0.20        116.0 
      1154.0         0.23        111.6 
      1155.0         0.20        105.1 
      1156.0         0.20        100.1 
      1157.0         0.20         96.2 
      1158.0         0.20         94.0 
      1159.0         0.13         93.0 
      1160.0         0.23         93.0 
      1161.0         0.37         94.7 
      1162.0         0.27         95.0 
      1163.0         0.33         93.5 
      1164.0         0.18         86.4 
      1165.0         0.37         89.3 
      1166.0         1.27         88.0 
      1167.0         0.27         88.3 
      1168.0         0.33        166.4 
      1169.0         0.33        235.7 
      1170.0         0.43        272.2 
      1171.0         0.32        270.5 
      1172.0         0.20        237.2 
      1173.0         0.10        201.6 
      1174.0         0.10        183.1 
      1175.0         0.23        165.5 
      1176.0         0.20        132.8 
      1177.0         0.23        115.7 
      1178.0         0.17        104.1 
      1179.0         0.13        105.5 
      1180.0         0.37        115.1 
      1181.0         0.17        115.5 
      1182.0         0.23        114.5 
      1183.0         0.27        110.4 
      1184.0         0.27        103.7 
      1185.0         0.13         99.7 
      1186.0         0.20         98.3 
      1187.0         0.23         96.6 
      1188.0         0.72         94.5 
      1189.0         0.13         78.0 
      1190.0         0.13         78.6 
      1191.0         0.17         79.4 
      1192.0         0.17         78.6 
      1193.0         0.13         75.5 
