~Version Information
 VERS.                                  2.0 : CWLS LAS VERSION
 WRAP.                                   NO : WRAPING MODE
 SWARE .                 MController 2.5.0I : SOFTWARE VERSION
~Well Information
 WELL.                      Anderson 18-43v : WELL
 COMP.                       Petrogulf Corp : COMPANY
 FLD.                      Purgatorie River : FIELD
 LOC.                NE/SE Sec 18 T33S R67W : LOCATION
 DATE.                              9/01/04 : DATE(S) LOGGED
 SRVC.       Blanco geological services LLC : SERVICE COMPANY
 STAT.                                   CO : STATE
 CNTY.                           Las Animas : COUNTY
 CTRY.                                  USA : COUNTRY
 API.                       05-071-08156-00 : API NUMBER
 STRT.FT                             158.00 : START DEPTH
 STOP.FT                            2300.00 : STOP DEPTH
 STEP.FT                               1.00 : DEPTH INCREMENT
 NULL.                                -9999 : NULL VALUE
~Curve information
 DEPTH.FT                                   :
 ROP.MIN/FT                                 :
 GAS.UNITS                                  :
~ASCII Log data
# ...
       558.0          0.3          3.1 
       559.0          0.3          3.2 
       560.0          0.2          3.3 
       561.0          0.2          3.0 
       562.0          0.2          2.9 
       563.0          0.2          3.3 
       564.0          0.1          3.2 
       565.0          0.2          3.1 
       566.0          0.2          3.1 
       567.0          0.2          3.0 
       568.0          0.1          3.1 
       569.0          0.2          3.0 
       570.0          0.2          2.0 
       571.0          0.1          2.1 
       572.0          0.1          1.8 
       573.0          0.2          1.9 
       574.0          0.2          1.6 
       575.0          0.1          1.5 
       576.0          0.1          1.5 
       577.0          0.2          1.3 
       578.0          0.1          1.3 
       579.0          0.1          1.4 
       580.0          0.1          1.3 
       581.0          0.2          1.3 
       582.0          0.1          1.3 
       583.0          0.2          1.4 
       584.0          0.1          1.1 
       585.0          0.1          1.0 
       586.0          0.2          1.3 
       587.0          0.1          1.2 
       588.0          0.1          1.4 
       589.0          0.1          1.4 
       590.0          0.2          1.6 
       591.0          0.3          1.7 
       592.0          0.8          2.2 
       593.0          0.1          2.2 
       594.0          0.1          2.3 
       595.0          0.3          2.6 
       596.0          0.2          2.7 
       597.0          0.2          2.8 
       598.0          0.2          2.5 
       599.0          0.1          2.8 
       600.0          0.2          2.9 
       601.0          0.2          2.9 
       602.0          0.1          2.9 
       603.0          0.2          2.7 
       604.0          0.1          2.8 
       605.0          0.1          2.9 
       606.0          0.2          2.9 
       607.0          0.2          2.9 
       608.0          0.1          3.0 
       609.0          0.2          2.9 
       610.0          0.2          3.1 
       611.0          0.2          3.0 
       612.0          0.2          3.1 
       613.0          0.2          2.9 
       614.0          0.2          3.3 
       615.0          0.2          3.2 
       616.0          0.2          3.3 
       617.0          0.2          3.1 
       618.0          0.2          3.3 
       619.0          0.2          3.0 
       620.0          0.1          3.0 
       621.0          0.2          3.2 
       622.0          0.2          2.9 
       623.0          0.2          3.0 
       624.0          0.3          3.1 
       625.0          0.2          3.1 
       626.0          0.3          2.9 
       627.0          0.9          3.3 
       628.0          0.2          3.2 
       629.0          0.2          3.6 
       630.0          0.2          3.5 
       631.0          0.2          3.6 
       632.0          0.2          3.5 
       633.0          0.2          3.4 
       634.0          0.2          3.1 
       635.0          0.2          3.3 
       636.0          0.2          3.5 
       637.0          0.2          3.3 
       638.0          0.2          3.3 
       639.0          0.2          3.3 
       640.0          0.2          3.3 
       641.0          0.2          3.7 
       642.0          0.2          3.5 
       643.0          0.2          3.7 
       644.0          0.2          3.5 
       645.0          0.2          3.5 
       646.0          0.1          3.3 
       647.0          0.1          3.6 
       648.0          0.1          3.4 
       649.0          0.1          3.6 
       650.0          0.1          3.5 
       651.0          0.1          3.8 
       652.0          0.2          3.7 
       653.0          0.2          3.6 
       654.0          0.1          3.3 
       655.0          0.1          3.5 
       656.0          0.2          3.5 
       657.0          0.3          3.6 
       658.0          0.9          3.7 
       659.0          0.4          3.7 
       660.0          0.2          3.7 
       661.0          0.2          3.8 
       662.0          0.2          3.7 
       663.0          0.2          3.6 
       664.0          0.2          3.7 
       665.0          0.2          3.7 
       666.0          0.2          3.7 
       667.0          0.2          3.7 
       668.0          0.2          3.5 
       669.0          0.2          3.7 
       670.0          0.2          3.9 
       671.0          0.2          3.9 
       672.0          0.3          3.6 
       673.0          0.2          3.8 
       674.0          0.2          3.7 
       675.0          0.2          3.8 
       676.0          0.2          3.7 
       677.0          0.2          3.7 
       678.0          0.2          3.8 
       679.0          0.2          3.9 
       680.0          0.2          3.8 
       681.0          0.2          4.0 
       682.0          0.1          3.9 
       683.0          0.1          3.7 
       684.0          0.1          3.8 
       685.0          0.1          3.6 
       686.0          0.1          3.7 
       687.0          0.1          3.8 
       688.0          1.4          4.0 
       689.0          0.1          3.7 
       690.0          0.3          3.9 
       691.0          0.2          3.9 
       692.0          0.2          3.8 
       693.0          0.1          3.7 
       694.0          0.1          3.7 
       695.0          0.1          3.8 
       696.0          0.1          3.9 
       697.0          0.1          4.0 
       698.0          0.1          3.7 
       699.0          0.1          3.8 
       700.0          0.1          3.6 
       701.0          0.1          3.8 
       702.0          0.1          3.5 
       703.0          0.1          3.6 
       704.0          0.1          3.6 
       705.0          0.1          3.7 
       706.0          0.1          3.3 
       707.0          0.1          3.3 
       708.0          0.1          3.5 
       709.0          0.1          3.2 
       710.0          0.1          3.5 
       711.0          0.1          3.6 
       712.0          0.1          3.3 
       713.0          0.1          3.4 
       714.0          0.1          3.3 
       715.0          0.1          3.2 
       716.0          0.1          3.2 
       717.0          0.1          3.3 
       718.0          1.6          3.7 
       719.0          0.2          3.7 
       720.0          0.2          3.6 
       721.0          0.2          3.3 
       722.0          0.1          3.5 
       723.0          0.1          3.4 
       724.0          0.1          3.3 
       725.0          0.1          3.5 
       726.0          0.1          3.2 
       727.0          0.1          3.2 
       728.0          0.1          3.2 
       729.0          0.1          3.4 
       730.0          0.1          3.6 
       731.0          0.1          3.4 
       732.0          0.1          3.5 
       733.0          0.1          3.2 
       734.0          0.1          3.5 
       735.0          0.1          3.3 
       736.0          0.1          3.2 
       737.0          0.1          3.3 
       738.0          0.1          3.2 
       739.0          0.1          3.4 
       740.0          0.1          3.2 
       741.0          0.1          3.3 
       742.0          0.6          3.6 
       743.0          0.3          3.6 
       744.0          0.3          3.4 
       745.0          0.2          3.6 
       746.0          0.2          3.5 
       747.0          0.1          3.2 
       748.0          1.7          3.8 
       749.0          0.4          3.5 
       750.0          0.3          3.6 
       751.0          0.2          4.0 
       752.0          0.2          3.6 
       753.0          0.2          3.8 
       754.0          0.3          3.8 
       755.0          0.2          4.1 
       756.0          0.2          3.9 
       757.0          0.2          4.0 
