~Version Information
VERS.                      2.0: CWLS Log ASCII Standard - VERSION 2.0
WRAP.                       NO: One line per depth step
~Well Information Block
STRT.FT               930.0000: 
STOP.FT              2783.2000: 
STEP.FT                 0.1000: 
NULL.                -999.2500: 
COMP.          Pioneer Natural Resources: COMPANY
WELL.           Desoto 13-7TR: WELL
FLD.           Purgatoire River: FIELD
LOC.           1404' FSL & 1115' FWL: LOCATION
PROV.                 Colorado: PROVINCE
CNTY.               Las Animas: COUNTRY
SRVC.                Patterson: SERVICE COMPANY
DATE.          Fri Jan 14 14:42:18 2005: LOG DATE
UWI.           05 071 08216 00: UNIQUE WELL ID
~Curve Information Block
DEPT.FT            0 000 00 00: Depth
DCAL.in                       : CDL Caliper
RHOB.g/cc                     : CDL Bulk Density
RHOC.g/cc                     : CDL Density Correction
DPOR.pu                       : CDL Density Porosity
NPOR.pu                       : Neutron Porosity
GR.GAPI                       : Gamma Ray
~Parameter Information Block
~A  Depth       DCAL        RHOB        RHOC        DPOR        NPOR         GR     
# ...
  2514.0000      7.9941      2.4373      0.0437     12.8920     28.1969    150.0935
  2514.1000      7.9941      2.4289      0.0025     13.4004     28.0399    151.6301
  2514.2000      7.9941      2.4396      0.0295     12.7539     27.9039    155.3472
  2514.3000      7.9948      2.4550      0.0653     11.8174     28.4429    155.2043
  2514.4000      7.9948      2.4652      0.0744     11.2004     29.6016    149.2127
  2514.5000      7.9962      2.4792      0.0761     10.3514     30.2580    146.9517
  2514.6000      7.9962      2.4957      0.1088      9.3506     29.9035    151.6237
  2514.7000      7.9962      2.5008      0.1009      9.0407     29.3923    155.2508
  2514.8000      7.9945      2.4937      0.0621      9.4700     29.3449    153.7966
  2514.9000      7.9945      2.4832      0.0692     10.1114     29.6601    149.5208
  2515.0000      7.9911      2.4709      0.0503     10.8551     30.0285    146.9814
  2515.1000      7.9911      2.4616     -0.0039     11.4198     30.1051    147.2847
  2515.2000      7.9911      2.4597      0.0610     11.5364     29.7497    147.2514
  2515.3000      7.9884      2.4594      0.0648     11.5535     29.1155    146.8633
  2515.4000      7.9884      2.4622      0.0614     11.3792     28.8932    147.7103
  2515.5000      7.9870      2.4740      0.0934     10.6649     29.3504    150.2247
  2515.6000      7.9870      2.4885      0.0543      9.7861     29.5371    156.8488
  2515.7000      7.9870      2.5038      0.0780      8.8635     29.0092    168.1026
  2515.8000      7.9889      2.5207      0.1133      7.8360     28.2014    175.4137
  2515.9000      7.9889      2.5301      0.0856      7.2689     27.3115    170.5811
  2516.0000      7.9870      2.5304      0.0502      7.2472     26.5162    160.9392
  2516.1000      7.9870      2.5309      0.0572      7.2201     25.8419    158.9342
  2516.2000      7.9870      2.5333      0.0443      7.0749     25.1731    162.8327
  2516.3000      7.9797      2.5350      0.0486      6.9693     24.8690    168.7778
  2516.4000      7.9797      2.5403      0.0309      6.6499     24.9501    179.3472
  2516.5000      7.9736      2.5532      0.0647      5.8658     25.0619    184.7161
  2516.6000      7.9736      2.5684      0.0137      4.9480     25.2384    176.0058
  2516.7000      7.9736      2.5786      0.0780      4.3261     25.7175    164.6472
  2516.8000      7.9717      2.5765      0.0863      4.4536     26.5915    160.8698
  2516.9000      7.9717      2.5613      0.0733      5.3772     27.3151    163.4086
  2517.0000      7.9721      2.5466      0.0756      6.2651     27.5357    168.9981
  2517.1000      7.9721      2.5435      0.0527      6.4539     27.7691    171.3056
  2517.2000      7.9721      2.5434      0.0913      6.4609     28.4478    164.8572
  2517.3000      7.9713      2.5375      0.0189      6.8186     29.3200    156.2906
  2517.4000      7.9713      2.5378      0.0400      6.8029     29.4555    156.0705
  2517.5000      7.9701      2.5486      0.0524      6.1433     28.6828    161.7253
  2517.6000      7.9701      2.5578      0.0645      5.5854     27.9647    163.7774
  2517.7000      7.9701      2.5611     -0.0039      5.3898     27.6479    160.8461
  2517.8000      7.9693      2.5665      0.0560      5.0634     27.3387    154.5168
  2517.9000      7.9693      2.5759      0.0562      4.4930     26.8407    149.5183
  2518.0000      7.9669      2.5850      0.0381      3.9419     26.5155    155.0504
  2518.1000      7.9669      2.5873      0.0584      3.8009     26.9367    165.7423
  2518.2000      7.9669      2.5758      0.0666      4.4970     27.5838    168.4445
  2518.3000      7.9648      2.5572      0.0056      5.6241     27.4751    165.0229
  2518.4000      7.9648      2.5412      0.0470      6.5925     26.8918    162.6940
  2518.5000      7.9656      2.5269      0.0033      7.4606     26.6254    160.2945
  2518.6000      7.9656      2.5186     -0.0015      7.9641     26.6382    158.4912
  2518.7000      7.9656      2.5216      0.0459      7.7807     26.5953    164.1324
  2518.8000      7.9681      2.5321      0.0259      7.1460     26.6419    173.8064
  2518.9000      7.9681      2.5370      0.0788      6.8507     26.8864    178.3924
  2519.0000      7.9696      2.5251      0.0444      7.5710     27.0055    176.5838
  2519.1000      7.9696      2.5065      0.0292      8.6983     26.9777    170.5585
  2519.2000      7.9696      2.5035      0.0054      8.8807     27.2836    160.5538
  2519.3000      7.9682      2.5255      0.0656      7.5477     27.6773    149.4051
  2519.4000      7.9682      2.5545      0.0910      5.7895     27.2968    140.9878
  2519.5000      7.9662      2.5665      0.0574      5.0594     26.5764    136.9977
  2519.6000      7.9662      2.5588      0.0736      5.5246     26.3830    138.7122
  2519.7000      7.9662      2.5407      0.0611      6.6214     26.5153    143.6407
  2519.8000      7.9679      2.5264      0.0528      7.4938     26.2946    149.2307
  2519.9000      7.9679      2.5238      0.0459      7.6466     25.4472    154.8953
  2520.0000      7.9754      2.5259      0.1087      7.5204     24.4589    155.5402
  2520.1000      7.9754      2.5281      0.0504      7.3855     23.7424    147.2242
  2520.2000      7.9754      2.5414      0.0621      6.5839     23.3839    135.8863
  2520.3000      7.9815      2.5656      0.0670      5.1136     23.5202    129.5816
  2520.4000      7.9815      2.5793      0.0811      4.2838     23.8685    129.2689
  2520.5000      7.9757      2.5715      0.0403      4.7604     23.8730    129.4861
  2520.6000      7.9757      2.5548      0.0565      5.7718     23.5817    126.5972
  2520.7000      7.9757      2.5380      0.0531      6.7877     23.5913    123.2891
  2520.8000      7.9680      2.5158      0.0353      8.1334     24.1873    121.3169
  2520.9000      7.9680      2.4838      0.0125     10.0702     24.8408    117.2089
  2521.0000      7.9650      2.4529     -0.0384     11.9429     25.1046    112.7045
  2521.1000      7.9650      2.4380     -0.0226     12.8482     25.0037    115.9421
  2521.2000      7.9650      2.4342     -0.0206     13.0782     24.6602    127.9230
  2521.3000      7.9674      2.4317     -0.0558     13.2286     24.4388    139.9177
  2521.4000      7.9674      2.4346     -0.0395     13.0536     24.7823    145.5044
  2521.5000      7.9784      2.4473     -0.0178     12.2851     25.4359    145.0088
  2521.6000      7.9784      2.4664      0.0110     11.1256     25.6320    141.0979
  2521.7000      7.9784      2.4850      0.0417     10.0002     24.9583    135.1858
  2521.8000      7.9866      2.4994      0.0355      9.1266     23.6240    128.7876
  2521.9000      7.9866      2.5176      0.0339      8.0218     22.1698    124.4513
  2522.0000      7.9773      2.5487      0.0730      6.1418     21.1193    125.7937
  2522.1000      7.9773      2.5863      0.0916      3.8629     20.6651    131.6496
  2522.2000      7.9773      2.6233      0.0765      1.6204     20.9686    135.1594
  2522.3000      7.9664      2.6599      0.0899     -0.5981     21.6842    131.4615
  2522.4000      7.9664      2.6948      0.0896     -2.7154     21.5393    124.7014
  2522.5000      7.9638      2.7280      0.0860     -4.7290     20.0099    119.4356
  2522.6000      7.9638      2.7613      0.0944     -6.7450     17.9883    111.7779
  2522.7000      7.9638      2.7960      0.1369     -8.8487     16.6812     99.7329
  2522.8000      7.9645      2.8343      0.0767    -11.1674     16.4471     85.8746
  2522.9000      7.9645      2.8634      0.1610    -12.9343     16.6445     72.5831
  2523.0000      7.9645      2.8543      0.0881    -12.3798     16.6394     61.6833
  2523.1000      7.9645      2.8133     -0.0153     -9.8967     16.3479     54.4044
  2523.2000      7.9645      2.7879     -0.0366     -8.3582     15.9619     51.2852
  2523.3000      7.9646      2.7982     -0.0299     -8.9802     15.9388     52.2649
  2523.4000      7.9646      2.8159      0.0076    -10.0565     16.5417     54.9410
  2523.5000      7.9652      2.8210     -0.0089    -10.3637     17.5242     58.0340
