~Version Information
VERS.                      2.0: CWLS Log ASCII Standard - VERSION 2.0
WRAP.                       NO: One line per depth step
~Well Information Block
STRT.FT               555.6000: 
STOP.FT              2132.0000: 
STEP.FT                 0.1000: 
NULL.                -999.2500: 
COMP.          Petrogulf Corporation: COMPANY
WELL.           Montoya 12-41R: WELL
FLD.           Purgatorie River: FIELD
LOC.           1086' FNL & 610' FEL: LOCATION
CNTY.               Las Animas: COUNTY
SRVC.                         : SERVICE COMPANY
DATE.          Thu Nov 18 08:45:51 2004: LOG DATE
UWI.           05 071 08241 00: UNIQUE WELL ID
STAT.                 Colorado: STATE
~Curve Information Block
DEPT.FT            0 000 00 00: Depth
DCAL.in                       : CDL Caliper
RHOB.g/cc                     : CDL Bulk Density
RHOC.g/cc                     : CDL Density Correction
DPOR.pu                       : CDL Density Porosity
GR.GAPI                       : Gamma Ray
NPOR.pu                       : Neutron Porosity
~Parameter Information Block
~A  Depth       DCAL        RHOB        RHOC        DPOR         GR         NPOR    
# ...
  1506.0000      8.1218      2.6235      0.1007      1.6066    106.1515     19.9886
  1506.1000      8.1218      2.5967      0.0415      3.2329    108.9364     20.4107
  1506.2000      8.1218      2.5734      0.0084      4.6405    109.2885     20.3984
  1506.3000      8.1215      2.5645      0.0215      5.1817    107.1072     20.5278
  1506.4000      8.1215      2.5754      0.0286      4.5241    101.8560     20.5398
  1506.5000      8.1231      2.5966      0.0573      3.2356     92.8520     20.4181
  1506.6000      8.1231      2.6046      0.0429      2.7522     87.6608     20.4782
  1506.7000      8.1231      2.5888      0.0433      3.7080     92.6342     20.3288
  1506.8000      8.1244      2.5651     -0.0149      5.1441    102.4092     19.9348
  1506.9000      8.1244      2.5528      0.0057      5.8891    110.7275     19.9112
  1507.0000      8.1269      2.5529     -0.0002      5.8860    116.0775     20.2072
  1507.1000      8.1269      2.5659      0.0137      5.0959    120.1292     20.5527
  1507.2000      8.1269      2.5904      0.0312      3.6114    125.7393     21.3085
  1507.3000      8.1324      2.6060      0.0798      2.6655    129.8199     22.1558
  1507.4000      8.1324      2.5987      0.0435      3.1106    130.1809     22.4523
  1507.5000      8.1402      2.5771      0.0378      4.4207    133.8982     22.5326
  1507.6000      8.1402      2.5527      0.0193      5.8960    141.8598     22.9560
  1507.7000      8.1402      2.5384     -0.0362      6.7607    145.7963     23.5719
  1507.8000      8.1402      2.5471      0.0144      6.2372    147.0244     23.4011
  1507.9000      8.1402      2.5718      0.0285      4.7388    150.6817     22.6090
  1508.0000      8.1324      2.5943      0.0685      3.3731    154.9340     22.7202
  1508.1000      8.1324      2.6017      0.0738      2.9272    156.1024     23.6640
  1508.2000      8.1324      2.5925      0.0668      3.4830    155.7754     24.0567
  1508.3000      8.1297      2.5809      0.0611      4.1892    157.2993     23.8394
  1508.4000      8.1297      2.5813      0.0504      4.1614    158.4639     24.0735
  1508.5000      8.1340      2.5932      0.0396      3.4448    154.4995     24.9472
  1508.6000      8.1340      2.6092      0.0445      2.4702    143.7147     25.5983
  1508.7000      8.1340      2.6293      0.0651      1.2573    131.0254     25.4906
  1508.8000      8.1359      2.6524      0.0643     -0.1430    122.1575     24.8967
  1508.9000      8.1359      2.6652      0.0722     -0.9211    117.0800     24.2001
  1509.0000      8.1299      2.6536      0.0748     -0.2199    116.9567     23.7930
  1509.1000      8.1299      2.6283     -0.0133      1.3170    122.1622     24.1425
  1509.2000      8.1299      2.6149     -0.0116      2.1302    126.4404     25.2022
  1509.3000      8.1228      2.6189     -0.0396      1.8856    127.4392     26.2099
  1509.4000      8.1228      2.6208     -0.0200      1.7697    129.6714     26.3482
  1509.5000      8.1212      2.6011     -0.0031      2.9647    134.2262     25.8252
  1509.6000      8.1212      2.5646      0.0127      5.1752    142.3479     25.5840
  1509.7000      8.1212      2.5367     -0.0070      6.8673    155.6425     25.7026
  1509.8000      8.1247      2.5311      0.0285      7.2054    165.9705     25.4722
  1509.9000      8.1247      2.5328      0.0512      7.1015    166.8607     24.9450
  1510.0000      8.1297      2.5245      0.0591      7.6060    165.9381     24.8568
  1510.1000      8.1297      2.5123      0.0168      8.3449    168.7922     25.4680
  1510.2000      8.1297      2.5104      0.0524      8.4601    172.0768     26.5851
  1510.3000      8.1369      2.5186      0.0520      7.9641    174.2415     27.5857
  1510.4000      8.1369      2.5291      0.0625      7.3278    175.2426     27.5277
  1510.5000      8.1444      2.5363      0.0737      6.8924    173.7509     26.6964
  1510.6000      8.1444      2.5416      0.0504      6.5687    168.9618     26.0000
  1510.7000      8.1444      2.5496      0.0992      6.0859    162.5009     25.5105
  1510.8000      8.1443      2.5558      0.0724      5.7099    157.9913     25.3565
  1510.9000      8.1443      2.5550      0.0823      5.7595    158.1564     25.5448
  1511.0000      8.1364      2.5511      0.0632      5.9962    161.8096     25.5176
  1511.1000      8.1364      2.5516      0.0826      5.9655    162.8994     25.0755
  1511.2000      8.1364      2.5579      0.0633      5.5789    158.3111     24.3546
  1511.3000      8.1294      2.5648      0.0841      5.1615    152.2263     23.4006
  1511.4000      8.1294      2.5719      0.0424      4.7359    147.0301     22.6277
  1511.5000      8.1295      2.5851      0.0399      3.9354    142.1111     22.3681
  1511.6000      8.1295      2.6026      0.0807      2.8712    137.9184     22.3280
  1511.7000      8.1295      2.6175      0.0788      1.9689    134.5961     22.6832
  1511.8000      8.1358      2.6256      0.0976      1.4777    134.3536     23.1631
  1511.9000      8.1358      2.6272      0.0648      1.3794    137.7907     22.6922
  1512.0000      8.1395      2.6239      0.0830      1.5834    137.3379     21.5521
  1512.1000      8.1395      2.6130      0.0643      2.2434    129.9412     20.8074
  1512.2000      8.1395      2.5989      0.0484      3.0971    124.6025     20.4149
  1512.3000      8.1436      2.5920      0.0589      3.5134    127.0264     19.8864
  1512.4000      8.1436      2.5933      0.0589      3.4361    131.0603     19.2674
  1512.5000      8.1499      2.5962      0.0719      3.2631    131.4758     18.8367
  1512.6000      8.1499      2.5941      0.0523      3.3892    130.3786     18.8324
  1512.7000      8.1499      2.5846      0.0261      3.9644    128.3114     19.3196
  1512.8000      8.1534      2.5742      0.0496      4.5960    125.7489     19.6527
  1512.9000      8.1534      2.5704      0.0368      4.8233    126.0709     19.3219
  1513.0000      8.1543      2.5752      0.0630      4.5314    128.6463     18.8694
  1513.1000      8.1543      2.5861      0.0550      3.8715    131.5033     18.6322
  1513.2000      8.1543      2.5962      0.0859      3.2598    133.6929     18.3193
  1513.3000      8.1553      2.5972      0.0731      3.1971    132.7795     17.6579
  1513.4000      8.1553      2.5937      0.0316      3.4099    131.6994     17.4501
  1513.5000      8.1613      2.5974      0.0420      3.1874    135.2337     18.6065
  1513.6000      8.1613      2.6079      0.0654      2.5544    141.5065     19.9157
  1513.7000      8.1613      2.6117      0.0724      2.3194    146.4651     19.8448
  1513.8000      8.1726      2.6001      0.0406      3.0216    144.4467     19.1528
  1513.9000      8.1726      2.5730      0.0806      4.6680    134.6943     18.8534
  1514.0000      8.1809      2.5373      0.0444      6.8278    125.4008     19.0510
  1514.1000      8.1809      2.5186     -0.0299      7.9632    125.0401     19.8702
  1514.2000      8.1809      2.5325      0.0271      7.1224    131.1534     21.0965
  1514.3000      8.1847      2.5588      0.0526      5.5282    133.4551     22.0449
  1514.4000      8.1847      2.5776      0.0463      4.3886    130.3587     22.4419
  1514.5000      8.1803      2.5911      0.0445      3.5724    127.8188     22.1802
  1514.6000      8.1803      2.6066      0.0560      2.6318    127.4490     20.9643
  1514.7000      8.1803      2.6208      0.0931      1.7722    126.8424     19.3625
  1514.8000      8.1727      2.6178      0.1154      1.9522    124.4778     18.5502
  1514.9000      8.1727      2.5938      0.0912      3.4076    121.9613     18.7974
  1515.0000      8.1726      2.5711      0.0409      4.7789    120.8751     19.8896
  1515.1000      8.1726      2.5643      0.0409      5.1938    121.8184     21.5860
  1515.2000      8.1726      2.5630      0.0498      5.2709    127.2523     23.0646
  1515.3000      8.1709      2.5633     -0.0021      5.2553    134.8556     23.1498
  1515.4000      8.1709      2.5780      0.0206      4.3618    135.4009     21.8831
  1515.5000      8.1672      2.6047      0.0901      2.7466    126.1789     20.7845
