~Version Information
VERS.                      2.0: CWLS Log ASCII Standard - VERSION 2.0
WRAP.                       NO: One line per depth step
~Well Information Block
STRT.FT               250.0000: 
STOP.FT              1687.7000: 
STEP.FT                 0.1000: 
NULL.                -999.2500: 
COMP.          Pioneer Natural Resources: COMPANY
WELL.          Moneypenny 31-36: WELL
FLD.           Purgatoire River: FIELD
LOC.           280' FNL & 1976' FEL: LOCATION
PROV.                 Colorado: PROVINCE
CNTY.               Las Animas: COUNTRY
SRVC.                Patterson: SERVICE COMPANY
DATE.          Fri Oct 01 13:54:40 2004: LOG DATE
UWI.           05 071 08183 00: UNIQUE WELL ID
~Curve Information Block
DEPT.FT            0 000 00 00: Depth
DCAL.in                       : CDL Caliper
RHOB.g/cc                     : CDL Bulk Density
RHOC.g/cc                     : CDL Density Correction
DPOR.pu                       : CDL Density Porosity
NPOR.pu                       : Neutron Porosity
GR.GAPI                       : Gamma Ray
~Parameter Information Block
~A  Depth       DCAL        RHOB        RHOC        DPOR        NPOR         GR     
# ...
   624.4000      8.1139      2.4504      0.0631     12.0940     16.0764     78.1644
   624.5000      8.1150      2.4454      0.0700     12.4024     16.4433     71.2592
   624.6000      8.1150      2.4339      0.0180     13.0956     16.6600     67.1029
   624.7000      8.1150      2.4233      0.0736     13.7389     16.9192     68.3574
   624.8000      8.1164      2.4067      0.0280     14.7460     17.2476     73.8704
   624.9000      8.1164      2.3907      0.0379     15.7176     17.3970     80.1580
   625.0000      8.1187      2.3924     -0.0151     15.6098     17.2521     84.0370
   625.1000      8.1187      2.4115      0.0553     14.4553     16.8856     82.0526
   625.2000      8.1187      2.4231      0.0806     13.7498     16.5440     73.9889
   625.3000      8.1179      2.4136      0.0691     14.3287     16.4962     66.8525
   625.4000      8.1179      2.3977      0.0633     15.2909     16.6098     64.6112
   625.5000      8.1155      2.3948      0.0397     15.4680     16.5918     64.7169
   625.6000      8.1155      2.4083      0.0740     14.6486     16.4693     64.7757
   625.7000      8.1155      2.4293      0.0772     13.3760     16.4051     66.4541
   625.8000      8.1119      2.4467      0.0875     12.3193     16.3656     72.8404
   625.9000      8.1119      2.4516      0.0914     12.0273     16.4839     81.8441
   626.0000      8.1060      2.4490      0.0602     12.1826     17.0202     87.5052
   626.1000      8.1060      2.4584      0.0815     11.6116     17.5968     88.3715
   626.2000      8.1060      2.4836      0.1193     10.0827     17.5366     85.8542
   626.3000      8.1027      2.5046      0.1222      8.8123     17.0414     80.6038
   626.4000      8.1027      2.5123      0.0604      8.3453     16.8428     75.4485
   626.5000      8.1033      2.5134      0.1188      8.2784     16.9979     74.1034
   626.6000      8.1033      2.5036      0.1068      8.8713     16.9993     75.0538
   626.7000      8.1033      2.4821      0.0709     10.1780     16.8624     74.6204
   626.8000      8.1048      2.4664      0.0142     11.1256     17.0032     73.9385
   626.9000      8.1048      2.4692      0.0700     10.9575     17.2283     77.2249
   627.0000      8.1062      2.4821      0.0306     10.1748     17.1285     83.0644
   627.1000      8.1062      2.4936      0.0487      9.4816     16.8387     84.1364
   627.2000      8.1062      2.4987      0.0225      9.1683     16.5835     80.0831
   627.3000      8.1079      2.4985      0.0511      9.1818     16.3985     78.3960
   627.4000      8.1079      2.4951      0.0474      9.3859     16.4272     78.3836
   627.5000      8.1104      2.4941     -0.0055      9.4515     16.6487     74.6719
   627.6000      8.1104      2.4991      0.0531      9.1450     16.7116     71.2931
   627.7000      8.1104      2.5063      0.0243      8.7100     16.5047     72.4991
   627.8000      8.1120      2.5076      0.0653      8.6280     16.2906     75.2411
   627.9000      8.1120      2.4981      0.0128      9.2083     16.0759     75.9299
   628.0000      8.1127      2.4880      0.0143      9.8163     15.7406     74.3000
   628.1000      8.1127      2.4898      0.0187      9.7114     15.4772     71.4384
   628.2000      8.1127      2.5047      0.0024      8.8042     15.5570     69.7267
   628.3000      8.1124      2.5211      0.0606      7.8118     16.0703     70.6521
   628.4000      8.1124      2.5166      0.0499      8.0838     16.7401     73.3275
   628.5000      8.1072      2.4955     -0.0022      9.3642     17.3509     75.9780
   628.6000      8.1072      2.4844      0.0051     10.0363     17.9541     78.2384
   628.7000      8.1072      2.4867     -0.0039      9.8964     18.5965     80.4483
   628.8000      8.0994      2.4913      0.0020      9.6209     19.4512     81.2502
   628.9000      8.0994      2.5026     -0.0193      8.9325     20.4037     78.9661
   629.0000      8.0965      2.5359      0.0188      6.9173     20.9433     74.3254
   629.1000      8.0965      2.5862      0.0682      3.8677     20.9935     70.6012
   629.2000      8.0965      2.6230      0.0943      1.6392     20.9428     70.6289
   629.3000      8.1009      2.6246      0.0483      1.5389     21.1426     71.6836
   629.4000      8.1009      2.6015      0.0433      2.9415     21.6271     70.9808
   629.5000      8.1092      2.5719      0.0269      4.7316     22.1207     70.3207
   629.6000      8.1092      2.5388      0.0140      6.7382     22.4686     72.1340
   629.7000      8.1092      2.5137     -0.0455      8.2595     22.8052     76.1005
   629.8000      8.1137      2.5226     -0.0172      7.7221     23.2486     79.7069
   629.9000      8.1137      2.5609     -0.0023      5.4015     23.6602     81.8447
   630.0000      8.1120      2.5931      0.0584      3.4495     23.9465     80.9035
   630.1000      8.1120      2.5944      0.0474      3.3688     24.2594     75.6988
   630.2000      8.1120      2.5733      0.0256      4.6514     24.5650     71.0489
   630.3000      8.1096      2.5512      0.0464      5.9900     24.5754     71.3540
   630.4000      8.1096      2.5321      0.0429      7.1440     24.0076     73.1358
   630.5000      8.1113      2.5135      0.0101      8.2752     22.9064     74.6987
   630.6000      8.1113      2.5066     -0.0213      8.6911     21.8849     81.0619
   630.7000      8.1113      2.5142      0.0783      8.2300     21.4625     89.6643
   630.8000      8.1149      2.5204      0.0525      7.8536     21.4929     92.3327
   630.9000      8.1149      2.5201      0.0600      7.8722     21.4502     89.9957
   631.0000      8.1155      2.5125      0.0568      8.3360     20.9239     85.9454
   631.1000      8.1155      2.4964      0.0249      9.3072     20.0882     81.6010
   631.2000      8.1155      2.4887      0.0219      9.7784     19.3581     78.9473
   631.3000      8.1156      2.5031      0.0226      8.9021     18.7123     77.2967
   631.4000      8.1156      2.5221      0.1077      7.7542     18.0800     75.1117
   631.5000      8.1170      2.5189      0.0967      7.9432     17.5607     73.0629
   631.6000      8.1170      2.5000      0.0398      9.0901     17.2266     72.4827
   631.7000      8.1170      2.4881      0.0678      9.8125     17.1320     73.9633
   631.8000      8.1180      2.4899      0.0292      9.7007     17.1570     76.7692
   631.9000      8.1180      2.4999      0.1078      9.0992     17.0725     78.6298
   632.0000      8.1173      2.5105      0.0701      8.4551     16.9735     78.4075
   632.1000      8.1173      2.5152      0.0613      8.1709     17.0228     75.1403
   632.2000      8.1173      2.5047      0.0813      8.8057     17.0761     69.6207
   632.3000      8.1156      2.4839      0.0518     10.0681     17.1778     65.2456
   632.4000      8.1156      2.4721      0.0218     10.7837     17.3135     63.7996
   632.5000      8.1152      2.4728      0.0620     10.7415     17.2904     65.2920
   632.6000      8.1152      2.4736      0.0605     10.6935     17.2624     68.7078
   632.7000      8.1152      2.4699      0.0600     10.9164     17.3805     71.7751
   632.8000      8.1164      2.4661      0.0443     11.1476     17.6370     71.5659
   632.9000      8.1164      2.4621      0.0668     11.3855     18.0783     68.1079
   633.0000      8.1181      2.4565      0.0050     11.7253     18.4855     64.8021
   633.1000      8.1181      2.4519      0.0538     12.0040     18.5210     63.6892
   633.2000      8.1181      2.4507      0.0087     12.0803     18.3444     64.4240
   633.3000      8.1200      2.4578      0.0431     11.6472     18.2937     66.6540
   633.4000      8.1200      2.4736      0.0549     10.6889     18.3723     69.3072
   633.5000      8.1198      2.4910      0.0654      9.6382     18.3837     71.2373
   633.6000      8.1198      2.5041      0.0748      8.8443     18.1944     72.3512
   633.7000      8.1198      2.5130      0.0473      8.3041     17.9093     71.9136
   633.8000      8.1172      2.5134      0.1173      8.2794     17.7233     70.3453
   633.9000      8.1172      2.4958      0.0610      9.3441     17.5825     69.7777
