~Version Information
VERS.                      2.0: CWLS Log ASCII Standard - VERSION 2.0
WRAP.                       NO: One line per depth step
~Well Information Block
STRT.FT               236.5000: 
STOP.FT              2818.2500: 
STEP.FT                 0.2500: 
NULL.                -999.2500: 
COMP.          Pioneer Natural Resources: COMPANY
WELL.            Sebring 42-29: WELL
FLD.           Purgatorie River: FIELD
LOC.           1751' FNL & 584' FEL--: LOCATION
PROV.                       CO: PROVINCE
CNTY.               Las Animas: COUNTRY
SRVC.          Patterson Wireline: SERVICE COMPANY
DATE.          Fri Aug 26 09:14:13 2005: LOG DATE
UWI.           05 071 08293 00: UNIQUE WELL ID
~Curve Information Block
DEPT.FT            0 000 00 00: Depth
CCL.                          : Casing Collar Locator
TT3.usec                      : CBL 3' Travel Time
AMP3.mV                       : CBL 3' Amplitude
GR.GAPI                       : Gamma Ray
~Parameter Information Block
~A  Depth       CCL         TT3         AMP3         GR     
# ...
  1409.0000      0.0000    663.6351      9.1182     79.0502
  1409.2500      0.0000    664.5792      9.0915     86.2381
  1409.5000      0.0000    665.8578      9.0635     95.3757
  1409.7500      0.0000    667.4775      9.0447    104.6061
  1410.0000      0.0000    668.8765      9.0320    111.9543
  1410.2500      0.0000    669.4413      9.0109    115.6681
  1410.5000      0.0000    668.4859      8.9698    115.2487
  1410.7500      0.0000    664.5334      8.9111    112.0127
  1411.0000      0.0000    655.0598      8.8501    108.2292
  1411.2500      0.0000    638.1161      8.8027    105.7002
  1411.5000      0.0000    615.6846      8.7740    105.1444
  1411.7500      0.0000    595.4105      8.7563    106.5438
  1412.0000      0.0000    586.9396      8.7370    109.6458
  1412.2500      0.0000    594.5678      8.7085    114.1314
  1412.5000      0.0000    613.5023      8.6742    119.5879
  1412.7500      0.0000    634.0369      8.6448    125.4572
  1413.0000      0.0000    649.1196      8.6291    130.9681
  1413.2500      0.0000    657.7013      8.6274    135.1575
  1413.5000      0.0000    662.2623      8.6346    136.9891
  1413.7500      0.0000    665.1001      8.6483    135.4223
  1414.0000      0.0000    667.1167      8.6726    129.8642
  1414.2500      0.0000    668.5637      8.7151    121.1098
  1414.5000      0.0000    669.6206      8.7817    111.3804
  1414.7500      0.0000    669.8583      8.8714    102.8009
  1415.0000      0.0000    667.7297      8.9763     96.2875
  1415.2500      0.0000    662.0754      9.0833     92.3410
  1415.5000      0.0000    655.2800      9.1752     92.0640
  1415.7500      0.0000    653.6262      9.2323     96.4148
  1416.0000      0.0000    662.3264      9.2420    104.6524
  1416.2500      0.0000    680.1607      9.2112    114.0449
  1416.5000      0.0000    699.9383      9.1654    121.1589
  1416.7500      0.0000    713.5394      9.1301    123.6013
  1417.0000      0.0000    716.0772      9.1147    121.1468
  1417.2500      0.0000    707.5137      9.1138    115.7275
  1417.5000      0.0000    693.0547      9.1177    110.3870
  1417.7500      0.0000    681.3959      9.1201    107.8570
  1418.0000      0.0000    679.0963      9.1184    109.5239
  1418.2500      0.0000    685.1050      9.1115    115.0478
  1418.5000      0.0000    692.4100      9.0992    122.5158
  1418.7500      0.0000    695.5320      9.0842    129.1687
  1419.0000      0.0000    694.7830      9.0720    132.6412
  1419.2500      0.0000    693.6293      9.0664    132.1087
  1419.5000      0.0000    694.9928      9.0647    128.6414
  1419.7500      0.0000    700.5162      9.0542    124.4116
  1420.0000      0.0000    710.3643      9.0089    121.0436
  1420.2500      0.0000    722.5058      8.8891    118.3786
  1420.5000      0.0000    733.7538      8.6522    115.0289
  1420.7500      0.0000    742.0015      8.2747    110.3529
  1421.0000      0.0000    746.9082      7.7717    105.8010
  1421.2500      0.0000    748.9717      7.1993    103.9162
  1421.5000      0.0000    748.8625      6.6377    105.8117
  1421.7500      0.0000    747.6495      6.1634    109.9093
  1422.0000      0.0000    746.7996      5.8230    113.3387
  1422.2500      0.0000    747.0240      5.6197    114.3506
  1422.5000      0.0000    747.0812      5.5214    113.3993
  1422.7500      0.0000    744.6407      5.4861    112.2521
  1423.0000      0.0000    738.8733      5.4912    112.2231
  1423.2500      0.0000    731.7551      5.5433    113.3113
  1423.5000      0.0000    726.5555      5.6707    114.7403
  1423.7500      0.0000    725.3434      5.9085    115.6192
  1424.0000      0.0000    728.0900      6.2810    115.0879
  1424.2500      0.0000    733.6509      6.7779    112.8530
  1424.5000      0.0000    740.8544      7.3383    109.9057
  1424.7500      0.0000    748.5339      7.8690    107.9795
  1425.0000      0.0000    755.3299      8.2896    108.0980
  1425.2500      0.0000    760.1592      8.5676    110.1469
  1425.5000      0.0000    762.7770      8.7221    113.6955
  1425.7500      0.0000    763.5936      8.7990    118.4638
  1426.0000      0.0000    763.1075      8.8388    123.7575
  1426.2500      0.0000    761.6740      8.8586    128.0550
  1426.5000      0.0000    759.6120      8.8577    129.8649
  1426.7500      0.0000    757.0023      8.8326    129.0027
  1427.0000      0.0000    752.9956      8.7883    126.7247
  1427.2500      0.0000    745.3194      8.7388    124.8109
  1427.5000      0.0000    730.9685      8.7012    124.5730
  1427.7500      0.0000    708.8684      8.6858    126.0631
  1428.0000      0.0000    683.4628      8.6911    127.9075
  1428.2500      0.0000    664.4110      8.7042    128.4383
  1428.5000      0.0000    658.7460      8.7050    127.1070
  1428.7500      0.0000    662.1301      8.6741    124.6153
  1429.0000      0.0000    661.0877      8.6035    122.1330
  1429.2500      0.0000    645.5673      8.5049    120.7549
  1429.5000      0.0000    617.7886      8.4065    121.1522
  1429.7500      0.0000    588.8198      8.3388    123.2267
  1430.0000      0.0000    568.6899      8.3214    126.2788
  1430.2500      0.0000    560.2203      8.3569    129.7512
  1430.5000      0.0000    560.4042      8.4332    133.4719
  1430.7500      0.0000    565.2646      8.5286    136.9206
  1431.0000      0.0000    571.9501      8.6180    138.6555
  1431.2500      0.0000    577.2882      8.6807    137.1864
  1431.5000      0.0000    577.6495      8.7084    132.6954
  1431.7500      0.0000    572.0457      8.7107    127.4474
  1432.0000      0.0000    564.0735      8.7110    123.9707
  1432.2500      0.0000    559.2900      8.7314    123.0544
  1432.5000      0.0000    560.7076      8.7776    123.8664
  1432.7500      0.0000    567.0300      8.8378    125.4964
  1433.0000      0.0000    574.6545      8.8970    127.6841
  1433.2500      0.0000    580.6982      8.9508    130.4466
  1433.5000      0.0000    584.3039      9.0043    133.7668
  1433.7500      0.0000    585.9920      9.0588    137.5064
  1434.0000      0.0000    586.5665      9.1053    141.1314
  1434.2500      0.0000    586.6123      9.1334    143.6758
  1434.5000      0.0000    586.4918      9.1430    144.3300
  1434.7500      0.0000    586.4534      9.1449    143.1010
  1435.0000      0.0000    586.7646      9.1504    140.8231
  1435.2500      0.0000    587.9595      9.1621    138.4651
  1435.5000      0.0000    591.0497      9.1758    136.2094
  1435.7500      0.0000    597.1630      9.1883    133.2810
  1436.0000      0.0000    606.3806      9.2032    129.0415
  1436.2500      0.0000    616.8560      9.2290    124.2555
  1436.5000      0.0000    625.8466      9.2720    120.7063
  1436.7500      0.0000    632.1458      9.3305    119.3275
  1437.0000      0.0000    637.0141      9.3947    119.2063
  1437.2500      0.0000    642.1835      9.4540    118.8669
  1437.5000      0.0000    647.4760      9.5033    118.2681
  1437.7500      0.0000    651.0939      9.5436    118.9351
  1438.0000      0.0000    651.9872      9.5780    121.9607
  1438.2500      0.0000    651.1971      9.6057    126.3323
  1438.5000      0.0000    650.7245      9.6211    129.6793
  1438.7500      0.0000    651.3326      9.6181    130.5299
  1439.0000      0.0000    651.1783      9.6000    129.4852
  1439.2500      0.0000    646.2716      9.5848    128.3013
  1439.5000      0.0000    633.0328      9.5926    128.3366
  1439.7500      0.0000    611.9124      9.6148    129.8842
  1440.0000      0.0000    589.1036      9.5912    132.1127
  1440.2500      0.0000    573.6720      9.4313    133.2938
  1440.5000      0.0000    571.8240      9.0862    131.9164
  1440.7500      0.0000    582.9442      8.6077    128.0572
  1441.0000      0.0000    600.0524      8.1288    122.9835
  1441.2500      0.0000    614.2825      7.7807    117.2359
  1441.5000      0.0000    620.7595      7.6220    109.9917
  1441.7500      0.0000    620.3793      7.6262    100.6775
  1442.0000      0.0000    614.3514      7.7166     90.4383
  1442.2500     -2.0000    598.9066      7.8218     81.6322
