~Version Information
 VERS.                                  2.0 : CWLS LAS VERSION
 WRAP.                                   NO : WRAPING MODE
 SWARE .                 MController 2.5.0J : SOFTWARE VERSION
~Well Information
 WELL.                          Silva 1-43R : WELL
 COMP.                Petrogulf Corporation : COMPANY
 FLD.                       Purgatory River : FIELD
 LOC.                  NE/SE sec1 T33S R68W : LOCATION
 DATE.                    6/16/06 - 6/17/06 : DATE(S) LOGGED
 SRVC.      Blanco Geological Services, LLC : SERVICE COMPANY
 STAT.                             Colorado : STATE
 CNTY.                           Las Animas : COUNTY
 CTRY.                                  USA : COUNTRY
 API.                       05-071-08372-00 : API NUMBER
 STRT.FT                              12.00 : START DEPTH
 STOP.FT                            2210.00 : STOP DEPTH
 STEP.FT                               1.00 : DEPTH INCREMENT
 NULL.                                -9999 : NULL VALUE
~Curve information
 DEPTH.FT                                   :
 ROP.MIN/FT                                 :
 GAS.UNITS                                  :
~ASCII Log data
# ...
      1412.0         0.33         66.7 
      1413.0         0.35         66.3 
      1414.0         0.40         65.6 
      1415.0         0.30         63.2 
      1416.0         0.33         58.9 
      1417.0         0.50         50.4 
      1418.0         0.30         48.1 
      1419.0         0.20         40.6 
      1420.0         0.27         28.0 
      1421.0         0.30         18.8 
      1422.0         0.23         14.7 
      1423.0         0.28         12.0 
      1424.0         0.27         12.8 
      1425.0         0.27         19.3 
      1426.0         0.33         26.3 
      1427.0         0.27         28.8 
      1428.0         0.23         29.3 
      1429.0         0.27         29.2 
      1430.0         0.17         29.5 
      1431.0         0.23         30.0 
      1432.0         0.33         30.6 
      1433.0         0.37         30.9 
      1434.0         0.27         29.9 
      1435.0         0.27         29.4 
      1436.0         2.55         16.5 
      1437.0         0.50         40.9 
      1438.0         0.48         91.4 
      1439.0         0.53        279.5 
      1440.0         0.47        274.8 
      1441.0         0.50        196.1 
      1442.0         0.40        146.7 
      1443.0         0.43        112.6 
      1444.0         0.43         91.6 
      1445.0         0.40         77.8 
      1446.0         0.45         61.4 
      1447.0         0.40         47.3 
      1448.0         0.40         38.2 
      1449.0         0.47         33.1 
      1450.0         0.43         31.6 
      1451.0         0.43         30.9 
      1452.0         0.43         31.1 
      1453.0         0.30         31.2 
      1454.0         0.35         31.5 
      1455.0         0.40         31.0 
      1456.0         0.37         31.7 
      1457.0         0.33         32.3 
      1458.0         0.27         31.7 
      1459.0         0.27         31.0 
      1460.0         0.13         30.6 
      1461.0         0.13         31.2 
      1462.0         0.13         31.6 
      1463.0         0.13         31.5 
      1464.0         0.13         33.0 
      1465.0         0.17         33.4 
      1466.0         3.82         90.2 
      1467.0         0.18        100.6 
      1468.0         0.13        115.0 
      1469.0         0.10        144.9 
      1470.0         0.13        206.6 
      1471.0         0.10        256.6 
      1472.0         0.10        299.4 
      1473.0         0.17        340.1 
      1474.0         0.17        335.5 
      1475.0         0.33        255.4 
      1476.0         0.30        192.4 
      1477.0         0.27        175.7 
      1478.0         0.13        174.8 
      1479.0         0.20        173.1 
      1480.0         0.20        166.9 
      1481.0         0.17        159.1 
      1482.0         0.23        146.0 
      1483.0         0.23        131.1 
      1484.0         0.27        114.6 
      1485.0         0.25        104.5 
      1486.0         0.17         98.2 
      1487.0         0.23         87.6 
      1488.0         0.23         77.1 
      1489.0         0.17         70.1 
      1490.0         0.20         63.3 
      1491.0         0.23         55.5 
      1492.0         0.27         47.7 
      1493.0         0.30         40.1 
      1494.0         0.33         32.2 
      1495.0         0.30         28.9 
      1496.0         3.72         58.7 
      1497.0         0.30         76.3 
      1498.0         0.18        106.6 
      1499.0         0.10        138.7 
      1500.0         0.10        174.0 
      1501.0         0.20        233.2 
      1502.0         0.23        253.3 
      1503.0         0.27        213.8 
      1504.0         0.33        157.8 
      1505.0         0.27        139.3 
      1506.0         0.27        135.7 
      1507.0         0.27        131.5 
      1508.0         0.23        123.9 
      1509.0         0.13        118.4 
      1510.0         0.20        109.3 
      1511.0         0.23         99.4 
      1512.0         0.30         88.6 
      1513.0         0.28         81.1 
      1514.0         0.23         75.1 
      1515.0         0.27         68.5 
      1516.0         0.43         57.4 
      1517.0         0.30         51.0 
      1518.0         0.23         48.1 
      1519.0         0.23         48.2 
      1520.0         0.23         47.5 
      1521.0         0.17         46.2 
      1522.0         0.17         44.4 
      1523.0         0.17         43.2 
      1524.0         0.27         41.7 
      1525.0         0.27         44.3 
      1526.0         3.25         20.5 
      1527.0         0.42         35.7 
      1528.0         0.33         56.7 
      1529.0         0.47        188.3 
      1530.0         0.27        212.1 
      1531.0         0.37        184.9 
      1532.0         0.27        164.4 
      1533.0         0.50        131.8 
      1534.0         0.43        104.4 
      1535.0         0.33         87.7 
      1536.0         0.32         78.3 
      1537.0         0.30         71.5 
      1538.0         0.27         65.6 
      1539.0         0.23         61.4 
      1540.0         0.17         58.9 
      1541.0         0.20         56.0 
      1542.0         0.13         54.6 
      1543.0         0.23         52.3 
      1544.0         0.30         49.7 
      1545.0         0.33         48.1 
      1546.0         0.27         47.3 
      1547.0         0.20         47.2 
      1548.0         0.23         46.3 
      1549.0         0.30         42.2 
      1550.0         0.32         39.3 
      1551.0         0.30         38.9 
      1552.0         0.27         39.9 
      1553.0         0.23         40.1 
      1554.0         0.23         40.3 
      1555.0         0.23         38.1 
      1556.0        11.08         34.2 
      1557.0         0.30         28.2 
      1558.0         0.23         24.1 
      1559.0         0.28         20.0 
      1560.0         0.30         21.1 
      1561.0         0.53         50.6 
      1562.0         0.87         66.8 
      1563.0         0.80         41.5 
      1564.0         0.50         28.0 
      1565.0         0.55         21.3 
      1566.0         0.57         17.5 
      1567.0         0.47         17.2 
      1568.0         0.53         17.0 
      1569.0         0.37         16.0 
      1570.0         0.33         15.3 
      1571.0         0.63         14.9 
      1572.0         0.42         14.5 
      1573.0         0.50         14.8 
      1574.0         0.53         14.5 
      1575.0         0.57         14.2 
      1576.0         0.53         14.6 
      1577.0         0.50         14.0 
      1578.0         0.68         14.5 
      1579.0         0.67         14.1 
      1580.0         0.43         14.2 
      1581.0         0.37         14.1 
      1582.0         0.47         14.2 
      1583.0         0.47         14.5 
      1584.0         0.33         14.6 
      1585.0         0.20         14.3 
      1586.0         4.67         89.3 
      1587.0         0.53        184.9 
      1588.0         0.53        168.6 
      1589.0         0.43        104.5 
      1590.0         0.40         91.4 
      1591.0         0.33         86.7 
      1592.0         0.35         71.7 
      1593.0         0.30         56.0 
      1594.0         0.67         30.8 
      1595.0         0.80         17.8 
      1596.0         0.50         15.8 
      1597.0         0.73         14.4 
      1598.0         0.38         14.1 
      1599.0         0.37         14.0 
      1600.0         0.33         15.4 
      1601.0         0.37         16.7 
      1602.0         0.47         16.2 
      1603.0         0.40         14.7 
      1604.0         0.50         14.4 
      1605.0         0.47         13.6 
      1606.0         0.55         14.1 
      1607.0         0.50         14.4 
      1608.0         0.50         13.9 
      1609.0         0.50         14.1 
      1610.0         0.50         13.9 
      1611.0         0.47         14.4 
