~Version Information
VERS.                      2.0: CWLS Log ASCII Standard - VERSION 2.0
WRAP.                       NO: One line per depth step
~Well Information Block
STRT.FT               492.8000: 
STOP.FT              1992.0000: 
STEP.FT                 0.1000: 
NULL.                -999.2500: 
COMP.          Petrogulf Corporation: COMPANY
WELL.               Furu 6-23R: WELL
FLD.           Purgatoire River: FIELD
LOC.           2211' FSL & 1780' FWL--: LOCATION
CNTY.               Las Animas: COUNTY
SRVC.                Patterson: SERVICE COMPANY
DATE.          Thu Jun 22 14:21:35 2006: LOG DATE
UWI.           05 071 08266 00: UNIQUE WELL ID
STAT.                 Colorado: STATE
~Curve Information Block
DEPT.FT            0 000 00 00: Depth
DCAL.in                       : CDL Caliper
RHOB.g/cc                     : CDL Bulk Density
RHOC.g/cc                     : CDL Density Correction
DPOR.pu                       : CDL Density Porosity
NPOR.pu                       : Neutron Porosity
GR.GAPI                       : Gamma Ray
~Parameter Information Block
~A  Depth       DCAL        RHOB        RHOC        DPOR        NPOR         GR     
# ...
   502.4000   -999.2500   -999.2500   -999.2500   -999.2500     45.1581     70.9006
   502.5000   -999.2500   -999.2500   -999.2500   -999.2500     45.1122     75.4776
   502.6000   -999.2500   -999.2500   -999.2500   -999.2500     45.5741     74.1632
   502.7000   -999.2500   -999.2500   -999.2500   -999.2500     46.0767     69.0861
   502.8000   -999.2500   -999.2500   -999.2500   -999.2500     46.0809     65.4705
   502.9000   -999.2500   -999.2500   -999.2500   -999.2500     45.6235     64.3013
   503.0000   -999.2500   -999.2500   -999.2500   -999.2500     45.0606     64.4459
   503.1000   -999.2500   -999.2500   -999.2500   -999.2500     44.6315     64.7708
   503.2000   -999.2500   -999.2500   -999.2500   -999.2500     44.3200     63.9941
   503.3000   -999.2500   -999.2500   -999.2500   -999.2500     44.1098     64.6379
   503.4000   -999.2500   -999.2500   -999.2500   -999.2500     44.1337     68.3398
   503.5000   -999.2500   -999.2500   -999.2500   -999.2500     44.3834     71.0412
   503.6000   -999.2500   -999.2500   -999.2500   -999.2500     44.5985     69.2965
   503.7000   -999.2500   -999.2500   -999.2500   -999.2500     44.6392     63.3738
   503.8000   -999.2500   -999.2500   -999.2500   -999.2500     44.6720     58.1051
   503.9000   -999.2500   -999.2500   -999.2500   -999.2500     44.8847     59.7914
   504.0000   -999.2500   -999.2500   -999.2500   -999.2500     45.2238     66.9772
   504.1000   -999.2500   -999.2500   -999.2500   -999.2500     45.4968     72.5671
   504.2000   -999.2500   -999.2500   -999.2500   -999.2500     45.6364     73.7817
   504.3000   -999.2500   -999.2500   -999.2500   -999.2500     45.6082     73.0150
   504.4000   -999.2500   -999.2500   -999.2500   -999.2500     45.3358     71.3913
   504.5000   -999.2500   -999.2500   -999.2500   -999.2500     45.0408     68.0741
   504.6000   -999.2500   -999.2500   -999.2500   -999.2500     45.1462     66.8239
   504.7000   -999.2500   -999.2500   -999.2500   -999.2500     45.5926     70.9669
   504.8000   -999.2500   -999.2500   -999.2500   -999.2500     45.9599     75.4517
   504.9000   -999.2500   -999.2500   -999.2500   -999.2500     46.1115     74.6057
   505.0000   -999.2500   -999.2500   -999.2500   -999.2500     46.2473     71.4926
   505.1000   -999.2500   -999.2500   -999.2500   -999.2500     46.5185     72.3099
   505.2000   -999.2500   -999.2500   -999.2500   -999.2500     46.7505     76.9462
   505.3000   -999.2500   -999.2500   -999.2500   -999.2500     46.7941     80.0787
   505.4000   -999.2500   -999.2500   -999.2500   -999.2500     46.7693     81.9504
   505.5000   -999.2500   -999.2500   -999.2500   -999.2500     46.7940     88.3773
   505.6000   -999.2500   -999.2500   -999.2500   -999.2500     46.8090     97.9039
   505.7000   -999.2500   -999.2500   -999.2500   -999.2500     46.7932    103.1149
   505.8000   -999.2500   -999.2500   -999.2500   -999.2500     46.8985    101.1671
   505.9000   -999.2500   -999.2500   -999.2500   -999.2500     47.2593     96.7252
   506.0000   -999.2500   -999.2500   -999.2500   -999.2500     47.7526     95.9218
   506.1000   -999.2500   -999.2500   -999.2500   -999.2500     48.0411     98.9063
   506.2000   -999.2500   -999.2500      0.3950   -999.2500     47.9533    102.8480
   506.3000   -999.2500   -999.2500      0.3148   -999.2500     47.6713    106.2652
   506.4000   -999.2500   -999.2500      0.2966   -999.2500     47.4553    107.4093
   506.5000      1.8426   -999.2500      0.2753   -999.2500     47.3392    105.6475
   506.6000      1.8426   -999.2500      0.3314   -999.2500     47.2784    104.3384
   506.7000      1.8426      1.4375      0.4203     73.4819     47.4060    104.5698
   506.8000      1.8349      1.4786      0.4278     70.9914     47.8381    103.4264
   506.9000      1.8349      1.5355      0.4630     67.5479     48.4450    101.6663
   507.0000      1.8300      1.6101      0.5040     63.0218     48.7561    100.6759
   507.1000      1.8300      1.6850      0.5313     58.4842     48.4495    100.9667
   507.2000      1.8300      1.7503      0.5095     54.5277     47.9184    106.6633
   507.3000      1.8281      1.8150      0.5335     50.6086     47.6661    114.0552
   507.4000      1.8281      1.8748      0.5732     46.9806     47.5785    115.0415
   507.5000      1.8270      1.9162      0.5364     44.4755     47.3786    112.9243
   507.6000      1.8270      1.9451      0.5464     42.7187     47.1774    108.8372
   507.7000      1.8270      1.9831      0.5243     40.4196     47.1697     99.7827
   507.8000      1.8261      2.0470      0.5475     36.5480     47.1936     90.2177
   507.9000      1.8261      2.1290      0.5827     31.5785     47.0325     86.4081
   508.0000      1.8267      2.2101      0.5899     26.6585     46.8035     89.9528
   508.1000      1.8267      2.2859      0.6001     22.0693     46.7313     95.6374
   508.2000      1.8267      2.3517      0.6527     18.0794     46.8684     96.9336
   508.3000      1.8279      2.4099      0.6322     14.5513     47.0650     96.4712
   508.4000      1.8279      2.4889      0.6614      9.7616     47.3014     98.1756
   508.5000      1.8252      2.6089      0.6679      2.4912     47.6975     98.6616
   508.6000      1.8252      2.7533      0.7491     -6.2614     48.1208     98.9383
   508.7000      1.8252      2.8861      0.7738    -14.3093     48.4091    105.3068
   508.8000      1.8198      2.9878      0.8174    -20.4728     48.5665    113.6388
   508.9000      1.8198      3.0627      0.8006    -25.0119     48.5263    114.4666
   509.0000      1.8159      3.1027      0.8535    -27.4364     48.2977    107.2311
   509.1000      1.8159      3.0822      0.8319    -26.1913     48.1760     98.5104
   509.2000      1.8159      3.0203      0.7547    -22.4445     48.4220     94.0452
   509.3000      1.8151      2.9798      0.7370    -19.9865     48.8304     92.9213
   509.4000      1.8151      2.9861      0.7679    -20.3724     49.0800     92.7583
   509.5000      1.8161      3.0155      0.7874    -22.1530     49.2840     91.4183
   509.6000      1.8161      3.0457      0.7619    -23.9796     49.7169     85.7977
   509.7000      1.8161      3.0633      0.7852    -25.0485     50.3546     79.2416
   509.8000      1.8182      3.0564      0.7980    -24.6274     51.0580     76.4332
   509.9000      1.8182      3.0521      0.7171    -24.3693     51.6892     75.5382
   510.0000      1.8220      3.0800      0.8211    -26.0603     52.1151     76.1180
   510.1000      1.8220      3.1204      0.7826    -28.5111     52.4071     78.8129
   510.2000      1.8220      3.1837      0.7601    -32.3468     52.5695     79.3141
   510.3000      1.8250      3.3366      0.7201    -41.6106     52.5101     77.8507
   510.4000      1.8250      3.6092      0.8451    -58.1326     52.2945     78.5339
   510.5000      1.8254      3.9283      0.9715    -77.4752     51.8866     81.2981
   510.6000      1.8254      4.1845      1.0819    -92.9988     51.1378     85.8225
   510.7000      1.8254      4.3603      1.0906   -103.6552     50.0143     90.1407
   510.8000      1.8252      4.5481      1.0882   -115.0337     48.4464     88.0669
   510.9000      1.8252      4.8143      1.2292   -131.1670     46.8237     78.8692
   511.0000      1.8265      5.0772      1.3665   -147.1005     45.9100     69.4893
   511.1000      1.8265      5.1828      1.4542   -153.5023     45.7234     64.3076
   511.2000      1.8265      5.1202      1.2718   -149.7072     45.7917     63.2556
   511.3000      1.8272      5.0379      1.2545   -144.7207     45.9821     68.3577
   511.4000      1.8272      4.9932      1.3217   -142.0105     46.2066     79.4265
   511.5000      1.8255      4.9324      1.2277   -138.3275     46.4407     89.9979
   511.6000      1.8255      4.8743      1.2501   -134.8079     46.8002     96.2469
   511.7000      1.8255      4.8853      1.1763   -135.4726     46.9979     98.3681
   511.8000      1.8244      4.9668      1.3578   -140.4131     46.8497     94.4500
   511.9000      1.8244      5.0782      1.2399   -147.1659     46.7030     85.6357
