~Version Information
VERS.                      2.0: CWLS Log ASCII Standard - VERSION 2.0
WRAP.                       NO: One line per depth step
~Well Information Block
STRT.FT                -3.5000: 
STOP.FT              1745.0000: 
STEP.FT                 0.2500: 
NULL.                -999.2500: 
COMP.          Pioneer Natural Resources: COMPANY
WELL.           Labrador 34-30: WELL
FLD.           Purgatorie River: FIELD
LOC.           926' FSL & 2080' FEL--: LOCATION
PROV.                       CO: PROVINCE
CNTY.               Las Animas: COUNTRY
SRVC.                         : SERVICE COMPANY
DATE.          Fri Dec 10 09:58:23 2004: LOG DATE
UWI.                071-08202 : UNIQUE WELL ID
~Curve Information Block
DEPT.FT            0 000 00 00: Depth
GR.GAPI                       : Gamma Ray
CCL.                          : Casing Collar Locator
TT3.usec                      : CBL 3' Travel Time
AMP3.mV                       : CBL 3' Amplitude
~Parameter Information Block
~A  Depth        GR         CCL         TT3         AMP3    
# ...
   566.0000    134.6483      0.0000    765.1506     13.2496
   566.2500    126.8240      0.0000    765.0612     13.0925
   566.5000    116.5838      0.0000    764.9696     12.8930
   566.7500    104.8207      0.0000    764.8958     12.6684
   567.0000     92.6817      0.0000    764.8870     12.4404
   567.2500     82.2640      0.0000    764.9976     12.2263
   567.5000     76.6608      0.0000    765.2438     12.0314
   567.7500     78.5868      0.0000    765.5556     11.8540
   568.0000     88.6063      0.0000    765.7905     11.6988
   568.2500    104.5098      0.0000    765.8386     11.5824
   568.5000    122.1051      0.0000    765.7313     11.5252
   568.7500    136.6367      0.0000    765.6301     11.5360
   569.0000    144.5855      0.0000    765.8127     11.6053
   569.2500    145.6443      0.0000    766.8129     11.7153
   569.5000    143.1444      0.0000    769.6527     11.8566
   569.7500    141.6140      0.0000    775.5020     12.0289
   570.0000    143.3251      0.0000    784.1777     12.2224
   570.2500    147.0817      0.0000    792.6299     12.4107
   570.5000    149.9684      0.0000    796.1317     12.5750
   570.7500    149.9629      0.0000    792.3124     12.7288
   571.0000    147.3840      0.0000    783.5623     12.9079
   571.2500    144.5574      0.0000    774.6406     13.1331
   571.5000    144.0971      0.0000    768.6201     13.3881
   571.7500    147.0769      0.0000    765.6652     13.6275
   572.0000    152.4811      0.0000    764.5400     13.8022
   572.2500    158.1075      0.0000    764.1543     13.8883
   572.5000    162.0717      0.0000    763.9781     13.9018
   572.7500    163.8211      0.0000    763.8336     13.8857
   573.0000    163.8618      0.0000    763.6703     13.8787
   573.2500    162.6991      0.0000    763.4694     13.8956
   573.5000    160.5076      0.0000    763.2523     13.9335
   573.7500    157.7021      0.0000    763.0707     13.9854
   574.0000    154.9001      0.0000    762.9726     14.0434
   574.2500    152.1229      0.0000    762.9705     14.0988
   574.5000    148.8467      0.0000    763.0417     14.1485
   574.7500    145.1176      0.0000    763.1512     14.2019
   575.0000    142.0566      0.0000    763.2717     14.2717
   575.2500    140.9958      0.0000    763.3852     14.3571
   575.5000    142.3932      0.0000    763.4753     14.4395
   575.7500    145.5708      0.0000    763.5240     14.4980
   576.0000    149.1239      0.0000    763.5201     14.5308
   576.2500    151.4126      0.0000    763.4692     14.5587
   576.5000    150.9435      0.0000    763.3895     14.6071
   576.7500    146.8942      0.0000    763.2930     14.6819
   577.0000    139.9796      0.0000    763.1790     14.7641
   577.2500    132.7374      0.0000    763.0499     14.8226
   577.5000    128.0620      0.0000    762.9163     14.8318
   577.7500    127.0240      0.0000    762.7799     14.7862
   578.0000    128.3851      0.0000    762.5961     14.7043
   578.2500    130.2608      0.0000    762.2316     14.6184
   578.5000    132.0257      0.0000    761.4243     14.5555
   578.7500    134.5413      0.0000    759.8865     14.5273
   579.0000    138.5555      0.0000    757.6829     14.5269
   579.2500    143.1507      0.0000    755.5991     14.5345
   579.5000    146.3230      0.0000    754.8195     14.5302
   579.7500    147.0025      0.0000    755.9013     14.5108
   580.0000    145.8800      0.0000    758.1892     14.4923
   580.2500    144.4169      0.0000    760.4537     14.4968
   580.5000    143.7380      0.0000    761.9256     14.5400
   580.7500    144.1824      0.0000    762.5940     14.6265
   581.0000    145.1924      0.0000    762.8121     14.7487
   581.2500    145.8752      0.0000    762.8934     14.8863
   581.5000    146.1383      0.0000    762.9905     15.0140
   581.7500    146.8622      0.0000    763.1401     15.1146
   582.0000    148.4852      0.0000    763.3229     15.1889
   582.2500    149.8492      0.0000    763.5005     15.2515
   582.5000    149.1126      0.0000    763.6322     15.3169
   582.7500    145.7788      0.0000    763.6979     15.3890
   583.0000    141.4743      0.0000    763.7152     15.4620
   583.2500    138.6829      0.0000    763.7303     15.5262
   583.5000    138.9541      0.0000    763.7831     15.5708
   583.7500    142.2545      0.0000    763.8798     15.5864
   584.0000    147.3742      0.0000    763.9979     15.5699
   584.2500    152.5473      0.0000    764.1135     15.5246
   584.5000    156.2812      0.0000    764.2208     15.4489
   584.7500    158.1856      0.0000    764.3253     15.3275
   585.0000    158.7365      0.0000    764.4290     15.1416
   585.2500    158.2491      0.0000    764.5256     14.8903
   585.5000    156.7016      0.0000    764.6050     14.5983
   585.7500    154.4835      0.0000    764.6578     14.3043
   586.0000    152.5546      0.0000    764.6765     14.0416
   586.2500    151.7337      0.0000    764.6577     13.8216
   586.5000    152.1347      0.0000    764.6077     13.6291
   586.7500    153.1083      0.0000    764.5460     13.4355
   587.0000    153.5118      0.0000    764.5004     13.2229
   587.2500    152.3597      0.0000    764.4899     12.9973
   587.5000    149.7666      0.0000    764.5055     12.7830
   587.7500    147.2343      0.0000    764.5145     12.6062
   588.0000    146.5201      0.0000    764.4899     12.4796
   588.2500    147.8099      0.0000    764.4290     12.3972
   588.5000    149.2082      0.0000    764.3416     12.3385
   588.7500    148.5967      0.0000    764.2284     12.2797
   589.0000    145.9743      0.0000    764.0826     12.2122
   589.2500    143.2460      0.0000    763.9114     12.1530
   589.5000    141.5852      0.0000    763.7499     12.1346
   589.7500    139.7038      0.0000    763.6378     12.1770
   590.0000    135.0661      0.0000    763.5684     12.2711
   590.2500    126.4354      0.0000    763.4766     12.3898
   590.5000    114.9440      0.0000    763.3057     12.5135
   590.7500    102.8693      0.0000    763.0865     12.6367
   591.0000     91.7592      0.0000    762.9259     12.7516
   591.2500     81.8640      0.0000    762.9138     12.8356
   591.5000     73.0837      0.0000    763.0392     12.8675
   591.7500     65.9610      0.0000    763.1867     12.8545
   592.0000     61.5033      0.0000    763.2122     12.8295
   592.2500     60.1373      0.0000    763.0418     12.8259
   592.5000     60.9908      0.0000    762.7167     12.8592
   592.7500     62.2262      0.0000    762.3505     12.9273
   593.0000     62.3858      0.0000    762.0560     13.0111
   593.2500     61.8531      0.0000    761.9055     13.0726
   593.5000     62.9490      0.0000    761.9290     13.0645
   593.7500     68.2290      0.0000    762.1146     12.9566
   594.0000     78.4975      0.0000    762.3728     12.7589
   594.2500     92.2604      0.0000    762.4819     12.5213
   594.5000    106.6463      0.0000    762.0715     12.3073
   594.7500    118.7746      0.0000    760.7732     12.1644
   595.0000    126.8384      0.0000    758.6304     12.1097
   595.2500    130.6364      0.0000    756.4650     12.1302
   595.5000    131.3253      0.0000    755.5328     12.1966
   595.7500    130.4149      0.0000    756.4541     12.2844
   596.0000    128.8646      0.0000    758.5980     12.3859
   596.2500    127.2052      0.0000    760.7358     12.5018
   596.5000    126.1707      0.0000    762.1100     12.6272
   596.7500    126.4991      0.0000    762.7237     12.7508
   597.0000    128.0944      0.0000    762.9094     12.8655
   597.2500    130.0594      0.0000    762.9249     12.9677
   597.5000    131.6441      0.0000    762.8712     13.0495
   597.7500    132.7919      0.0000    762.7697     13.0977
   598.0000    133.9254      0.0000    762.6308     13.1037
   598.2500    135.4929      0.0000    762.4860     13.0677
   598.5000    137.5547      0.0000    762.3871     12.9924
   598.7500    139.7832      0.0000    762.3846     12.8796
   599.0000    142.1712      0.0000    762.4942     12.7328
   599.2500    145.6725      0.0000    762.6866     12.5589
