~Version Information
VERS.                      2.0: CWLS Log ASCII Standard - VERSION 2.0
WRAP.                       NO: One line per depth step
~Well Information Block
STRT.FT               780.0000: 
STOP.FT              3152.2000: 
STEP.FT                 0.1000: 
NULL.                -999.2500: 
COMP.          Pioneer Natural Resources: COMPANY
WELL.            Paradise 13-8: WELL
FLD.           Purgatoire River: FIELD
LOC.           1896' FSL & 1120' FWL: LOCATION
PROV.                 Colorado: PROVINCE
CNTY.               Las Animas: COUNTRY
SRVC.                Patterson: SERVICE COMPANY
DATE.          Sat Jan 22 20:51:32 2005: LOG DATE
UWI.           05 071 07946 00: UNIQUE WELL ID
~Curve Information Block
DEPT.FT            0 000 00 00: Depth
DCAL.in                       : CDL Caliper
RHOB.g/cc                     : CDL Bulk Density
RHOC.g/cc                     : CDL Density Correction
DPOR.pu                       : CDL Density Porosity
NPOR.pu                       : Neutron Porosity
GR.GAPI                       : Gamma Ray
~Parameter Information Block
~A  Depth       DCAL        RHOB        RHOC        DPOR        NPOR         GR     
# ...
   933.6000      8.1748      2.5119      0.0316      8.3690     23.4123     94.0663
   933.7000      8.1748      2.5145      0.0347      8.2146     22.2065     84.5632
   933.8000      8.1702      2.5138      0.0279      8.2530     21.1955     78.1257
   933.9000      8.1702      2.5112      0.0277      8.4129     20.8574     78.0503
   934.0000      8.1664      2.5108      0.0369      8.4386     20.9534     77.3739
   934.1000      8.1664      2.5151      0.0729      8.1739     21.0328     72.4814
   934.2000      8.1664      2.5205      0.0397      7.8486     20.8190     68.7731
   934.3000      8.1663      2.5199      0.0855      7.8826     20.2240     67.9045
   934.4000      8.1663      2.5089      0.0569      8.5499     19.5914     67.5497
   934.5000      8.1647      2.4942      0.0328      9.4450     19.3887     66.6449
   934.6000      8.1647      2.4809      0.0532     10.2501     19.6409     65.3200
   934.7000      8.1647      2.4669      0.0265     11.0960     20.0629     65.8048
   934.8000      8.1639      2.4576      0.0301     11.6599     20.2317     68.0373
   934.9000      8.1639      2.4591     -0.0146     11.5687     19.9395     69.9930
   935.0000      8.1648      2.4631      0.0159     11.3278     19.4191     72.1992
   935.1000      8.1648      2.4548      0.0323     11.8296     18.8972     73.9015
   935.2000      8.1648      2.4405      0.0085     12.6998     18.2343     71.6131
   935.3000      8.1663      2.4415     -0.0212     12.6387     17.6149     65.2711
   935.4000      8.1663      2.4545      0.0556     11.8485     17.5949     61.1808
   935.5000      8.1668      2.4583      0.0559     11.6204     18.1152     62.8611
   935.6000      8.1668      2.4535      0.0296     11.9062     18.7392     65.7092
   935.7000      8.1668      2.4566      0.0261     11.7240     19.2251     66.5117
   935.8000      8.1648      2.4664      0.0582     11.1272     19.2927     68.3644
   935.9000      8.1648      2.4662      0.0622     11.1374     18.9135     73.1504
   936.0000      8.1635      2.4551      0.0036     11.8140     18.6687     78.8215
   936.1000      8.1635      2.4523      0.0380     11.9810     18.8018     81.4025
   936.2000      8.1635      2.4676      0.0483     11.0572     18.9069     78.7392
   936.3000      8.1663      2.4900      0.0785      9.6977     18.7037     74.1033
   936.4000      8.1663      2.5041      0.0736      8.8404     18.4104     71.9667
   936.5000      8.1712      2.5060      0.0671      8.7248     18.3043     72.7477
   936.6000      8.1712      2.5057      0.0701      8.7479     18.4703     72.5464
   936.7000      8.1712      2.5071      0.1162      8.6592     18.7559     69.9840
   936.8000      8.1724      2.5044      0.0590      8.8272     18.8951     68.0124
   936.9000      8.1724      2.4937      0.0683      9.4703     18.8625     66.8776
   937.0000      8.1690      2.4697      0.0530     10.9266     18.6639     63.4181
   937.1000      8.1690      2.4406      0.0184     12.6922     18.3622     59.7235
   937.2000      8.1690      2.4337      0.0074     13.1087     18.1063     60.5262
   937.3000      8.1666      2.4550      0.0478     11.8156     17.8074     62.7335
   937.4000      8.1666      2.4802      0.0712     10.2888     17.5409     63.3295
   937.5000      8.1681      2.4984      0.0213      9.1857     17.6659     65.1137
   937.6000      8.1681      2.5170      0.0850      8.0587     18.2525     66.7300
   937.7000      8.1681      2.5338      0.0522      7.0453     19.0065     66.4809
   937.8000      8.1711      2.5450      0.0634      6.3662     19.4507     68.2717
   937.9000      8.1711      2.5508      0.0886      6.0149     19.3814     71.3400
   938.0000      8.1708      2.5497      0.0576      6.0817     19.3298     72.5385
   938.1000      8.1708      2.5455      0.0579      6.3349     19.6028     73.2580
   938.2000      8.1708      2.5371      0.1221      6.8454     19.6824     72.2906
   938.3000      8.1610      2.5183      0.0381      7.9816     19.6167     67.6667
   938.4000      8.1610      2.4946      0.0520      9.4191     19.9556     64.3344
   938.5000      8.1465      2.4722      0.0185     10.7786     20.5462     66.5281
   938.6000      8.1465      2.4539      0.0143     11.8831     20.7436     70.5797
   938.7000      8.1465      2.4475      0.0276     12.2741     20.5129     70.9177
   938.8000      8.1405      2.4582      0.0349     11.6213     20.5488     66.4799
   938.9000      8.1405      2.4741      0.0564     10.6630     20.9559     61.7272
   939.0000      8.1404      2.4753      0.0435     10.5881     21.2767     60.4518
   939.1000      8.1404      2.4612      0.0317     11.4454     21.3327     61.7620
   939.2000      8.1404      2.4503      0.0526     12.1005     20.9854     64.3738
   939.3000      8.1412      2.4579      0.0485     11.6414     20.3127     68.0258
   939.4000      8.1412      2.4817      0.0602     10.2007     19.8989     71.4135
   939.5000      8.1418      2.5093      0.0675      8.5287     20.0068     72.5869
   939.6000      8.1418      2.5307      0.0800      7.2296     20.2583     73.6678
   939.7000      8.1418      2.5381      0.1114      6.7792     20.4729     77.0875
   939.8000      8.1414      2.5315      0.0844      7.1827     20.6673     78.3837
   939.9000      8.1414      2.5203      0.0895      7.8619     20.8064     74.0522
   940.0000      8.1402      2.5076      0.0605      8.6282     20.7040     67.1148
   940.1000      8.1402      2.4939      0.0615      9.4629     20.1092     61.7547
   940.2000      8.1402      2.4775      0.0630     10.4557     19.3617     61.0718
   940.3000      8.1389      2.4539      0.0385     11.8858     19.0932     65.0513
   940.4000      8.1389      2.4287      0.0335     13.4137     19.3345     69.1644
   940.5000      8.1392      2.4148     -0.0015     14.2565     19.4079     69.2000
   940.6000      8.1392      2.4146      0.0360     14.2688     18.8928     66.2893
   940.7000      8.1392      2.4198      0.0230     13.9530     18.2781     63.2679
   940.8000      8.1409      2.4284      0.0328     13.4282     18.1946     60.9733
   940.9000      8.1409      2.4398      0.0628     12.7366     18.4096     59.3767
   941.0000      8.1421      2.4495      0.0300     12.1493     18.1970     58.0349
   941.1000      8.1421      2.4566      0.0540     11.7192     17.5834     56.8645
   941.2000      8.1421      2.4534      0.1013     11.9155     16.9482     57.4972
   941.3000      8.1413      2.4313      0.0771     13.2565     16.2332     58.9982
   941.4000      8.1413      2.4072      0.0036     14.7170     15.6176     58.3409
   941.5000      8.1404      2.4057      0.0177     14.8089     15.4490     56.1600
   941.6000      8.1404      2.4161      0.0688     14.1759     15.7852     53.1143
   941.7000      8.1404      2.4172      0.0326     14.1075     16.3866     49.6137
   941.8000      8.1405      2.4147      0.0291     14.2599     16.6513     47.0605
   941.9000      8.1405      2.4164      0.0013     14.1588     16.1893     45.9216
   942.0000      8.1407      2.4143      0.0680     14.2822     15.4450     47.1613
   942.1000      8.1407      2.4029      0.0280     14.9732     15.1123     50.8421
   942.2000      8.1407      2.3919     -0.0033     15.6409     15.3637     55.1528
   942.3000      8.1393      2.3848      0.0569     16.0709     15.9351     56.8043
   942.4000      8.1393      2.3748      0.0091     16.6814     16.3979     54.6462
   942.5000      8.1380      2.3686      0.0023     17.0571     16.4731     51.2784
   942.6000      8.1380      2.3771      0.0015     16.5420     16.1797     49.5921
   942.7000      8.1380      2.3982      0.0234     15.2599     15.8100     50.9106
   942.8000      8.1380      2.4233      0.0657     13.7389     15.6515     54.0417
   942.9000      8.1380      2.4423      0.0734     12.5888     15.6425     56.4611
   943.0000      8.1394      2.4467      0.0763     12.3235     15.6170     56.8860
   943.1000      8.1394      2.4352      0.0564     13.0198     15.5064     56.2743
