~Version Information
VERS.                      2.0: CWLS Log ASCII Standard - VERSION 2.0
WRAP.                       NO: One line per depth step
~Well Information Block
STRT.FT               664.0000: 
STOP.FT              1113.5000: 
STEP.FT                 0.1000: 
NULL.                -999.2500: 
COMP.          Petrogulf Corporation: COMPANY
WELL.          Great Plains 22-21R: WELL
FLD.           Purgatorie River: FIELD
LOC.           73' FNL & 1992' FWL: LOCATION
PROV.                 Colorado: PROVINCE
CNTY.               Las Animas: COUNTRY
SRVC.                Patterson: SERVICE COMPANY
DATE.          Thu Sep 08 08:02:28 2005: LOG DATE
UWI.                          : UNIQUE WELL ID
~Curve Information Block
DEPT.FT            0 000 00 00: Depth
DCAL.in                       : CDL Caliper
RHOB.g/cc                     : CDL Bulk Density
RHOC.g/cc                     : CDL Density Correction
DPOR.pu                       : CDL Density Porosity
GR.GAPI                       : Gamma Ray
NPOR.pu                       : Neutron Porosity
~Parameter Information Block
~A  Depth       DCAL        RHOB        RHOC        DPOR         GR         NPOR    
# ...
   836.8000      7.8183      2.6711      0.1518     -1.2786    124.9573     18.5136
   836.9000      7.8183      2.6974      0.1706     -2.8732    128.4058     19.1960
   837.0000      7.8157      2.6972      0.1786     -2.8599    131.1936     20.1016
   837.1000      7.8157      2.6740      0.1184     -1.4546    133.5284     20.9632
   837.2000      7.8157      2.6436      0.0970      0.3887    136.2767     21.6182
   837.3000      7.8295      2.6145      0.0523      2.1504    137.7522     21.9999
   837.4000      7.8295      2.5954      0.0312      3.3084    137.7809     22.1486
   837.5000      7.8989      2.5990      0.0318      3.0898    140.1843     22.2130
   837.6000      7.8989      2.6161      0.0795      2.0532    143.8692     22.3059
   837.7000      7.8989      2.6203      0.0553      1.7982    145.4958     22.3823
   837.8000      7.9125      2.6067      0.0033      2.6248    146.6540     22.6462
   837.9000      7.9125      2.5901      0.0156      3.6292    150.2176     23.3304
   838.0000      7.9174      2.5768      0.0465      4.4366    156.3243     24.0728
   838.1000      7.9174      2.5713      0.0140      4.7713    160.6054     24.4522
   838.2000      7.9174      2.5795      0.0305      4.2748    160.3034     24.5835
   838.3000      7.9340      2.5873      0.0621      3.8012    158.0162     24.7521
   838.4000      7.9340      2.5754      0.0223      4.5217    155.8434     24.7053
   838.5000      7.9351      2.5473      0.0129      6.2224    152.1714     24.1135
   838.6000      7.9351      2.5259     -0.0365      7.5239    148.0012     23.3898
   838.7000      7.9351      2.5340      0.0152      7.0281    146.9800     22.9729
   838.8000      7.9432      2.5790      0.0066      4.3029    149.3516     22.9151
   838.9000      7.9432      2.6535      0.0224     -0.2118    151.7041     23.2127
   839.0000      7.9530      2.7369      0.0965     -5.2647    150.8668     23.6817
   839.1000      7.9530      2.8006      0.1106     -9.1280    146.7358     24.0986
   839.2000      7.9530      2.8353      0.1235    -11.2276    144.4383     24.5925
   839.3000      7.9576      2.8513      0.0969    -12.1976    148.5566     25.2229
   839.4000      7.9576      2.8510      0.0969    -12.1824    153.4642     25.4963
   839.5000      7.9517      2.8315      0.0315    -11.0024    153.0431     25.1108
   839.6000      7.9517      2.7959      0.0055     -8.8395    149.9650     24.6119
   839.7000      7.9517      2.7470     -0.0005     -5.8766    144.1938     24.6927
   839.8000      7.9405      2.6951      0.0075     -2.7360    135.0152     25.2353
   839.9000      7.9405      2.6544     -0.0472     -0.2640    128.9351     25.5631
   840.0000      7.9286      2.6227      0.0702      1.6528    128.5151     25.3528
   840.1000      7.9286      2.5925      0.0931      3.4870    129.7827     24.7491
   840.2000      7.9286      2.5747      0.0662      4.5633    131.1206     23.8738
   840.3000      7.9109      2.5835      0.0793      4.0321    132.5463     22.8346
   840.4000      7.9109      2.6124      0.1274      2.2775    131.9290     22.0333
   840.5000      7.8518      2.6438      0.1718      0.3758    128.3715     21.7277
   840.6000      7.8518      2.6645      0.1666     -0.8813    125.4256     21.6220
   840.7000      7.8518      2.6775      0.1087     -1.6679    124.4038     21.2486
   840.8000      7.8128      2.6904      0.1399     -2.4495    120.1786     20.6326
   840.9000      7.8128      2.6975      0.1458     -2.8767    112.6617     20.2844
   841.0000      7.8501      2.6931      0.1111     -2.6102    107.2765     20.2639
   841.1000      7.8501      2.6790      0.1195     -1.7589    103.5553     20.1275
   841.2000      7.8501      2.6550      0.1315     -0.3023     97.3693     19.6513
   841.3000      7.8750      2.6268      0.0684      1.4075     87.9235     18.8159
   841.4000      7.8750      2.6038      0.0522      2.8028     78.1563     17.5025
   841.5000      7.8596      2.5880     -0.0000      3.7572     72.4315     15.9859
   841.6000      7.8596      2.5820      0.0182      4.1211     70.9414     14.8185
   841.7000      7.8596      2.5863     -0.0090      3.8585     70.0868     14.1349
   841.8000      7.8960      2.5915      0.0417      3.5440     67.8841     13.9263
   841.9000      7.8960      2.5891      0.0133      3.6914     64.6210     14.0956
   842.0000      7.8990      2.5889      0.0465      3.7016     62.8327     14.1702
   842.1000      7.8990      2.5983      0.1035      3.1326     63.6604     13.8544
   842.2000      7.8990      2.6026      0.0597      2.8698     66.1114     13.3494
   842.3000      7.8689      2.5877      0.0530      3.7761     69.8482     13.0420
   842.4000      7.8689      2.5608      0.0247      5.4068     72.6960     12.9366
   842.5000      7.8745      2.5436      0.0094      6.4507     72.5675     12.5350
   842.6000      7.8745      2.5430      0.0678      6.4869     71.6655     11.7229
   842.7000      7.8745      2.5483      0.0545      6.1623     72.2797     11.1797
   842.8000      7.8617      2.5595      0.0439      5.4878     74.4898     11.4551
   842.9000      7.8617      2.5866      0.0485      3.8426     77.3857     12.3566
   843.0000      7.8911      2.6295      0.0638      1.2402     77.9473     13.3667
   843.1000      7.8911      2.6753      0.0966     -1.5312     75.9881     14.4013
   843.2000      7.8911      2.7116      0.0960     -3.7321     75.8410     15.6704
   843.3000      7.9015      2.7505      0.0548     -6.0918     79.9764     17.1943
   843.4000      7.9015      2.8061      0.1254     -9.4605     85.4080     18.6437
   843.5000      7.9039      2.8509      0.1430    -12.1755     88.2058     19.6183
   843.6000      7.9039      2.8543      0.1077    -12.3825     86.9685     20.1660
   843.7000      7.9039      2.8261      0.0325    -10.6715     82.7937     20.5940
   843.8000      7.9181      2.7827      0.0238     -8.0405     78.9359     21.0006
   843.9000      7.9181      2.7243     -0.0486     -4.5041     78.0604     21.1283
   844.0000      7.9410      2.6598     -0.0809     -0.5927     78.9011     20.7725
   844.1000      7.9410      2.6055     -0.1085      2.6991     78.8492     19.9929
   844.2000      7.9410      2.5643     -0.0822      5.1936     78.2621     19.0285
   844.3000      7.9572      2.5307     -0.0480      7.2318     78.0050     18.0539
   844.4000      7.9572      2.5073     -0.0521      8.6463     77.9766     17.2642
   844.5000      8.0177      2.5003      0.0222      9.0734     79.1741     16.8694
   844.6000      8.0177      2.5058      0.0361      8.7372     81.5019     16.7619
   844.7000      8.0177      2.5138      0.0570      8.2522     82.6600     16.6235
   844.8000      8.0165      2.5198      0.0133      7.8931     81.4169     16.3983
   844.9000      8.0165      2.5370     -0.0057      6.8508     79.8094     16.2638
   845.0000      8.0110      2.5750      0.0394      4.5472     80.4858     16.2952
   845.1000      8.0110      2.6188      0.0617      1.8922     82.6695     16.5262
   845.2000      8.0110      2.6490      0.0862      0.0632     84.1529     16.8389
   845.3000      7.9825      2.6576      0.0952     -0.4629     83.7039     17.0682
   845.4000      7.9825      2.6486      0.0790      0.0870     81.9147     17.2957
   845.5000      7.9455      2.6383      0.0364      0.7100     79.6388     17.6376
   845.6000      7.9455      2.6379      0.0336      0.7312     77.0760     18.0982
   845.7000      7.9455      2.6390      0.0249      0.6691     75.1562     18.5781
   845.8000      7.9433      2.6315      0.0213      1.1226     75.2963     18.8004
   845.9000      7.9433      2.6176      0.0070      1.9654     76.5297     18.5959
   846.0000      7.9332      2.6063      0.0460      2.6514     76.3768     17.9992
   846.1000      7.9332      2.6024      0.0589      2.8821     74.4873     17.1000
   846.2000      7.9332      2.6040      0.0778      2.7892     72.9677     16.2550
   846.3000      7.8946      2.6086      0.0183      2.5119     73.7500     15.7524
