~Version Information
VERS.                      2.0: CWLS Log ASCII Standard - VERSION 2.0
WRAP.                       NO: One line per depth step
~Well Information Block
STRT.FT               806.0000: 
STOP.FT              1814.0000: 
STEP.FT                 0.2500: 
NULL.                -999.2500: 
COMP.          Pioneer Natural Resources: COMPANY
WELL.            Hill 33-22 Tr: WELL
FLD.           Purgatoire River: FIELD
LOC.           1573' FSL & 1585' FEL: LOCATION
PROV.                 Colorado: PROVINCE
CNTY.               Las Animas: COUNTRY
SRVC.                Patterson: SERVICE COMPANY
DATE.          Thu Apr 14 09:13:17 2005: LOG DATE
UWI.           05 071 08316 00: UNIQUE WELL ID
~Curve Information Block
DEPT.FT            0 000 00 00: Depth
SN.Ohm-m                      : IEL Short Normal
SP.mV                         : IEL Spontaneous Potential
DIR.Ohm-m                     : IEL Induction Resistivity
GR.GAPI                       : Gamma Ray
~Parameter Information Block
~A  Depth        SN          SP         DIR          GR     
# ...
  1275.0000     10.3712     57.4202      8.3603    108.6213
  1275.2500     10.2501     57.9717      8.2676    108.7938
  1275.5000     10.2021     58.4614      8.1693    111.6439
  1275.7500     10.3246     58.8254      8.0824    114.7523
  1276.0000     10.5334     59.0199      8.0155    120.1640
  1276.2500     10.7427     59.0424      7.9643    123.9658
  1276.5000     10.8883     58.9423      7.9146    129.9551
  1276.7500     10.8786     58.7965      7.8498    134.1016
  1277.0000     10.6628     58.6628      7.7586    140.0216
  1277.2500     10.2565     58.5523      7.6393    143.2384
  1277.5000      9.7031     58.4466      7.4988    146.0874
  1277.7500      9.1458     58.3348      7.3495    146.4606
  1278.0000      8.8247     58.2300      7.2053    145.1263
  1278.2500      8.8743     58.1615      7.0781    143.4050
  1278.5000      9.1844     58.1597      6.9758    140.2334
  1278.7500      9.4451     58.2393      6.9021    138.1856
  1279.0000      9.4167     58.3912      6.8567    136.4097
  1279.2500      9.2010     58.5885      6.8374    136.7183
  1279.5000      9.1209     58.8014      6.8401    139.4553
  1279.7500      9.3256     59.0054      6.8584    142.1214
  1280.0000      9.6298     59.1779      6.8837    145.9055
  1280.2500      9.8381     59.2927      6.9070    147.7645
  1280.5000      9.9917     59.3215      6.9242    149.5013
  1280.7500     10.1270     59.2426      6.9400    150.2026
  1281.0000     10.1050     59.0496      6.9653    150.8980
  1281.2500      9.8376     58.7597      7.0102    151.0241
  1281.5000      9.4741     58.4096      7.0770    150.2181
  1281.7500      9.2494     58.0401      7.1588    149.0495
  1282.0000      9.2902     57.6830      7.2442    147.4488
  1282.2500      9.5949     57.3637      7.3234    147.2414
  1282.5000      9.9724     57.1092      7.3935    148.3126
  1282.7500     10.0946     56.9504      7.4580    149.2602
  1283.0000      9.8977     56.9183      7.5246    149.9262
  1283.2500      9.7357     57.0370      7.6025    149.8289
  1283.5000      9.9030     57.3089      7.7023    149.4249
  1283.7500     10.2521     57.6872      7.8367    149.1280
  1284.0000     10.4160     58.0572      8.0191    148.4134
  1284.2500     10.2223     58.2556      8.2602    147.6913
  1284.5000      9.8074     58.1344      8.5641    146.5000
  1284.7500      9.3903     57.6236      8.9288    145.7239
  1285.0000      9.0727     56.7407      9.3498    144.0830
  1285.2500      8.9360     55.5452      9.8248    142.1583
  1285.5000      9.1143     54.0906     10.3577    137.6915
  1285.7500      9.6284     52.4220     10.9603    134.0516
  1286.0000     10.3931     50.6245     11.6513    128.7596
  1286.2500     11.4469     48.8841     12.4544    125.8542
  1286.5000     12.9916     47.5037     13.3931    122.8165
  1286.7500     15.2234     46.8168     14.4851    121.7058
  1287.0000     18.1305     46.9987     15.7336    120.8605
  1287.2500     21.4494     47.8940     17.1169    119.8940
  1287.5000     24.7770     49.0212     18.5735    115.5971
  1287.7500     27.6142     49.7919     19.9935    110.0284
  1288.0000     29.5386     49.8135     21.2330     98.3982
  1288.2500     30.5056     49.0941     22.1631     90.0654
  1288.5000     30.8708     48.0433     22.7293     80.0872
  1288.7500     31.1951     47.2668     22.9726     76.7332
  1289.0000     31.9322     47.2503     22.9855     77.9909
  1289.2500     32.9057     48.0994     22.8399     82.7838
  1289.5000     33.1972     49.4967     22.5442     94.0110
  1289.7500     32.0549     50.9106     22.0610    102.7051
  1290.0000     29.8514     51.9147     21.3679    115.1792
  1290.2500     27.6829     52.3955     20.5054    121.9146
  1290.5000     26.2090     52.5325     19.5691    128.0762
  1290.7500     25.3430     52.6228     18.6618    129.3399
  1291.0000     24.7154     52.9033     17.8508    128.3766
  1291.2500     24.0295     53.4577     17.1579    127.3894
  1291.5000     23.2566     54.2134     16.5706    127.9082
  1291.7500     22.6427     54.9972     16.0583    130.2633
  1292.0000     22.3557     55.6101     15.5880    136.0138
  1292.2500     22.2453     55.8862     15.1379    139.8828
  1292.5000     21.9599     55.7200     14.7024    142.7813
  1292.7500     21.0452     55.0780     14.2860    141.6568
  1293.0000     19.0879     54.0150     13.8912    135.7430
  1293.2500     16.0878     52.7110     13.5139    130.5699
  1293.5000     12.6908     51.4993     13.1534    124.6209
  1293.7500      9.9281     50.7929     12.8235    123.2828
  1294.0000      8.6350     50.8710     12.5500    125.0265
  1294.2500      8.9952     51.6716     12.3538    127.4005
  1294.5000     10.5243     52.8056     12.2335    130.3841
  1294.7500     12.4127     53.8068     12.1628    131.2524
  1295.0000     13.9321     54.3924     12.1048    131.0789
  1295.2500     14.7235     54.5341     12.0348    130.6284
  1295.5000     14.8713     54.3718     11.9533    130.4533
  1295.7500     14.6980     54.1087     11.8803    130.7985
  1296.0000     14.4815     53.9415     11.8389    131.4743
  1296.2500     14.3391     53.9954     11.8441    131.5360
  1296.5000     14.2747     54.2730     11.9020    130.4133
  1296.7500     14.2774     54.6610     12.0158    128.8648
  1297.0000     14.3497     54.9949     12.1894    126.1846
  1297.2500     14.5044     55.1332     12.4271    124.8612
  1297.5000     14.7672     55.0038     12.7306    124.1906
  1297.7500     15.1274     54.6167     13.0964    124.4135
  1298.0000     15.5211     54.0531     13.5148    124.8914
  1298.2500     15.8581     53.4500     13.9706    124.8829
  1298.5000     16.0797     52.9753     14.4448    124.1065
  1298.7500     16.2286     52.7802     14.9201    123.2926
  1299.0000     16.4217     52.9410     15.3854    122.7909
  1299.2500     16.7083     53.4243     15.8380    123.7971
  1299.5000     17.0084     54.0955     16.2813    127.8088
  1299.7500     17.2888     54.7636     16.7202    131.4188
  1300.0000     17.6510     55.2463     17.1558    135.9300
  1300.2500     18.0964     55.4291     17.5793    137.2504
  1300.5000     18.4142     55.2943     17.9739    136.4024
  1300.7500     18.4394     54.9062     18.3302    134.6227
  1301.0000     18.2684     54.3681     18.6677    131.6928
  1301.2500     18.1292     53.7748     19.0354    130.1455
  1301.5000     18.1204     53.1821     19.4858    128.5937
  1301.7500     18.1511     52.5988     20.0448    127.8551
  1302.0000     18.1288     52.0051     20.7063    126.5318
  1302.2500     18.1371     51.3922     21.4487    124.9853
  1302.5000     18.3318     50.7978     22.2544    120.7062
  1302.7500     18.7601     50.3020     23.1155    116.1014
  1303.0000     19.4183     49.9871     24.0296    106.2889
  1303.2500     20.3532     49.9058     24.9936     98.0910
  1303.5000     21.6431     50.0850     25.9931     84.7225
  1303.7500     23.3426     50.5299     26.9871     76.3134
  1304.0000     25.3741     51.1967     27.9033     66.3783
  1304.2500     27.4383     51.9704     28.6594     62.0865
  1304.5000     29.1184     52.6984     29.2075     58.8359
  1304.7500     30.0925     53.2587     29.5643     58.1392
  1305.0000     30.3156     53.6009     29.8016     58.0922
  1305.2500     30.0953     53.7461     30.0090     58.2620
  1305.5000     29.8946     53.7711     30.2636     58.5776
  1305.7500     29.9535     53.7887     30.6203     58.8655
  1306.0000     30.1825     53.9116     31.1091     59.3749
  1306.2500     30.3784     54.2005     31.7246     59.5767
  1306.5000     30.3437     54.6251     32.4065     59.1557
  1306.7500     29.9560     55.0729     33.0366     58.1298
  1307.0000     29.3627     55.4090     33.4700     55.4385
  1307.2500     28.9178     55.5419     33.6010     53.1888
  1307.5000     28.8615     55.4499     33.4208     50.0689
  1307.7500     29.2683     55.1565     33.0200     48.7453
  1308.0000     30.1376     54.6870     32.5340     48.8189
  1308.2500     31.2420     54.0412     32.0828     50.8196
