~Version Information
 VERS.                                  2.0 : CWLS LAS VERSION
 WRAP.                                   NO : WRAPING MODE
 SWARE .                 MController 2.5.0J : SOFTWARE VERSION
~Well Information
 WELL.                          Quack 22-24 : WELL
 COMP.    PIONEER NATURAL RESOURCES USA INC : COMPANY
 FLD.                      PURGATOIRE RIVER : FIELD
 LOC.                 SE/NW Sec 24 32S  67W : LOCATION
 DATE.                                  N/A : DATE(S) LOGGED
 SRVC.       Blanco Geological Services LLC : SERVICE COMPANY
 STAT.                                   CO : STATE
 CNTY.                           LAS ANIMAS : COUNTY
 CTRY.                                  USA : COUNTRY
 API.                       05-071-08402-00 : API NUMBER
 STRT.FT                             201.00 : START DEPTH
 STOP.FT                            2610.00 : STOP DEPTH
 STEP.FT                               1.00 : DEPTH INCREMENT
 NULL.                                -9999 : NULL VALUE
~Curve information
 DEPTH.FT                                   :
 ROP.MIN/FT                                 :
 GAS.UNITS                                  :
~ASCII Log data
# ...
      1201.0         0.20        132.5 
      1202.0         0.23        128.1 
      1203.0         0.17        122.5 
      1204.0         0.20        118.2 
      1205.0         0.23        114.2 
      1206.0         0.20        108.7 
      1207.0         0.27        102.9 
      1208.0         0.23         91.5 
      1209.0         0.23         87.1 
      1210.0         0.23        108.1 
      1211.0         0.20        122.1 
      1212.0         0.23        137.4 
      1213.0         0.25        144.5 
      1214.0         0.20        145.1 
      1215.0         0.13        141.3 
      1216.0         0.13        129.7 
      1217.0         0.10        114.5 
      1218.0         0.13        105.9 
      1219.0         0.17        111.8 
      1220.0         0.23        165.7 
      1221.0         0.13        213.6 
      1222.0         0.28        353.6 
      1223.0         0.23        475.7 
      1224.0         0.23       1424.0 
      1225.0         0.27       1534.5 
      1226.0         1.43       1508.2 
      1227.0         0.43        500.8 
      1228.0         0.50        440.0 
      1229.0         0.35        146.3 
      1230.0         0.23        142.4 
      1231.0         0.20        140.3 
      1232.0         0.23        137.1 
      1233.0         0.20        135.2 
      1234.0         0.20        132.7 
      1235.0         0.27        127.7 
      1236.0         0.23        120.8 
      1237.0         0.30        115.0 
      1238.0         0.27        105.7 
      1239.0         0.27        102.0 
      1240.0         0.27        100.1 
      1241.0         0.27        100.0 
      1242.0         0.25        102.5 
      1243.0         0.20        105.3 
      1244.0         0.17        105.7 
      1245.0         0.23        105.2 
      1246.0         0.20        105.2 
      1247.0         0.20        104.1 
      1248.0         0.23         91.2 
      1249.0         0.17         70.3 
      1250.0         0.20         88.7 
      1251.0         0.20        136.8 
      1252.0         0.20        207.9 
      1253.0         0.20        296.1 
      1254.0         0.20        394.3 
      1255.0         0.20       1145.0 
      1256.0         2.65       2105.2 
      1257.0         0.37        440.0 
      1258.0         0.33        142.7 
      1259.0         0.37        137.7 
      1260.0         0.23        130.7 
      1261.0         0.25        122.4 
      1262.0         0.20        112.4 
      1263.0         0.23        105.7 
      1264.0         0.23        124.1 
      1265.0         0.23        153.6 
      1266.0         0.17        163.5 
      1267.0         0.20        164.0 
      1268.0         0.20        156.7 
      1269.0         0.23        140.9 
      1270.0         0.27        124.2 
      1271.0         0.20        108.9 
      1272.0         0.23         97.8 
      1273.0         0.20         85.8 
      1274.0         0.23         93.8 
      1275.0         0.27         96.2 
      1276.0         0.25         93.1 
      1277.0         0.23         96.2 
      1278.0         0.20         92.4 
      1279.0         0.17         78.4 
      1280.0         0.13         75.4 
      1281.0         0.17         95.8 
      1282.0         0.20        143.8 
      1283.0         0.20        210.0 
      1284.0         0.10        247.3 
      1285.0         0.13        298.3 
      1286.0         2.75       1133.2 
      1287.0         0.30        440.0 
      1288.0         0.27        159.1 
      1289.0         0.20        158.6 
      1290.0         0.20        154.2 
      1291.0         0.27        150.2 
      1292.0         0.20        143.8 
      1293.0         0.13        135.4 
      1294.0         0.17        131.2 
      1295.0         0.23        126.0 
      1296.0         0.23        117.8 
      1297.0         0.25        109.5 
      1298.0         0.23        110.3 
      1299.0         0.27        113.1 
      1300.0         0.20        112.8 
      1301.0         0.20        109.8 
      1302.0         0.20        108.3 
      1303.0         0.20        112.1 
      1304.0         0.20        117.1 
      1305.0         0.13        116.9 
      1306.0         0.23        109.8 
      1307.0         0.23         86.6 
      1308.0         0.23         94.0 
      1309.0         0.20        125.0 
      1310.0         0.17        160.1 
      1311.0         0.17        197.8 
      1312.0         0.25        274.7 
      1313.0         0.20        343.1 
      1314.0         0.10        370.0 
      1315.0         0.20        385.7 
      1316.0         1.13        381.7 
      1317.0         0.27        180.5 
      1318.0         0.37        158.3 
      1319.0         0.33        143.1 
      1320.0         0.20        140.4 
      1321.0         0.23        145.5 
      1322.0         0.23        146.8 
      1323.0         0.28        215.0 
      1324.0         0.23        344.0 
      1325.0         0.20        408.2 
      1326.0         0.23        421.8 
      1327.0         0.20        412.6 
      1328.0         0.27        387.9 
      1329.0         0.23        359.0 
      1330.0         0.13        341.7 
      1331.0         0.10        337.3 
      1332.0         0.10        334.6 
      1333.0         0.27        332.3 
      1334.0         0.27        320.8 
      1335.0         0.20        302.7 
      1336.0         0.23        286.1 
      1337.0         0.23        279.7 
      1338.0         0.25        280.6 
      1339.0         0.27        264.1 
      1340.0         0.23        204.7 
      1341.0         0.23        207.5 
      1342.0         0.20        264.3 
      1343.0         0.27        386.5 
      1344.0         0.23       1216.8 
      1345.0         0.20       1477.5 
      1346.0         1.53       1800.3 
      1347.0         0.48        977.9 
      1348.0         0.40        828.3 
      1349.0         0.33        770.3 
      1350.0         0.27        777.8 
      1351.0         0.27        779.4 
      1352.0         0.23        768.3 
      1353.0         0.20        745.8 
      1354.0         0.23        719.1 
      1355.0         0.20        687.8 
      1356.0         0.23        670.6 
      1357.0         0.23        661.5 
      1358.0         0.20        647.7 
      1359.0         0.28        637.3 
      1360.0         0.23        620.4 
      1361.0         0.23        606.6 
      1362.0         0.20        606.3 
      1363.0         0.30        620.1 
      1364.0         0.23        639.6 
      1365.0         0.23        660.9 
      1366.0         0.20        670.6 
      1367.0         0.20        662.9 
      1368.0         0.17        589.8 
      1369.0         0.20        516.3 
      1370.0         0.20        495.1 
      1371.0         0.17        557.8 
      1372.0         0.20        684.4 
      1373.0         0.23        888.6 
      1374.0         0.20       1099.2 
      1375.0         0.25       1387.9 
      1376.0         1.43       1856.2 
      1377.0         0.43       1094.1 
      1378.0         0.30        883.9 
      1379.0         0.30        796.0 
      1380.0         0.20        717.8 
      1381.0         0.23        710.0 
      1382.0         0.25        722.2 
      1383.0         0.23        725.5 
      1384.0         0.27        736.7 
      1385.0         0.30        757.2 
      1386.0         0.13        757.9 
      1387.0         0.10        755.5 
      1388.0         0.20        749.1 
      1389.0         0.23        725.2 
      1390.0         0.23        679.7 
      1391.0         0.30        632.9 
      1392.0         0.23        600.5 
      1393.0         0.23        593.5 
      1394.0         0.30        585.0 
      1395.0         0.30        565.8 
      1396.0         0.35        535.2 
      1397.0         0.33        511.3 
      1398.0         0.30        511.6 
      1399.0         0.43        505.2 
      1400.0         0.40        487.7 
