~Version Information
VERS.                      2.0: CWLS Log ASCII Standard - VERSION 2.0
WRAP.                       NO: One line per depth step
~Well Information Block
STRT.FT               710.0000: 
STOP.FT              2921.0000: 
STEP.FT                 0.1000: 
NULL.                -999.2500: 
COMP.          Petrogulf Corporation: COMPANY
WELL.            Montoya 1-41V: WELL
FLD.           Purgatorie River: FIELD
LOC.           610' FNL & 1205' FEL: LOCATION
PROV.                 Colorado: PROVINCE
CNTY.               Las Animas: COUNTRY
SRVC.                Patterson: SERVICE COMPANY
DATE.          Mon Aug 22 07:54:27 2005: LOG DATE
UWI.                          : UNIQUE WELL ID
~Curve Information Block
DEPT.FT            0 000 00 00: Depth
DCAL.in                       : CDL Caliper
RHOB.g/cc                     : CDL Bulk Density
RHOC.g/cc                     : CDL Density Correction
DPOR.pu                       : CDL Density Porosity
GR.GAPI                       : Gamma Ray
NPOR.pu                       : Neutron Porosity
~Parameter Information Block
~A  Depth       DCAL        RHOB        RHOC        DPOR         GR         NPOR    
# ...
   854.0000      8.4262      2.5304     -0.0154      7.2493    154.2923     26.7317
   854.1000      8.4262      2.5419      0.0154      6.5544    158.6404     26.2163
   854.2000      8.4262      2.5446      0.0440      6.3907    162.5250     25.5817
   854.3000      8.4928      2.5431      0.0612      6.4780    163.7211     25.0631
   854.4000      8.4928      2.5453      0.0586      6.3470    163.1348     24.9366
   854.5000      8.5638      2.5470      0.0903      6.2416    164.1566     25.1275
   854.6000      8.5638      2.5346      0.1425      6.9962    165.0581     25.2884
   854.7000      8.5638      2.5030      0.1664      8.9099    163.6284     25.2307
   854.8000      8.5593      2.4663      0.0284     11.1344    163.9742     25.1244
   854.9000      8.5593      2.4498      0.0054     12.1332    168.1482     25.0979
   855.0000      8.5963      2.4607      0.0266     11.4748    170.0408     25.0639
   855.1000      8.5963      2.4871      0.0162      9.8718    167.6058     25.0907
   855.2000      8.5963      2.5122      0.0806      8.3493    165.1591     25.2428
   855.3000      8.5479      2.5230      0.0752      7.6951    163.6446     25.5118
   855.4000      8.5479      2.5287      0.0905      7.3500    162.1811     25.9290
   855.5000      8.4710      2.5399      0.1530      6.6732    161.1180     26.4322
   855.6000      8.4710      2.5479      0.1545      6.1856    159.0424     26.7844
   855.7000      8.4710      2.5459      0.1501      6.3112    155.4951     26.8830
   855.8000      8.4178      2.5387      0.1424      6.7462    151.7604     26.9633
   855.9000      8.4178      2.5347      0.0877      6.9884    149.3116     27.0545
   856.0000      8.4309      2.5387      0.0907      6.7437    150.5306     26.9062
   856.1000      8.4309      2.5469      0.0986      6.2476    156.1819     26.6389
   856.2000      8.4309      2.5461      0.1437      6.2977    164.3645     26.5531
   856.3000      8.4318      2.5244      0.1160      7.6105    172.1063     26.6183
   856.4000      8.4318      2.4937      0.0457      9.4718    176.9520     26.7652
   856.5000      8.4310      2.4822      0.0363     10.1677    177.9456     27.1671
   856.6000      8.4310      2.4952      0.0907      9.3846    177.9371     27.7508
   856.7000      8.4310      2.5035      0.1224      8.8786    180.6583     28.1506
   856.8000      8.4428      2.4817      0.0916     10.2000    183.7858     28.3575
   856.9000      8.4428      2.4339      0.0453     13.0996    182.9305     28.7621
   857.0000      8.4282      2.3688      0.0418     17.0396    180.8633     29.4940
   857.1000      8.4282      2.2857      0.0004     22.0801    182.0876     30.2276
   857.2000      8.4282      2.1805      0.0183     28.4525    184.5403     30.5196
   857.3000      8.4292      2.0426      0.0231     36.8095    185.3225     30.0819
   857.4000      8.4292      1.8749     -0.1091     46.9732    184.4883     28.9574
   857.5000      8.4384      1.7060     -0.0924     57.2122    183.8553     27.2412
   857.6000      8.4384      1.5497     -0.1066     66.6825    185.2139     24.9363
   857.7000      8.4384      1.3984     -0.0856     75.8562    187.0131     22.4701
   857.8000      8.5703      1.2743     -0.0226     83.3731    186.1390     20.1156
   857.9000      8.5703      1.2288     -0.0287     86.1312    184.8680     17.4014
   858.0000      8.8806      1.2470      0.0996     85.0311    187.7173     14.3563
   858.1000      8.8806      1.2548      0.1471     84.5546    192.0327     11.7279
   858.2000      8.8806      1.2481      0.1177     84.9638    192.4286      9.7664
   858.3000      9.5419      1.2770      0.1625     83.2096    190.4311      8.3778
   858.4000      9.5419      1.3485      0.1762     78.8788    189.0003      7.7934
   858.5000     10.2037      1.4379      0.2052     73.4636    185.3569      8.3320
   858.6000     10.2037      1.5358      0.2307     67.5283    177.3486     10.0635
   858.7000     10.2037      1.6283      0.3892     61.9241    167.7453     12.7074
   858.8000      9.6361      1.6759      0.3368     59.0362    160.3124     15.9345
   858.9000      9.6361      1.6552      0.2536     60.2904    156.5367     19.4081
   859.0000      8.7638      1.5894      0.0989     64.2758    156.2358     22.3703
   859.1000      8.7638      1.5254      0.0849     68.1595    158.2616     24.2469
   859.2000      8.7638      1.4914      0.0786     70.2181    158.6982     25.1606
   859.3000      8.4523      1.4888      0.0725     70.3730    153.8185     25.3563
   859.4000      8.4523      1.5035      0.0929     69.4863    146.4057     24.9662
   859.5000      8.4146      1.5213      0.0633     68.4067    140.0180     24.1644
   859.6000      8.4146      1.5511      0.0329     66.6027    134.4169     23.2505
   859.7000      8.4146      1.6154      0.0903     62.7031    130.1045     22.6725
   859.8000      8.4111      1.7178      0.1597     56.4948    130.0582     22.7740
   859.9000      8.4111      1.8424      0.2171     48.9463    137.1175     23.3041
   860.0000      8.4142      1.9723      0.2840     41.0739    149.0944     23.6949
   860.1000      8.4142      2.0902      0.2700     33.9264    157.3483     24.0004
   860.2000      8.4142      2.1885      0.2319     27.9672    157.5063     24.5960
   860.3000      8.4215      2.2841      0.2300     22.1747    154.9645     25.3714
   860.4000      8.4215      2.3862      0.2798     15.9862    153.0876     26.1149
   860.5000      8.4261      2.4714      0.2661     10.8270    151.2371     26.7775
   860.6000      8.4261      2.5197      0.2132      7.8974    151.1105     27.3262
   860.7000      8.4261      2.5405      0.1197      6.6380    152.7816     27.8594
   860.8000      8.4332      2.5478      0.0895      6.1931    154.3764     28.3328
   860.9000      8.4332      2.5473      0.0728      6.2253    155.2401     28.3778
   861.0000      8.4273      2.5419      0.0506      6.5515    153.0331     27.7910
   861.1000      8.4273      2.5321      0.0634      7.1476    148.7599     26.9380
   861.2000      8.4273      2.5198      0.0491      7.8879    149.4483     26.3292
   861.3000      8.4319      2.5137      0.0226      8.2601    154.6886     26.1199
   861.4000      8.4319      2.5183      0.0527      7.9790    157.5616     26.1268
   861.5000      8.4284      2.5254      0.0540      7.5523    158.4440     26.0904
   861.6000      8.4284      2.5244      0.0825      7.6106    158.7119     25.9104
   861.7000      8.4284      2.5121      0.1051      8.3571    154.8457     25.7642
   861.8000      8.4468      2.4948      0.0856      9.4048    149.8607     25.7612
   861.9000      8.4468      2.4888      0.0958      9.7669    149.4753     25.7996
   862.0000      8.4714      2.5040      0.1055      8.8501    150.3344     25.8985
   862.1000      8.4714      2.5319      0.1518      7.1574    148.6246     26.2069
   862.2000      8.4714      2.5536      0.1862      5.8445    145.7276     26.6338
   862.3000      8.4535      2.5637      0.1507      5.2327    143.1441     26.8539
   862.4000      8.4535      2.5783      0.1538      4.3451    142.1102     26.7584
   862.5000      8.4899      2.6048      0.1826      2.7406    141.7304     26.5473
   862.6000      8.4899      2.6324      0.1777      1.0687    138.8473     26.4344
   862.7000      8.4899      2.6485      0.2259      0.0928    134.2859     26.2821
   862.8000      8.4581      2.6489      0.2423      0.0691    130.7815     25.8463
   862.9000      8.4581      2.6430      0.2090      0.4245    130.5554     25.2877
   863.0000      8.4142      2.6414      0.2102      0.5228    135.0810     24.9985
   863.1000      8.4142      2.6448      0.1521      0.3158    139.4010     25.0051
   863.2000      8.4142      2.6577      0.1231     -0.4694    139.4431     24.9725
   863.3000      8.3864      2.6821      0.1503     -1.9462    137.6290     24.9067
   863.4000      8.3864      2.6979      0.1108     -2.9043    135.6882     25.1463
   863.5000      8.3705      2.6833      0.0884     -2.0212    134.7212     25.5464
