~Version Information
VERS.                      2.0: CWLS Log ASCII Standard - VERSION 2.0
WRAP.                       NO: One line per depth step
~Well Information Block
STRT.FT               840.0000: 
STOP.FT              2268.0000: 
STEP.FT                 0.2500: 
NULL.                -999.2500: 
COMP.          Pioneer Natural Resources: COMPANY
WELL.              Tonto 42-23: WELL
FLD.           Purgatoire River: FIELD
LOC.           2217' FNL & 423' FEL: LOCATION
PROV.                 Colorado: PROVINCE
CNTY.               Las Animas: COUNTRY
SRVC.                Patterson: SERVICE COMPANY
DATE.          Sun Apr 17 01:24:47 2005: LOG DATE
UWI.           05 071 08335 00: UNIQUE WELL ID
~Curve Information Block
DEPT.FT            0 000 00 00: Depth
SN.Ohm-m                      : IEL Short Normal
SP.mV                         : IEL Spontaneous Potential
DIR.Ohm-m                     : IEL Induction Resistivity
GR.GAPI                       : Gamma Ray
~Parameter Information Block
~A  Depth        SN          SP         DIR          GR     
# ...
  2247.0000     21.0279     58.9439     22.0187     66.1457
  2247.2500     20.8465     58.7239     21.8717     66.7734
  2247.5000     20.7037     58.4338     21.6944     66.5358
  2247.7500     20.5456     58.0806     21.4812     65.4795
  2248.0000     20.3450     57.6986     21.2320     61.5703
  2248.2500     20.1705     57.3391     20.9611     56.3174
  2248.5000     20.0760     57.0438     20.6984     43.5257
  2248.7500     20.0190     56.8238     20.4832     32.8016
  2249.0000     19.9240     56.6602     20.3505     17.4852
  2249.2500     19.7628     56.5242     20.3171      9.8697
  2249.5000     19.5713     56.3954     20.3777      3.2661
  2249.7500     19.4318     56.2663     20.5085      1.3138
  2250.0000     19.4268     56.1338     20.6770      0.2553
  2250.2500     19.5823     55.9938     20.8557      0.0704
  2250.5000     19.8646     55.8459     21.0347      0.0066
  2250.7500     20.2049     55.6972     21.2297      0.0000
  2251.0000     20.5103     55.5555     21.4767   -999.2500
  2251.2500     20.7411     55.4165     21.8115   -999.2500
  2251.5000     20.9788     55.2589     22.2391   -999.2500
  2251.7500     21.3241     55.0525     22.7070   -999.2500
  2252.0000     21.7618     54.7764     23.1025   -999.2500
  2252.2500     22.1783     54.4357     23.2975   -999.2500
  2252.5000     22.4934     54.0633     23.2321   -999.2500
  2252.7500     22.7550     53.7031     22.9669   -999.2500
  2253.0000     23.0702     53.3842     22.6479   -999.2500
  2253.2500     23.4536     53.1104     22.4210   -999.2500
  2253.5000     23.8115     52.8687     22.3677   -999.2500
  2253.7500     24.0771     52.6428     22.4907   -999.2500
  2254.0000     24.2712     52.4149     22.7317   -999.2500
  2254.2500     24.4266     52.1644     23.0078   -999.2500
  2254.5000     24.5863     51.8742     23.2559   -999.2500
  2254.7500     24.8334     51.5420     23.4699   -999.2500
  2255.0000     25.1597     51.1766     23.6313   -999.2500
  2255.2500     25.4436     50.7830     23.9658   -999.2500
  2255.5000     25.6714     50.3584     24.4595   -999.2500
  2255.7500     25.9429     49.9089     25.1204   -999.2500
  2256.0000     26.2798     49.4622     25.9093   -999.2500
  2256.2500     26.6364     49.0608     26.7673   -999.2500
  2256.5000     26.9974     48.7434     27.6424   -999.2500
  2256.7500     27.3930     48.5293     28.4921   -999.2500
  2257.0000     27.8673     48.4116     29.2696   -999.2500
  2257.2500     28.3954     48.3629     29.9263   -999.2500
  2257.5000     28.8495     48.3516     30.4705   -999.2500
  2257.7500     29.1302     48.3585     31.0729   -999.2500
  2258.0000     29.2805     48.3835     32.1540   -999.2500
  2258.2500     29.3859     48.4414     34.4158   -999.2500
  2258.5000     29.4252     48.5469     39.1378   -999.2500
  2258.7500     29.3136     48.6955     47.5981   -999.2500
  2259.0000     29.0395     48.8554     62.8381   -999.2500
  2259.2500     28.6517     48.9801     89.7932   -999.2500
  2259.5000     28.1840     49.0311    135.8294   -999.2500
  2259.7500     27.6389     48.9932    206.9101   -999.2500
  2260.0000     26.9968     48.8762    294.9334   -999.2500
  2260.2500     26.2800     48.7044    371.6669   -999.2500
  2260.5000     25.5764     48.5018    416.5712   -999.2500
  2260.7500     24.9445     48.2823    437.3075   -999.2500
  2261.0000     24.3722     48.0492    452.5214   -999.2500
  2261.2500     23.8625     47.8003    477.4506   -999.2500
  2261.5000     23.4498     47.5335 100000.0000   -999.2500
  2261.7500     23.1084     47.2509 100000.0000   -999.2500
  2262.0000     22.7848     46.9612 100000.0000   -999.2500
  2262.2500     22.5112     46.6781 100000.0000   -999.2500
  2262.5000     22.3551     46.4118 100000.0000   -999.2500
  2262.7500     22.3012     46.1602 100000.0000   -999.2500
  2263.0000     22.2844     45.9057 100000.0000   -999.2500
  2263.2500     22.2739     45.5896 100000.0000   -999.2500
  2263.5000     22.2902     45.0148 100000.0000   -999.2500
  2263.7500     22.3832     43.6721 100000.0000   -999.2500
  2264.0000     22.5703     40.6801 100000.0000   -999.2500
  2264.2500     22.7074     35.1843 100000.0000   -999.2500
  2264.5000     22.2839     27.2105 100000.0000   -999.2500
  2264.7500     20.2706     18.1709 100000.0000   -999.2500
  2265.0000     15.8667     10.1854 100000.0000   -999.2500
  2265.2500     10.0766      4.6921 100000.0000   -999.2500
  2265.5000      5.3114      1.7496 100000.0000   -999.2500
  2265.7500      2.8266      0.5223 100000.0000   -999.2500
  2266.0000      2.0011      0.1237 100000.0000   -999.2500
  2266.2500      1.8259      0.0229 100000.0000   -999.2500
  2266.5000      1.8021      0.0030 100000.0000   -999.2500
  2266.7500   -999.2500   -999.2500 100000.0000   -999.2500
  2267.0000   -999.2500   -999.2500 100000.0000   -999.2500
  2267.2500   -999.2500   -999.2500 100000.0000   -999.2500
  2267.5000   -999.2500   -999.2500 100000.0000   -999.2500
  2267.7500   -999.2500   -999.2500 100000.0000   -999.2500
  2268.0000   -999.2500   -999.2500 100000.0000   -999.2500
