~Version Information
 VERS.                                  2.0 : CWLS LAS VERSION
 WRAP.                                   NO : WRAPING MODE
 SWARE .                 MController 2.5.0N : SOFTWARE VERSION
~Well Information
 WELL.                        Paradise 13-8 : WELL
 COMP.        Pioneer Natural Resources Inc : COMPANY
 FLD.                      Purgatoire River : FIELD
 LOC.                 NW/SW Sec 8 T32S R66W : LOCATION
 DATE.                           1/21-22/05 : DATE(S) LOGGED
 SRVC.       Blanco Geological Services LLC : SERVICE COMPANY
 STAT.                                   CO : STATE
 CNTY.                           Las Animas : COUNTY
 CTRY.                                  USA : COUNTRY
 API.                       05-071-07946-00 : API NUMBER
 STRT.FT                             855.00 : START DEPTH
 STOP.FT                            3151.00 : STOP DEPTH
 STEP.FT                               1.00 : DEPTH INCREMENT
 NULL.                                -9999 : NULL VALUE
~Curve information
 DEPTH.FT                                   :
 ROP.MIN/FT                                 :
 GAS.UNITS                                  :
~ASCII Log data
# ...
      2655.0         0.47         36.3 
      2656.0         0.43         36.3 
      2657.0         0.43         32.7 
      2658.0         0.38         22.6 
      2659.0         0.30         12.5 
      2660.0         0.33         12.6 
      2661.0         0.33         13.9 
      2662.0         0.33         16.2 
      2663.0         0.43         19.1 
      2664.0         0.37         20.1 
      2665.0         0.33         20.6 
      2666.0         0.37         20.5 
      2667.0         0.42         19.2 
      2668.0         0.43         17.9 
      2669.0         0.43         17.5 
      2670.0         0.37         16.0 
      2671.0         0.40         16.4 
      2672.0         0.63         17.3 
      2673.0         0.63         17.3 
      2674.0        31.27         77.4 
      2675.0         0.63         86.1 
      2676.0         0.67         98.6 
      2677.0         0.60         35.9 
      2678.0         0.40         16.8 
      2679.0         0.38         11.9 
      2680.0         0.47          6.4 
      2681.0         0.47          4.6 
      2682.0         0.50          4.5 
      2683.0         0.50          5.0 
      2684.0         0.53          6.2 
      2685.0         0.75          6.7 
      2686.0         0.27          5.8 
      2687.0         0.27          5.3 
      2688.0         0.57          5.4 
      2689.0         0.80          7.3 
      2690.0         0.57          8.1 
      2691.0         0.57          8.3 
      2692.0         0.62          8.1 
      2693.0         0.73          7.2 
      2694.0         0.67          5.4 
      2695.0         0.50          4.9 
      2696.0         0.50          6.0 
      2697.0         0.50          7.8 
      2698.0         0.48          9.2 
      2699.0         0.50         10.2 
      2700.0         0.67         10.8 
      2701.0         0.27         11.0 
      2702.0         0.33         11.0 
      2703.0         0.47         11.1 
      2704.0        10.55         95.4 
      2705.0         0.52         12.1 
      2706.0         0.67         17.8 
      2707.0         0.73         14.4 
      2708.0         0.77          7.4 
      2709.0         0.85          4.4 
      2710.0         0.43          4.1 
      2711.0         0.33          4.1 
      2712.0         0.67          5.0 
      2713.0         0.63          5.2 
      2714.0         0.60          5.1 
      2715.0         0.65          5.1 
      2716.0         0.43          4.8 
      2717.0         0.47          5.4 
      2718.0         0.50          5.9 
      2719.0         0.40          6.2 
      2720.0         0.27          7.2 
      2721.0         0.33          8.1 
      2722.0         0.47          9.0 
      2723.0         0.52          9.1 
      2724.0         0.47          9.1 
      2725.0         0.47          9.6 
      2726.0         0.27          9.6 
      2727.0         0.37          9.7 
      2728.0         0.50          9.5 
      2729.0         0.47          8.1 
      2730.0         0.52          6.9 
      2731.0         0.33          5.6 
      2732.0         0.33          5.3 
      2733.0         4.08         17.4 
      2734.0         6.13         20.4 
      2735.0         0.60          5.3 
      2736.0         0.50          6.7 
      2737.0         0.50          6.7 
      2738.0         0.53          6.0 
      2739.0         0.45          5.0 
      2740.0         0.47          5.0 
      2741.0         0.53          5.2 
      2742.0         0.53          5.9 
      2743.0         0.43          6.1 
      2744.0         0.47          6.5 
      2745.0         0.43          6.2 
      2746.0         0.42          6.3 
      2747.0         0.37          6.1 
      2748.0         0.40          6.0 
      2749.0         0.47          7.6 
      2750.0         0.53         21.6 
      2751.0         0.53         42.0 
      2752.0         0.53         52.2 
      2753.0         0.42         50.9 
      2754.0         0.37         44.1 
      2755.0         0.40         30.5 
      2756.0         0.47         25.4 
      2757.0         0.33         17.7 
      2758.0         0.30         15.8 
      2759.0         0.40         14.5 
      2760.0         0.60         14.1 
      2761.0         0.58         13.2 
      2762.0         0.43         11.4 
      2763.0         0.33          9.3 
      2764.0        12.70         38.4 
      2765.0         2.03          6.9 
      2766.0         0.70          7.8 
      2767.0         0.82         10.7 
      2768.0         0.57         13.6 
      2769.0         0.53         16.9 
      2770.0         0.67         19.6 
      2771.0         0.83         23.5 
      2772.0         0.72         23.9 
      2773.0         0.53         19.0 
      2774.0         0.53         16.7 
      2775.0         0.30          9.1 
      2776.0         0.57          9.2 
      2777.0         0.23         10.6 
      2778.0         0.78         12.4 
      2779.0         0.73         15.0 
      2780.0         0.87         15.8 
      2781.0         0.87         15.5 
      2782.0         0.95         15.0 
      2783.0         0.73         15.1 
      2784.0         0.63         15.7 
      2785.0         0.67         15.4 
      2786.0         0.60         16.0 
      2787.0         0.53         15.9 
      2788.0         0.68         15.0 
      2789.0         0.60         14.0 
      2790.0         0.73         11.9 
      2791.0         0.60          9.7 
      2792.0         0.73          7.3 
      2793.0         0.65          8.9 
      2794.0        14.90         88.2 
      2795.0         0.70         57.0 
      2796.0         0.68         21.9 
      2797.0         0.53         12.2 
      2798.0         0.73          8.1 
      2799.0         0.83          5.5 
      2800.0         0.87          4.7 
      2801.0         0.88          5.0 
      2802.0         1.00          6.7 
      2803.0         1.10          8.2 
      2804.0         0.75         11.4 
      2805.0         0.37         17.2 
      2806.0         0.37         24.5 
      2807.0         0.43         38.6 
      2808.0         0.47         42.5 
      2809.0         0.33         41.6 
      2810.0         0.40         37.8 
      2811.0         0.57         36.7 
      2812.0         0.62         38.4 
      2813.0         0.63         37.9 
      2814.0         0.73         35.3 
      2815.0         0.60         25.2 
      2816.0         0.40         16.2 
      2817.0         0.40         11.6 
      2818.0         0.48          9.5 
      2819.0         0.37          6.1 
      2820.0         0.37          6.2 
      2821.0         0.27         12.7 
      2822.0         0.33         19.1 
      2823.0         0.50         28.5 
      2824.0        11.50         27.4 
      2825.0         2.43          6.1 
      2826.0         0.50          7.6 
      2827.0         0.52         10.6 
      2828.0         0.50         13.5 
      2829.0         0.60         16.2 
      2830.0         0.67         17.5 
      2831.0         0.70         19.9 
      2832.0         0.85         23.6 
      2833.0         0.70         25.9 
      2834.0         0.63         24.4 
      2835.0         0.63         18.2 
      2836.0         0.63         11.1 
      2837.0         0.72          6.7 
      2838.0         0.67          8.4 
      2839.0         0.63         10.1 
      2840.0         0.70         11.5 
      2841.0         0.83         11.7 
      2842.0         0.82          9.3 
      2843.0         0.77          6.8 
      2844.0         0.73          6.7 
      2845.0         0.80          5.5 
      2846.0         0.82          4.3 
      2847.0         0.77          4.1 
      2848.0         1.13          4.1 
      2849.0         0.53          6.5 
      2850.0         0.57         11.7 
      2851.0         0.45         14.9 
      2852.0         0.50         16.6 
      2853.0         0.73         19.7 
      2854.0         7.27         25.0 
