~Version Information
VERS.                      2.0: CWLS Log ASCII Standard - VERSION 2.0
WRAP.                       NO: One line per depth step
~Well Information Block
STRT.FT               870.0000: 
STOP.FT              2519.5000: 
STEP.FT                 0.2500: 
NULL.                -999.2500: 
COMP.          Pioneer Natural Resources: COMPANY
WELL.              Tiaga 23-14: WELL
FLD.           Purgatoire River: FIELD
LOC.           2168' FSL & 2030' FWL: LOCATION
PROV.                 Colorado: PROVINCE
CNTY.               Las Animas: COUNTRY
SRVC.                         : SERVICE COMPANY
DATE.          Sat May 07 08:44:43 2005: LOG DATE
UWI.           05 071 08329 00: UNIQUE WELL ID
~Curve Information Block
DEPT.FT            0 000 00 00: Depth
LTEN.lb                       : Surface Line Tension
SN.Ohm-m                      : IEL Short Normal
SP.mV                         : IEL Spontaneous Potential
DIR.Ohm-m                     : IEL Induction Resistivity
GR.GAPI                       : Gamma Ray
~Parameter Information Block
~A  Depth       LTEN         SN          SP         DIR          GR     
# ...
  1850.0000    783.6069      9.2654    -59.9658      7.9931    130.1901
  1850.2500    784.5338      9.3362    -59.9752      8.0678    128.3625
  1850.5000    784.1476      9.4572    -59.9976      8.1486    126.5837
  1850.7500    782.3734      9.6168    -60.0315      8.2472    125.6890
  1851.0000    779.7743      9.8070    -60.0763      8.3756    123.5857
  1851.2500    777.1569     10.0309    -60.1289      8.5426    121.3712
  1851.5000    775.0330     10.2935    -60.1863      8.7525    117.8541
  1851.7500    773.4554     10.5931    -60.2469      9.0055    116.5162
  1852.0000    772.2066     10.9181    -60.3098      9.3003    117.2631
  1852.2500    771.0531     11.2468    -60.3719      9.6366    119.3246
  1852.5000    769.9273     11.5580    -60.4279     10.0167    122.8320
  1852.7500    768.9756     11.8548    -60.4721     10.4459    124.0797
  1853.0000    768.3568     12.1806    -60.5016     10.9311    122.8786
  1853.2500    767.9816     12.6074    -60.5174     11.4777    120.1489
  1853.5000    767.6298     13.2061    -60.5221     12.0881    114.5261
  1853.7500    767.4155     14.0217    -60.5167     12.7620    110.4485
  1854.0000    768.0045     15.0590    -60.4993     13.5001    103.8640
  1854.2500    770.1710     16.2914    -60.4659     14.3064     98.7477
  1854.5000    774.0414     17.7181    -60.4105     15.1906     89.8211
  1854.7500    778.7770     19.4181    -60.3256     16.1696     83.6784
  1855.0000    783.0688     21.5463    -60.2042     17.2682     75.9961
  1855.2500    785.9707     24.2669    -60.0435     18.5176     72.6322
  1855.5000    787.2592     27.5814    -59.8476     19.9530     70.0869
  1855.7500    787.1526     31.1464    -59.6272     21.6040     69.3887
  1856.0000    785.9484     34.3859    -59.3965     23.4796     68.7034
  1856.2500    783.9368     36.8680    -59.1697     25.5455     68.1753
  1856.5000    781.3680     38.4991    -58.9589     27.7116     67.3726
  1856.7500    778.3709     39.4271    -58.7729     29.8462     67.1163
  1857.0000    775.0640     39.9059    -58.6186     31.8159     67.6529
  1857.2500    771.8185     40.2056    -58.5018     33.5218     68.6494
  1857.5000    769.2440     40.5213    -58.4259     34.8940     70.3788
  1857.7500    767.8237     40.9117    -58.3899     35.8634     70.9914
  1858.0000    767.6199     41.3295    -58.3895     36.3636     70.2521
  1858.2500    768.3740     41.7302    -58.4196     36.3852     68.6869
  1858.5000    769.8219     42.1315    -58.4732     36.0197     65.5914
  1858.7500    771.7613     42.5601    -58.5390     35.4103     63.7022
  1859.0000    773.8450     42.9888    -58.6023     34.6339     61.9678
  1859.2500    775.5970     43.3603    -58.6483     33.6247     61.6173
  1859.5000    776.7519     43.6478    -58.6644     32.2279     61.7137
  1859.7500    777.4231     43.8312    -58.6413     30.3594     61.6820
  1860.0000    777.9487     43.7922    -58.5734     28.1211     60.9744
  1860.2500    778.7022     43.2720    -58.4573     25.7530     60.2449
  1860.5000    779.8990     41.9356    -58.2893     23.4870     60.0405
  1860.7500    781.3262     39.5042    -58.0659     21.4459     61.5589
  1861.0000    782.2949     35.9310    -57.7861     19.6425     67.8091
  1861.2500    782.0634     31.5621    -57.4557     18.0337     74.9079
  1861.5000    780.3833     27.0809    -57.0891     16.5766     89.1319
  1861.7500    777.5933     23.1384    -56.7093     15.2544     99.8459
  1862.0000    774.2206     20.0266    -56.3442     14.0681    115.3183
  1862.2500    770.7026     17.6960    -56.0214     13.0193    124.0608
  1862.5000    767.5423     15.9541    -55.7607     12.1021    133.9418
  1862.7500    765.4014     14.6255    -55.5682     11.3081    138.5376
  1863.0000    764.8063     13.6086    -55.4357     10.6325    143.3711
  1863.2500    765.9061     12.8395    -55.3461     10.0745    145.7790
  1863.5000    768.5065     12.2509    -55.2826      9.6328    148.7385
  1863.7500    772.0750     11.7913    -55.2330      9.3015    150.3664
  1864.0000    775.8578     11.4520    -55.1867      9.0706    152.2213
  1864.2500    779.3246     11.2448    -55.1307      8.9299    153.0433
  1864.5000    782.3661     11.1706    -55.0527      8.8738    153.6711
  1864.7500    784.8918     11.2185    -54.9523      8.9022    153.5176
  1865.0000    786.5199     11.3786    -54.8443      9.0193    151.6653
  1865.2500    786.7394     11.6433    -54.7478      9.2313    148.9937
  1865.5000    785.1697     12.0033    -54.6717      9.5438    143.1904
  1865.7500    781.9016     12.4620    -54.6102      9.9615    138.7543
  1866.0000    777.8638     13.0465    -54.5502     10.4874    132.0239
  1866.2500    774.4962     13.7997    -54.4790     11.1214    127.4523
  1866.5000    772.7225     14.7697    -54.3881     11.8596    119.8809
  1866.7500    772.4384     15.9961    -54.2751     12.6938    114.0930
  1867.0000    772.9420     17.5127    -54.1467     13.6141    104.4969
  1867.2500    773.4957     19.3881    -54.0181     14.6134     98.0109
  1867.5000    773.5976     21.7187    -53.9052     15.6922     89.3083
  1867.7500    773.1344     24.5202    -53.8105     16.8607     84.6930
  1868.0000    772.3826     27.6234    -53.7182     18.1381     79.7961
  1868.2500    771.7973     30.7169    -53.6040     19.5486     77.7591
  1868.5000    771.7493     33.5172    -53.4503     21.1156     76.3316
  1868.7500    772.3535     35.8880    -53.2536     22.8512     76.5000
  1869.0000    773.4953     37.8050    -53.0208     24.7390     78.4301
  1869.2500    775.0242     39.2664    -52.7638     26.7116     80.3977
  1869.5000    776.8556     40.2853    -52.4971     28.6397     82.7471
  1869.7500    778.8202     40.9495    -52.2363     30.3610     82.9804
  1870.0000    780.5143     41.4592    -51.9963     31.7608     80.8542
  1870.2500    781.3423     42.0788    -51.7871     32.8472     78.1846
  1870.5000    780.7108     43.0216    -51.6078     33.7380     73.2394
  1870.7500    778.4412     44.3527    -51.4434     34.5577     69.6249
  1871.0000    775.2634     46.0072    -51.2720     35.3379     64.0123
  1871.2500    772.5829     47.9061    -51.0813     36.0002     60.4203
  1871.5000    771.2383     49.9693    -50.8802     36.4206     55.8701
  1871.7500    770.7064     51.9919    -50.6926     36.5128     53.6437
  1872.0000    769.9583     53.6246    -50.5395     36.2757     51.8020
  1872.2500    768.8135     54.5314    -50.4248     35.7928     51.7686
  1872.5000    768.0732     54.5076    -50.3357     35.1979     53.6032
  1872.7500    768.6075     53.4569    -50.2534     34.6269     55.8417
  1873.0000    770.6400     51.3841    -50.1651     34.1688     60.3258
  1873.2500    773.7253     48.5171    -50.0678     33.8334     64.2236
  1873.5000    777.1359     45.3784    -49.9658     33.5530     72.0627
  1873.7500    780.2836     42.5625    -49.8689     33.2236     78.6003
  1874.0000    782.9219     40.4038    -49.7901     32.7658     88.9990
  1874.2500    785.0307     38.8993    -49.7423     32.1689     94.8997
  1874.5000    786.5917     37.8615    -49.7327     31.4831     99.7699
  1874.7500    787.4691     37.1154    -49.7606     30.7719     99.6909
  1875.0000    787.4419     36.6159    -49.8205     30.0715     95.5118
  1875.2500    786.4370     36.4034    -49.9064     29.3870     91.5139
  1875.5000    784.8420     36.4912    -50.0148     28.7195     86.3353
  1875.7500    783.4141     36.8275    -50.1484     28.0923     84.2325
  1876.0000    782.6141     37.2932    -50.3182     27.5525     82.9873
  1876.2500    782.1029     37.7147    -50.5376     27.1448     82.9083
  1876.5000    780.9835     37.9341    -50.8109     26.8751     83.0724
  1876.7500    778.4543     37.8862    -51.1263     26.6866     83.0775
  1877.0000    774.3956     37.6077    -51.4606     26.4689     82.8375
  1877.2500    769.7510     37.2030    -51.7898     26.0997     82.6639
  1877.5000    766.2810     36.8045    -52.0953     25.4931     82.6547
  1877.7500    765.4469     36.5057    -52.3643     24.6210     82.7418
