~Version Information
VERS.                      2.0: CWLS Log ASCII Standard - VERSION 2.0
WRAP.                       NO: One line per depth step
~Well Information Block
STRT.FT               770.0000: 
STOP.FT              1997.7000: 
STEP.FT                 0.1000: 
NULL.                -999.2500: 
COMP.          Pioneer Natural Resources: COMPANY
WELL.          Titan Federal 34-17: WELL
FLD.           Purgatoire River: FIELD
LOC.           321' FSL & 1911' FEL--: LOCATION
STAT.                 Colorado: State
CNTY.               Las Animas: COUNTY
CTRY. USA : Country
SECT. 17 : Section
TOWN. 32S : Township
RANG. 65W : Range
SRVC.                Patterson: SERVICE COMPANY
DATE.          Thu Oct 06 15:09:27 2005: LOG DATE
API.           05 071 08272 00: UNIQUE WELL ID
~Curve Information Block
DEPT.FT            0 000 00 00: Depth
DCAL.in                       : CDL Caliper
RHOB.g/cc                     : CDL Bulk Density
RHOC.g/cc                     : CDL Density Correction
DPOR.pu                       : CDL Density Porosity
NPOR.pu                       : Neutron Porosity
GR.GAPI                       : Gamma Ray
~Parameter Information Block
~A  Depth       DCAL        RHOB        RHOC        DPOR        NPOR         GR     
# ...
  1490.0000      8.0642      2.6756      0.1863     -1.5522     22.8141    104.0729
  1490.1000      8.0642      2.6616      0.1243     -0.7038     21.6245    108.2154
  1490.2000      8.0642      2.6384      0.0959      0.7034     21.3919    109.9819
  1490.3000      8.0624      2.6024      0.0503      2.8824     21.9283    108.1633
  1490.4000      8.0624      2.5701     -0.0051      4.8442     22.4056    101.4451
  1490.5000      8.0630      2.5700     -0.0206      4.8475     22.2309     93.0576
  1490.6000      8.0630      2.5962      0.0653      3.2631     21.6763     88.4101
  1490.7000      8.0630      2.6057      0.0865      2.6870     21.3992     89.2405
  1490.8000      8.0638      2.5828      0.0075      4.0749     21.4573     93.5174
  1490.9000      8.0638      2.5570     -0.0417      5.6385     21.4550     95.8818
  1491.0000      8.0635      2.5464      0.0444      6.2810     21.1672     94.1877
  1491.1000      8.0635      2.5421      0.0246      6.5377     20.7405     91.8271
  1491.2000      8.0635      2.5452      0.0032      6.3487     20.4298     89.7214
  1491.3000      8.0607      2.5587      0.0640      5.5349     20.1806     86.5779
  1491.4000      8.0607      2.5673      0.0773      5.0099     19.8976     85.6019
  1491.5000      8.0591      2.5623      0.0097      5.3137     19.7730     88.3797
  1491.6000      8.0591      2.5513      0.0524      5.9842     19.8234     91.9118
  1491.7000      8.0591      2.5433      0.0035      6.4646     19.7555     94.9646
  1491.8000      8.0607      2.5468      0.0037      6.2532     19.4289     94.8169
  1491.9000      8.0607      2.5587      0.0581      5.5315     18.7924     89.2262
  1492.0000      8.0633      2.5642      0.0391      5.2007     17.9591     83.7923
  1492.1000      8.0633      2.5542      0.0485      5.8050     17.4468     82.9026
  1492.2000      8.0633      2.5338      0.0110      7.0420     17.6218     86.2337
  1492.3000      8.0642      2.5181      0.0130      7.9955     18.1566     92.8348
  1492.4000      8.0642      2.5146      0.0193      8.2069     18.6194     98.5192
  1492.5000      8.0641      2.5223      0.0058      7.7385     18.9567     97.8055
  1492.6000      8.0641      2.5379      0.0544      6.7915     18.9487     91.5606
  1492.7000      8.0641      2.5526      0.0518      5.9022     18.4575     86.0948
  1492.8000      8.0635      2.5615      0.0695      5.3647     17.9724     84.9785
  1492.9000      8.0635      2.5659      0.0507      5.0961     17.9405     86.7802
  1493.0000      8.0628      2.5716      0.0192      4.7530     18.2484     88.3587
  1493.1000      8.0628      2.5856      0.0476      3.9051     18.4419     89.9080
  1493.2000      8.0628      2.5998      0.0876      3.0401     18.6400     93.1195
  1493.3000      8.0637      2.5940      0.0933      3.3940     19.4757     96.3911
  1493.4000      8.0637      2.5698      0.0292      4.8589     20.6756     98.3108
  1493.5000      8.0657      2.5473      0.0053      6.2272     21.3967    100.0385
  1493.6000      8.0657      2.5302      0.0059      7.2587     21.5795    100.0826
  1493.7000      8.0657      2.5220     -0.0150      7.7569     21.5411     95.1581
  1493.8000      8.0658      2.5344      0.0119      7.0039     21.4922     88.6618
  1493.9000      8.0658      2.5578      0.0303      5.5866     21.5610     87.1135
  1494.0000      8.0637      2.5674      0.0262      5.0085     21.5514     90.4329
  1494.1000      8.0637      2.5571     -0.0042      5.6305     21.2760     92.9159
  1494.2000      8.0637      2.5455     -0.0256      6.3305     20.7539     91.9752
  1494.3000      8.0611      2.5486     -0.0003      6.1463     20.1745     90.2499
  1494.4000      8.0611      2.5551      0.0691      5.7525     19.8032     90.1821
  1494.5000      8.0606      2.5504      0.0331      6.0377     19.7137     91.9635
  1494.6000      8.0606      2.5403      0.0313      6.6477     19.3914     93.9097
  1494.7000      8.0606      2.5379      0.0116      6.7912     18.5621     95.0427
  1494.8000      8.0635      2.5526      0.0367      5.9051     17.9238     95.0555
  1494.9000      8.0635      2.5816      0.0745      4.1465     17.9185     93.7528
  1495.0000      8.0669      2.6036      0.0822      2.8101     18.2319     92.7623
  1495.1000      8.0669      2.5985      0.0988      3.1196     18.7648     92.9286
  1495.2000      8.0669      2.5744      0.0169      4.5806     19.6087     93.2193
  1495.3000      8.0675      2.5582      0.0196      5.5622     20.2498     91.6774
  1495.4000      8.0675      2.5626      0.0120      5.2974     20.3083     88.3630
  1495.5000      8.0648      2.5797      0.0295      4.2612     20.0242     84.2913
  1495.6000      8.0648      2.6065      0.0104      2.6334     19.9269     80.4603
  1495.7000      8.0648      2.6460      0.0838      0.2451     20.3318     80.1475
  1495.8000      8.0623      2.6738      0.0984     -1.4448     20.9814     81.9131
  1495.9000      8.0623      2.6599      0.0744     -0.5981     21.5212     81.6887
  1496.0000      8.0640      2.6145      0.0245      2.1536     21.9461     82.0323
  1496.1000      8.0640      2.5782      0.0028      4.3507     22.4630     84.4342
  1496.2000      8.0640      2.5715      0.0154      4.7548     23.2889     84.0580
  1496.3000      8.0695      2.5780      0.0296      4.3662     24.1618     81.4640
  1496.4000      8.0695      2.5772      0.0295      4.4105     24.6363     81.5782
  1496.5000      8.0775      2.5646     -0.0103      5.1758     24.8909     85.9634
  1496.6000      8.0775      2.5402      0.0193      6.6524     25.1136     92.9533
  1496.7000      8.0775      2.5122     -0.0418      8.3522     25.0572     98.0257
  1496.8000      8.0857      2.4957     -0.0313      9.3521     24.7292    100.6776
  1496.9000      8.0857      2.4946     -0.0212      9.4166     24.5217    105.8180
  1497.0000      8.0899      2.5005      0.0007      9.0587     24.3646    113.2797
  1497.1000      8.0899      2.4961      0.0505      9.3248     23.9173    117.4684
  1497.2000      8.0899      2.4706      0.0372     10.8745     23.3994    115.2883
  1497.3000      8.0887      2.4390     -0.0246     12.7869     22.9722    110.0470
  1497.4000      8.0887      2.4249     -0.0039     13.6453     22.4846    108.4134
  1497.5000      8.0852      2.4290      0.0234     13.3937     22.0150    110.4478
  1497.6000      8.0852      2.4424      0.0129     12.5790     21.8472    110.2872
  1497.7000      8.0852      2.4704      0.0456     10.8831     21.8852    108.4322
  1497.8000      8.0843      2.5157      0.0823      8.1394     21.7041    105.3375
  1497.9000      8.0843      2.5618      0.1065      5.3432     21.2397     98.8161
  1498.0000      8.0862      2.5920      0.1298      3.5146     20.7146     91.4783
  1498.1000      8.0862      2.6042      0.1462      2.7733     20.2696     85.1002
  1498.2000      8.0862      2.6118      0.0816      2.3122     19.9780     79.8989
  1498.3000      8.0860      2.6274      0.0900      1.3696     19.9760     77.1624
  1498.4000      8.0860      2.6440      0.0859      0.3649     20.0453     77.3448
  1498.5000      8.0818      2.6548      0.0981     -0.2919     19.6449     76.5215
  1498.6000      8.0818      2.6600      0.1058     -0.6032     18.9495     70.6538
  1498.7000      8.0818      2.6487      0.1159      0.0776     18.8425     64.9490
  1498.8000      8.0779      2.6226      0.0247      1.6622     19.5843     65.8502
  1498.9000      8.0779      2.6035      0.0584      2.8183     20.3176     72.1191
  1499.0000      8.0811      2.5972      0.0784      3.2029     20.1306     77.6998
  1499.1000      8.0811      2.5979      0.0523      3.1560     19.2706     77.6175
  1499.2000      8.0811      2.5996      0.0413      3.0516     18.7053     74.5612
  1499.3000      8.0873      2.5840      0.0726      3.9973     18.6286     73.4172
  1499.4000      8.0873      2.5467     -0.0180      6.2577     18.5735     73.8067
  1499.5000      8.0898      2.5140     -0.0049      8.2412     18.4817     73.8480
