~Version Information
VERS.                      2.0: CWLS Log ASCII Standard - VERSION 2.0
WRAP.                       NO: One line per depth step
~Well Information Block
STRT.FT               260.0000: 
STOP.FT              1199.2000: 
STEP.FT                 0.1000: 
NULL.                -999.2500: 
COMP.          Evergreen Operating Corporation: COMPANY
WELL.             Justin 32-10: WELL
FLD.           Purgatorie River: FIELD
LOC.           2994' FNL & 1449' FEL: LOCATION
PROV.                 Colorado: PROVINCE
CNTY.               Las Animas: COUNTRY
SRVC.                         : SERVICE COMPANY
DATE.          Mon Aug 30 07:14:35 2004: LOG DATE
UWI.           05 071 08053 00: UNIQUE WELL ID
~Curve Information Block
DEPT.FT            0 000 00 00: Depth
LTEN.lb                       : Surface Line Tension
DCAL.in                       : CDL Caliper
RHOB.g/cc                     : CDL Bulk Density
RHOC.g/cc                     : CDL Density Correction
DPOR.pu                       : CDL Density Porosity
GR.GAPI                       : Gamma Ray
NPOR.pu                       : Neutron Porosity
~Parameter Information Block
~A  Depth       LTEN        DCAL        RHOB        RHOC        DPOR         GR         NPOR    
# ...
   822.8000    955.3251      7.9774      2.5569      0.0684      5.6400     93.7696     19.3671
   822.9000    955.3251      7.9774      2.5378      0.0195      6.8003     89.7357     19.2146
   823.0000    934.8106      7.9602      2.5289      0.0618      7.3422     83.4068     19.8700
   823.1000    934.8106      7.9602      2.5258      0.0749      7.5248     80.6176     20.9585
   823.2000    934.8106      7.9602      2.5129      0.0775      8.3102     84.7054     21.5910
   823.3000    900.6540      7.9847      2.4875      0.0462      9.8480     93.2687     21.7875
   823.4000    900.6540      7.9847      2.4652      0.0398     11.1985    102.1353     22.5777
   823.5000    890.3179      7.9708      2.4652      0.0544     11.2008    109.9737     23.7134
   823.6000    890.3179      7.9708      2.4954      0.1127      9.3676    117.1520     24.1066
   823.7000    890.3179      7.9708      2.5391      0.1699      6.7229    124.3778     23.9086
   823.8000    925.8612      7.9608      2.5650      0.2054      5.1532    130.4834     23.9695
   823.9000    925.8612      7.9608      2.5653      0.1679      5.1315    131.4548     24.7799
   824.0000    898.1041      7.9603      2.5614      0.1515      5.3690    127.6838     25.8947
   824.1000    898.1041      7.9603      2.5681      0.1627      4.9664    124.5324     26.1902
   824.2000    898.1041      7.9603      2.5778      0.1921      4.3769    122.7745     25.7613
   824.3000    923.1162      8.0070      2.5773      0.1969      4.4089    120.6577     25.2539
   824.4000    923.1162      8.0070      2.5643      0.1558      5.1913    121.8987     24.7834
   824.5000    890.0538      8.0516      2.5534      0.1054      5.8539    130.6492     24.6187
   824.6000    890.0538      8.0516      2.5557      0.1226      5.7167    137.4179     24.6221
   824.7000    890.0538      8.0516      2.5643      0.0751      5.1962    131.9561     24.0064
   824.8000    923.6158      8.0203      2.5715      0.0787      4.7604    122.1712     22.8219
   824.9000    923.6158      8.0203      2.5733      0.0871      4.6481    117.3276     21.7607
   825.0000    918.2448      8.0674      2.5645      0.0634      5.1839    117.3925     20.9075
   825.1000    918.2448      8.0674      2.5453      0.0691      6.3467    120.2484     20.4360
   825.2000    918.2448      8.0674      2.5211      0.0580      7.8129    122.2422     20.3830
   825.3000    926.9735      8.0705      2.4999      0.0128      9.0950    119.7546     20.5390
   825.4000    926.9735      8.0705      2.4915     -0.0039      9.6084    112.0808     20.9865
   825.5000    890.7132      8.0625      2.4949      0.0252      9.4024    104.8289     21.2044
   825.6000    890.7132      8.0625      2.4985      0.0787      9.1834    104.1704     20.6706
   825.7000    890.7132      8.0625      2.4976      0.0185      9.2382    105.1426     20.0434
   825.8000    925.6553      8.0696      2.5025      0.0210      8.9401    103.5437     20.1114
   825.9000    925.6553      8.0696      2.5222     -0.0004      7.7426    103.4174     20.6520
   826.0000    871.9562      8.0651      2.5484      0.0683      6.1596    106.2698     20.7835
   826.1000    871.9562      8.0651      2.5612      0.0706      5.3799    110.7695     20.2738
   826.2000    871.9562      8.0651      2.5542      0.0268      5.8055    115.4882     19.7929
   826.3000    893.9224      8.0732      2.5390      0.0550      6.7264    117.3419     19.9061
   826.4000    893.9224      8.0732      2.5289      0.0196      7.3390    114.5380     20.4511
   826.5000    890.5923      8.0757      2.5283      0.0557      7.3763    111.6941     21.0300
   826.6000    890.5923      8.0757      2.5316      0.0593      7.1729    115.1016     21.5986
   826.7000    890.5923      8.0757      2.5291      0.0863      7.3286    121.0381     22.1975
   826.8000    881.8170      8.0910      2.5181      0.0854      7.9944    120.7851     22.8340
   826.9000    881.8170      8.0910      2.5074      0.0547      8.6454    116.7433     23.2269
   827.0000    919.8965      8.0986      2.5054      0.0296      8.7612    118.7070     23.3142
   827.1000    919.8965      8.0986      2.5103      0.0699      8.4660    128.2475     23.4996
   827.2000    919.8965      8.0986      2.5079      0.0884      8.6091    135.5051     23.9863
   827.3000    901.3764      8.1117      2.4911      0.0420      9.6296    131.9508     24.5219
   827.4000    901.3764      8.1117      2.4759      0.0157     10.5524    123.4545     24.8875
   827.5000    852.4635      8.1188      2.4773      0.0154     10.4670    121.6503     25.1201
   827.6000    852.4635      8.1188      2.4853      0.0836      9.9822    130.7492     25.3081
   827.7000    852.4635      8.1188      2.4745      0.0861     10.6380    148.0067     25.6003
   827.8000    860.4470      8.1208      2.4301      0.0517     13.3269    161.4776     25.9129
   827.9000    860.4470      8.1208      2.3533      0.0342     17.9816    158.1620     26.0102
   828.0000    895.2888      8.1171      2.2559      0.0001     23.8857    143.7345     25.9872
   828.1000    895.2888      8.1171      2.1657     -0.0567     29.3521    133.8445     26.2196
   828.2000    895.2888      8.1171      2.1078     -0.0473     32.8626    131.4632     26.8190
   828.3000    973.2318      8.1353      2.0812     -0.0288     34.4729    130.6161     27.1875
   828.4000    973.2318      8.1353      2.0773     -0.0144     34.7092    129.5129     26.9842
   828.5000    932.4495      8.1573      2.0958      0.0103     33.5893    130.0363     27.0920
   828.6000    932.4495      8.1573      2.1313      0.1474     31.4391    132.7443     27.9716
   828.7000    932.4495      8.1573      2.1694      0.1607     29.1252    133.9759     28.8491
   828.8000    901.3550      8.1558      2.2010      0.1882     27.2141    135.4615     29.3278
   828.9000    901.3550      8.1558      2.2252      0.1335     25.7467    143.0134     29.5649
   829.0000    972.8167      8.1639      2.2482      0.0726     24.3526    150.3705     29.6088
   829.1000    972.8167      8.1639      2.2779      0.0244     22.5520    149.6457     29.5979
   829.2000    972.8167      8.1639      2.3147      0.0593     20.3208    146.1773     29.8452
   829.3000    926.9992      8.1450      2.3442      0.0969     18.5309    145.1433     30.1314
   829.4000    926.9992      8.1450      2.3516      0.1105     18.0831    143.8630     29.9126
   829.5000    887.9419      8.1503      2.3422      0.0816     18.6523    141.8625     29.1705
   829.6000    887.9419      8.1503      2.3337      0.0574     19.1721    138.6974     28.4309
   829.7000    887.9419      8.1503      2.3390      0.0287     18.8461    134.3777     28.0789
   829.8000    857.3056      8.1644      2.3607      0.0588     17.5313    133.0557     27.8859
   829.9000    857.3056      8.1644      2.3926      0.1106     15.5989    131.8381     27.5611
   830.0000    837.0231      8.1586      2.4300      0.1191     13.3362    127.9141     27.4944
   830.1000    837.0231      8.1586      2.4658      0.1904     11.1660    127.6185     28.0011
   830.2000    837.0231      8.1586      2.4873      0.2235      9.8628    129.9688     28.2638
   830.3000    854.1556      8.1588      2.4967      0.2219      9.2896    127.3857     27.9523
   830.4000    854.1556      8.1588      2.5055      0.2209      8.7591    122.8061     28.1497
   830.5000    841.6470      8.1544      2.5065      0.2404      8.6982    123.9862     29.1689
   830.6000    841.6470      8.1544      2.4924      0.1918      9.5531    125.2745     30.2886
   830.7000    841.6470      8.1544      2.4715      0.1912     10.8155    120.4952     31.0036
   830.8000    861.8480      8.1709      2.4497      0.1693     12.1367    118.3279     30.9870
   830.9000    861.8480      8.1709      2.4314      0.1359     13.2460    123.3178     30.4658
   831.0000    869.6484      8.1633      2.4235      0.1188     13.7263    127.0452     30.2416
   831.1000    869.6484      8.1633      2.4287      0.1063     13.4139    123.9504     30.3362
