~Version Information
VERS.                      2.0: CWLS Log ASCII Standard - VERSION 2.0
WRAP.                       NO: One line per depth step
~Well Information Block
STRT.FT               550.0000: 
STOP.FT              2042.5000: 
STEP.FT                 0.2500: 
NULL.                -999.2500: 
COMP.          Petrogulf Corporation: COMPANY
WELL.          Robinson 15-12V: WELL
FLD.           Purgatorie River: FIELD
LOC.           1788' FNL & 466' FWL: LOCATION
PROV.                 Colorado: PROVINCE
CNTY.               Las Animas: COUNTRY
SRVC.                Patterson: SERVICE COMPANY
DATE.          Mon Sep 12 10:04:59 2005: LOG DATE
UWI.                          : UNIQUE WELL ID
~Curve Information Block
DEPT.FT            0 000 00 00: Depth
SP.mV                         : DIL Spontaneous Potential
RILD.Ohm-m                    : DIL Deep Resistivity
RILM.Ohm-m                    : DIL Medium Resistivity
RLL3.Ohm-m                    : DIL Shallow Resistivity
GR.GAPI                       : Gamma Ray
~Parameter Information Block
~A  Depth        SP         RILD        RILM        RLL3         GR     
# ...
  1026.0000    131.5474     13.8576     16.3728     18.8168    142.0161
  1026.2500    130.9996     13.2758     17.1876     18.8537    142.4047
  1026.5000    131.8238     13.1015     17.0283     19.3113    135.7832
  1026.7500    132.1089     12.5766     16.0770     18.7718    139.7478
  1027.0000    132.2212     12.3819     15.4614     18.1883    149.5574
  1027.2500    133.3004     12.5179     14.6299     17.8135    147.3387
  1027.5000    134.1721     12.2034     13.2768     16.3454    146.2667
  1027.7500    133.6967     12.1710     12.2867     14.0849    154.6381
  1028.0000    134.4888     12.0054     11.3216     11.1651    172.0084
  1028.2500    134.6722     12.1373     11.0343      9.4745    171.3010
  1028.5000    133.9598     12.4234     10.6602      8.8794    177.9648
  1028.7500    134.2457     12.5902     10.8272      8.7290    179.3092
  1029.0000    134.4675     12.8736     11.4066      8.9706    167.5384
  1029.2500    134.0501     12.9752     11.9254      9.9586    172.8731
  1029.5000    134.2536     12.5512     12.6066     11.3198    154.2087
  1029.7500    134.7442     12.5720     13.4182     14.8538    141.1659
  1030.0000    133.9425     12.7250     14.9461     28.8974    113.9290
  1030.2500    134.6144     12.6208     16.0665     55.6619     91.5335
  1030.5000    135.2589     12.4974     17.0491     75.4343     84.9745
  1030.7500    134.4335     12.4493     17.6656     95.9270     76.9241
  1031.0000    134.6385     12.4258     16.8294     83.0429     93.6960
  1031.2500    135.2896     12.5587     16.5577     52.7249    103.7884
  1031.5000    135.0883     13.0365     15.3798     20.1447    129.4931
  1031.7500    135.0139     13.1966     14.8322     12.5523    150.7485
  1032.0000    135.6052     13.0374     13.9604     10.7576    170.2745
  1032.2500    135.5708     13.0630     13.1586     10.6923    177.7054
  1032.5000    135.7309     12.7951     12.7610     10.6879    188.1053
  1032.7500    136.1135     12.6245     12.2701     10.5282    195.8972
  1033.0000    136.2870     12.2562     11.7744     10.3427    195.0407
  1033.2500    136.9344     12.0777     11.7372      9.9254    189.0979
  1033.5000    136.8566     11.4841     11.5880      9.7083    190.8627
  1033.7500    136.3898     10.7438     11.2854     10.0030    194.0475
  1034.0000    136.9492     10.8426     11.1079     10.6744    190.5630
  1034.2500    136.9353     10.5813     11.1247     12.0680    186.5926
  1034.5000    136.3711     10.5217     11.0557     12.4365    178.4319
  1034.7500    137.0972     10.2969     11.1553     11.9551    174.2892
  1035.0000    136.5996     10.1323     11.0529     11.7067    185.0760
  1035.2500    136.0740     10.1596     10.7168     11.8272    181.0168
  1035.5000    136.4770     10.2123     10.7200     11.8597    187.1943
  1035.7500    136.0383     10.4251     10.6436     11.7017    180.4333
  1036.0000    136.2858     10.7240     10.7868     11.3443    184.3476
  1036.2500    137.1030     10.5873     10.9515     11.3028    168.7691
  1036.5000    136.6613     10.9117     11.0769     11.1299    163.1808
  1036.7500    137.3239     10.8738     11.2458     11.0697    170.1263
  1037.0000    137.7429     10.9914     11.1479     10.9341    178.9144
  1037.2500    137.3987     10.8177     11.3994     10.3870    179.6336
  1037.5000    138.0187     11.0755     12.0523     10.4644    170.2478
  1037.7500    138.8578     10.9215     11.7703     11.2844    176.1982
  1038.0000    138.6749     10.8996     11.8646     12.3607    165.8826
  1038.2500    138.6463     10.7233     12.0433     13.1636    159.4716
  1038.5000    139.1825     10.6427     12.1296     13.3546    170.0030
  1038.7500    138.4164     10.5103     12.0321     12.9949    170.6214
  1039.0000    137.9339     10.4897     11.6456     12.4209    165.6187
  1039.2500    138.1053     10.2817     11.4294     11.7852    176.2237
  1039.5000    137.7657     10.4668     11.0296     11.2724    171.7190
  1039.7500    137.1528     10.4470     10.5948     10.8398    174.5219
  1040.0000    137.6189     10.4791     10.5887     10.0798    175.7000
  1040.2500    137.6967     10.8607     10.3036      9.5852    178.7639
  1040.5000    137.4583     10.9586     10.2868      9.7321    173.5902
  1040.7500    138.1106     11.0799     10.2371      9.8037    170.1913
  1041.0000    137.9926     11.4315     10.7200      9.9347    171.6674
  1041.2500    138.7364     11.3414     10.9012     10.0759    165.9603
  1041.5000    139.1270     11.7239     11.3792     10.4538    155.7735
  1041.7500    138.1656     11.9819     12.0994     11.1395    146.2851
  1042.0000    138.5148     11.8877     12.6417     11.9090    135.2356
  1042.2500    138.5202     11.9891     13.4607     13.8224    128.7666
  1042.5000    137.7936     11.9908     14.3901     19.2705    135.2237
  1042.7500    138.1857     11.9655     15.1299     28.0007    126.2010
  1043.0000    137.3036     12.3047     15.9040     31.6791    134.9971
  1043.2500    138.0007     12.1507     15.7600     25.3471    145.2811
  1043.5000    138.5751     12.5309     15.3420     18.6190    141.1035
  1043.7500    137.9309     12.4783     14.8922     15.0968    139.1576
  1044.0000    138.7668     12.4864     14.2435     13.4870    151.2302
  1044.2500    140.1396     12.4060     13.9920     13.6611    150.7737
  1044.5000    140.0497     12.4304     13.7159     14.1521    159.6127
  1044.7500    140.3878     12.0526     12.7787     13.8914    154.4502
  1045.0000    140.8622     12.5914     12.4383     11.7336    169.5964
  1045.2500    140.2395     12.5834     11.8355      9.9284    174.9269
  1045.5000    139.7966     12.6198     11.5098      8.7941    179.8336
  1045.7500    140.3700     12.6330     11.6903      8.7702    175.9685
  1046.0000    140.6247     12.9295     12.2610      9.4522    156.7020
  1046.2500    140.4742     12.7148     13.1673     12.4787    138.2681
  1046.5000    140.9840     12.3318     13.7684     18.0044    107.6484
  1046.7500    140.3293     11.5741     14.6866     27.7407     99.5831
  1047.0000    140.3697     11.5351     15.3639     39.3389    106.1564
  1047.2500    140.6190     11.4035     14.8540     50.9461    111.5937
  1047.5000    140.2304     10.9737     14.0531     45.8721    112.2537
  1047.7500    140.9523     11.0770     13.4589     25.1509    124.7161
  1048.0000    140.5506     11.2383     12.6462     16.7207    150.1666
  1048.2500    140.4583     11.0387     11.9162     12.2299    168.3118
  1048.5000    141.0208     11.3975     11.9075      9.2795    175.2324
  1048.7500    140.7397     11.5923     11.3902      9.0220    178.3554
  1049.0000    140.4159     11.5043     11.1752     10.0798    180.8299
  1049.2500    141.1910     11.1090     11.0168     10.5469    175.2555
  1049.5000    140.4759     10.9444     10.9674      9.8257    181.6039
  1049.7500    140.7690     11.1523     10.5937      9.5411    180.4719
  1050.0000    141.4406     10.7466     10.6033      9.9530    173.0121
  1050.2500    140.6209     10.2847     10.6937     10.8329    171.3082
  1050.5000    140.9965     10.1099     10.8759     11.7659    166.1227
  1050.7500    141.2999     10.1448     10.7815     11.8909    168.4585
  1051.0000    140.9959     10.1942     10.7037     11.9814    174.5936
  1051.2500    141.7427     10.1482     10.8332     12.0101    168.3152
  1051.5000    141.4367     10.3450     10.7458     11.8612    163.5348
  1051.7500    140.9634     10.4446     10.7472     11.3092    162.5756
  1052.0000    141.4311     10.5545     11.2020     10.9114    166.6497
  1052.2500    140.7113     10.8293     11.1410     11.1933    150.9308
  1052.5000    139.9962     10.8161     11.2358     11.4644    153.6200
  1052.7500    140.3478     10.8382     11.3911     12.3704    156.7596
  1053.0000    140.1127     10.4646     12.0187     13.0356    155.3424
  1053.2500    140.0281     10.5443     11.7131     14.4537    162.9661
  1053.5000    140.6414     10.5219     11.2870     16.4638    159.8125
  1053.7500    140.2814     10.6643     10.8972     15.4171    167.3957
