~Version Information
VERS.                      2.0: CWLS Log ASCII Standard - VERSION 2.0
WRAP.                       NO: One line per depth step
~Well Information Block
STRT.FT               906.0000: 
STOP.FT              1960.5000: 
STEP.FT                 0.2500: 
NULL.                -999.2500: 
COMP.          Petrogulf Corporation: COMPANY
WELL.            Torcom 17-33R: WELL
FLD.           Purgatorie River: FIELD
LOC.           1483' FSL & 1804' FEL: LOCATION
PROV.                 Colorado: PROVINCE
CNTY.               Las Animas: COUNTRY
SRVC.                Patterson: SERVICE COMPANY
DATE.          Thu Aug 18 08:33:01 2005: LOG DATE
UWI.                071 08069 : UNIQUE WELL ID
~Curve Information Block
DEPT.FT            0 000 00 00: Depth
SP.mV                         : DIL Spontaneous Potential
RILD.Ohm-m                    : DIL Deep Resistivity
RILM.Ohm-m                    : DIL Medium Resistivity
RLL3.Ohm-m                    : DIL Shallow Resistivity
GR.GAPI                       : Gamma Ray
~Parameter Information Block
~A  Depth        SP         RILD        RILM        RLL3         GR     
# ...
  1746.0000    114.0995     40.2669     46.9567     44.2643     78.7318
  1746.2500    115.6268     38.8354     50.2367     47.0779     84.4028
  1746.5000    117.6638     39.0561     47.7980     50.5637     75.3917
  1746.7500    119.2013     38.6731     48.8564     50.8573     70.5890
  1747.0000    119.0560     37.9602     50.8273     48.2722     72.8071
  1747.2500    119.2744     38.0281     48.6565     45.5132     73.5992
  1747.5000    119.7992     38.5652     48.4844     42.3778     78.8458
  1747.7500    119.4297     36.9427     48.9670     39.7253     69.6168
  1748.0000    118.7075     35.1632     46.9560     38.6674     59.0965
  1748.2500    118.7319     32.7338     47.7905     39.6648     55.3379
  1748.5000    121.0359     31.3646     48.1853     42.5189     61.4851
  1748.7500    123.8316     29.3447     46.9637     44.7550     61.6436
  1749.0000    127.3078     26.2027     45.4006     46.0235     69.4446
  1749.2500    130.7537     23.2073     42.2337     47.3017     65.7474
  1749.5000    132.5468     21.0993     37.5952     46.9452     80.4487
  1749.7500    133.5626     19.2964     31.2780     43.8568     82.5006
  1750.0000    134.9669     17.8538     26.2605     38.0348     93.6575
  1750.2500    137.6033     16.2136     22.2187     28.3799     97.8656
  1750.5000    140.3710     14.8558     18.9663     18.0195    102.0565
  1750.7500    143.8958     13.4539     16.5091     14.1125    111.5389
  1751.0000    147.0406     12.5421     14.8017     13.4175    110.6080
  1751.2500    148.9501     11.5333     13.3557     13.6078    112.1320
  1751.5000    148.7594     10.6329     12.3085     13.7666    122.3264
  1751.7500    147.6540      9.9218     11.3500     13.9846    122.4263
  1752.0000    146.6666      9.3331     10.3991     13.4394    126.8993
  1752.2500    146.3595      8.6326      9.5913     12.6551    126.2451
  1752.5000    148.2740      8.2569      8.9023     11.6254    127.8616
  1752.7500    149.3834      7.8866      8.3349     11.1724    128.6808
  1753.0000    149.6497      7.6281      7.9484     10.6690    129.7141
  1753.2500    149.5327      7.4023      7.6971     10.1967    134.3062
  1753.5000    148.9860      7.2260      7.5339     10.0831    135.6964
  1753.7500    148.3307      7.0996      7.4934     10.0105    132.6593
  1754.0000    148.1256      6.9806      7.4590     10.2610    131.5237
  1754.2500    149.2152      6.8286      7.4333     10.9587    143.4544
  1754.5000    150.0864      6.8334      7.4837     11.5700    134.7888
  1754.7500    150.1826      6.8255      7.5060     11.1388    133.6740
  1755.0000    150.0291      6.7850      7.5286     10.6791    137.4045
  1755.2500    150.1997      6.7802      7.6595     10.6963    130.0151
  1755.5000    151.4229      6.7878      7.7099     10.6398    127.2012
  1755.7500    152.7782      6.7968      7.8721     11.2219    122.5012
  1756.0000    153.5936      6.7833      8.0217     12.0503    123.7036
  1756.2500    153.2682      6.7413      8.1041     12.3897    126.3555
  1756.5000    153.1864      6.7048      8.0797     12.5428    132.7538
  1756.7500    153.5413      6.6381      7.9400     12.7521    133.0212
  1757.0000    153.5389      6.5743      7.7683     12.4188    128.3026
  1757.2500    153.5794      6.4917      7.7016     11.2427    128.9066
  1757.5000    153.0754      6.4032      7.5620     10.0701    132.4871
  1757.7500    152.1624      6.3395      7.4567      9.9882    136.7505
  1758.0000    151.4310      6.2201      7.3827      9.8030    140.4637
  1758.2500    151.0456      6.1633      7.2126      9.9817    141.1662
  1758.5000    150.7729      6.0435      7.0532      9.8569    134.6608
  1758.7500    149.2715      5.9784      6.8912      9.6153    131.8582
  1759.0000    147.4541      5.9313      6.7587      9.0076    138.5264
  1759.2500    146.0136      5.8719      6.6549      9.2861    138.7265
  1759.5000    142.8090      5.8422      6.6468      9.3477    132.6091
  1759.7500    139.9996      5.7966      6.6213      9.4761    129.6683
  1760.0000    137.8608      5.8137      6.6943      9.7869    126.4964
  1760.2500    138.2232      5.8428      6.7259     10.0310    130.5135
  1760.5000    138.0990      5.8798      6.7673     10.2135    126.4539
  1760.7500    136.8690      5.9089      6.8517     10.0559    124.6898
  1761.0000    135.2646      5.9507      6.9857     10.0560    129.9515
  1761.2500    133.5312      6.0019      7.0953     10.2755    131.5352
  1761.5000    131.3221      6.1008      7.2566     10.5860    130.7633
  1761.7500    130.3339      6.1601      7.4627     10.6525    128.1893
  1762.0000    129.9212      6.2639      7.6999     10.1655    125.0353
  1762.2500    129.3970      6.3004      7.8550      9.7290    135.3663
  1762.5000    129.6450      6.4038      7.9943      9.2816    125.0661
  1762.7500    131.2711      6.4913      8.0135      9.3769    128.5326
  1763.0000    133.3993      6.5387      8.0601     10.3128    133.3684
  1763.2500    133.5458      6.6501      8.1928     11.6631    139.1313
  1763.5000    132.8852      6.7572      8.2929     12.6670    137.3384
  1763.7500    133.1549      6.8034      8.3599     13.3134    135.0849
  1764.0000    132.1372      6.8557      8.3776     13.3109    140.6575
  1764.2500    133.0836      6.9183      8.3985     12.9347    145.8805
  1764.5000    136.8592      6.9920      8.3912     11.7498    135.3185
  1764.7500    141.0460      7.0649      8.4144     10.8140    129.1006
  1765.0000    142.6467      7.1432      8.5229     10.5967    142.9458
  1765.2500    142.6826      7.2743      8.6143     10.8036    137.2234
  1765.5000    142.8745      7.4268      8.7598     11.1600    142.9834
  1765.7500    142.5118      7.5474      8.9688     11.3561    145.2788
  1766.0000    142.0603      7.6172      9.1718     11.8186    132.8835
  1766.2500    141.8728      7.7221      9.3740     11.8594    120.7419
  1766.5000    142.0031      7.6775      9.4618     12.0484    121.4525
  1766.7500    142.0835      7.7952      9.7016     12.2323    112.4230
  1767.0000    141.5523      7.7649      9.8726     12.8143    114.9879
  1767.2500    140.7659      7.8257     10.0440     13.3901    116.3354
  1767.5000    140.0389      7.8454     10.0855     13.4790    126.8536
  1767.7500    139.5150      7.8702     10.0745     13.3029    131.7108
  1768.0000    138.6988      7.7694      9.9704     13.2534    124.9946
  1768.2500    139.2971      7.7969      9.9247     13.0215    127.0535
  1768.5000    139.5775      7.7735      9.8956     12.6134    136.7184
  1768.7500    139.1066      7.8088      9.7955     12.4209    142.3753
  1769.0000    138.5258      7.7624      9.6369     12.3504    134.2567
  1769.2500    137.4773      7.6534      9.4427     12.2490    139.6029
  1769.5000    136.8807      7.6092      9.3184     11.8161    140.4966
  1769.7500    136.8558      7.5693      9.0931     11.2551    138.6999
  1770.0000    137.1716      7.5753      8.9373     10.7952    152.4331
  1770.2500    137.6521      7.5687      8.8369     10.8432    147.5692
  1770.5000    139.7662      7.6058      8.7610     11.0082    143.9366
  1770.7500    142.4893      7.5908      8.7263     11.4212    154.6185
  1771.0000    143.6327      7.6283      8.7822     11.1219    156.3303
  1771.2500    143.0968      7.6824      8.8544     11.4253    151.8989
  1771.5000    142.3616      7.7447      9.0415     11.4844    151.7375
  1771.7500    141.3029      7.7835      9.1577     11.8455    150.7802
  1772.0000    140.2245      7.8035      9.3537     11.5511    152.2489
  1772.2500    139.0119      7.8058      9.6463     11.3614    154.3366
  1772.5000    138.0982      7.7526     10.0358     12.3895    139.1249
  1772.7500    138.6086      7.7140     10.3505     17.2067    119.9740
  1773.0000    140.9863      7.6937     10.4227     28.0720    116.8652
  1773.2500    143.1003      7.8392     10.2685     32.9815    121.0661
  1773.5000    144.8341      7.9586      9.9505     21.6314    130.2799
  1773.7500    145.1333      8.1335      9.5594     13.5358    138.1835
