~Version Information
VERS.                      2.0: CWLS Log ASCII Standard - VERSION 2.0
WRAP.                       NO: One line per depth step
~Well Information Block
STRT.FT                -9.0000: 
STOP.FT              2130.0000: 
STEP.FT                 0.2500: 
NULL.                -999.2500: 
COMP.          Pioneer Natural Resources: COMPANY
WELL.               King 22-13: WELL
FLD.           Purgatorie River: FIELD
LOC.           2419' FNL & 1806' FWL: LOCATION
PROV.                 Colorado: PROVINCE
CNTY.               Las Animas: COUNTRY
SRVC.                Patterson: SERVICE COMPANY
DATE.          Wed Apr 20 09:20:28 2005: LOG DATE
UWI.           05-071-08318-00: UNIQUE WELL ID
~Curve Information Block
DEPT.FT            0 000 00 00: Depth
CCL.                          : Casing Collar Locator
TT3.usec                      : CBL 3' Travel Time
AMP3.mV                       : CBL 3' Amplitude
GR.GAPI                       : Gamma Ray
~Parameter Information Block
~A  Depth       CCL         TT3         AMP3         GR     
    -9.0000   -999.2500   -999.2500   -999.2500   -999.2500
    -8.7500   -999.2500   -999.2500   -999.2500     99.2141
    -8.5000   -999.2500   -999.2500   -999.2500     95.6949
    -8.2500   -999.2500   -999.2500   -999.2500     91.6311
    -8.0000   -999.2500   -999.2500   -999.2500     88.2359
    -7.7500   -999.2500   -999.2500   -999.2500     85.3292
    -7.5000   -999.2500   -999.2500   -999.2500     82.1967
    -7.2500   -999.2500   -999.2500   -999.2500     78.6901
    -7.0000   -999.2500   -999.2500   -999.2500     75.4397
    -6.7500   -999.2500   -999.2500   -999.2500     73.4917
    -6.5000   -999.2500   -999.2500   -999.2500     73.6598
    -6.2500   -999.2500   -999.2500   -999.2500     75.7555
    -6.0000   -999.2500   -999.2500   -999.2500     78.4088
    -5.7500   -999.2500   -999.2500   -999.2500     79.8112
    -5.5000   -999.2500   -999.2500   -999.2500     78.6865
    -5.2500   -999.2500   -999.2500   -999.2500     74.8245
    -5.0000   -999.2500   -999.2500   -999.2500     69.1763
    -4.7500   -999.2500   -999.2500   -999.2500     63.5150
    -4.5000   -999.2500   -999.2500   -999.2500     59.6038
    -4.2500   -999.2500   -999.2500   -999.2500     58.2410
    -4.0000   -999.2500   -999.2500   -999.2500     58.9420
    -3.7500   -999.2500   -999.2500   -999.2500     60.6349
    -3.5000   -999.2500   1470.0000      1.2790     62.6307
    -3.2500   -999.2500   1470.0000      1.2806     64.7604
    -3.0000   -999.2500   1470.0000      1.2812     66.7543
    -2.7500   -999.2500   1470.0000      1.2831     68.1098
    -2.5000   -999.2500   1470.0000      1.2875     68.7848
    -2.2500   -999.2500   1470.0000      1.2918     69.2979
    -2.0000   -999.2500   1470.0000      1.2910     69.6295
    -1.7500   -999.2500   1470.0000      1.2840     68.7028
    -1.5000   -999.2500   1470.0000      1.2760     65.5573
    -1.2500   -999.2500   1470.0000      1.2712     60.5537
    -1.0000   -999.2500   1470.0000      1.2674     54.9756
    -0.7500   -999.2500   1470.0000      1.2584     49.8009
    -0.5000   -999.2500   1470.0000      1.2419     45.1335
    -0.2500   -999.2500   1470.0000      1.2234     40.6478
     0.0000   -999.2500   1470.0000      1.2119     36.4492
     0.2500   -999.2500   1470.0000      1.2183     33.5046
     0.5000   -999.2500   1470.0000      1.2237     33.0821
     0.7500   -999.2500   1470.0000      1.2220     35.6037
     1.0000   -999.2500   1470.0000      1.2134     40.1282
     1.2500   -999.2500   1470.0000      1.2031     45.0961
     1.5000   -999.2500   1470.0000      1.1984     49.4453
     1.7500   -999.2500   1470.0000      1.2045     52.8504
     2.0000      0.0000   1470.0000      1.2206     55.1857
     2.2500      0.0000   1470.0000      1.2415     56.2969
     2.5000      0.0000   1470.0000      1.2623     56.3678
     2.7500      0.0000   1470.0000      1.2807     56.1521
     3.0000      0.0000   1470.0000      1.2923     56.5722
     3.2500      0.0000   1470.0000      1.2912     57.9603
     3.5000      0.0000   1470.0000      1.2756     59.6365
     3.7500      0.0000   1470.0000      1.2529     60.4531
     4.0000      0.0000   1470.0000      1.2350     60.0106
     4.2500      0.0000   1470.0000      1.2295     59.1703
     4.5000      0.0000   1470.0000      1.2359     59.0031
     4.7500      0.0000   1470.0000      1.2472     59.3762
     5.0000      0.0000   1470.0000      1.2561     59.0749
     5.2500      0.0000   1470.0000      1.2611     57.3595
     5.5000      0.0000   1470.0000      1.2668     54.8672
     5.7500      0.0000   1470.0000      1.2778     52.6363
     6.0000      0.0000   1470.0000      1.2924     50.7206
     6.2500      0.0000   1470.0000      1.3031     48.3592
     6.5000      0.0000   1470.0000      1.3043     45.2843
     6.7500      0.0000   1470.0000      1.2984     42.3158
     7.0000      0.0000   1470.0000      1.2930     40.6635
     7.2500      0.0000   1470.0000      1.2936     40.9397
     7.5000      0.0000   1470.0000      1.2983     42.9220
     7.7500      0.0000   1470.0000      1.3000     45.9924
     8.0000      0.0000   1470.0000      1.2940     49.4714
     8.2500      0.0000   1470.0000      1.2824     52.6249
     8.5000      0.0000   1470.0000      1.2721     54.8644
     8.7500      0.0000   1470.0000      1.2681     56.1817
     9.0000      0.0000   1470.0000      1.2703     57.0578
     9.2500      0.0000   1470.0000      1.2729     57.7312
     9.5000      0.0000   1470.0000      1.2693     57.7782
     9.7500      0.0000   1470.0000      1.2561     56.5669
    10.0000      0.0000   1470.0000      1.2363     53.9845
    10.2500      0.0000   1470.0000      1.2182     50.6293
    10.5000      0.0000   1470.0000      1.2088     47.3383
    10.7500      0.0000   1470.0000      1.2062     44.5687
    11.0000      0.0000   1470.0000      1.2027     42.2393
    11.2500      0.0000   1469.9634      1.1968     40.0977
    11.5000      0.0000   1469.7268      1.2055     38.1217
    11.7500      0.0000   1468.5184      1.2810     36.5891
    12.0000      0.0000   1463.7737      1.5422     35.9005
    12.2500      0.0000   1449.2061      2.1951     36.3105
    12.5000      0.0000   1414.5569      3.4621     37.5819
    12.7500      0.0000   1350.9907      5.3961     38.8172
    13.0000     -5.0000   1261.9773      7.7459     38.8817
    13.2500     -5.0000   1168.7314     10.0725     37.4026
    13.5000      0.0000   1098.1477     12.0497     35.4247
    13.7500      0.0000   1060.8608     13.6630     34.6342
    14.0000      0.0000   1044.1746     15.1399     35.5753
    14.2500      0.0000   1028.5665     16.6914     36.9584
    14.5000      0.0000   1006.7680     18.2768     37.1375
    14.7500      0.0000    985.8814     19.6065     35.9567
    15.0000      0.0000    979.2201     20.3893     34.6530
    15.2500      0.0000   1000.5815     20.5490     34.2285
    15.5000      0.0000   1058.6339     20.2066     34.5915
    15.7500      0.0000   1147.5919     19.5424     35.1779
    16.0000      0.0000   1243.0282     18.7162     35.7057
    16.2500      0.0000   1313.0763     17.8570     36.2455
    16.5000      0.0000   1339.6624     17.0615     37.0283
    16.7500      0.0000   1330.0626     16.3782     38.2464
    17.0000      0.0000   1306.8490     15.7969     39.7387
    17.2500      0.0000   1287.1727     15.2650     40.9316
    17.5000      0.0000   1272.7933     14.7268     41.2832
    17.7500      0.0000   1254.7039     14.1579     40.7583
    18.0000      0.0000   1220.7797     13.5709     39.8846
    18.2500      0.0000   1164.2932     13.0019     39.4829
    18.5000      0.0000   1094.8331     12.4929     40.2004
    18.7500      0.0000   1037.7507     12.0777     41.9871
    19.0000      0.0000   1014.3093     11.7670     43.9440
    19.2500      0.0000   1023.0328     11.5417     44.7747
    19.5000      0.0000   1044.1702     11.3713     43.5054
    19.7500      0.0000   1059.3347     11.2447     40.0573
    20.0000      0.0000   1061.7263     11.1878     35.4588
    20.2500      0.0000   1052.7433     11.2514     31.4646
    20.5000      0.0000   1038.7668     11.4832     29.5896
    20.7500      0.0000   1028.5465     11.8996     30.2687
    21.0000      0.0000   1023.6827     12.4639     32.7688
    21.2500      0.0000   1013.7034     13.0874     35.8322
    21.5000      0.0000    988.3280     13.6595     38.5495
    21.7500      0.0000    951.4099     14.0959     40.7735
    22.0000      0.0000    916.7688     14.3684     42.7002
    22.2500      0.0000    893.9774     14.5003     44.2143
    22.5000      0.0000    882.9846     14.5409     44.9427
    22.7500      0.0000    879.0189     14.5416     44.9627
    23.0000      0.0000    877.9795     14.5413     45.1088
    23.2500      0.0000    877.8743     14.5624     46.3812
    23.5000      0.0000    877.9868     14.6067     49.1270
    23.7500      0.0000    878.0950     14.6514     52.7341
    24.0000      0.0000    878.1091     14.6588     55.9963
    24.2500      0.0000    878.0416     14.6110     57.9440
