~Version Information
 VERS.                                  2.0 : CWLS LAS VERSION
 WRAP.                                   NO : WRAPING MODE
 SWARE .                 MController 2.5.0J : SOFTWARE VERSION
~Well Information
 WELL.                         Norton 9-14V : WELL
 COMP.                       Petrogulf Corp : COMPANY
 FLD.                      Purgatoire River : FIELD
 LOC.                 SW/SW Sec 9 T33S R67W : LOCATION
 DATE.                             10/27/04 : DATE(S) LOGGED
 SRVC.      Blanco Geological Servivces LLC : SERVICE COMPANY
 STAT.                                   CO : STATE
 CNTY.                           Las Animas : COUNTY
 CTRY.                                  USA : COUNTRY
 API.                       05-071-07891-00 : API NUMBER
 STRT.FT                             752.00 : START DEPTH
 STOP.FT                            2427.00 : STOP DEPTH
 STEP.FT                               1.00 : DEPTH INCREMENT
 NULL.                                -9999 : NULL VALUE
~Curve information
 DEPTH.FT                                   :
 ROP.MIN/FT                                 :
 GAS.UNITS                                  :
~ASCII Log data
# ...
      2152.0         0.27         38.3 
      2153.0         0.30         37.2 
      2154.0         0.27         35.3 
      2155.0         0.27         33.8 
      2156.0         0.27         32.1 
      2157.0         0.30         29.6 
      2158.0         0.40         28.4 
      2159.0         0.33         30.0 
      2160.0         0.33         29.3 
      2161.0         0.43         28.2 
      2162.0         0.43         28.6 
      2163.0         0.45         27.8 
      2164.0         0.40         26.5 
      2165.0         0.47         25.5 
      2166.0         0.40         23.5 
      2167.0         0.43         23.5 
      2168.0         0.40         24.4 
      2169.0         0.30         25.2 
      2170.0         0.27         25.1 
      2171.0         0.27         22.7 
      2172.0         0.32         22.5 
      2173.0         0.37         22.1 
      2174.0         0.27         21.7 
      2175.0         0.27         23.9 
      2176.0         0.33         44.0 
      2177.0         0.40         42.1 
      2178.0         0.43         41.0 
      2179.0         0.30         33.2 
      2180.0         0.20         29.4 
      2181.0         0.25         29.0 
      2182.0         0.23         27.6 
      2183.0         0.23         30.4 
      2184.0         0.27         32.9 
      2185.0         0.30         36.0 
      2186.0         0.27         35.4 
      2187.0         0.23         36.6 
      2188.0         0.20         39.9 
      2189.0         0.33         44.6 
      2190.0         0.35         46.8 
      2191.0         0.30         47.8 
      2192.0         0.20         49.3 
      2193.0         0.13         51.9 
      2194.0         0.20         51.9 
      2195.0         0.13         51.3 
      2196.0         0.10         51.3 
      2197.0         0.10         49.9 
      2198.0         0.13         49.9 
      2199.0         0.17         46.4 
      2200.0         0.13         46.4 
      2201.0         0.17         43.6 
      2202.0         0.30         35.9 
      2203.0         0.33         33.8 
      2204.0         0.30         32.5 
      2205.0         0.33         36.6 
      2206.0         0.68         38.7 
      2207.0         0.47         33.3 
      2208.0         0.53         49.4 
      2209.0         0.60         27.7 
      2210.0         0.53         35.9 
      2211.0         0.33         36.0 
      2212.0         0.28         35.9 
      2213.0         0.27         34.7 
      2214.0         0.30         34.5 
      2215.0         0.30         35.4 
      2216.0         0.27         34.1 
      2217.0         0.37         34.6 
      2218.0         0.35         33.0 
      2219.0         0.30         32.1 
      2220.0         0.30         28.3 
      2221.0         0.30         28.6 
      2222.0         0.30         28.4 
      2223.0         0.33         28.5 
      2224.0         0.33         31.2 
      2225.0         0.27         32.0 
      2226.0         0.27         32.1 
      2227.0         0.23         29.5 
      2228.0         0.20         28.9 
      2229.0         0.17         28.7 
      2230.0         0.18         26.8 
      2231.0         0.20         27.6 
      2232.0         0.20         26.6 
      2233.0         0.30         27.2 
      2234.0         0.30         26.5 
      2235.0         0.33         25.1 
      2236.0         0.30         25.2 
      2237.0         0.33         47.0 
      2238.0         0.30         33.2 
      2239.0         0.33         31.3 
      2240.0         0.37         27.7 
      2241.0         0.38         33.6 
      2242.0         0.37         35.4 
      2243.0         0.40         34.4 
      2244.0         0.33         32.2 
      2245.0         0.27         32.0 
      2246.0         0.27         29.9 
      2247.0         0.47         31.4 
      2248.0         0.37         31.8 
      2249.0         0.37         31.1 
      2250.0         0.43         29.9 
      2251.0         0.40         29.5 
      2252.0         0.40         28.1 
      2253.0         0.38         26.4 
      2254.0         0.33         26.6 
      2255.0         0.37         27.1 
      2256.0         0.33         27.1 
      2257.0         0.33         25.5 
      2258.0         0.40         25.3 
      2259.0         0.43         25.5 
      2260.0         0.40         24.4 
      2261.0         0.40         26.6 
      2262.0         0.38         33.3 
      2263.0         0.37         39.9 
      2264.0         0.40         68.3 
      2265.0         0.23         51.4 
      2266.0         0.20         47.8 
      2267.0         0.20         43.7 
      2268.0         0.20         39.2 
      2269.0         0.20         35.4 
      2270.0         0.23         35.3 
      2271.0         0.20         35.3 
      2272.0         0.30         40.4 
      2273.0         0.27         47.0 
      2274.0         0.27         49.1 
      2275.0         0.28         49.5 
      2276.0         0.23         59.5 
      2277.0         0.17         59.5 
      2278.0         0.23         64.4 
      2279.0         0.33         64.1 
      2280.0         0.33         60.8 
      2281.0         0.37         58.4 
      2282.0         0.43         55.6 
      2283.0         0.37         47.8 
      2284.0         0.37         42.7 
      2285.0         0.38         42.9 
      2286.0         0.33         41.2 
      2287.0         0.30         39.6 
      2288.0         0.33         40.0 
      2289.0         0.33         38.9 
      2290.0         0.30         37.8 
      2291.0         0.27         37.1 
      2292.0         0.33         37.7 
      2293.0         0.30         36.5 
      2294.0         0.30         37.3 
      2295.0         0.30         37.5 
      2296.0         0.35         80.3 
      2297.0         0.30         44.6 
      2298.0         0.30         45.7 
      2299.0         0.33         45.4 
      2300.0         0.30         43.4 
      2301.0         0.30         42.4 
      2302.0         0.33         41.9 
      2303.0         0.30         40.4 
      2304.0         0.30         40.4 
      2305.0         0.30         40.8 
      2306.0         0.28         40.6 
      2307.0         0.28         40.8 
      2308.0         0.37         40.8 
      2309.0         0.27         40.5 
      2310.0         0.23         39.7 
      2311.0         0.47         40.0 
      2312.0         0.33         39.3 
      2313.0         0.37         38.8 
      2314.0         0.30         39.7 
      2315.0         0.30         40.4 
      2316.0         0.30         39.2 
      2317.0         0.27         36.8 
      2318.0         0.28         33.5 
      2319.0         0.23         32.7 
      2320.0         0.40         36.0 
      2321.0         0.27         38.9 
      2322.0         0.27         40.5 
      2323.0         0.27         38.4 
      2324.0         0.27         36.5 
      2325.0         0.37         59.3 
      2326.0         0.27         41.5 
      2327.0         0.27         41.0 
      2328.0         0.27         43.7 
      2329.0         0.35         48.6 
      2330.0         0.27         54.7 
      2331.0         0.27         58.1 
      2332.0         0.37         58.2 
      2333.0         0.37         55.6 
      2334.0         0.37         52.2 
      2335.0         0.30         51.0 
      2336.0         0.33         50.3 
      2337.0         0.40         47.9 
      2338.0         0.40         47.4 
      2339.0         0.37         44.2 
      2340.0         0.33         42.2 
      2341.0         0.33         40.9 
      2342.0         0.33         38.4 
      2343.0         0.35         37.7 
      2344.0         0.37         37.9 
      2345.0         0.40         36.8 
      2346.0         0.40         40.5 
      2347.0         0.40         41.9 
      2348.0         0.37         40.7 
      2349.0         0.40         38.3 
      2350.0         0.47         35.6 
      2351.0         0.48         33.5 
