~Version Information
VERS.                      2.0: CWLS Log ASCII Standard - VERSION 2.0
WRAP.                       NO: One line per depth step
~Well Information Block
STRT.FT                -9.5000: 
STOP.FT              2451.0000: 
STEP.FT                 0.2500: 
NULL.                -999.2500: 
COMP.          Petrogulf Corporation: COMPANY
WELL.           Vallejo 19-31V: WELL
FLD.           Purgatorie River: FIELD
LOC.           345' FNL & 2457' FEL: LOCATION
CNTY.               Las Animas: COUNTY
SRVC.                         : SERVICE COMPANY
DATE.          Mon Mar 08 08:24:37 2004: LOG DATE
UWI.           05-071-07919-00: UNIQUE WELL ID
STAT.                 Colorado: STATE
~Curve Information Block
DEPT.FT            0 000 00 00: Depth
MINMK.                        : Surface Line Tension
GR.GAPI                       : Gamma Ray
CCL.                          : Casing Collar Locator
TT3.usec                      : CBL 3' Travel Time
AMP3.mV                       : CBL 3' Amplitude
~Parameter Information Block
~A  Depth      MINMK         GR         CCL         TT3         AMP3    
# ...
  2258.5000      0.0000    106.3811      0.0000    680.1596      4.5456
  2258.7500      0.0000    118.1151      0.0000    671.2566      4.3872
  2259.0000      0.0000    130.1199      0.0000    664.4642      4.3434
  2259.2500      0.0000    141.3888      0.0000    658.3949      4.3589
  2259.5000      0.0000    149.3891      0.0000    649.1271      4.3890
  2259.7500      0.0000    151.7570      0.0000    639.7578      4.4625
  2260.0000      0.0000    148.8425      0.0000    638.3777      4.6018
  2260.2500      0.0000    143.7746      0.0000    644.6021      4.7736
  2260.5000      0.0000    139.5786      0.0000    649.0969      4.9269
  2260.7500      0.0000    136.5719      0.0000    645.9335      5.0133
  2261.0000      0.0000    132.9432      0.0000    637.7101      5.0312
  2261.2500      0.0000    127.5522      0.0000    630.5414      5.0471
  2261.5000      0.0000    121.4681      0.0000    628.3365      5.0960
  2261.7500      0.0000    116.6221      0.0000    632.1915      5.1169
  2262.0000      0.0000    113.6571      0.0000    641.5217      5.0497
  2262.2500      0.0000    111.6527      0.0000    653.0272      4.9189
  2262.5000      0.0000    109.5910      0.0000    661.8486      4.7785
  2262.7500      0.0000    107.6368      0.0000    665.8590      4.6519
  2263.0000      0.0000    107.2833      0.0000    666.4678      4.5339
  2263.2500      0.0000    110.5992      0.0000    665.7310      4.4022
  2263.5000      0.0000    118.7241      0.0000    664.7366      4.2444
  2263.7500      0.0000    130.4250      0.0000    663.8220      4.0648
  2264.0000      0.0000    142.5774      0.0000    662.9935      3.8591
  2264.2500      0.0000    152.5151      0.0000    662.1499      3.6424
  2264.5000      0.0000    159.4367      0.0000    661.1962      3.4537
  2264.7500      0.0000    163.4579      0.0000    660.1741      3.2998
  2265.0000      0.0000    164.2975      0.0000    659.3423      3.1758
  2265.2500      0.0000    161.4441      0.0000    659.0716      3.0917
  2265.5000      0.0000    155.0229      0.0000    660.1462      3.0445
  2265.7500      0.0000    145.9835      0.0000    664.7964      3.0396
  2266.0000      0.0000    135.6183      0.0000    676.0509      3.0857
  2266.2500      0.0000    125.1300      0.0000    691.7345      3.1536
  2266.5000      0.0000    115.6959      0.0000    700.7047      3.2116
  2266.7500      0.0000    108.7630      0.0000    694.8109      3.2504
  2267.0000      0.0000    105.5813      0.0000    679.8829      3.2525
  2267.2500      0.0000    105.8479      0.0000    664.6339      3.2045
  2267.5000      0.0000    107.0960      0.0000    650.1751      3.1160
  2267.7500      0.0000    106.2916      0.0000    636.3508      3.0154
  2268.0000      0.0000    102.4135      0.0000    626.8016      2.9369
  2268.2500      0.0000     97.1687      0.0000    625.1075      2.8904
  2268.5000      0.0000     93.0480      0.0000    631.1573      2.8637
  2268.7500      0.0000     91.0217      0.0000    640.8241      2.8535
  2269.0000      0.0000     90.2264      0.0000    648.5907      2.8715
  2269.2500      0.0000     89.4285      0.0000    651.9030      2.9242
  2269.5000      0.0000     88.3180      0.0000    652.0013      2.9999
  2269.7500      0.0000     87.4821      0.0000    651.1669      3.0931
  2270.0000      0.0000     87.5882      0.0000    650.8439      3.2164
  2270.2500      0.0000     88.7862      0.0000    651.2778      3.3969
  2270.5000      0.0000     90.7786      0.0000    650.9883      3.6579
  2270.7500      0.0000     93.2494      0.0000    646.4504      3.9636
  2271.0000      0.0000     95.9992      0.0000    635.6638      4.2255
  2271.2500      0.0000     98.6696      0.0000    623.8931      4.3741
  2271.5000      0.0000    100.5922      0.0000    619.4181      4.3976
  2271.7500      0.0000    101.1237      0.0000    621.7466      4.3474
  2272.0000      0.0000    100.1814      0.0000    623.3629      4.2875
  2272.2500      0.0000     98.3352      0.0000    620.9464      4.2361
  2272.5000      0.0000     96.1700      0.0000    615.7373      4.1949
  2272.7500      0.0000     93.6486      0.0000    609.1256      4.1743
  2273.0000      0.0000     90.3867      0.0000    604.1039      4.1586
  2273.2500      0.0000     86.6001      0.0000    604.6989      4.1343
  2273.5000      0.0000     83.4486      0.0000    610.3946      4.1445
  2273.7500      0.0000     82.1472      0.0000    615.9094      4.2579
  2274.0000      1.0000     82.7750      0.0000    617.7144      4.5168
  2274.2500      0.0000     84.1870      0.0000    618.1193      4.9184
  2274.5000      0.0000     85.1444      0.0000    623.2214      5.4215
  2274.7500      0.0000     85.3056      0.0000    636.0587      5.9773
  2275.0000      0.0000     85.1409      0.0000    652.5931      6.5519
  2275.2500      0.0000     85.3162      0.0000    666.9703      7.1388
  2275.5000      0.0000     86.2183      0.0000    676.5088      7.7359
  2275.7500      0.0000     87.6103      0.0000    679.2264      8.3222
  2276.0000      0.0000     88.7050      0.0000    672.6369      8.8700
  2276.2500      0.0000     88.9462      0.0000    659.0635      9.3063
  2276.5000      0.0000     88.7444      0.0000    647.2876      9.4769
  2276.7500      0.0000     89.1813      0.0000    644.9348      9.2459
  2277.0000      0.0000     90.9912      0.0000    652.4949      8.6578
  2277.2500      0.0000     93.9183      0.0000    664.1700      7.9236
  2277.5000      0.0000     96.8652      0.0000    672.3248      7.2325
  2277.7500      0.0000     98.5315      0.0000    672.6912      6.6407
  2278.0000      0.0000     98.1147      0.0000    666.3163      6.1029
  2278.2500      0.0000     95.7433      0.0000    659.0725      5.6082
  2278.5000      0.0000     92.3452      0.0000    658.2632      5.2530
  2278.7500      0.0000     89.0058      0.0000    665.0391      5.0303
  2279.0000      0.0000     86.4341      0.0000    673.3102      4.8097
  2279.2500      0.0000     85.0138     -5.0000    677.3785      4.6432
  2279.5000      0.0000     84.9106     -5.0000    675.3934      4.6708
  2279.7500      0.0000     85.8557      0.0000    669.3700      4.8678
  2280.0000      0.0000     87.1403      0.0000    663.9059      5.1602
  2280.2500      0.0000     88.0574      0.0000    658.6481      5.5631
  2280.5000      0.0000     88.2342      0.0000    644.5048      6.0987
  2280.7500      0.0000     87.5713      0.0000    607.1514      6.7257
  2281.0000      0.0000     86.2470      0.0000    537.7884      7.4516
  2281.2500      0.0000     84.9141      0.0000    452.8599      8.4106
  2281.5000      0.0000     84.4461      0.0000    386.5509      9.6878
  2281.7500      0.0000     85.0723      0.0000    353.8747     11.1517
  2282.0000      0.0000     85.9644      0.0000    343.6112     12.5127
  2282.2500      0.0000     86.0989      0.0000    341.4034     13.5061
  2282.5000      0.0000     85.5219      0.0000    340.9224     14.0501
  2282.7500      0.0000     85.6184      0.0000    340.6520     14.1957
  2283.0000      0.0000     88.2150      0.0000    340.4132     13.9828
  2283.2500      0.0000     94.2767      0.0000    340.3083     13.4460
  2283.5000      0.0000    102.9580      0.0000    340.4128     12.6836
  2283.7500      0.0000    111.8444      0.0000    340.6494     11.8443
  2284.0000      0.0000    118.5664      0.0000    340.9127     11.0449
  2284.2500      0.0000    122.5002      0.0000    341.4311     10.3175
  2284.5000      0.0000    124.9143      0.0000    344.0358      9.6451
  2284.7500      0.0000    127.4978      0.0000    355.6968      9.0228
  2285.0000      0.0000    130.7364      0.0000    390.6353      8.4560
  2285.2500      0.0000    133.5655      0.0000    457.9419      7.9158
  2285.5000      0.0000    134.4139      0.0000    540.4229      7.3572
  2285.7500      0.0000    132.4979      0.0000    604.9329      6.8050
  2286.0000      0.0000    128.3043      0.0000    640.2517      6.3456
  2286.2500      0.0000    123.1247      0.0000    660.1321      5.9920
