~Version Information
VERS.                      2.0: CWLS Log ASCII Standard - VERSION 2.0
WRAP.                       NO: One line per depth step
~Well Information Block
STRT.FT               483.0000: 
STOP.FT              1701.5000: 
STEP.FT                 0.1000: 
NULL.                -999.2500: 
COMP.          Pioneer Natural Resources: COMPANY
WELL.            Mad Dog 42-31: WELL
FLD.           Purgatorie River: FIELD
LOC.           2064' FNL & 479' FEL: LOCATION
PROV.                 Colorado: PROVINCE
CNTY.               Las Animas: COUNTRY
SRVC.                         : SERVICE COMPANY
DATE.          Sun Oct 10 04:38:02 2004: LOG DATE
UWI.           05 071 08195 00: UNIQUE WELL ID
~Curve Information Block
DEPT.FT            0 000 00 00: Depth
LTEN.lb                       : Surface Line Tension
DCAL.in                       : CDL Caliper
RHOB.g/cc                     : CDL Bulk Density
RHOC.g/cc                     : CDL Density Correction
DPOR.pu                       : CDL Density Porosity
GR.GAPI                       : Gamma Ray
NPOR.pu                       : Neutron Porosity
~Parameter Information Block
~A  Depth       LTEN        DCAL        RHOB        RHOC        DPOR         GR         NPOR    
# ...
   726.6000    831.0062      7.9561      2.7777      0.1488     -7.7364    131.4855     26.5356
   726.7000    831.0062      7.9561      2.8000      0.1379     -9.0932    120.6670     25.7895
   726.8000    839.1357      7.9293      2.8050      0.1081     -9.3934    108.0597     25.2006
   726.9000    839.1357      7.9293      2.8036      0.1005     -9.3070     94.3884     24.5235
   727.0000    814.8871      7.9140      2.7977      0.0908     -8.9509     86.3326     23.5170
   727.1000    814.8871      7.9140      2.7852      0.0361     -8.1961     84.4981     22.7424
   727.2000    814.8871      7.9140      2.7589      0.0145     -6.6011     83.4199     22.5165
   727.3000    847.3857      7.8953      2.7129     -0.0426     -3.8107     80.8168     22.3341
   727.4000    847.3857      7.8953      2.6655     -0.0657     -0.9407     77.0685     22.0052
   727.5000    855.1187      7.9043      2.6461     -0.0979      0.2370     74.2551     21.7762
   727.6000    855.1187      7.9043      2.6470      0.0146      0.1821     76.9484     21.6842
   727.7000    855.1187      7.9043      2.6383     -0.0271      0.7119     84.9968     21.6872
   727.8000    838.2816      7.9167      2.6290     -0.0177      1.2734     91.3307     21.4924
   727.9000    838.2816      7.9167      2.6402      0.0292      0.5938     93.9814     20.9538
   728.0000    802.3899      7.8979      2.6596      0.0417     -0.5817     97.4517     20.5252
   728.1000    802.3899      7.8979      2.6595      0.0890     -0.5753    101.7407     20.3374
   728.2000    802.3899      7.8979      2.6343      0.0264      0.9493    101.8271     19.9647
   728.3000    816.7405      7.8936      2.6114     -0.0025      2.3410     96.3022     19.5416
   728.4000    816.7405      7.8936      2.6107      0.0381      2.3812     88.9519     19.4935
   728.5000    858.1353      7.8819      2.6297      0.0428      1.2321     84.6477     19.8939
   728.6000    858.1353      7.8819      2.6605      0.0554     -0.6362     84.3628     20.7397
   728.7000    858.1353      7.8819      2.6832      0.1096     -2.0121     84.9095     21.6548
   728.8000    851.9861      7.8788      2.6837      0.0618     -2.0441     84.4865     21.7779
   728.9000    851.9861      7.8788      2.6769      0.0669     -1.6293     84.4339     21.0011
   729.0000    824.3290      7.8791      2.6733      0.0918     -1.4148     84.9996     20.2836
   729.1000    824.3290      7.8791      2.6710      0.0496     -1.2734     83.8979     20.0846
   729.2000    824.3290      7.8791      2.6747      0.0048     -1.4965     79.8342     20.1497
   729.3000    825.9173      7.8871      2.6797      0.0565     -1.7972     73.6531     20.6829
   729.4000    825.9173      7.8871      2.6668      0.0292     -1.0154     68.9077     21.4152
   729.5000    847.3544      7.8963      2.6362      0.0117      0.8361     71.4217     21.5095
   729.6000    847.3544      7.8963      2.6054      0.0157      2.7033     81.3261     21.1984
   729.7000    847.3544      7.8963      2.5845     -0.0029      3.9707     90.9943     21.0781
   729.8000    847.5020      7.9101      2.5738      0.0375      4.6157     94.6008     21.2005
   729.9000    847.5020      7.9101      2.5565      0.0551      5.6645     92.2014     21.4873
   730.0000    860.2922      7.9004      2.5246      0.0099      7.5974     87.3196     21.7700
   730.1000    860.2922      7.9004      2.5096     -0.0015      8.5095     83.7013     21.5696
   730.2000    860.2922      7.9004      2.5290      0.0623      7.3325     79.0661     21.0314
   730.3000    865.7205      7.9182      2.5513      0.1141      5.9811     71.1839     21.0619
   730.4000    865.7205      7.9182      2.5465      0.0977      6.2753     66.0315     21.6913
   730.5000    877.9417      7.9221      2.5265      0.0654      7.4853     68.4211     21.9946
   730.6000    877.9417      7.9221      2.5229      0.0516      7.7009     73.1929     21.5981
   730.7000    877.9417      7.9221      2.5389      0.0652      6.7352     75.2354     21.1129
   730.8000    861.9373      7.9244      2.5498      0.0660      6.0722     75.8720     21.3640
   730.9000    861.9373      7.9244      2.5560      0.0217      5.6965     74.6263     22.2770
   731.0000    856.0632      7.9265      2.5763      0.0658      4.4694     71.9299     22.8549
   731.1000    856.0632      7.9265      2.6000      0.0967      3.0290     70.7562     22.5572
   731.2000    856.0632      7.9265      2.6075      0.0756      2.5730     71.2302     21.8821
   731.3000    871.3895      7.9261      2.6099      0.0300      2.4325     73.3967     21.4820
   731.4000    871.3895      7.9261      2.6279      0.0405      1.3384     78.4508     21.6836
   731.5000    874.8182      7.9246      2.6585      0.0970     -0.5172     86.0069     22.3345
   731.6000    874.8182      7.9246      2.6822      0.0624     -1.9504     93.0164     22.8186
   731.7000    874.8182      7.9246      2.6822      0.1210     -1.9540     99.0355     22.6817
   731.8000    876.7947      7.9245      2.6565      0.0561     -0.3916    105.6544     22.2892
   731.9000    876.7947      7.9245      2.6216      0.0018      1.7208    110.3644     22.4011
   732.0000    851.6790      7.9254      2.5869      0.0265      3.8226    115.0546     23.3347
   732.1000    851.6790      7.9254      2.5513      0.0041      5.9790    126.2952     24.7486
   732.2000    851.6790      7.9254      2.5226      0.0220      7.7188    136.1847     26.0570
   732.3000    839.2107      7.9246      2.5014      0.0616      9.0073    133.4129     26.9133
   732.4000    839.2107      7.9246      2.4885      0.0413      9.7907    123.7321     27.1579
   732.5000    865.9164      7.9255      2.5033     -0.0230      8.8939    116.1600     27.0822
   732.6000    865.9164      7.9255      2.5395      0.1129      6.6985    113.3057     27.2127
   732.7000    865.9164      7.9255      2.5595      0.1006      5.4831    116.8866     27.5150
   732.8000    864.6356      7.9309      2.5555      0.0843      5.7285    127.1684     27.7212
   732.9000    864.6356      7.9309      2.5461      0.0340      6.2992    138.7166     27.9782
   733.0000    864.1533      7.9405      2.5434      0.0532      6.4587    143.3130     28.4225
   733.1000    864.1533      7.9405      2.5513      0.0480      5.9847    139.2501     28.7388
   733.2000    864.1533      7.9405      2.5636      0.1075      5.2354    131.5516     28.7089
   733.3000    870.9568      7.9279      2.5665      0.0441      5.0624    125.1913     28.2734
   733.4000    870.9568      7.9279      2.5544      0.0378      5.7958    120.2251     27.2836
   733.5000    878.9228      7.9244      2.5273      0.0440      7.4356    115.8878     25.8531
   733.6000    878.9228      7.9244      2.4942      0.0076      9.4427    114.1873     24.2617
   733.7000    878.9228      7.9244      2.4734      0.0045     10.7034    113.8750     22.9071
   733.8000    869.7040      7.9236      2.4687      0.0256     10.9868    111.2658     22.3176
   733.9000    869.7040      7.9236      2.4722     -0.0116     10.7787    106.4720     22.4635
   734.0000    866.9678      7.9276      2.4751      0.0402     10.6003     99.6264     22.5111
   734.1000    866.9678      7.9276      2.4702      0.0121     10.8968     91.2231     22.2117
   734.2000    866.9678      7.9276      2.4668      0.0143     11.1010     84.7750     22.2401
   734.3000    862.1740      7.9136      2.4841      0.0594     10.0574     82.0066     22.4436
   734.4000    862.1740      7.9136      2.5196      0.0897      7.9050     83.0365     22.1282
   734.5000    870.4603      7.9115      2.5493      0.1356      6.1023     86.7334     21.5878
   734.6000    870.4603      7.9115      2.5589      0.0856      5.5218     87.4814     21.3531
   734.7000    870.4603      7.9115      2.5578      0.0625      5.5892     84.2851     21.6078
   734.8000    880.6857      7.9104      2.5624      0.0683      5.3102     82.5395     22.2620
   734.9000    880.6857      7.9104      2.5838      0.0634      4.0113     82.6918     22.8760
