~Version Information
VERS.                      2.0: CWLS Log ASCII Standard - VERSION 2.0
WRAP.                       NO: One line per depth step
~Well Information Block
STRT.FT               400.0000: 
STOP.FT              2201.0000: 
STEP.FT                 0.2500: 
NULL.                -999.2500: 
COMP.          Evergreen Operating Corporation: COMPANY
WELL.            Triumph 13-10: WELL
FLD.           Purgatorie River: FIELD
LOC.           1551' FSL & 522' FWL: LOCATION
PROV.                 Colorado: PROVINCE
CNTY.               Las Animas: COUNTRY
SRVC.                Patterson: SERVICE COMPANY
DATE.          Fri Jul 23 20:28:37 2004: LOG DATE
UWI.           05 071 08108 00: UNIQUE WELL ID
~Curve Information Block
DEPT.FT            0 000 00 00: Depth
SN.Ohm-m                      : IEL Short Normal
SP.mV                         : IEL Spontaneous Potential
DIR.Ohm-m                     : IEL Induction Resistivity
GR.GAPI                       : Gamma Ray
~Parameter Information Block
~A  Depth        SN          SP         DIR          GR     
# ...
  1338.0000     68.4387     29.2183     48.1084     34.0274
  1338.2500     67.1196     29.3090     45.2721     34.9202
  1338.5000     65.6059     29.5446     41.9024     36.2908
  1338.7500     63.7904     29.9010     38.1619     36.8425
  1339.0000     61.4602     30.3358     34.2970     36.8080
  1339.2500     58.4511     30.8071     30.5627     36.4236
  1339.5000     54.5806     31.3098     27.1498     36.1026
  1339.7500     49.5782     31.9054     24.1584     36.5057
  1340.0000     43.4955     32.7025     21.6120     38.6935
  1340.2500     36.9785     33.7808     19.4854     41.6188
  1340.5000     30.8784     35.1054     17.7287     48.7483
  1340.7500     25.8330     36.5152     16.2828     55.2974
  1341.0000     22.0841     37.8023     15.0882     67.1706
  1341.2500     19.4377     38.8224     14.0918     76.0239
  1341.5000     17.5156     39.5523     13.2518     90.0482
  1341.7500     16.0371     40.0604     12.5400     99.1975
  1342.0000     14.8876     40.4205     11.9405    110.5507
  1342.2500     14.0627     40.6454     11.4460    115.4280
  1342.5000     13.5490     40.7010     11.0534    118.6028
  1342.7500     13.2386     40.5878     10.7597    118.9582
  1343.0000     12.9909     40.4015     10.5593    118.7176
  1343.2500     12.7700     40.3025     10.4416    118.4284
  1343.5000     12.6665     40.4063     10.3906    117.2163
  1343.7500     12.7973     40.6841     10.3877    115.3546
  1344.0000     13.2215     40.9682     10.4134    110.8913
  1344.2500     13.8776     41.0802     10.4484    107.3832
  1344.5000     14.5434     40.9653     10.4740    102.1841
  1344.7500     14.9720     40.7108     10.4735     98.5263
  1345.0000     15.1143     40.4522     10.4335     92.0206
  1345.2500     15.0951     40.2795     10.3463     87.5875
  1345.5000     15.0008     40.2123     10.2084     83.8045
  1345.7500     14.7910     40.2258     10.0188     84.8182
  1346.0000     14.3631     40.2856      9.7771     91.8538
  1346.2500     13.6524     40.3663      9.4849     98.8491
  1346.5000     12.6876     40.4524      9.1478    109.7267
  1346.7500     11.5656     40.5328      8.7765    116.0124
  1347.0000     10.4139     40.6004      8.3868    123.4020
  1347.2500      9.3819     40.6589      7.9973    127.1088
  1347.5000      8.5923     40.7216      7.6250    130.9607
  1347.7500      8.0873     40.7989      7.2815    132.2770
  1348.0000      7.8528     40.8855      6.9720    132.3912
  1348.2500      7.8521     40.9620      6.6963    131.4921
  1348.5000      7.9777     41.0106      6.4511    128.9410
  1348.7500      8.0518     41.0289      6.2322    126.2272
  1349.0000      7.9681     41.0356      6.0359    120.5444
  1349.2500      7.7651     41.0628      5.8615    116.4659
  1349.5000      7.5287     41.1399      5.7114    112.3881
  1349.7500      7.3107     41.2729      5.5893    112.1982
  1350.0000      7.1316     41.4297      5.4981    115.8920
  1350.2500      6.9939     41.5510      5.4393    120.0548
  1350.5000      6.8892     41.5882      5.4123    126.4538
  1350.7500      6.8096     41.5379      5.4157    129.6845
  1351.0000      6.7587     41.4413      5.4471    132.1113
  1351.2500      6.7654     41.3555      5.5024    132.1030
  1351.5000      6.8789     41.3259      5.5763    129.9604
  1351.7500      7.1208     41.3710      5.6628    127.3362
  1352.0000      7.4474     41.4783      5.7566    122.0228
  1352.2500      7.7808     41.6084      5.8535    117.9404
  1352.5000      8.0399     41.7130      5.9505    112.0014
  1352.7500      8.1483     41.7656      6.0453    108.7695
  1353.0000      8.0987     41.7794      6.1363    105.7597
  1353.2500      8.0059     41.7929      6.2238    105.2724
  1353.5000      8.0029     41.8377      6.3108    107.0123
  1353.7500      8.0931     41.9146      6.4020    109.4897
  1354.0000      8.1774     41.9950      6.5024    113.8053
  1354.2500      8.2130     42.0423      6.6152    116.2327
  1354.5000      8.2523     42.0376      6.7404    118.5237
  1354.7500      8.3362     41.9916      6.8748    119.2770
  1355.0000      8.4498     41.9319      7.0140    119.8665
  1355.2500      8.5688     41.8758      7.1551    120.2359
  1355.5000      8.6853     41.8192      7.2985    121.0737
  1355.7500      8.7955     41.7489      7.4473    121.8048
  1356.0000      8.8904     41.6590      7.6055    122.6637
  1356.2500      8.9750     41.5547      7.7766    122.6008
  1356.5000      9.0909     41.4484      7.9633    121.1997
  1356.7500      9.2852     41.3559      8.1687    119.8523
  1357.0000      9.5682     41.2920      8.3958    118.5747
  1357.2500      9.9243     41.2649      8.6460    118.5320
  1357.5000     10.3324     41.2751      8.9176    118.9365
  1357.7500     10.7530     41.3226      9.2055    118.9455
  1358.0000     11.1382     41.4106      9.5030    118.3445
  1358.2500     11.4820     41.5372      9.8029    117.7349
  1358.5000     11.8148     41.6861     10.0976    116.8839
  1358.7500     12.1427     41.8330     10.3788    116.5408
  1359.0000     12.4528     41.9603     10.6367    116.6385
  1359.2500     12.7466     42.0618     10.8602    117.1694
  1359.5000     13.0106     42.1371     11.0394    118.4859
  1359.7500     13.1936     42.1899     11.1679    119.4912
  1360.0000     13.2536     42.2297     11.2447    120.7124
  1360.2500     13.2085     42.2658     11.2733    121.0584
  1360.5000     13.1162     42.2937     11.2612    120.8026
  1360.7500     13.0158     42.2912     11.2192    120.5437
  1361.0000     12.8995     42.2338     11.1599    121.1542
  1361.2500     12.7375     42.1142     11.0943    122.5002
  1361.5000     12.5239     41.9473     11.0283    125.2775
  1361.7500     12.2907     41.7565     10.9616    127.0470
  1362.0000     12.0647     41.5594     10.8897    129.0391
  1362.2500     11.8412     41.3671     10.8074    129.8934
  1362.5000     11.6196     41.1926     10.7124    130.8252
  1362.7500     11.4282     41.0566     10.6066    131.7819
  1363.0000     11.2865     40.9800     10.4953    134.8760
  1363.2500     11.1803     40.9691     10.3848    138.1956
  1363.5000     11.0968     41.0069     10.2821    143.8241
  1363.7500     11.0372     41.0636     10.1940    146.7926
  1364.0000     10.9922     41.1185     10.1257    148.4059
  1364.2500     10.9386     41.1693     10.0794    147.3250
  1364.5000     10.8678     41.2214     10.0548    143.3721
  1364.7500     10.8206     41.2751     10.0506    140.1606
  1365.0000     10.8642     41.3373     10.0665    135.9486
  1365.2500     11.0271     41.4406     10.1035    133.8976
  1365.5000     11.3002     41.6372     10.1621    131.6619
  1365.7500     11.6640     41.9586     10.2403    130.2687
  1366.0000     12.0804     42.3698     10.3330    127.7958
  1366.2500     12.5092     42.7613     10.4337    126.0667
  1366.5000     12.9398     43.0007     10.5369    124.2108
  1366.7500     13.3689     43.0198     10.6416    123.7425
  1367.0000     13.7576     42.8690     10.7507    123.8624
  1367.2500     14.0117     42.6813     10.8693    124.2000
  1367.5000     14.0209     42.5639     11.0004    125.0422
  1367.7500     13.8013     42.5167     11.1422    125.7773
  1368.0000     13.5383     42.4553     11.2875    126.2935
  1368.2500     13.3806     42.3079     11.4263    125.6219
  1368.5000     13.3382     42.0888     11.5499    122.9775
  1368.7500     13.3988     41.8955     11.6568    120.5926
  1369.0000     13.5551     41.8516     11.7537    116.8778
  1369.2500     13.7536     42.0311     11.8514    114.7472
  1369.5000     13.9342     42.3963     11.9572    113.2080
  1369.7500     14.0906     42.8008     12.0681    113.7849
  1370.0000     14.2489     43.0726     12.1722    116.4095
  1370.2500     14.3989     43.1200     12.2572    118.3414
  1370.5000     14.5155     42.9795     12.3182    120.5247
  1370.7500     14.6411     42.7785     12.3595    121.7092
  1371.0000     14.8050     42.6429     12.3892    123.6577
  1371.2500     14.9214     42.6181     12.4127    124.9866
