~Version Information
VERS.                      2.0: CWLS Log ASCII Standard - VERSION 2.0
WRAP.                       NO: One line per depth step
~Well Information Block
STRT.FT               -14.5000: 
STOP.FT              2676.5000: 
STEP.FT                 0.1000: 
NULL.                -999.2500: 
COMP.          Petrogulf Corporation: COMPANY
WELL.          Latiluppe 8-13V: WELL
FLD.           Purgatorie River: FIELD
LOC.           1069' FWL & 1647' FSL: LOCATION
CNTY.               Las Animas: COUNTY
SRVC.                         : SERVICE COMPANY
DATE.          Tue Nov 18 16:12:50 2003: LOG DATE
UWI.                          : UNIQUE WELL ID
STAT.                 Colorado: STATE
~Curve Information Block
DEPT.FT            0 000 00 00: Depth
CCL.                          : Casing Collar Locator
TT3.usec                      : CBL 3' Travel Time
AMP3.mV                       : CBL 3' Amplitude
GR.GAPI                       : Gamma Ray
~Parameter Information Block
~A  Depth       CCL         TT3         AMP3         GR     
# ...
  2290.3000      0.0000    742.0457      1.7890     40.3777
  2290.4000      0.0000    742.0457      1.7890     40.3777
  2290.5000      0.0000    728.9509      1.8724     36.9171
  2290.6000      0.0000    728.9509      1.8724     36.9171
  2290.7000      0.0000    728.9509      1.8724     36.9171
  2290.8000      0.0000    719.4739      1.9558     36.2262
  2290.9000      0.0000    719.4739      1.9558     36.2262
  2291.0000      0.0000    715.8468      2.0354     38.6236
  2291.1000      0.0000    715.8468      2.0354     38.6236
  2291.2000      0.0000    715.8468      2.0354     38.6236
  2291.3000      0.0000    717.7687      2.1229     42.9300
  2291.4000      0.0000    717.7687      2.1229     42.9300
  2291.5000      0.0000    722.9253      2.2162     47.5929
  2291.6000      0.0000    722.9253      2.2162     47.5929
  2291.7000      0.0000    722.9253      2.2162     47.5929
  2291.8000      0.0000    728.0102      2.2955     51.6090
  2291.9000      0.0000    728.0102      2.2955     51.6090
  2292.0000      0.0000    730.5711      2.3411     54.4880
  2292.1000      0.0000    730.5711      2.3411     54.4880
  2292.2000      0.0000    730.5711      2.3411     54.4880
  2292.3000      0.0000    731.0283      2.3444     55.7620
  2292.4000      0.0000    731.0283      2.3444     55.7620
  2292.5000      0.0000    732.5201      2.3081     55.0197
  2292.6000      0.0000    732.5201      2.3081     55.0197
  2292.7000      0.0000    732.5201      2.3081     55.0197
  2292.8000      0.0000    737.9595      2.2494     52.3963
  2292.9000      0.0000    737.9595      2.2494     52.3963
  2293.0000      0.0000    746.9203      2.1976     48.6930
  2293.1000      0.0000    746.9203      2.1976     48.6930
  2293.2000      0.0000    746.9203      2.1976     48.6930
  2293.3000      0.0000    755.6326      2.1803     44.9587
  2293.4000      0.0000    755.6326      2.1803     44.9587
  2293.5000      0.0000    760.1990      2.2065     42.0493
  2293.6000      0.0000    760.1990      2.2065     42.0493
  2293.7000      0.0000    760.1990      2.2065     42.0493
  2293.8000      0.0000    759.3935      2.2662     40.4453
  2293.9000      0.0000    759.3935      2.2662     40.4453
  2294.0000      0.0000    754.1328      2.3437     40.2463
  2294.1000      0.0000    754.1328      2.3437     40.2463
  2294.2000      0.0000    754.1328      2.3437     40.2463
  2294.3000      0.0000    745.5399      2.4299     41.2965
  2294.4000      0.0000    745.5399      2.4299     41.2965
  2294.5000      0.0000    735.0057      2.5173     43.3074
  2294.6000      0.0000    735.0057      2.5173     43.3074
  2294.7000      0.0000    735.0057      2.5173     43.3074
  2294.8000      0.0000    725.4791      2.5862     45.8028
  2294.9000      2.0000    725.4791      2.5862     45.8028
  2295.0000     -2.0000    720.8111      2.6068     48.0386
  2295.1000      2.0000    720.8111      2.6068     48.0386
  2295.2000     -2.0000    720.8111      2.6068     48.0386
  2295.3000      0.0000    723.1652      2.5680     49.2586
  2295.4000      0.0000    723.1652      2.5680     49.2586
  2295.5000      0.0000    731.1621      2.5016     49.1567
  2295.6000      0.0000    731.1621      2.5016     49.1567
  2295.7000      0.0000    731.1621      2.5016     49.1567
  2295.8000      0.0000    740.5466      2.4563     48.0534
  2295.9000      0.0000    740.5466      2.4563     48.0534
  2296.0000      0.0000    747.1735      2.4534     46.6732
  2296.1000      0.0000    747.1735      2.4534     46.6732
  2296.2000      0.0000    747.1735      2.4534     46.6732
  2296.3000      0.0000    750.1415      2.4758     45.7937
  2296.4000      0.0000    750.1415      2.4758     45.7937
  2296.5000      0.0000    751.6336      2.4881     45.9374
  2296.6000      0.0000    751.6336      2.4881     45.9374
  2296.7000      0.0000    751.6336      2.4881     45.9374
  2296.8000      0.0000    753.1550      2.4545     47.1543
  2296.9000      0.0000    753.1550      2.4545     47.1543
  2297.0000      0.0000    753.0222      2.3575     49.0510
  2297.1000      0.0000    753.0222      2.3575     49.0510
  2297.2000      0.0000    753.0222      2.3575     49.0510
  2297.3000      0.0000    748.7853      2.2241     51.0499
  2297.4000      0.0000    748.7853      2.2241     51.0499
  2297.5000      0.0000    741.1895      2.1298     52.5920
  2297.6000      0.0000    741.1895      2.1298     52.5920
  2297.7000      0.0000    741.1895      2.1298     52.5920
  2297.8000      0.0000    734.3159      2.1463     53.2531
  2297.9000      0.0000    734.3159      2.1463     53.2531
  2298.0000      0.0000    731.9479      2.2750     52.9489
  2298.1000      0.0000    731.9479      2.2750     52.9489
  2298.2000      0.0000    731.9479      2.2750     52.9489
  2298.3000      0.0000    734.2369      2.4449     52.0485
  2298.4000      0.0000    734.2369      2.4449     52.0485
  2298.5000      0.0000    737.4504      2.5789     51.1395
  2298.6000      0.0000    737.4504      2.5789     51.1395
  2298.7000      0.0000    737.4504      2.5789     51.1395
  2298.8000      0.0000    736.7070      2.6469     50.6778
  2298.9000      0.0000    736.7070      2.6469     50.6778
  2299.0000      0.0000    729.6536      2.6594     50.8364
  2299.1000      0.0000    729.6536      2.6594     50.8364
  2299.2000      0.0000    729.6536      2.6594     50.8364
  2299.3000      0.0000    718.1878      2.6395     51.4923
  2299.4000      0.0000    718.1878      2.6395     51.4923
  2299.5000      0.0000    706.7712      2.6077     52.2558
  2299.6000      0.0000    706.7712      2.6077     52.2558
  2299.7000      0.0000    706.7712      2.6077     52.2558
  2299.8000      0.0000    699.3074      2.5726     52.7051
  2299.9000      0.0000    699.3074      2.5726     52.7051
  2300.0000      0.0000    697.8383      2.5235     52.7063
  2300.1000      0.0000    697.8383      2.5235     52.7063
  2300.2000      0.0000    697.8383      2.5235     52.7063
  2300.3000      0.0000    703.4412      2.4499     52.4048
  2300.4000      0.0000    703.4412      2.4499     52.4048
  2300.5000      0.0000    716.6022      2.3718     51.9254
  2300.6000      0.0000    716.6022      2.3718     51.9254
  2300.7000      0.0000    716.6022      2.3718     51.9254
  2300.8000      0.0000    735.3293      2.3284     51.1923
  2300.9000      0.0000    735.3293      2.3284     51.1923
  2301.0000      0.0000    753.3235      2.3351     50.0196
  2301.1000      0.0000    753.3235      2.3351     50.0196
  2301.2000      0.0000    753.3235      2.3351     50.0196
  2301.3000      0.0000    762.0959      2.3687     48.2869
  2301.4000      0.0000    762.0959      2.3687     48.2869
  2301.5000      0.0000    756.8245      2.3968     46.1292
  2301.6000      0.0000    756.8245      2.3968     46.1292
  2301.7000      0.0000    756.8245      2.3968     46.1292
  2301.8000      0.0000    740.3671      2.4082     44.0516
  2301.9000      0.0000    740.3671      2.4082     44.0516
  2302.0000      0.0000    720.8813      2.4129     42.7339
  2302.1000      0.0000    720.8813      2.4129     42.7339
  2302.2000      0.0000    720.8813      2.4129     42.7339
  2302.3000      0.0000    705.5403      2.4255     42.5243
  2302.4000      0.0000    705.5403      2.4255     42.5243
  2302.5000      0.0000    696.7698      2.4489     43.1343
  2302.6000      0.0000    696.7698      2.4489     43.1343
  2302.7000      0.0000    696.7698      2.4489     43.1343
  2302.8000      0.0000    693.4335      2.4656     43.9285
  2302.9000      0.0000    693.4335      2.4656     43.9285
  2303.0000      0.0000    694.0049      2.4439     44.4170
  2303.1000      0.0000    694.0049      2.4439     44.4170
  2303.2000      0.0000    694.0049      2.4439     44.4170
  2303.3000      0.0000    698.2788      2.3591     44.3416
  2303.4000      0.0000    698.2788      2.3591     44.3416
  2303.5000      0.0000    706.7657      2.2172     43.5803
  2303.6000      0.0000    706.7657      2.2172     43.5803
