~Version Information
VERS.                      2.0: CWLS Log ASCII Standard - VERSION 2.0
WRAP.                       NO: One line per depth step
~Well Information Block
STRT.FT               906.0000: 
STOP.FT              1960.5000: 
STEP.FT                 0.2500: 
NULL.                -999.2500: 
COMP.          Petrogulf Corporation: COMPANY
WELL.            Torcom 17-33R: WELL
FLD.           Purgatorie River: FIELD
LOC.           1483' FSL & 1804' FEL: LOCATION
PROV.                 Colorado: PROVINCE
CNTY.               Las Animas: COUNTRY
SRVC.                Patterson: SERVICE COMPANY
DATE.          Thu Aug 18 08:33:01 2005: LOG DATE
UWI.                071 08069 : UNIQUE WELL ID
~Curve Information Block
DEPT.FT            0 000 00 00: Depth
SP.mV                         : DIL Spontaneous Potential
RILD.Ohm-m                    : DIL Deep Resistivity
RILM.Ohm-m                    : DIL Medium Resistivity
RLL3.Ohm-m                    : DIL Shallow Resistivity
GR.GAPI                       : Gamma Ray
~Parameter Information Block
~A  Depth        SP         RILD        RILM        RLL3         GR     
# ...
  1802.0000    132.2880      7.6763      8.5574     13.7900    163.0965
  1802.2500    131.4946      7.9137      8.7956     13.8660    152.3635
  1802.5000    130.2435      8.1572      8.9882     14.8102    147.5079
  1802.7500    129.4080      8.4627      9.2916     15.7764    148.9681
  1803.0000    127.3339      8.8125      9.7346     14.7629    137.9352
  1803.2500    125.7376      9.1361     10.2472     14.4343    140.3921
  1803.5000    124.0418      9.6043     10.7397     16.5911    130.4953
  1803.7500    124.3020     10.0461     11.2766     20.9234    126.7229
  1804.0000    122.8724     10.8568     11.7388     22.7530    133.2773
  1804.2500    120.9967     11.4031     12.4573     19.9759    133.5505
  1804.5000    117.8845     12.3113     13.1530     18.2281    153.1982
  1804.7500    114.1223     13.4658     13.8544     17.7909    155.1995
  1805.0000    110.6279     14.6761     15.0740     18.3463    153.7427
  1805.2500    107.7302     15.8233     16.9881     19.8605    136.0963
  1805.5000    104.7485     17.0485     19.3592     23.9469    113.0865
  1805.7500    102.5546     18.5944     22.4242     33.3629     98.1434
  1806.0000    101.8457     20.4325     25.6760     50.1051     94.0495
  1806.2500    100.7541     21.9673     30.5786     71.6398     87.0332
  1806.5000     98.4071     24.1084     33.3214     87.4390     76.2445
  1806.7500     95.0885     26.0287     36.5115     96.5107     76.3381
  1807.0000     91.2402     28.5324     41.7593     94.0734     80.3121
  1807.2500     87.8101     31.5342     47.7460     81.8002     74.5580
  1807.5000     85.1283     35.6816     54.3718     78.1980     72.2514
  1807.7500     82.8253     41.7196     61.6762     90.9998     66.1762
  1808.0000     80.7994     43.8995     70.1644    109.0224     61.0077
  1808.2500     78.0158     47.4781     78.1237    117.9072     55.2205
  1808.5000     75.8292     49.1491     88.8838    119.6206     53.8083
  1808.7500     74.6529     49.5759    103.1570    125.9096     54.7023
  1809.0000     75.7200     47.9566    106.2712    137.8457     52.8671
  1809.2500     76.2825     45.8401    111.4754    143.2711     49.3568
  1809.5000     78.0620     43.1428    112.9393    133.5345     55.9638
  1809.7500     80.0467     41.0825     97.6540    120.4780     58.0698
  1810.0000     82.3215     35.3659     85.7999    116.0756     60.3303
  1810.2500     84.7657     32.0158     74.1932    116.6544     58.8664
  1810.5000     89.0042     28.9733     64.5927    113.5748     74.6538
  1810.7500     93.5648     26.4586     48.0085     95.7032     88.4642
  1811.0000     97.7433     24.1748     36.5874     59.6724    116.2907
  1811.2500    100.5555     22.2799     29.2642     34.1998    141.5882
  1811.5000    104.4170     20.0174     24.0984     21.8002    150.6841
  1811.7500    107.9356     18.4134     20.8480     18.2650    157.6342
  1812.0000    110.1716     17.1574     18.6816     17.4824    150.0897
  1812.2500    110.9030     16.0604     16.9106     17.5631    154.7093
  1812.5000    110.5434     15.3336     16.0309     17.7406    154.4976
  1812.7500    110.3339     14.5831     15.0065     18.2733    160.1951
  1813.0000    109.9327     14.2004     14.2105     18.4839    160.4756
  1813.2500    110.7041     13.8843     13.4314     18.4552    160.3330
  1813.5000    111.8860     14.0674     13.0044     17.5916    156.0035
  1813.7500    114.8912     14.3020     12.7735     15.9086    147.5398
  1814.0000    117.1758     14.5612     13.0057     14.0881    138.9956
  1814.2500    118.5160     14.8392     13.6964     14.1844    133.9597
  1814.5000    117.6857     15.2631     14.9991     16.9031    120.7669
  1814.7500    116.9936     15.8030     16.4666     23.4442    116.0220
  1815.0000    115.7340     16.5627     18.1800     33.0154    105.4456
  1815.2500    115.2040     17.2196     20.3287     41.8528     93.7294
  1815.5000    116.8882     17.9523     22.2423     47.0115     92.2754
  1815.7500    118.5293     18.8513     23.8043     47.6508     96.4683
  1816.0000    120.3151     19.8349     25.3466     47.1495    101.0753
  1816.2500    119.7142     21.1496     26.8722     52.1529     95.9110
  1816.5000    118.7947     22.6253     28.7595     56.5473    116.4062
  1816.7500    116.2227     24.1694     30.4554     46.1302    121.1237
  1817.0000    114.9497     24.6845     31.8214     34.3383    127.8872
  1817.2500    112.9586     24.5252     33.0917     32.1904    127.4948
  1817.5000    112.0772     23.5776     33.2601     37.0038    136.2872
  1817.7500    111.7050     22.6680     32.0611     46.5319    131.1489
  1818.0000    111.7655     21.2339     29.7788     52.7823    140.5298
  1818.2500    112.0519     20.8930     26.6727     46.2232    154.6367
  1818.5000    110.9956     20.3162     23.2416     30.5485    154.2431
  1818.7500    108.8478     19.4112     20.9601     20.6979    160.7209
  1819.0000    108.5605     18.4415     19.4622     16.6759    172.6791
  1819.2500    108.8862     18.1392     18.6905     15.8241    166.7548
  1819.5000    108.3362     17.4910     18.7203     16.6499    156.0505
  1819.7500    107.4978     17.4122     18.9343     18.6048    146.3446
  1820.0000    107.5380     16.8674     19.4116     21.1036    143.7894
  1820.2500    108.3215     16.1109     19.4870     23.9083    145.4097
  1820.5000    108.8421     15.2206     19.2698     25.6842    135.8406
  1820.7500    108.6630     14.4747     18.7931     27.7345    135.5985
  1821.0000    106.6108     13.8629     18.2176     29.8289    138.8765
  1821.2500    104.6713     13.6810     17.0855     30.9558    141.5133
  1821.5000    104.9922     13.6082     16.0709     31.6881    156.3178
  1821.7500    105.0677     13.5248     14.9604     24.7530    157.2103
  1822.0000    103.5931     13.5404     14.0342     17.9916    165.4959
  1822.2500    101.4060     13.8841     13.3386     14.6686    161.6478
  1822.5000     99.6231     14.0121     13.1339     13.5402    160.0253
  1822.7500     97.3161     14.3626     13.2557     13.5201    169.3020
  1823.0000     94.5323     14.2899     13.5300     15.2732    165.9701
  1823.2500     92.7574     14.4474     14.0768     16.5831    150.5497
  1823.5000     92.4301     14.6277     14.6193     17.8323    153.1613
  1823.7500     92.2458     14.4780     15.1511     19.4384    148.1290
  1824.0000     91.0937     14.8115     15.8955     21.8414    143.5322
  1824.2500     88.8586     15.1438     16.5727     22.8123    139.6522
  1824.5000     87.4089     16.1579     17.3207     22.5905    124.0073
  1824.7500     84.2153     16.9852     18.7711     22.9976    121.9736
  1825.0000     81.1250     18.2228     20.7558     24.5346    107.4813
  1825.2500     79.6035     19.4833     23.4872     29.4415     96.2556
  1825.5000     79.5360     20.6212     26.1762     41.5769     82.4667
  1825.7500     81.5431     21.7133     30.5019     70.0415     76.0819
  1826.0000     83.2503     22.0013     35.0385    111.2255     53.4419
  1826.2500     85.1022     22.5869     39.5184    143.2630     46.1617
  1826.5000     85.4127     21.9398     41.3234    152.3959     52.7726
  1826.7500     85.4634     21.3911     43.0994    148.1377     59.3635
  1827.0000     86.9911     20.5971     40.8487    135.2894     61.5369
  1827.2500     87.8468     19.5565     35.6051    120.7101     76.7092
  1827.5000     88.6073     18.8004     28.9232     97.0545    105.8170
  1827.7500     90.6403     18.2694     25.0477     54.7696    127.5075
  1828.0000     93.1760     17.5256     21.0771     26.3855    139.6912
  1828.2500     94.6863     17.2257     17.9592     17.2010    157.2601
  1828.5000     95.1221     16.5192     16.4320     15.2988    176.7204
  1828.7500     93.9643     16.1350     15.3211     14.8627    173.1188
  1829.0000     92.6579     15.6828     14.6915     14.7132    167.2833
  1829.2500     92.2265     15.4177     14.2787     14.8772    163.6968
  1829.5000     93.1895     14.7599     14.1330     14.9576    169.1024
  1829.7500     92.7532     14.3029     14.0623     15.4488    163.6845
