~Version Information
VERS.                      2.0: CWLS Log ASCII Standard - VERSION 2.0
WRAP.                       NO: One line per depth step
~Well Information Block
STRT.FT               840.0000: 
STOP.FT              2450.0000: 
STEP.FT                 0.1000: 
NULL.                -999.2500: 
COMP.          Petrogulf Corporation: COMPANY
WELL.             Leier 17-42V: WELL
FLD.           Purgatorie River: FIELD
LOC.           2309' FNL & 1062' FEL SENE 17 33S 67W: LOCATION
PROV.                 Colorado: PROVINCE
CNTY.               Las Animas: COUNTRY
SRVC.                Patterson: SERVICE COMPANY
DATE.          Thu Sep 22 09:35:36 2005: LOG DATE
UWI.           071 08409 : UNIQUE WELL ID
~Curve Information Block
DEPT.FT            0 000 00 00: Depth
DCAL.in                       : CDL Caliper
RHOB.g/cc                     : CDL Bulk Density
RHOC.g/cc                     : CDL Density Correction
DPOR.pu                       : CDL Density Porosity
GR.GAPI                       : Gamma Ray
NPOR.pu                       : Neutron Porosity
~Parameter Information Block
~A  Depth       DCAL        RHOB        RHOC        DPOR         GR         NPOR    
# ...
  1262.4000      8.1730      2.4652      0.0034     11.2019    180.6357     29.0958
  1262.5000      8.1800      2.4585      0.0017     11.6073    185.7275     29.1256
  1262.6000      8.1800      2.4746      0.0197     10.6281    191.8056     28.9176
  1262.7000      8.1800      2.4999      0.0422      9.0989    198.3672     28.5279
  1262.8000      8.1761      2.5198      0.0419      7.8925    202.5752     28.1726
  1262.9000      8.1761      2.5295      0.0556      7.3018    202.3909     27.9938
  1263.0000      8.1552      2.5254      0.0338      7.5487    198.9836     28.0106
  1263.1000      8.1552      2.5113      0.0300      8.4069    192.8360     28.2343
  1263.2000      8.1552      2.4960      0.0618      9.3333    182.6685     28.4481
  1263.3000      8.1411      2.4810      0.0541     10.2396    174.8289     28.4123
  1263.4000      8.1411      2.4720      0.0087     10.7892    177.5301     28.3564
  1263.5000      8.1091      2.4779      0.0331     10.4320    186.3430     28.4213
  1263.6000      8.1091      2.4895      0.0646      9.7298    191.0240     28.2957
  1263.7000      8.1091      2.4917      0.0763      9.5933    190.5572     28.0260
  1263.8000      8.1051      2.4852      0.0119      9.9876    190.4209     27.9952
  1263.9000      8.1051      2.4763      0.0575     10.5290    190.5484     28.0492
  1264.0000      8.1059      2.4653      0.0285     11.1932    189.4832     27.8054
  1264.1000      8.1059      2.4593      0.0267     11.5555    191.0233     27.5697
  1264.2000      8.1059      2.4730      0.0008     10.7278    194.6538     27.9404
  1264.3000      8.0983      2.5026      0.0573      8.9332    195.2657     28.7552
  1264.4000      8.0983      2.5250      0.0950      7.5781    193.3231     29.3238
  1264.5000      8.1077      2.5341      0.0506      7.0216    190.7572     29.3335
  1264.6000      8.1077      2.5438      0.0522      6.4340    188.5179     29.0947
  1264.7000      8.1077      2.5519      0.0551      5.9481    188.5740     28.7079
  1264.8000      8.1111      2.5439      0.0316      6.4304    188.6267     28.1033
  1264.9000      8.1111      2.5218      0.0362      7.7673    185.0978     27.7211
  1265.0000      8.1109      2.4965      0.0277      9.3037    180.1296     27.8744
  1265.1000      8.1109      2.4743      0.0145     10.6475    178.9616     28.4130
  1265.2000      8.1109      2.4616     -0.0186     11.4152    182.4237     29.1044
  1265.3000      8.1066      2.4620      0.0254     11.3970    186.4178     29.5367
  1265.4000      8.1066      2.4735      0.0080     10.6975    187.6577     29.5172
  1265.5000      8.1047      2.4926      0.0208      9.5424    187.5576     29.3281
  1265.6000      8.1047      2.5091      0.0352      8.5420    190.0927     29.2558
  1265.7000      8.1047      2.5201      0.0332      7.8724    193.1490     29.3814
  1265.8000      8.1031      2.5348      0.0518      6.9813    191.8804     29.3282
  1265.9000      8.1031      2.5514      0.0780      5.9759    190.3703     28.8316
  1266.0000      8.1062      2.5563      0.0538      5.6811    192.3053     28.3013
  1266.1000      8.1062      2.5429      0.0730      6.4909    192.7722     28.1752
  1266.2000      8.1062      2.5166      0.0439      8.0831    189.9861     28.4190
  1266.3000      8.1029      2.4959      0.0048      9.3417    186.8007     28.7809
  1266.4000      8.1029      2.4998      0.0174      9.1017    182.8726     29.0370
  1266.5000      8.1111      2.5238      0.0602      7.6511    178.9594     28.9265
  1266.6000      8.1111      2.5402      0.0776      6.6546    175.0874     28.3851
  1266.7000      8.1111      2.5314      0.0663      7.1856    167.1154     27.7816
  1266.8000      8.1091      2.5097     -0.0018      8.5034    155.4803     27.3688
  1266.9000      8.1091      2.4945      0.0008      9.4273    146.8878     26.9975
  1267.0000      8.1073      2.4909      0.0043      9.6449    146.4857     26.5007
  1267.1000      8.1073      2.5003     -0.0010      9.0701    151.8689     25.9252
  1267.2000      8.1073      2.5194      0.0535      7.9159    155.2293     25.5524
  1267.3000      8.1054      2.5382      0.0434      6.7732    153.0617     25.5389
  1267.4000      8.1054      2.5512      0.0558      5.9881    150.6597     25.5790
  1267.5000      8.1082      2.5500      0.0633      6.0589    151.1547     25.3841
  1267.6000      8.1082      2.5318      0.0457      7.1630    149.6616     25.1642
  1267.7000      8.1082      2.5079      0.0351      8.6148    143.7661     25.3710
  1267.8000      8.1160      2.4915      0.0357      9.6054    138.1561     25.9611
  1267.9000      8.1160      2.4837      0.0843     10.0760    136.4380     26.4472
  1268.0000      8.1192      2.4810      0.0181     10.2417    138.6856     26.7899
  1268.1000      8.1192      2.4871      0.0967      9.8723    143.1025     27.1982
  1268.2000      8.1192      2.5018      0.0802      8.9825    145.9411     27.5234
  1268.3000      8.1191      2.5232      0.0940      7.6856    145.6060     27.5879
  1268.4000      8.1191      2.5509      0.0804      6.0060    145.8248     27.6501
  1268.5000      8.1094      2.5785      0.1320      4.3335    150.0858     28.1197
  1268.6000      8.1094      2.5948      0.1336      3.3453    155.8139     28.6031
  1268.7000      8.1094      2.5947      0.1185      3.3545    156.5006     28.2820
  1268.8000      8.1127      2.5848      0.1160      3.9500    150.3689     27.5117
  1268.9000      8.1127      2.5736      0.1430      4.6327    142.7296     27.2301
  1269.0000      8.1167      2.5554      0.1381      5.7354    139.6298     27.3490
  1269.1000      8.1167      2.5241      0.0855      7.6325    141.6748     27.3830
  1269.2000      8.1167      2.4932      0.0325      9.5051    144.5581     27.2571
  1269.3000      8.1114      2.4792      0.0506     10.3501    145.1461     26.9995
  1269.4000      8.1114      2.4798      0.0891     10.3160    145.7082     26.7542
  1269.5000      8.1065      2.4873      0.0424      9.8624    149.2715     26.7451
  1269.6000      8.1065      2.5019      0.0507      8.9729    153.8845     26.9174
  1269.7000      8.1065      2.5170      0.1131      8.0614    157.2125     27.1045
  1269.8000      8.1122      2.5212      0.0915      7.8038    159.0118     27.3234
  1269.9000      8.1122      2.5182      0.0811      7.9863    158.7323     27.4994
  1270.0000      8.1073      2.5157      0.0795      8.1414    157.2020     27.7515
  1270.1000      8.1073      2.5131      0.0840      8.2990    156.3858     28.2832
  1270.2000      8.1073      2.5084      0.0939      8.5847    156.2130     28.7727
  1270.3000      8.1111      2.5001      0.0879      9.0853    155.3725     28.9800
  1270.4000      8.1111      2.4860      0.0979      9.9390    153.7632     29.0492
  1270.5000      8.1363      2.4619      0.1027     11.3978    152.5161     29.0947
  1270.6000      8.1363      2.4276      0.0382     13.4759    151.6337     29.2519
  1270.7000      8.1363      2.4012      0.0125     15.0814    150.4600     29.6399
  1270.8000      8.1826      2.4086     -0.0043     14.6295    149.0783     30.1528
  1270.9000      8.1826      2.4493      0.0854     12.1640    150.4728     30.6023
  1271.0000      8.1616      2.4865      0.1303      9.9098    156.9592     30.7202
  1271.1000      8.1616      2.4964      0.0924      9.3089    166.2614     30.2130
  1271.2000      8.1616      2.4917      0.0947      9.5966    173.2096     29.3387
  1271.3000      8.1020      2.4895      0.0779      9.7294    173.4653     28.6573
  1271.4000      8.1020      2.4935      0.0823      9.4846    170.4571     28.3321
  1271.5000      8.0868      2.4956      0.0555      9.3549    169.0937     28.3280
  1271.6000      8.0868      2.4896      0.0557      9.7199    167.5817     28.5931
  1271.7000      8.0868      2.4859     -0.0039      9.9476    166.2943     28.7736
  1271.8000      8.0299      2.4961      0.0483      9.3268    166.5593     28.6181
  1271.9000      8.0299      2.5111      0.0467      8.4161    166.9328     28.3144
