~Version Information
VERS.                      2.0: CWLS Log ASCII Standard - VERSION 2.0
WRAP.                       NO: One line per depth step
~Well Information Block
STRT.FT               -12.2500: 
STOP.FT              2595.7500: 
STEP.FT                 0.2500: 
NULL.                -999.2500: 
COMP.          Petrogulf Corporation: COMPANY
WELL.            Montoya 1-44V: WELL
FLD.           Purgatoire River: FIELD
LOC.           753' FSL & 990' FEL--: LOCATION
PROV.                       CO: PROVINCE
CNTY.               Las Aniams: COUNTRY
SRVC.          Patterson Wireline: SERVICE COMPANY
DATE.          Mon Jun 13 11:58:10 2005: LOG DATE
UWI.           05 071 08142 00: UNIQUE WELL ID
~Curve Information Block
DEPT.FT            0 000 00 00: Depth
CCL.                          : Casing Collar Locator
TT3.usec                      : CBL 3' Travel Time
AMP3.mV                       : CBL 3' Amplitude
GR.GAPI                       : Gamma Ray
~Parameter Information Block
~A  Depth       CCL         TT3         AMP3         GR     
# ...
  1361.2500      0.0000    768.8141      3.0834     71.2044
  1361.5000      0.0000    760.1780      3.1633     72.8379
  1361.7500      0.0000    747.3421      3.2439     76.3570
  1362.0000      0.0000    734.3782      3.3366     79.9945
  1362.2500      0.0000    723.3906      3.4706     82.3257
  1362.5000      0.0000    714.5270      3.6624     83.0482
  1362.7500      0.0000    708.4121      3.9013     83.5125
  1363.0000      0.0000    707.7084      4.1656     85.8816
  1363.2500      0.0000    715.6055      4.4553     91.3705
  1363.5000      0.0000    732.6970      4.8009     99.3423
  1363.7500      0.0000    755.0709      5.2223    107.7658
  1364.0000      0.0000    775.0310      5.6815    114.2023
  1364.2500      0.0000    784.9426      6.0931    116.8695
  1364.5000      0.0000    782.4933      6.3714    115.8052
  1364.7500      0.0000    772.3491      6.4465    113.1837
  1365.0000      0.0000    761.8497      6.2634    111.7465
  1365.2500      0.0000    755.3291      5.8239    112.4918
  1365.5000      0.0000    752.0814      5.2390    114.0871
  1365.7500      0.0000    748.3631      4.6885    114.5374
  1366.0000      0.0000    741.2887      4.3003    113.0119
  1366.2500      0.0000    731.2941      4.0724    110.1361
  1366.5000      0.0000    720.9833      3.9094    107.1945
  1366.7500      0.0000    712.6348      3.7248    105.1399
  1367.0000      0.0000    707.8732      3.5211    103.8513
  1367.2500      0.0000    709.0836      3.3825    102.3927
  1367.5000      0.0000    719.5724      3.3782    100.3254
  1367.7500      0.0000    740.9923      3.4701     98.3809
  1368.0000      0.0000    769.1660      3.5279     97.5322
  1368.2500      0.0000    792.6072      3.4418     97.9310
  1368.5000      0.0000    798.6363      3.2261     99.1499
  1368.7500      0.0000    784.2744      3.0237    100.8798
  1369.0000      0.0000    760.2198      3.0096    102.8759
  1369.2500      0.0000    742.0029      3.2638    104.6023
  1369.5000      0.0000    737.5217      3.7148    105.5058
  1369.7500      0.0000    743.4196      4.1957    105.7831
  1370.0000      0.0000    751.2430      4.5623    106.8016
  1370.2500      0.0000    754.9939      4.7661    110.3910
  1370.5000      0.0000    753.6820      4.8390    117.0057
  1370.7500      0.0000    749.7071      4.8463    124.5433
  1371.0000      0.0000    747.0775      4.8748    129.6933
  1371.2500      0.0000    750.3641      5.0411    130.7777
  1371.5000      0.0000    762.1954      5.4703    129.0711
  1371.7500      0.0000    779.6454      6.2368    127.4423
  1372.0000      0.0000    793.2747      7.3177    128.0564
  1372.2500      0.0000    792.0656      8.6017    131.2467
  1372.5000      0.0000    772.6864      9.9320    135.9312
  1372.7500      0.0000    745.6270     11.1472    140.6568
  1373.0000      0.0000    729.5058     12.1278    144.5235
  1373.2500      0.0000    735.7418     12.8567    147.5437
  1373.5000      0.0000    758.9951     13.4362    149.9967
  1373.7500      0.0000    783.3889     14.0072    151.3458
  1374.0000      0.0000    794.6230     14.6275    150.3172
  1374.2500      0.0000    785.4086     15.2268    146.4007
  1374.5000      0.0000    755.6665     15.6598    140.8540
  1374.7500      0.0000    713.4240     15.7835    135.9367
  1375.0000      0.0000    673.8760     15.4914    133.4077
  1375.2500      0.0000    652.7047     14.7236    133.7989
  1375.5000      0.0000    657.8552     13.5056    136.5322
  1375.7500      0.0000    686.3856     11.9999    140.1938
  1376.0000      0.0000    727.8171     10.4906    143.0443
  1376.2500      0.0000    770.7650      9.2600    144.3113
  1376.5000      0.0000    807.0789      8.4454    145.0745
  1376.7500      0.0000    831.2916      7.9993    146.7457
  1377.0000      0.0000    839.5811      7.7654    148.6469
  1377.2500      0.0000    832.0206      7.5946    148.4892
  1377.5000      0.0000    815.3379      7.4264    145.3946
  1377.7500      0.0000    800.6175      7.2943    141.0609
  1378.0000      0.0000    795.4475      7.2803    137.5846
  1378.2500      0.0000    797.9908      7.4635    135.2384
  1378.5000      0.0000    799.4394      7.8837    132.9060
  1378.7500      0.0000    791.6515      8.5313    129.9429
  1379.0000      0.0000    772.3207      9.3693    126.9293
  1379.2500      0.0000    746.1439     10.3653    124.8658
  1379.5000      0.0000    723.7073     11.4773    124.1825
  1379.7500      0.0000    715.3466     12.6005    124.6220
  1380.0000      0.0000    719.6650     13.5721    125.8793
  1380.2500      0.0000    718.4989     14.2716    128.1605
  1380.5000      0.0000    689.2756     14.7051    131.8096
  1380.7500      0.0000    625.8707     14.9722    136.3649
  1381.0000      0.0000    547.5284     15.1612    140.3534
  1381.2500      0.0000    486.0985     15.2855    142.2729
  1381.5000      0.0000    462.3329     15.3043    141.9328
  1381.7500      0.0000    473.3112     15.1846    140.8517
  1382.0000      0.0000    502.6465     14.9371    140.8319
  1382.2500      0.0000    539.8386     14.5981    141.8709
  1382.5000      0.0000    584.8239     14.2078    142.0865
  1382.7500      0.0000    635.4207     13.8285    140.0630
  1383.0000      0.0000    680.4539     13.5595    136.6171
  1383.2500      0.0000    710.0328     13.4901    133.9035
  1383.5000      0.0000    726.9421     13.6319    133.3657
  1383.7500      0.0000    742.2520     13.9160    134.8918
  1384.0000      0.0000    760.5306     14.2495    137.4797
  1384.2500      0.0000    772.5099     14.5634    140.1027
  1384.5000      0.0000    762.8939     14.8255    142.1031
  1384.7500      0.0000    725.6134     15.0346    143.5310
  1385.0000      0.0000    674.5675     15.2019    145.3293
  1385.2500      0.0000    639.7728     15.3282    148.4305
  1385.5000      0.0000    646.4948     15.3931    152.2811
  1385.7500      0.0000    693.7026     15.3550    154.9733
  1386.0000      0.0000    755.3928     15.1515    155.1603
  1386.2500      0.0000    803.6348     14.7235    153.1698
  1386.5000      0.0000    827.6880     14.0789    150.2793
  1386.7500      0.0000    833.7068     13.3380    147.8030
  1387.0000      0.0000    833.0150     12.6854    146.8160
  1387.2500      0.0000    832.1237     12.2503    147.7280
  1387.5000      0.0000    830.0267     12.0334    149.6136
  1387.7500      0.0000    820.8392     11.9507    150.4207
  1388.0000      0.0000    797.3925     11.9241    148.5759
  1388.2500      0.0000    754.5622     11.9177    144.6545
  1388.5000      0.0000    693.7861     11.9242    140.8821
  1388.7500      0.0000    625.7441     11.9514    138.5371
  1389.0000      0.0000    565.4164     12.0115    136.6044
  1389.2500      0.0000    522.1257     12.0972    133.7038
  1389.5000      0.0000    494.7679     12.1745    130.5221
  1389.7500      0.0000    476.6046     12.2097    129.1476
  1390.0000      0.0000    463.5088     12.1925    130.2916
  1390.2500      0.0000    457.7357     12.1185    132.3714
  1390.5000      0.0000    465.4216     11.9579    133.6172
  1390.7500      0.0000    491.8835     11.6704    134.1608
  1391.0000      0.0000    538.6324     11.2610    135.4638
  1391.2500      0.0000    601.8640     10.7957    138.3376
  1391.5000      0.0000    672.0449     10.3370    142.2729
  1391.7500      0.0000    736.8643      9.8838    146.2067
  1392.0000      0.0000    787.0653      9.4020    149.1716
  1392.2500      0.0000    819.8654      8.9041    150.4805
  1392.5000      0.0000    837.3661      8.4592    149.7702
  1392.7500      0.0000    843.0898      8.1139    146.7763
  1393.0000      0.0000    840.3002      7.8257    141.3446
  1393.2500      0.0000    832.4488      7.4944    134.1865
  1393.5000      0.0000    823.5243      7.0490    127.1199
  1393.7500      0.0000    816.4482      6.4948    121.8589
  1394.0000      0.0000    810.9499      5.8918    118.7880
  1394.2500      0.0000    804.1600      5.3080    117.1420
  1394.5000      0.0000    793.6789      4.7969    115.9696
