~Version Information
VERS.                      2.0: CWLS Log ASCII Standard - VERSION 2.0
WRAP.                       NO: One line per depth step
~Well Information Block
STRT.FT               -12.5000: 
STOP.FT              2742.5000: 
STEP.FT                 0.2500: 
NULL.                -999.2500: 
COMP.          Pioneer Natural Resources: COMPANY
WELL.            Rangely 22-28: WELL
FLD.           Purgatorie River: FIELD
LOC.           720' FSL & 1036' FEL--: LOCATION
PROV.                       CO: PROVINCE
CNTY.               Las Animas: COUNTRY
SRVC.                         : SERVICE COMPANY
DATE.          Wed Nov 10 08:59:10 2004: LOG DATE
UWI.                          : UNIQUE WELL ID
~Curve Information Block
DEPT.FT            0 000 00 00: Depth
GR.GAPI                       : Gamma Ray
CCL.                          : Casing Collar Locator
TT3.usec                      : CBL 3' Travel Time
AMP3.mV                       : CBL 3' Amplitude
~Parameter Information Block
~A  Depth        GR         CCL         TT3         AMP3    
# ...
  2533.5000     83.7647      0.0000    693.9116      2.9476
  2533.7500     91.4522      0.0000    696.2393      3.0555
  2534.0000    101.0585      0.0000    693.4198      3.1754
  2534.2500    110.8294      0.0000    688.4688      3.2902
  2534.5000    118.1731      0.0000    685.4325      3.3890
  2534.7500    120.9651      0.0000    687.0611      3.4717
  2535.0000    118.7736      0.0000    693.9316      3.5444
  2535.2500    113.2565      0.0000    703.9943      3.6072
  2535.5000    107.1231      0.0000    713.0082      3.6464
  2535.7500    102.3892      0.0000    717.1288      3.6466
  2536.0000     99.6836      1.5570    715.6700      3.6107
  2536.2500     98.9890      2.0000    710.6238      3.5642
  2536.5000    100.3919      0.0000    704.0043      3.5357
  2536.7500    103.7977      0.0000    697.3675      3.5361
  2537.0000    108.4236      0.0000    693.6448      3.5562
  2537.2500    113.1188      0.0000    696.5640      3.5745
  2537.5000    117.0027      0.0000    706.5373      3.5740
  2537.7500    119.4186      0.0000    718.7114      3.5620
  2538.0000    119.6698      0.0000    726.8547      3.5687
  2538.2500    117.6391      0.0000    728.3251      3.6130
  2538.5000    114.5920      0.0000    724.3389      3.6793
  2538.7500    112.6285      0.0000    716.9319      3.7358
  2539.0000    113.1254      0.0000    707.3356      3.7659
  2539.2500    116.0336      0.0000    696.4213      3.7759
  2539.5000    120.3536      0.0000    684.9277      3.7776
  2539.7500    124.5657      0.0000    673.0461      3.7744
  2540.0000    126.7984      0.0000    660.7551      3.7639
  2540.2500    125.6705      0.0000    648.8111      3.7515
  2540.5000    121.4484      0.0000    638.7622      3.7537
  2540.7500    115.8668      0.0000    631.7937      3.7831
  2541.0000    110.6137      0.0000    628.0231      3.8331
  2541.2500    106.3825      0.0000    627.1496      3.8797
  2541.5000    103.2256      0.0000    629.6627      3.9038
  2541.7500    101.0578      0.0000    637.0641      3.9110
  2542.0000     99.5586      0.0000    650.0935      3.9275
  2542.2500     97.9915      0.0000    665.5176      3.9732
  2542.5000     95.4718      0.0000    675.1898      4.0408
  2542.7500     91.5045      0.0000    671.2819      4.1035
  2543.0000     86.4673      0.0000    654.5118      4.1396
  2543.2500     81.7577      0.0000    635.2789      4.1482
  2543.5000     79.0457      0.0000    624.2150      4.1420
  2543.7500     78.7112      0.0000    622.9384      4.1359
  2544.0000     79.0248      0.0000    625.6636      4.1407
  2544.2500     77.5336      0.0000    627.2009      4.1649
  2544.5000     73.5364      0.0000    626.7184      4.2125
  2544.7500     68.8395      0.0000    625.6974      4.2798
  2545.0000     65.9177      0.0000    625.3948      4.3528
  2545.2500     65.7009      0.0000    626.4680      4.4104
  2545.5000     67.4080      0.0000    629.4832      4.4344
  2545.7500     69.9641      0.0000    634.6785      4.4220
  2546.0000     72.7723      0.0000    641.1495      4.3887
  2546.2500     75.3448      0.0000    646.9022      4.3575
  2546.5000     77.2322      0.0000    650.7275      4.3454
  2546.7500     78.6354      0.0000    653.9717      4.3547
  2547.0000     80.3494      0.0000    659.5723      4.3751
  2547.2500     82.6048      0.0000    668.9124      4.3965
  2547.5000     84.4057      0.0000    679.7634      4.4189
  2547.7500     84.5073      0.0000    687.1829      4.4490
  2548.0000     82.7448      0.0000    686.6713      4.4886
  2548.2500     79.9047      0.0000    677.4070      4.5319
  2548.5000     76.5812      0.0000    662.8440      4.5697
  2548.7500     72.8373      0.0000    648.0610      4.5933
  2549.0000     68.9427      0.0000    636.6000      4.5977
  2549.2500     65.8797      0.0000    629.4080      4.5852
  2549.5000     64.9725      0.0000    625.6707      4.5639
  2549.7500     66.9903      0.0000    624.0311      4.5370
  2550.0000     71.4001      0.0000    623.3436      4.4975
  2550.2500     76.5028      0.0000    622.7346      4.4428
  2550.5000     80.5189      0.0000    621.1770      4.3913
  2550.7500     82.4609      0.0000    616.9705      4.3754
  2551.0000     82.1032      0.0000    608.2295      4.4129
  2551.2500     79.7613      0.0000    595.1719      4.4891
  2551.5000     76.2293      0.0000    582.4376      4.5703
  2551.7500     72.4853      0.0000    577.2312      4.6286
  2552.0000     69.4774      0.0000    583.1274      4.6508
  2552.2500     68.3215      0.0000    596.4374      4.6346
  2552.5000     70.0410      0.0000    609.9394      4.5859
  2552.7500     74.4323      0.0000    619.1267      4.5186
  2553.0000     79.5271      0.0000    624.1212      4.4470
  2553.2500     82.9246      0.0000    627.4103      4.3732
  2553.5000     83.7600      0.0000    631.3900      4.2881
  2553.7500     83.0224      0.0000    637.1998      4.1899
  2554.0000     81.9137      0.0000    644.2300      4.0998
  2554.2500     80.4184      0.0000    650.3184      4.0517
  2554.5000     77.9288      0.0000    653.1091      4.0657
  2554.7500     74.7815      0.0000    651.6099      4.1349
  2555.0000     72.3863      0.0000    646.6196      4.2334
  2555.2500     71.9384      0.0000    640.0399      4.3340
  2555.5000     73.5460      0.0000    634.0830      4.4221
  2555.7500     76.4394      0.0000    630.8270      4.5014
  2556.0000     79.4806      0.0000    632.1962      4.5825
  2556.2500     81.6038      0.0000    639.9763      4.6650
  2556.5000     82.2176      0.0000    654.6318      4.7388
  2556.7500     81.1652      0.0000    673.2511      4.8018
  2557.0000     78.4177      0.0000    689.5834      4.8653
  2557.2500     74.2617      0.0000    697.6832      4.9358
  2557.5000     69.7381      0.0000    695.5923      4.9986
  2557.7500     66.2488      0.0000    685.5925      5.0276
  2558.0000     64.3737      0.0000    672.1710      5.0133
  2558.2500     63.2968      0.0000    659.4297      4.9748
  2558.5000     61.7424      0.0000    648.1912      4.9358
  2558.7500     59.4722      0.0000    635.8970      4.8972
  2559.0000     57.5911      0.0000    621.6704      4.8433
  2559.2500     57.3749      0.0000    610.7048      4.7637
  2559.5000     59.1000      0.0000    609.9055      4.6587
  2559.7500     61.9849      0.0000    618.4250      4.5299
  2560.0000     64.7442      0.0000    625.6606      4.3797
  2560.2500     66.1498      0.0000    620.1653      4.2241
  2560.5000     65.5785      0.0000    598.5314      4.1054
  2560.7500     63.3559      0.0000    565.2654      4.0828
  2561.0000     60.4928      0.0000    526.6903      4.1924
  2561.2500     57.9941      0.0000    487.0795      4.4109
  2561.5000     56.4272      0.0000    450.4468      4.6600
  2561.7500     55.9790      1.8103    424.0237      4.8455
  2562.0000     56.5561      0.0000    417.4233      4.8983
  2562.2500     57.6803      0.0000    437.0491      4.8055
  2562.5000     58.6674      0.0000    480.3172      4.6138
  2562.7500     59.2409      0.0000    534.1001      4.4007
  2563.0000     59.6957      0.0000    579.9736      4.2343
  2563.2500     60.2272      0.0000    605.0283      4.1557
  2563.5000     60.4234      0.0000    610.6188      4.1738
  2563.7500     59.6231      0.0000    610.0129      4.2583
  2564.0000     57.5218      0.0000    615.5299      4.3452
  2564.2500     54.3210      0.0000    628.2628      4.3679
  2564.5000     50.5164      0.0000    640.7979      4.2901
  2564.7500     46.8092      0.0000    647.3066      4.1187
  2565.0000     44.1657      0.0000    648.3287      3.8948
  2565.2500     43.6228      0.0000    647.8112      3.6746
  2565.5000     45.7073      0.0000    649.0638      3.5079
  2565.7500     49.9140      0.0000    653.3405      3.4188
  2566.0000     54.8172      0.0000    659.7670      3.3963
  2566.2500     58.8345      0.0000    665.8949      3.4025
  2566.5000     61.1730      0.0000    669.3140      3.3966
  2566.7500     62.3829      0.0000    669.2802      3.3566
