~Version Information
VERS.                      2.0: CWLS Log ASCII Standard - VERSION 2.0
WRAP.                       NO: One line per depth step
~Well Information Block
STRT.FT                -8.2500: 
STOP.FT               836.2500: 
STEP.FT                 0.2500: 
NULL.                -999.2500: 
COMP.          Pioneer Natural Res.: COMPANY
WELL.            Hustler 12-17: WELL
FLD.           Purgatorie River: FIELD
LOC.           2150' FNL & 450' FWL----------: LOCATION
PROV.                       CO: PROVINCE
CNTY.               Las Animas: COUNTRY
SRVC.                Patterson: SERVICE COMPANY
DATE.          Wed Dec 29 13:37:10 2004: LOG DATE
UWI.           05 071 08236 00: UNIQUE WELL ID
~Curve Information Block
DEPT.FT            0 000 00 00: Depth
AMP3.mV                       : CBL 3' Amplitude
CCL.                          : Casing Collar Locator
GR.GAPI                       : Gamma Ray
TT3.usec                      : CBL 3' Travel Time
~Parameter Information Block
~A  Depth       AMP3        CCL          GR         TT3     
# ...
   326.7500      8.1371      0.0000    104.8214    830.8886
   327.0000      8.4755      0.0000    103.5922    823.9435
   327.2500      8.8000      0.0000    102.7549    817.3469
   327.5000      9.1011      0.0000    102.8477    812.5377
   327.7500      9.3744      0.0000    103.6627    810.3178
   328.0000      9.6105      0.0000    104.3492    810.1903
   328.2500      9.8064      0.0000    104.2490    810.9120
   328.5000      9.9778      0.0000    103.6634    811.5210
   328.7500     10.1397      0.0000    103.4979    811.1628
   329.0000     10.2794      0.0000    104.2541    808.4511
   329.2500     10.3619      0.0000    105.6071    802.2821
   329.5000     10.3622      0.0000    106.8949    793.1676
   329.7500     10.2862      0.0000    107.7608    782.9090
   330.0000     10.1603      0.0000    108.2852    773.1748
   330.2500     10.0078      0.0000    108.7517    765.0215
   330.5000      9.8461      0.0000    109.4444    759.6031
   330.7500      9.6962      0.0000    110.5065    758.3733
   331.0000      9.5739      0.0000    111.7510    761.6205
   331.2500      9.4736      0.0000    112.5684    766.7678
   331.5000      9.3711      0.0000    112.2000    769.2722
   331.7500      9.2417      0.0000    110.2393    766.1556
   332.0000      9.0720      0.0000    106.8459    758.4560
   332.2500      8.8537      0.0000    102.7293    750.2852
   332.5000      8.5798      0.0000     99.2366    746.6266
   332.7500      8.2607      0.0000     97.9710    751.6666
   333.0000      7.9377      0.0000     99.4678    766.5659
   333.2500      7.6590      0.0000    102.3434    787.1176
   333.5000      7.4396      0.0000    104.4421    804.6421
   333.7500      7.2604      0.0000    104.7989    810.9759
   334.0000      7.0962      0.0000    104.1416    803.6683
   334.2500      6.9332      0.0000    103.7382    787.3360
   334.5000      6.7722      0.0000    104.0955    770.8641
   334.7500      6.6298      0.0000    104.5215    762.8080
   335.0000      6.5301      0.0000    103.7670    767.3860
   335.2500      6.4931      0.0000    101.1418    782.1360
   335.5000      6.5292      0.0000     96.9380    798.4802
   335.7500      6.6353      0.0000     92.0385    806.4496
   336.0000      6.7974      0.0000     87.5798    801.3002
   336.2500      7.0035      0.0000     84.6999    786.4543
   336.5000      7.2537      0.0000     83.8120    770.2009
   336.7500      7.5533      0.0000     84.0806    759.9470
   337.0000      7.8971      0.0000     84.2101    759.1314
   337.2500      8.2622      0.0000     83.9172    767.1508
   337.5000      8.6179      0.0000     84.2989    779.9069
   337.7500      8.9371      0.0000     86.5259    791.3190
   338.0000      9.2074      0.0000     90.3797    797.3592
   338.2500      9.4416      0.0000     94.4337    799.4821
   338.5000      9.6714      0.0000     97.4236    802.1505
   338.7500      9.9076      0.0000     98.8239    806.4175
   339.0000     10.1098      0.0000     98.4214    808.0472
   339.2500     10.2175      0.0000     96.2366    802.8809
   339.5000     10.2120      0.0000     92.8733    792.2010
   339.7500     10.1347      0.0000     89.2885    781.4016
   340.0000     10.0399      0.0000     86.1616    774.6927
   340.2500      9.9429      0.0000     83.9470    772.5060
   340.5000      9.8202      0.0000     83.3833    772.7346
   340.7500      9.6554      0.0000     85.1669    772.5315
   341.0000      9.4701      0.0000     89.0737    769.5594
   341.2500      9.3056      0.0000     94.2726    763.3851
   341.5000      9.1849      0.0000    100.8196    755.8646
   341.7500      9.0974      0.0000    110.1093    749.4850
   342.0000      9.0152      0.0000    123.3280    745.4627
   342.2500      8.9170      0.0000    139.4825    743.5801
   342.5000      8.8023      0.0000    155.0748    743.1559
   342.7500      8.6844      0.0000    165.9210    743.6594
   343.0000      8.5678      0.0000    169.7121    744.7766
   343.2500      8.4274      0.0000    167.3029    746.5884
   343.5000      8.2192      0.0000    162.0465    750.0872
   343.7500      7.9190      0.0000    157.8681    757.2736
   344.0000      7.5470      0.0000    157.0808    769.6925
   344.2500      7.1514      0.0000    159.3072    785.7754
   344.5000      6.7686      0.0000    162.4335    800.0873
   344.7500      6.4040      0.0000    164.4059    807.1857
   345.0000      6.0535      0.0000    163.9334    807.1080
   345.2500      5.7406      0.0000    160.3384    805.8427
   345.5000      5.5139      0.0000    153.6698    809.6183
   345.7500      5.4038      0.0000    144.8252    819.6729
   346.0000      5.3936      0.0000    135.1814    832.8898
   346.2500      5.4419      0.0000    126.0613    845.6882
   346.5000      5.5212      0.0000    118.2676    855.9694
   346.7500      5.6329      0.0000    111.9037    862.6539
   347.0000      5.7905      0.0000    106.7505    865.3350
   347.2500      5.9913      0.0000    102.7440    864.9268
   347.5000      6.2053      0.0000     99.9377    864.1762
   347.7500      6.3928      0.0000     98.2630    866.4615
   348.0000      6.5287      0.0000     97.5202    872.6658
   348.2500      6.6091      0.0000     97.4434    879.1474
   348.5000      6.6394      0.0000     97.7358    880.3560
   348.7500      6.6246      0.0000     98.2090    874.2524
   349.0000      6.5747      0.0000     98.9574    864.2293
   349.2500      6.5112      0.0000    100.4128    855.2358
   349.5000      6.4566      0.0000    103.0657    849.0121
   349.7500      6.4143      0.0000    106.8395    843.8508
   350.0000      6.3656      0.0000    110.6337    838.0260
   350.2500      6.2872      0.0000    112.7454    831.9484
   350.5000      6.1732      0.0000    112.2471    827.0880
   350.7500      6.0417      0.0000    110.1374    824.0992
   351.0000      5.9190      0.0000    108.8021    822.4276
   351.2500      5.8189      0.0000    110.1168    821.0633
   351.5000      5.7436      0.0000    114.1326    819.2606
   351.7500      5.6967      0.0000    119.4525    816.9445
   352.0000      5.6822      0.0000    124.5350    814.8268
   352.2500      5.6908      0.0000    128.6771    813.9440
   352.5000      5.6969      0.0000    132.0455    814.6994
   352.7500      5.6819      0.0000    134.8492    816.3972
   353.0000      5.6549      0.0000    136.4289    817.8935
   353.2500      5.6427      0.0000    135.3625    818.5283
   353.5000      5.6601      0.0000    130.8691    818.2180
   353.7500      5.6949      0.0000    124.1157    816.7806
   354.0000      5.7159      0.0000    117.6405    813.3984
   354.2500      5.6971      0.0000    113.2120    806.9295
   354.5000      5.6387      0.0000    110.4906    797.1350
   354.7500      5.5628      0.0000    107.8516    785.8713
   355.0000      5.4922      0.0000    104.1473    776.7013
   355.2500      5.4408      0.0000     99.4670    772.6401
   355.5000      5.4154      0.0000     94.6546    774.1585
   355.7500      5.4122      0.0000     90.6581    779.5386
   356.0000      5.4096      0.0000     88.2807    786.7119
   356.2500      5.3762      0.0000     87.9458    794.0701
   356.5000      5.2978      0.0000     89.3794    799.8767
   356.7500      5.1937      0.0000     91.7167    802.2150
   357.0000      5.0969      0.0000     94.0825    800.2594
   357.2500      5.0228      0.0000     96.0996    795.2203
   357.5000      4.9707      0.0000     97.9803    789.5135
   357.7500      4.9505      0.0000    100.1097    785.0256
   358.0000      4.9830      0.0000    102.3855    782.2717
   358.2500      5.0646      0.0000    104.1761    780.8438
   358.5000      5.1520      0.0000    105.2334    780.1836
   358.7500      5.2007      0.0000    106.3899    779.8826
   359.0000      5.2094      0.0000    108.7698    779.5808
   359.2500      5.2072      0.0000    112.2306    778.9377
   359.5000      5.2070      0.0000    115.0165    777.9338
   359.7500      5.1918      0.0000    115.2845    777.0469
   360.0000      5.1432      0.0000    112.9287    776.6357
