~Version Information
VERS.                      2.0: CWLS Log ASCII Standard - VERSION 2.0
WRAP.                       NO: One line per depth step
~Well Information Block
STRT.FT               870.0000: 
STOP.FT              2519.5000: 
STEP.FT                 0.2500: 
NULL.                -999.2500: 
COMP.          Pioneer Natural Resources: COMPANY
WELL.              Tiaga 23-14: WELL
FLD.           Purgatoire River: FIELD
LOC.           2168' FSL & 2030' FWL: LOCATION
PROV.                 Colorado: PROVINCE
CNTY.               Las Animas: COUNTRY
SRVC.                         : SERVICE COMPANY
DATE.          Sat May 07 08:44:43 2005: LOG DATE
UWI.           05 071 08329 00: UNIQUE WELL ID
~Curve Information Block
DEPT.FT            0 000 00 00: Depth
LTEN.lb                       : Surface Line Tension
SN.Ohm-m                      : IEL Short Normal
SP.mV                         : IEL Spontaneous Potential
DIR.Ohm-m                     : IEL Induction Resistivity
GR.GAPI                       : Gamma Ray
~Parameter Information Block
~A  Depth       LTEN         SN          SP         DIR          GR     
# ...
  2158.0000    872.6796     37.7210     -5.4623     32.5016     62.4172
  2158.2500    872.4295     37.7876     -5.2102     33.1134     65.9502
  2158.5000    871.0645     37.6477     -4.9748     33.6428     70.1646
  2158.7500    868.3528     37.2856     -4.7670     34.1634     71.6544
  2159.0000    864.3748     36.8074     -4.5844     34.7015     72.1598
  2159.2500    859.5684     36.4070     -4.4175     35.2027     72.0704
  2159.5000    854.5613     36.2704     -4.2589     35.5616     72.3188
  2159.7500    850.1529     36.4553     -4.1099     35.7040     72.7116
  2160.0000    847.3390     36.8362     -3.9785     35.6634     72.8684
  2160.2500    846.9467     37.1916     -3.8702     35.5801     72.3784
  2160.5000    849.0847     37.3954     -3.7820     35.6178     70.9131
  2160.7500    853.0773     37.5326     -3.7037     35.8751     69.6043
  2161.0000    857.9590     37.7973     -3.6272     36.3554     66.8287
  2161.2500    862.9319     38.3090     -3.5529     37.0032     64.1041
  2161.5000    867.4183     39.0932     -3.4871     37.7568     58.7816
  2161.7500    870.8672     40.1648     -3.4342     38.5663     54.9641
  2162.0000    872.6334     41.5045     -3.3891     39.3610     50.0106
  2162.2500    872.2080     42.9930     -3.3355     40.0117     47.6191
  2162.5000    869.7733     44.4716     -3.2557     40.3471     45.2895
  2162.7500    866.4788     45.8687     -3.1457     40.2371     44.2060
  2163.0000    863.8268     47.1912     -3.0251     39.6776     42.6781
  2163.2500    862.5460     48.3763     -2.9287     38.7905     41.5797
  2163.5000    862.1627     49.2054     -2.8825     37.7312     39.9247
  2163.7500    861.7453     49.3958     -2.8859     36.5946     39.0414
  2164.0000    860.8900     48.7704     -2.9171     35.3980     38.5560
  2164.2500    859.9096     47.3466     -2.9500     34.1317     39.0234
  2164.5000    859.2706     45.2676     -2.9697     32.8105     41.0809
  2164.7500    859.0320     42.6872     -2.9778     31.4792     43.3593
  2165.0000    858.8474     39.8047     -2.9906     30.1809     47.9224
  2165.2500    858.4280     36.9468     -3.0302     28.9336     51.3909
  2165.5000    857.9290     34.4458     -3.1121     27.7347     56.3665
  2165.7500    857.9144     32.4190     -3.2394     26.5837     59.0359
  2166.0000    859.0319     30.7669     -3.4045     25.4961     61.5660
  2166.2500    861.6408     29.3924     -3.5941     24.4990     62.2567
  2166.5000    865.4787     28.3428     -3.7952     23.6141     62.1171
  2166.7500    869.5751     27.6861     -3.9995     22.8477     61.4575
  2167.0000    872.7097     27.3426     -4.2059     22.1956     59.8776
  2167.2500    874.1870     27.1528     -4.4165     21.6565     58.5723
  2167.5000    874.1766     27.0205     -4.6314     21.2389     56.6482
  2167.7500    873.3115     26.9097     -4.8456     20.9578     55.7546
  2168.0000    872.0469     26.7850     -5.0512     20.8264     55.6350
  2168.2500    870.3332     26.6113     -5.2370     20.8509     56.5559
  2168.5000    867.7794     26.3984     -5.3889     21.0298     59.1451
  2168.7500    864.2305     26.2286     -5.4898     21.3551     61.1267
  2169.0000    860.2787     26.2338     -5.5283     21.8165     63.1996
  2169.2500    857.0795     26.5356     -5.5086     22.4054     63.3587
  2169.5000    855.5596     27.1906     -5.4517     23.1145     61.4645
  2169.7500    855.8040     28.1833     -5.3801     23.9329     59.1078
  2170.0000    857.1672     29.4483     -5.3008     24.8381     54.9269
  2170.2500    858.9037     30.9088     -5.2018     25.7944     52.2038
  2170.5000    860.6901     32.5318     -5.0653     26.7578     48.5102
  2170.7500    862.6164     34.3313     -4.8846     27.6846     46.1687
  2171.0000    864.8322     36.2822     -4.6720     28.5408     42.4781
  2171.2500    867.3101     38.2260     -4.4535     29.3041     39.9270
  2171.5000    869.8446     39.8926     -4.2551     29.9597     36.6856
  2171.7500    872.1393     41.0712     -4.0906     30.4896     35.5383
  2172.0000    873.9005     41.7873     -3.9600     30.8641     36.0502
  2172.2500    874.8309     42.2661     -3.8573     31.0497     37.8355
  2172.5000    874.5643     42.6581     -3.7790     31.0382     41.9087
  2172.7500    872.9141     42.8477     -3.7245     30.8820     44.8992
  2173.0000    870.3404     42.6090     -3.6907     30.6937     48.6030
  2173.2500    867.8001     41.8801     -3.6706     30.5891     49.9433
  2173.5000    865.8710     40.8422     -3.6611     30.6120     49.8427
  2173.7500    864.2827     39.7936     -3.6684     30.7026     48.6691
  2174.0000    862.4768     38.9709     -3.7013     30.7431     46.2963
  2174.2500    860.3604     38.4688     -3.7618     30.6471     44.7755
  2174.5000    858.4299     38.2695     -3.8438     30.4194     42.8547
  2174.7500    857.4121     38.2809     -3.9391     30.1400     41.8970
  2175.0000    857.7621     38.3663     -4.0405     29.9080     41.2700
  2175.2500    859.2441     38.4148     -4.1401     29.7973     41.5438
  2175.5000    861.0762     38.4098     -4.2308     29.8482     42.8631
  2175.7500    862.7109     38.4392     -4.3110     30.0801     44.0871
  2176.0000    864.3253     38.6664     -4.3871     30.5069     45.9658
  2176.2500    866.4078     39.2629     -4.4656     31.1435     47.0249
  2176.5000    869.0956     40.3165     -4.5450     32.0020     48.0177
  2176.7500    871.9809     41.8257     -4.6150     33.0841     48.1365
  2177.0000    874.3160     43.7946     -4.6633     34.3829     47.3098
  2177.2500    875.3775     46.2632     -4.6817     35.8908     46.0489
  2177.5000    874.8112     49.2279     -4.6718     37.6027     43.3965
  2177.7500    872.6995     52.5733     -4.6466     39.5112     41.6008
  2178.0000    869.3351     56.1138     -4.6252     41.6017     39.7648
  2178.2500    865.0668     59.7439     -4.6245     43.8503     39.2563
  2178.5000    860.4391     63.5081     -4.6550     46.2181     39.0011
  2178.7500    856.3686     67.4990     -4.7230     48.6303     38.7223
  2179.0000    853.9138     71.7515     -4.8311     50.9460     37.7544
  2179.2500    853.6224     76.2132     -4.9762     52.9548     36.6962
  2179.5000    855.1335     80.8078     -5.1487     54.4499     34.3983
  2179.7500    857.5898     85.5421     -5.3387     55.3668     32.3414
  2180.0000    860.4241     90.4384     -5.5380     55.8425     28.7141
  2180.2500    863.5833     95.2754     -5.7357     56.0540     26.3866
  2180.5000    867.0039     99.4519     -5.9108     55.9166     24.0645
  2180.7500    870.1262    102.1541     -6.0332     54.9292     23.7158
  2181.0000    872.2409    102.6815     -6.0725     52.4248     24.9164
  2181.2500    873.3080    100.7758     -6.0066     48.1583     26.3526
  2181.5000    874.0522     96.7765     -5.8241     42.6511     28.2844
  2181.7500    875.1057     91.3745     -5.5223     36.8562     28.9728
  2182.0000    876.3475     85.1019     -5.1104     31.5621     29.2630
  2182.2500    877.1865     78.0372     -4.6100     27.1283     29.5515
  2182.5000    877.1848     69.8866     -4.0469     23.5715     31.4033
  2182.7500    876.2670     60.4132     -3.4387     20.7481     34.1207
  2183.0000    874.5316     50.1089     -2.7929     18.4859     40.6504
  2183.2500    872.0478     40.3036     -2.1147     16.6442     46.4379
  2183.5000    868.8495     32.2048     -1.4141     15.1261     56.7671
  2183.7500    865.1494     26.0193     -0.7018     13.8670     64.4840
  2184.0000    861.6138     21.2662      0.0155     12.8209     76.8229
  2184.2500    859.2693     17.5964      0.7334     11.9518     85.2984
  2184.5000    858.9346     15.0050      1.4402     11.2302     98.2677
  2184.7500    860.7125     13.5037      2.1094     10.6334    107.0852
  2185.0000    863.9969     12.9145      2.7046     10.1450    119.7186
  2185.2500    867.8019     12.9119      3.1958      9.7535    126.4359
  2185.5000    871.1622     13.1241      3.5720      9.4501    131.2850
  2185.7500    873.5599     13.2676      3.8425      9.2257    130.3364
