~Version Information
VERS.                      2.0: CWLS Log ASCII Standard - VERSION 2.0
WRAP.                       NO: One line per depth step
~Well Information Block
STRT.FT                 0.5000: 
STOP.FT              2891.5000: 
STEP.FT                 0.2500: 
NULL.                -999.2500: 
COMP.          Petrogulf Corporation: COMPANY
WELL.            Montoya 1-41V: WELL
FLD.           Purgatoire River: FIELD
LOC.           610' FNL & 1205' FEL--: LOCATION
PROV.                 Colorado: PROVINCE
CNTY.               Las Animas: COUNTRY
SRVC.                Patterson: SERVICE COMPANY
DATE.          Mon Sep 12 11:42:30 2005: LOG DATE
UWI.           05 071 08144 00: UNIQUE WELL ID
~Curve Information Block
DEPT.FT            0 000 00 00: Depth
CCL.                          : Casing Collar Locator
TT3.usec                      : CBL 3' Travel Time
AMP3.mV                       : CBL 3' Amplitude
GR.GAPI                       : Gamma Ray
~Parameter Information Block
~A  Depth       CCL         TT3         AMP3         GR     
# ...
  1709.0000      0.0000    750.3212      3.4291     68.5274
  1709.2500      0.0000    780.2552      3.5493     68.1498
  1709.5000      0.0000    809.8269      3.8077     69.1204
  1709.7500      0.0000    822.4727      4.2157     72.5287
  1710.0000      0.0000    809.5406      4.7382     79.2689
  1710.2500      0.0000    778.6656      5.3224     88.3011
  1710.5000      0.0000    746.6365      5.9498     97.1215
  1710.7500      0.0000    724.9536      6.6672    103.9987
  1711.0000      0.0000    714.1409      7.5629    109.3231
  1711.2500      0.0000    709.7629      8.7016    114.5296
  1711.5000      0.0000    710.0125     10.0576    119.9578
  1711.7500      0.0000    716.5084     11.4897    124.3517
  1712.0000      0.0000    730.1840     12.7745    126.6451
  1712.2500      0.0000    748.6044     13.6835    127.4186
  1712.5000      0.0000    766.8433     14.0716    127.9970
  1712.7500      0.0000    780.1319     13.9415    128.7603
  1713.0000      0.0000    786.8734     13.4443    128.9299
  1713.2500      0.0000    790.8477     12.7950    127.4160
  1713.5000      0.0000    799.1439     12.1528    123.3226
  1713.7500      0.0000    815.0134     11.5584    116.1421
  1714.0000      0.0000    832.3987     10.9669    106.1142
  1714.2500      0.0000    840.1360     10.3275     94.4775
  1714.5000      0.0000    833.9346      9.6357     83.3493
  1714.7500      0.0000    822.7919      8.9366     75.3169
  1715.0000      0.0000    820.6970      8.2992     72.4729
  1715.2500      0.0000    832.7970      7.7895     74.9546
  1715.5000      0.0000    852.2110      7.4595     80.3958
  1715.7500      0.0000    869.1721      7.3513     85.5279
  1716.0000      0.0000    879.5603      7.4927     88.6839
  1716.2500      0.0000    884.3356      7.8736     90.4668
  1716.5000      0.0000    884.5526      8.4309     91.9745
  1716.7500      0.0000    879.6325      9.0637     93.0856
  1717.0000      0.0000    869.3247      9.6701     92.9554
  1717.2500      0.0000    854.3787     10.1784     91.4602
  1717.5000      0.0000    833.8836     10.5628     89.2069
  1717.7500      0.0000    805.0650     10.8491     86.4560
  1718.0000      0.0000    768.7725     11.1037     82.9865
  1718.2500      0.0000    732.6491     11.4009     78.9676
  1718.5000      0.0000    705.8685     11.7852     75.2573
  1718.7500      0.0000    692.2689     12.2513     72.8608
  1719.0000      0.0000    689.6917     12.7438     72.5565
  1719.2500      0.0000    692.6081     13.1710     74.8267
  1719.5000      0.0000    693.7820     13.4507     79.4974
  1719.7500      0.0000    687.4202     13.5646     85.2844
  1720.0000      0.0000    674.6093     13.5389     90.0544
  1720.2500      0.0000    663.6883     13.3536     91.8904
  1720.5000      0.0000    661.9955     12.9384     90.0665
  1720.7500      0.0000    669.4921     12.3098     85.2478
  1721.0000      0.0000    683.5156     11.6457     79.1594
  1721.2500      0.0000    705.4348     11.1503     73.9645
  1721.5000      0.0000    737.1658     10.8779     71.2117
  1721.7500      0.0000    773.6026     10.7129     70.9996
  1722.0000      0.0000    803.7873     10.4785     72.4762
  1722.2500      0.0000    819.1382     10.0569     75.1409
  1722.5000      0.0000    818.0042      9.4648     79.0845
  1722.7500      0.0000    804.0306      8.8603     84.0417
  1723.0000      0.0000    783.6087      8.4689     88.9811
  1723.2500      0.0000    764.6106      8.4660     92.7529
  1723.5000      0.0000    754.9567      8.8886     94.6157
  1723.7500      0.0000    759.4990      9.6235     94.1353
  1724.0000      0.0000    776.2766     10.4757     91.0485
  1724.2500      0.0000    795.5322     11.2620     85.4657
  1724.5000      0.0000    804.7401     11.8569     78.2243
  1724.7500      0.0000    797.0231     12.1823     70.8713
  1725.0000      0.0000    775.0735     12.2056     64.9927
  1725.2500      0.0000    747.2383     11.9634     61.3808
  1725.5000      0.0000    722.0517     11.5550     59.7162
  1725.7500      0.0000    706.2497     11.0794     58.9017
  1726.0000      0.0000    704.0988     10.5709     57.7713
  1726.2500      0.0000    715.6765      9.9987     55.6957
  1726.5000      0.0000    736.2179      9.3211     52.6962
  1726.7500      0.0000    758.6445      8.5389     49.2460
  1727.0000      0.0000    777.2783      7.7066     46.1011
  1727.2500      0.0000    789.0118      6.9050     44.0362
  1727.5000      0.0000    791.9896      6.2050     43.4311
  1727.7500      0.0000    785.7222      5.6463     44.1903
  1728.0000      0.0000    773.1738      5.2370     46.2073
  1728.2500      0.0000    759.5587      4.9617     49.7448
  1728.5000      0.0000    747.0139      4.7904     54.9903
  1728.7500      0.0000    732.8655      4.6861     61.1406
  1729.0000      0.0000    715.2767      4.6130     66.3633
  1729.2500      0.0000    698.3014      4.5454     69.0064
  1729.5000      0.0000    689.1626      4.4711     68.7265
  1729.7500      0.0000    691.9121      4.3898     66.3670
  1730.0000      0.0000    704.7881      4.3064     63.0197
  1730.2500      0.0000    722.0732      4.2239     59.3455
  1730.5000      0.0000    737.3719      4.1367     55.6464
  1730.7500      0.0000    746.5992      4.0339     52.4456
  1731.0000      0.0000    749.7714      3.9111     50.9202
  1731.2500      0.0000    750.4028      3.7813     52.6626
  1731.5000      0.0000    752.5188      3.6714     58.7689
  1731.7500      0.0000    757.4365      3.6064     68.8569
  1732.0000      0.0000    762.9371      3.5981     81.0582
  1732.2500      0.0000    765.5823      3.6480     93.2809
  1732.5000      0.0000    763.7712      3.7579    104.4259
  1732.7500      0.0000    758.4038      3.9357    114.2032
  1733.0000      0.0000    751.3762      4.1906    122.2073
  1733.2500      0.0000    744.4252      4.5187    127.8641
  1733.5000      0.0000    738.7064      4.8879    131.3554
  1733.7500      0.0000    734.3533      5.2430    133.9624
  1734.0000      0.0000    730.9355      5.5354    136.8511
  1734.2500      0.0000    729.0602      5.7539    139.5878
  1734.5000      0.0000    730.8734      5.9300    140.4064
  1734.7500      0.0000    738.3379      6.1134    138.0969
  1735.0000      0.0000    751.6936      6.3362    133.3066
  1735.2500      0.0000    769.7303      6.5864    128.0358
  1735.5000      0.0000    789.7953      6.8136    124.2725
  1735.7500      0.0000    806.5343      6.9621    123.1157
  1736.0000      0.0000    813.1887      7.0048    124.7194
  1736.2500      0.0000    807.1252      6.9539    128.6770
  1736.5000      0.0000    793.1392      6.8538    134.3098
  1736.7500      0.0000    779.1444      6.7724    140.5412
  1737.0000      0.0000    769.6959      6.7842    145.7179
  1737.2500      0.0000    765.4774      6.9369    148.1313
  1737.5000      0.0000    766.7883      7.2234    147.0507
  1737.7500      0.0000    773.5333      7.5912    143.0739
  1738.0000      0.0000    781.6293      7.9803    137.4316
  1738.2500      0.0000    783.9889      8.3481    131.2456
  1738.5000      0.0000    779.4329      8.6630    125.5531
  1738.7500      0.0000    779.7222      8.8876    121.5516
  1739.0000      0.0000    801.9612      8.9843    120.0079
  1739.2500      0.0000    849.9455      8.9355    120.2607
  1739.5000      0.0000    905.1392      8.7482    120.4236
  1739.7500      0.0000    940.3409      8.4419    119.0202
  1740.0000      0.0000    941.9622      8.0432    116.3681
  1740.2500      0.0000    916.9330      7.5995    114.2500
  1740.5000      0.0000    880.7508      7.1822    114.3482
  1740.7500      0.0000    843.8488      6.8589    117.0200
  1741.0000      0.0000    809.3258      6.6506    121.3524
  1741.2500      0.0000    778.6081      6.5200    126.0577
  1741.5000      0.0000    754.5770      6.4105    130.1879
  1741.7500      0.0000    739.0215      6.2968    133.1797
  1742.0000      0.0000    729.8794      6.1909    134.6666
  1742.2500      0.0000    722.6859      6.1034    134.8211
