~Version Information
VERS.                      2.0: CWLS Log ASCII Standard - VERSION 2.0
WRAP.                       NO: One line per depth step
~Well Information Block
STRT.FT               375.0000: 
STOP.FT              2637.2500: 
STEP.FT                 0.2500: 
NULL.                -999.2500: 
COMP.          Pioneer Natural Resources: COMPANY
WELL.            Cortina 23-25: WELL
FLD.           Purgatoire River: FIELD
LOC.           2344' FWL & 2526' FSL----: LOCATION
PROV.                 Colorado: PROVINCE
CNTY.               Las Animas: COUNTRY
SRVC.                Patterson: SERVICE COMPANY
DATE.          Wed Mar 23 19:09:49 2005: LOG DATE
UWI.           05 071 08340 00: UNIQUE WELL ID
~Curve Information Block
DEPT.FT            0 000 00 00: Depth
DIR.Ohm-m                     : IEL Induction Resistivity
SN.Ohm-m                      : IEL Short Normal
SP.mV                         : IEL Spontaneous Potential
GR.GAPI                       : Gamma Ray
~Parameter Information Block
~A  Depth       DIR          SN          SP          GR     
# ...
  1715.0000      0.0000      0.0000      0.0000     82.4310
  1715.2500      0.0000      0.0000      0.0000     79.2191
  1715.5000      0.0000      0.0000      0.0000     93.4945
  1715.7500      0.0000      0.0000      0.0000    102.6757
  1716.0000      0.0000      0.0000      0.0000    112.3970
  1716.2500      0.0000      0.0000      0.0000     98.7847
  1716.5000      0.0000      0.0000      0.0000     97.5150
  1716.7500      0.0000      0.0000      0.0000     93.6172
  1717.0000      0.0000      0.0000      0.0000     84.6454
  1717.2500      0.0000      0.0000      0.0000     78.1572
  1717.5000      0.0000      0.0000      0.0000     70.7354
  1717.7500      0.0000      0.0000      0.0000     68.6811
  1718.0000      0.0000      0.0000      0.0000     71.0174
  1718.2500      0.0000      0.0000      0.0000     76.0223
  1718.5000      0.0000      0.0000      0.0000     86.7905
  1718.7500      0.0000      0.0000      0.0000     94.1813
  1719.0000      0.0000      0.0000      0.0000    101.9748
  1719.2500      0.0000      0.0000      0.0000    103.6046
  1719.5000      0.0000      0.0000      0.0000    100.7157
  1719.7500      0.0000      0.0000      0.0000     96.4669
  1720.0000      0.0000      0.0000      0.0000     89.1724
  1720.2500      0.0000      0.0000      0.0000     84.6163
  1720.5000      0.0000      0.0000      0.0000     79.0352
  1720.7500      0.0000      0.0000      0.0000     76.7692
  1721.0000      0.0000      0.0000      0.0000     76.8547
  1721.2500      0.0000      0.0000      0.0000     79.4279
  1721.5000      0.0000      0.0000      0.0000     85.6480
  1721.7500      0.0000      0.0000      0.0000     89.8764
  1722.0000      0.0000      0.0000      0.0000     93.8708
  1722.2500      0.0000      0.0000      0.0000     94.2093
  1722.5000      0.0000      0.0000      0.0000     91.9910
  1722.7500      0.0000      0.0000      0.0000     90.1966
  1723.0000      0.0000      0.0000      0.0000     89.3807
  1723.2500      0.0000      0.0000      0.0000     90.2158
  1723.5000      0.0000      0.0000      0.0000     91.9432
  1723.7500      0.0000      0.0000      0.0000     92.6362
  1724.0000      0.0000      0.0000      0.0000     93.2817
  1724.2500      0.0000      0.0000      0.0000     94.1704
  1724.5000      0.0000      0.0000      0.0000     96.8486
  1724.7500      0.0000      0.0000      0.0000     99.2190
  1725.0000      0.0000      0.0000      0.0000    102.1795
  1725.2500      0.0000      0.0000      0.0000    102.6735
  1725.5000      0.0000      0.0000      0.0000     99.9633
  1725.7500      0.0000      0.0000      0.0000     96.1016
  1726.0000      0.0000      0.0000      0.0000     89.5469
  1726.2500      0.0000      0.0000      0.0000     86.5173
  1726.5000      0.0000      0.0000      0.0000     86.0808
  1726.7500      0.0000      0.0000      0.0000     88.4241
  1727.0000      0.0000      0.0000      0.0000     94.0212
  1727.2500      0.0000      0.0000      0.0000     97.9765
  1727.5000      0.0000      0.0000      0.0000    102.9597
  1727.7500      0.0000      0.0000      0.0000    105.0252
  1728.0000      0.0000      0.0000      0.0000    105.0982
  1728.2500      0.0000      0.0000      0.0000    102.6648
  1728.5000      0.0000      0.0000      0.0000     95.2113
  1728.7500      0.0000      0.0000      0.0000     88.0711
  1729.0000      0.0000      0.0000      0.0000     75.5025
  1729.2500      0.0000      0.0000      0.0000     67.1367
  1729.5000      0.0000      0.0000      0.0000     56.8481
  1729.7500      0.0000      0.0000      0.0000     52.2776
  1730.0000 100000.0000   2000.0000   1900.0000     48.7143
  1730.2500 100000.0000   2000.0000   1900.0000     47.8227
  1730.5000 100000.0000   2000.0000   1900.0000     47.5352
  1730.7500 100000.0000     -1.3610   1900.0000     47.8250
  1731.0000     26.3459     -1.3451   1900.0000     49.3543
  1731.2500      3.2806     -1.3293   1900.0000     51.4971
  1731.5000      1.5753     -1.3116   1900.0000     56.9984
  1731.7500      0.9871     -1.2948   1900.0000     62.2819
  1732.0000      0.7002     -1.2840   1900.0000     71.6236
  1732.2500      0.5353     -1.2808   -122.4506     77.5356
  1732.5000      0.4318     -1.2818   -122.8781     84.2179
  1732.7500      0.3644     -1.2836   -123.1908     87.3815
  1733.0000      0.2499     -1.2844   -123.4106     91.6859
  1733.2500      0.2288     -1.2846   -123.5387     94.6008
  1733.5000      0.2172     -1.2889   -123.5551     98.0845
  1733.7500      0.2133     -1.3084   -123.4267     99.1078
  1734.0000      0.2161     -1.3560   -123.1189     98.0754
  1734.2500      0.2260     -1.4353   -122.6086     95.4655
  1734.5000      0.2446     -1.5325   -121.8932     88.5193
  1734.7500      0.2739     -1.6201   -120.9954     82.3397
  1735.0000      0.3162     -1.6702   -119.9634     72.7844
  1735.2500      0.3731     -1.6724   -118.8675     67.5415
  1735.5000      0.4454     -1.6402   -117.7944     62.3291
  1735.7500      0.5328     -1.5991   -116.8399     60.2195
  1736.0000      0.6327     -1.5650   -116.0997     57.9778
  1736.2500      0.7371     -1.5371   -115.6608     56.9025
  1736.5000      0.8259     -1.5095   -115.5932     56.2929
  1736.7500      0.8661     -1.4769   -115.9446     56.5771
  1737.0000      0.8353     -1.4297   -116.7364     57.2790
  1737.2500      0.7515     -1.3561   -117.9621     57.5408
  1737.5000      0.6586     -1.2634   -119.5811     58.1713
  1737.7500      0.5898     -1.1940   -121.5030     59.6930
  1738.0000      0.5572     -1.1996   -123.5617     65.0568
  1738.2500      0.5616     -1.2880   -125.4819     70.9066
  1738.5000      0.6014     -1.4090   -126.8464     82.2662
  1738.7500      0.6766     -1.4989   -127.0819     90.5256
  1739.0000      0.7932     -1.5291   -125.4852    101.7669
  1739.2500      0.9674     -1.5130   -121.3066    107.2976
  1739.5000      1.2361     -1.4851   -113.8937    110.9729
  1739.7500      1.6790     -1.4777   -102.8728    109.9650
  1740.0000      2.4843     -1.4990    -88.3211    105.0403
  1740.2500      4.1929     -1.5226    -70.8736    102.0659
  1740.5000      9.1634     -1.5034    -51.7080    102.6447
  1740.7500     64.2813     -1.4117    -32.3877    107.4569
  1741.0000 100000.0000     -1.2481    -14.5873    119.8518
  1741.2500 100000.0000     -1.0137      0.2288    129.7762
  1741.5000 100000.0000     -0.6481     11.0838    143.6109
  1741.7500 100000.0000     -0.0040     17.6406    149.6627
  1742.0000 100000.0000      1.0771     20.1938    150.3691
  1742.2500 100000.0000      2.6345     19.5178    145.3334
  1742.5000 100000.0000      4.5428     16.6358    134.3359
  1742.7500 100000.0000      6.6103     12.5846    128.0411
  1743.0000    224.0898      8.6975      8.2385    121.9212
  1743.2500     42.8546     10.7286      4.2217    118.8509
  1743.5000     40.2718     12.6247      0.9010    114.3170
  1743.7500     79.1593     14.2685     -1.5684    112.3759
  1744.0000 100000.0000     15.5517     -3.1815    113.9006
  1744.2500 100000.0000     16.4552     -4.0286    118.0668
  1744.5000 100000.0000     17.0800     -4.2603    126.3728
  1744.7500 100000.0000     17.5946     -4.0671    131.4636
  1745.0000 100000.0000     18.1369     -3.6656    137.0787
  1745.2500 100000.0000     18.7369     -3.2803    139.3653
  1745.5000    716.9561     19.3064     -3.1172    139.7888
  1745.7500     79.0229     19.7010     -3.3323    137.1846
  1746.0000     43.4923     19.8208     -4.0045    128.4436
  1746.2500     31.0183     19.6781     -5.1206    120.2890
  1746.5000     24.6868     19.3819     -6.5787    107.6904
  1746.7500     20.8417     19.0633     -8.2155    101.1184
  1747.0000     18.2375     18.8003     -9.8459     96.7882
  1747.2500     16.3389     18.5762    -11.3061     98.5303
  1747.5000     14.8763     18.2856    -12.4878    108.4603
  1747.7500     13.7001     17.7969    -13.3550    119.1051
  1748.0000     12.7309     17.0410    -13.9423    137.1261
  1748.2500     11.9382     16.0564    -14.3355    147.3444
