~Version Information
VERS.                      2.0: CWLS Log ASCII Standard - VERSION 2.0
WRAP.                       NO: One line per depth step
~Well Information Block
STRT.FT               801.5000: 
STOP.FT              2513.0000: 
STEP.FT                 0.2500: 
NULL.                -999.2500: 
COMP.          Petrogulf Corporation: COMPANY
WELL.               YWAM 7-32V: WELL
FLD.           Purgatoire River: FIELD
LOC.           2423' FNL & 2412' FEL: LOCATION
PROV.                 Colorado: PROVINCE
CNTY.               Las Animas: COUNTRY
SRVC.                Patterson: SERVICE COMPANY
DATE.          Sun Dec 14 06:58:17 2003: LOG DATE
UWI.                          : UNIQUE WELL ID
~Curve Information Block
DEPT.FT            0 000 00 00: Depth
SP.mV                         : DIL Spontaneous Potential
RILD.Ohm-m                    : DIL Deep Resistivity
RILM.Ohm-m                    : DIL Medium Resistivity
RLL3.Ohm-m                    : DIL Shallow Resistivity
GR.GAPI                       : Gamma Ray
~Parameter Information Block
~A  Depth        SP         RILD        RILM        RLL3         GR     
# ...
  1697.5000   -374.6723     35.6446     28.4102     43.3321     90.5356
  1697.7500   -374.5711     35.4282     29.4298     46.7876     87.3054
  1698.0000   -374.1371     34.6920     30.7602     49.6958     84.1400
  1698.2500   -373.5005     33.4662     32.3139     50.9855     83.6467
  1698.5000   -372.7743     31.8710     33.7403     49.8248     85.6409
  1698.7500   -372.0275     30.0770     34.3824     46.1841     88.6412
  1699.0000   -371.2759     28.2524     33.6053     40.9611     94.7422
  1699.2500   -370.4749     26.5183     31.3789     35.4617     99.1368
  1699.5000   -369.5359     24.9262     28.3560     30.6655    105.3029
  1699.7500   -368.3769     23.4615     25.2945     26.8780    109.1305
  1700.0000   -366.9826     22.0754     22.6174     23.9122    115.4118
  1700.2500   -365.4301     20.7291     20.4218     21.4759    120.6369
  1700.5000   -363.8679     19.4213     18.6490     19.4334    129.9458
  1700.7500   -362.4651     18.1837     17.2037     17.8320    136.0242
  1701.0000   -361.3600     17.0570     16.0018     16.7571    142.4316
  1701.2500   -360.6180     16.0711     14.9826     16.1505    144.1338
  1701.5000   -360.2062     15.2408     14.1077     15.7539    143.6520
  1701.7500   -359.9998     14.5699     13.3576     15.2569    142.6412
  1702.0000   -359.8293     14.0566     12.7268     14.5261    142.2805
  1702.2500   -359.5542     13.6939     12.2200     13.6852    143.3002
  1702.5000   -359.1220     13.4687     11.8480     12.9753    145.8934
  1702.7500   -358.5807     13.3609     11.6249     12.5686    147.3119
  1703.0000   -358.0354     13.3472     11.5656     12.5173    147.6006
  1703.2500   -357.5851     13.4076     11.6832     12.8515    146.4486
  1703.5000   -357.2824     13.5306     11.9852     13.7221    143.4879
  1703.7500   -357.1289     13.7142     12.4685     15.4568    141.1415
  1704.0000   -357.0949     13.9613     13.1147     18.3728    136.8393
  1704.2500   -357.1492     14.2758     13.8891     22.3508    132.8619
  1704.5000   -357.2876     14.6597     14.7477     26.5672    124.8104
  1704.7500   -357.5386     15.1105     15.6474     29.8948    118.6877
  1705.0000   -357.9356     15.6192     16.5552     31.8081    110.5210
  1705.2500   -358.4741     16.1671     17.4480     32.8409    106.8828
  1705.5000   -359.0886     16.7234     18.3043     33.9487    104.7249
  1705.7500   -359.6672     17.2436     19.0898     35.3948    104.9509
  1706.0000   -360.0942     17.6723     19.7433     36.4010    106.2184
  1706.2500   -360.2968     17.9541     20.1738     35.9353    107.0949
  1706.5000   -360.2758     18.0511     20.2857     33.7277    108.6263
  1706.7500   -360.1098     17.9555     20.0292     30.4529    110.2403
  1707.0000   -359.9245     17.6904     19.4376     27.0535    113.7009
  1707.2500   -359.8386     17.2980     18.6110     24.0559    116.2006
  1707.5000   -359.9135     16.8285     17.6667     21.4919    119.2679
  1707.7500   -360.1358     16.3319     16.7032     19.2493    120.7716
  1708.0000   -360.4316     15.8517     15.7951     17.3290    122.5353
  1708.2500   -360.7002     15.4179     14.9977     15.8079    123.2681
  1708.5000   -360.8554     15.0374     14.3477     14.7200    123.1337
  1708.7500   -360.8596     14.6930     13.8613     14.0620    122.3348
  1709.0000   -360.7310     14.3557     13.5348     13.8624    121.4252
  1709.2500   -360.5210     14.0059     13.3481     14.1632    121.8528
  1709.5000   -360.2798     13.6482     13.2667     14.9187    124.0760
  1709.7500   -360.0352     13.3060     13.2447     15.9214    125.6694
  1710.0000   -359.7960     13.0043     13.2351     16.8263    126.5318
  1710.2500   -359.5690     12.7569     13.2037     17.2863    126.1021
  1710.5000   -359.3591     12.5656     13.1392     17.1477    125.7795
  1710.7500   -359.1475     12.4252     13.0503     16.5589    126.8551
  1711.0000   -358.8817     12.3275     12.9543     15.8577    130.5910
  1711.2500   -358.4973     12.2612     12.8659     15.3102    133.7209
  1711.5000   -357.9538     12.2085     12.7923     14.9498    137.8184
  1711.7500   -357.2567     12.1457     12.7328     14.6536    139.6234
  1712.0000   -356.4624     12.0485     12.6796     14.3319    140.8477
  1712.2500   -355.6650     11.9033     12.6193     14.0249    140.9931
  1712.5000   -354.9665     11.7173     12.5362     13.8415    140.9308
  1712.7500   -354.4446     11.5158     12.4186     13.8312    140.8833
  1713.0000   -354.1402     11.3276     12.2632     13.9163    140.5653
  1713.2500   -354.0664     11.1686     12.0762     13.9363    140.1523
  1713.5000   -354.2232     11.0358     11.8688     13.7649    140.1041
  1713.7500   -354.5991     10.9148     11.6526     13.3999    141.2349
  1714.0000   -355.1628     10.7915     11.4373     12.9501    144.9207
  1714.2500   -355.8547     10.6597     11.2310     12.5442    147.7835
  1714.5000   -356.5896     10.5196     11.0411     12.2522    150.4813
  1714.7500   -357.2731     10.3736     10.8750     12.0807    150.6465
  1715.0000   -357.8225     10.2237     10.7394     12.0088    149.2509
  1715.2500   -358.1861     10.0712     10.6378     12.0040    148.2308
  1715.5000   -358.3573      9.9183     10.5678     12.0212    148.2003
  1715.7500   -358.3773      9.7688     10.5208     12.0164    149.6945
  1716.0000   -358.3194      9.6288     10.4837     11.9741    153.6556
  1716.2500   -358.2591      9.5041     10.4418     11.9108    156.3054
  1716.5000   -358.2470      9.3986     10.3832     11.8500    158.3213
  1716.7500   -358.2874      9.3111     10.3032     11.8014    158.0113
  1717.0000   -358.3287      9.2367     10.2067     11.7680    156.0104
  1717.2500   -358.2829      9.1689     10.1066     11.7575    154.5162
  1717.5000   -358.0712      9.1015     10.0167     11.7695    152.9093
  1717.7500   -357.6687      9.0308      9.9458     11.7795    152.1670
  1718.0000   -357.1214      8.9560      9.8947     11.7521    150.5977
  1718.2500   -356.5279      8.8806      9.8595     11.6664    148.7220
  1718.5000   -356.0026      8.8119      9.8348     11.5241    144.9650
  1718.7500   -355.6372      8.7584      9.8163     11.3427    142.8771
  1719.0000   -355.4751      8.7241      9.8011     11.1489    142.5346
  1719.2500   -355.5061      8.7062      9.7874     10.9788    144.7470
  1719.5000   -355.6772      8.6971      9.7754     10.8780    150.6858
  1719.7500   -355.9113      8.6900      9.7663     10.8934    154.9172
  1720.0000   -356.1280      8.6847      9.7608     11.0411    159.3112
  1720.2500   -356.2679      8.6867      9.7575     11.2735    160.3973
  1720.5000   -356.3163      8.7035      9.7529     11.4955    159.6110
  1720.7500   -356.3066      8.7389      9.7442     11.6392    157.9079
  1721.0000   -356.2960      8.7927      9.7322     11.7140    154.4356
  1721.2500   -356.3277      8.8643      9.7226     11.7656    152.1837
  1721.5000   -356.4082      8.9555      9.7258     11.8015    149.9383
  1721.7500   -356.5139      9.0696      9.7561     11.7812    149.2880
  1722.0000   -356.6244      9.2080      9.8301     11.6790    148.7572
  1722.2500   -356.7596      9.3678      9.9641     11.5623    148.0727
  1722.5000   -356.9903      9.5442     10.1693     11.6325    146.0554
  1722.7500   -357.4049      9.7360     10.4481     12.1676    144.0961
  1723.0000   -358.0464      9.9500     10.7914     13.3276    140.0878
  1723.2500   -358.8665     10.2003     11.1798     14.9469    136.2487
  1723.5000   -359.7332     10.5025     11.5889     16.5579    128.2928
  1723.7500   -360.4874     10.8674     11.9987     17.6999    122.1724
  1724.0000   -361.0096     11.2998     12.4025     18.2217    114.3440
  1724.2500   -361.2619     11.8014     12.8119     18.2727    111.4899
  1724.5000   -361.2965     12.3752     13.2546     18.0758    111.6265
  1724.7500   -361.2331     13.0260     13.7673     17.8315    114.0182
  1725.0000   -361.2089     13.7567     14.3877     17.8299    118.7893
  1725.2500   -361.3152     14.5611     15.1453     18.5089    121.5088
