~Version Information
VERS.                      2.0: CWLS Log ASCII Standard - VERSION 2.0
WRAP.                       NO: One line per depth step
~Well Information Block
STRT.FT                 3.7500: 
STOP.FT               979.7500: 
STEP.FT                 0.2500: 
NULL.                -999.2500: 
COMP.          Pioneer Natural Resources: COMPANY
WELL.          Rising Star 22-11: WELL
FLD.           Purgatoire River: FIELD
LOC.           2152' FNL & 2105' FWL: LOCATION
PROV.                 Colorado: PROVINCE
CNTY.               Las Animas: COUNTRY
SRVC.                Patterson: SERVICE COMPANY
DATE.          Sat Apr 16 09:17:01 2005: LOG DATE
UWI.           05 071 08354 00: UNIQUE WELL ID
~Curve Information Block
DEPT.FT            0 000 00 00: Depth
GR.GAPI                       : Gamma Ray
CCL.                          : Casing Collar Locator
TT3.usec                      : CBL 3' Travel Time
AMP3.mV                       : CBL 3' Amplitude
~Parameter Information Block
~A  Depth        GR         CCL         TT3         AMP3    
# ...
   707.2500    108.0100      0.0000   1331.5962      8.8202
   707.5000    107.8279      0.0000   1342.7687      8.7768
   707.7500    105.9003      0.0000   1347.7313      8.7640
   708.0000    103.6470      0.0000   1349.4402      8.8095
   708.2500    103.0349      0.0000   1349.8793      8.9467
   708.5000    105.0225      0.0000   1349.8850      9.2094
   708.7500    108.5815      0.0000   1349.4645      9.6066
   709.0000    111.2441      0.0000   1347.7128     10.1006
   709.2500    111.0563      0.0000   1342.2413     10.6208
   709.5000    108.2245      0.0000   1328.7662     11.0964
   709.7500    104.7613      0.0000   1302.4420     11.4795
   710.0000    102.7680      0.0000   1261.2863     11.7539
   710.2500    103.2026      0.0000   1209.4795     11.9375
   710.5000    105.6937      0.0000   1157.4989     12.0644
   710.7500    108.9584      0.0000   1118.4777     12.1528
   711.0000    111.6050      0.0000   1102.3719     12.1867
   711.2500    112.9971      0.0000   1111.1799     12.1309
   711.5000    113.5997      0.0000   1139.4244     11.9585
   711.7500    114.5275      0.0000   1179.4396     11.6710
   712.0000    116.4625      0.0000   1224.7849     11.3002
   712.2500    118.6724      0.0000   1269.0573     10.8971
   712.5000    119.3210      0.0000   1305.3976     10.5157
   712.7500    117.1842      0.0000   1329.5322     10.1973
   713.0000    112.8977      0.0000   1341.8990      9.9581
   713.2500    108.2418      0.0000   1345.4840      9.7874
   713.5000    104.7167      0.0000   1341.8716      9.6635
   713.7500    103.1175      0.0000   1329.4880      9.5743
   714.0000    103.7016      0.0000   1305.5702      9.5179
   714.2500    105.9864      0.0000   1270.5959      9.4886
   714.5000    108.7399      0.0000   1231.0939      9.4735
   714.7500    110.7308      0.0000   1197.3213      9.4654
   715.0000    111.4446      0.0000   1177.7692      9.4780
   715.2500    110.9733      0.0000   1175.7603      9.5442
   715.5000    109.4295      0.0000   1188.9702      9.6975
   715.7500    106.6177      0.0000   1209.2667      9.9488
   716.0000    102.2644      0.0000   1224.2911     10.2763
   716.2500     96.5408      0.0000   1224.3093     10.6344
   716.5000     90.3456      0.0000   1210.1814     10.9777
   716.7500     85.1423      0.0000   1193.4163     11.2822
   717.0000     82.4736      0.0000   1187.5759     11.5453
   717.2500     83.2243      0.0000   1199.3198     11.7620
   717.5000     86.9399      0.0000   1224.5967     11.9081
   717.7500     91.9409      0.0000   1250.5084     11.9572
   718.0000     96.4651      0.0000   1262.9917     11.9097
   718.2500     99.7326      0.0000   1257.4694     11.7939
   718.5000    101.9420      0.0000   1243.6077     11.6394
   718.7500    103.6197      0.0000   1237.9111     11.4561
   719.0000    105.1193      0.0000   1250.0535     11.2366
   719.2500    106.2966      0.0000   1276.0085     10.9794
   719.5000    106.3024      0.0000   1303.7159     10.7195
   719.7500    103.8125      0.0000   1323.7034     10.5277
   720.0000     97.9235      0.0000   1333.5834     10.4567
   720.2500     89.3171      0.0000   1334.2623     10.4866
   720.5000     80.7080      0.0000   1324.7834     10.5429
   720.7500     75.6561      0.0000   1302.1039     10.5682
   721.0000     76.1855      0.0000   1265.2964     10.5560
   721.2500     81.2743      0.0000   1218.6414     10.5252
   721.5000     87.6472      0.0000   1169.8490     10.4837
   721.7500     92.0172      0.0000   1126.0403     10.4224
   722.0000     92.9137      0.0000   1091.6216     10.3332
   722.2500     91.0897      0.0000   1067.1736     10.2250
   722.5000     88.5070      0.0000   1047.9984     10.1221
   722.7500     86.6892      0.0000   1026.5703     10.0442
   723.0000     85.8635      0.0000    999.7426      9.9927
   723.2500     85.5345      0.0000    972.2638      9.9601
   723.5000     85.3301      0.0000    951.7733      9.9466
   723.7500     85.0776      0.0000    942.5473      9.9587
   724.0000     84.5983      0.0000    944.5978      9.9983
   724.2500     83.6552      0.0000    955.7923     10.0642
   724.5000     81.8866      0.0000    973.3268     10.1607
   724.7500     79.0508      0.0000    994.6342     10.3018
   725.0000     75.7241      0.0000   1017.5692     10.5130
   725.2500     73.3221      0.0000   1038.4734     10.8342
   725.5000     72.8581      0.0000   1051.6605     11.3097
   725.7500     73.8542      0.0000   1054.5104     11.9591
   726.0000     74.8930      0.0000   1053.0186     12.7514
   726.2500     75.2328      0.0000   1058.3649     13.6114
   726.5000     75.7088      0.0000   1075.9012     14.4552
   726.7500     77.9612      0.0000   1099.2852     15.2315
   727.0000     82.7185      0.0000   1116.1360     15.9361
   727.2500     88.7540      0.0000   1117.9473     16.5963
   727.5000     93.3541      0.0000   1105.6804     17.2403
   727.7500     93.8957      0.0000   1089.7266     17.8706
   728.0000     89.4772      0.0000   1084.2493     18.4439
   728.2500     81.4901      0.0000   1097.9064     18.8688
   728.5000     72.6322      0.0000   1128.9199     19.0396
   728.7500     65.2438      0.0000   1168.9983     18.8985
   729.0000     60.4893      0.0000   1209.5538     18.4816
   729.2500     58.7425      0.0000   1244.2312     17.9088
   729.5000     60.2010      0.0000   1270.3456     17.3170
   729.7500     64.9895      0.0000   1289.7051     16.7821
   730.0000     72.8252      0.0000   1305.0840     16.2914
   730.2500     82.6317      0.0000   1314.7115     15.7879
   730.5000     92.5597      0.0000   1312.0529     15.2347
   730.7500    100.6583      0.0000   1291.9369     14.6348
   731.0000    105.8824      0.0000   1257.2703     14.0070
   731.2500    108.5374      0.0000   1220.0540     13.3646
   731.5000    109.5640      0.0000   1193.6709     12.7200
   731.7500    109.4407      0.0000   1182.0287     12.0961
   732.0000    107.9415      0.0000   1177.1904     11.5203
   732.2500    104.7029      0.0000   1169.3708     11.0093
   732.5000     99.5657      0.0000   1158.5896     10.5643
   732.7500     92.5930      0.0000   1155.0419     10.1833
   733.0000     84.3923      0.0000   1168.1730      9.8714
   733.2500     76.3538      0.0000   1196.8281      9.6297
   733.5000     69.9840      0.0000   1231.4688      9.4195
   733.7500     65.9071      0.0000   1264.0901      9.1419
   734.0000     63.7499      0.0000   1292.3401      8.6737
   734.2500     62.9056      0.0000   1315.3345      7.9599
   734.5000     63.0526      0.0000   1330.5623      7.0998
   734.7500     63.9281      0.0000   1335.3333      6.3242
   735.0000     65.1444      0.0000   1328.8907      5.8402
   735.2500     66.7710      0.0000   1313.9231      5.6855
   735.5000     69.9131      0.0000   1297.7473      5.7426
   735.7500     76.1062      0.0000   1289.8392      5.8630
   736.0000     85.7683      0.0000   1294.9523      5.9546
   736.2500     97.1361      0.0000   1309.2993      5.9871
   736.5000    106.6847      0.0000   1324.9658      5.9653
   736.7500    111.0981      0.0000   1336.6973      5.9164
   737.0000    109.7414      0.0000   1343.7108      5.8997
   737.2500    105.5011      0.0000   1347.3423      6.0202
   737.5000    102.8117      0.0000   1348.9426      6.3831
   737.7500    104.5537      0.0000   1349.1858      6.9925
   738.0000    110.5595      0.0000   1347.7129      7.7093
   738.2500    118.2422      0.0000   1342.5352      8.3382
   738.5000    124.1176      0.0000   1329.9312      8.7600
   738.7500    125.4874      0.0000   1306.1539      8.9862
   739.0000    121.9003      0.0000   1270.9998      9.1178
   739.2500    115.4425      0.0000   1230.0128      9.2651
   739.5000    109.3281      0.0000   1192.0977      9.4843
   739.7500    105.8467      0.0000   1164.5510      9.7599
   740.0000    105.3102      0.0000   1150.7661     10.0392
   740.2500    106.5393      0.0000   1151.6917     10.2826
   740.5000    107.9283      0.0000   1166.3997     10.4873
