~Version Information
VERS.                      2.0: CWLS Log ASCII Standard - VERSION 2.0
WRAP.                       NO: One line per depth step
~Well Information Block
STRT.FT               387.1000: 
STOP.FT              1748.0000: 
STEP.FT                 0.1000: 
NULL.                -999.2500: 
COMP.          Evergreen Operating Corp.: COMPANY
WELL.          Pachorek 13-31 Tr: WELL
FLD.           Cottontail Pass: FIELD
LOC.           1575' FSL & 900' FWL--API# 05-071-07019-00: LOCATION
PROV.                 Colorado: PROVINCE
CNTY.               Las Animas: COUNTRY
SRVC.          Scientific Data Systems, Inc.: SERVICE COMPANY
DATE.          Tue Aug 08 15:02:37 2000: LOG DATE
UWI.                      05071070190000:UNIQUE WELL IDENTIFICATION
~Curve Information Block
DEPT.FT            0 000 00 00: Depth
DCAL.in                       : CDL Caliper
RHOB.g/cc                     : CDL Bulk Density
RHOC.g/cc                     : CDL Density Correction
DPOR.pu                       : CDL Density Porosity
GR.GAPI                       : Gamma Ray
NPOR.pu                       : Neutron Porosity
~Parameter Information Block
~A  Depth       DCAL        RHOB        RHOC        DPOR         GR         NPOR    
# ...
   396.7000   -999.2500   -999.2500   -999.2500   -999.2500     89.8970     59.1296
   396.8000   -999.2500   -999.2500   -999.2500   -999.2500     88.3254     59.0976
   396.9000   -999.2500   -999.2500   -999.2500   -999.2500     86.7765     59.0535
   397.0000   -999.2500   -999.2500   -999.2500   -999.2500     85.2376     58.9999
   397.1000   -999.2500   -999.2500   -999.2500   -999.2500     83.6804     58.9392
   397.2000   -999.2500   -999.2500   -999.2500   -999.2500     82.0593     58.8733
   397.3000   -999.2500   -999.2500   -999.2500   -999.2500     80.3268     58.8036
   397.4000   -999.2500   -999.2500   -999.2500   -999.2500     78.4414     58.7309
   397.5000   -999.2500   -999.2500   -999.2500   -999.2500     76.3847     58.6557
   397.6000   -999.2500   -999.2500   -999.2500   -999.2500     74.1634     58.5783
   397.7000   -999.2500   -999.2500   -999.2500   -999.2500     71.8145     58.4982
   397.8000      8.0190   -999.2500   -999.2500   -999.2500     69.3988     58.4152
   397.9000      8.0190   -999.2500   -999.2500   -999.2500     66.9925     58.3290
   398.0000      8.0183   -999.2500   -999.2500   -999.2500     64.6797     58.2397
   398.1000      8.0183   -999.2500   -999.2500   -999.2500     62.5349     58.1485
   398.2000      8.0183   -999.2500   -999.2500   -999.2500     60.6189     58.0575
   398.3000      8.0182   -999.2500   -999.2500   -999.2500     58.9743     57.9702
   398.4000      8.0182   -999.2500   -999.2500   -999.2500     57.6202     57.8916
   398.5000      8.0179   -999.2500   -999.2500   -999.2500     56.5596     57.8280
   398.6000      8.0179   -999.2500   -999.2500   -999.2500     55.7786     57.7863
   398.7000      8.0179   -999.2500   -999.2500   -999.2500     55.2539     57.7741
   398.8000      8.0184   -999.2500   -999.2500   -999.2500     54.9561     57.7982
   398.9000      8.0184   -999.2500   -999.2500   -999.2500     54.8631     57.8650
   399.0000      8.0193   -999.2500     -0.9409   -999.2500     54.9630     57.9796
   399.1000      8.0193   -999.2500     -0.9420   -999.2500     55.2560     58.1456
   399.2000      8.0193   -999.2500     -0.9423   -999.2500     55.7612     58.3648
   399.3000      8.0188   -999.2500     -0.9414   -999.2500     56.5110     58.6370
   399.4000      8.0188   -999.2500     -0.9390   -999.2500     57.5477     58.9597
   399.5000      8.0172   -999.2500     -0.9345   -999.2500     58.9108     59.3277
   399.6000      8.0172   -999.2500     -0.9280   -999.2500     60.6287     59.7328
   399.7000      8.0172   -999.2500     -0.9193   -999.2500     62.7088     60.1635
   399.8000      8.0159   -999.2500     -0.9085   -999.2500     65.1323     60.6051
   399.9000      8.0159   -999.2500     -0.8962   -999.2500     67.8511     61.0399
   400.0000      8.0160   -999.2500     -0.8831   -999.2500     70.7924     61.4482
   400.1000      8.0160   -999.2500     -0.8700   -999.2500     73.8671     61.8098
   400.2000      8.0160   -999.2500     -0.8580   -999.2500     76.9773     62.1051
   400.3000      8.0168   -999.2500     -0.8484   -999.2500     80.0337     62.3175
   400.4000      8.0168   -999.2500     -0.8422   -999.2500     82.9638     62.4341
   400.5000      8.0171   -999.2500     -0.8406   -999.2500     85.7251     62.4473
   400.6000      8.0171   -999.2500     -0.8445   -999.2500     88.3055     62.3552
   400.7000      8.0171   -999.2500     -0.8545   -999.2500     90.7281     62.1621
   400.8000      8.0178   -999.2500     -0.8704   -999.2500     93.0432     61.8775
   400.9000      8.0178   -999.2500     -0.8916   -999.2500     95.3137     61.5155
   401.0000      8.0193      1.8335     -0.9161     49.4851     97.6001     61.0936
   401.1000      8.0193      1.8537     -0.9409     48.2621     99.9460     60.6310
   401.2000      8.0193      1.8695     -0.9625     47.3007    102.3564     60.1470
   401.3000      8.0203      1.8819     -0.9769     46.5519    104.7953     59.6597
   401.4000      8.0203      1.8917     -0.9811     45.9568    107.1830     59.1846
   401.5000      8.0247      1.9000     -0.9736     45.4522    109.4067     58.7343
   401.6000      8.0247      1.9079     -0.9549     44.9764    111.3344     58.3177
   401.7000      8.0247      1.9162     -0.9271     44.4747    112.8404     57.9402
   401.8000      8.0340      1.9256     -0.8930     43.9035    113.8247     57.6035
   401.9000      8.0340      1.9367     -0.8554     43.2327    114.2287     57.3059
   402.0000      8.0405      1.9496     -0.8169     42.4471    114.0482     57.0429
   402.1000      8.0405      1.9645     -0.7794     41.5457    113.3346     56.8078
   402.2000      8.0405      1.9811     -0.7443     40.5402    112.1864     56.5929
   402.3000      8.0418      1.9990     -0.7121     39.4521    110.7396     56.3901
   402.4000      8.0418      2.0179     -0.6832     38.3102    109.1452     56.1929
   402.5000      8.0417      2.0371     -0.6579     37.1474    107.5531     55.9964
   402.6000      8.0417      2.0560     -0.6361     35.9970    106.0966     55.7984
   402.7000      8.0417      2.0743     -0.6176     34.8908    104.8764     55.5994
   402.8000      8.0418      2.0914     -0.6023     33.8568    103.9585     55.4024
   402.9000      8.0418      2.1069     -0.5899     32.9175    103.3661     55.2117
   403.0000      8.0417      2.1205     -0.5803     32.0889    103.0864     55.0323
   403.1000      8.0417      2.1322     -0.5730     31.3805    103.0754     54.8687
   403.2000      8.0417      2.1419     -0.5676     30.7952    103.2706     54.7244
   403.3000      8.0405      2.1496     -0.5638     30.3297    103.5947     54.6014
   403.4000      8.0405      2.1554     -0.5610     29.9766    103.9741     54.5002
   403.5000      8.0388      2.1596     -0.5588     29.7242    104.3393     54.4202
   403.6000      8.0388      2.1623     -0.5569     29.5591    104.6358     54.3594
   403.7000      8.0388      2.1638     -0.5548     29.4665    104.8252     54.3157
   403.8000      8.0384      2.1644     -0.5523     29.4320    104.8858     54.2867
   403.9000      8.0384      2.1642     -0.5495     29.4423    104.8120     54.2702
   404.0000      8.0391      2.1635     -0.5463     29.4856    104.6134     54.2641
   404.1000      8.0391      2.1624     -0.5428     29.5521    104.3158     54.2668
   404.2000      8.0391      2.1610     -0.5394     29.6338    103.9564     54.2769
   404.3000      8.0394      2.1595     -0.5362     29.7245    103.5893     54.2930
   404.4000      8.0394      2.1580     -0.5334     29.8190    103.2756     54.3138
   404.5000      8.0400      2.1564     -0.5314     29.9131    103.0838     54.3377
   404.6000      8.0400      2.1550     -0.5301     30.0027    103.0802     54.3628
   404.7000      8.0400      2.1536     -0.5297     30.0832    103.3229     54.3868
   404.8000      8.0411      2.1525     -0.5301     30.1500    103.8476     54.4069
   404.9000      8.0411      2.1517     -0.5312     30.1974    104.6626     54.4198
   405.0000      8.0417      2.1514     -0.5328     30.2194    105.7397     54.4219
   405.1000      8.0417      2.1515     -0.5349     30.2095    107.0134     54.4095
   405.2000      8.0417      2.1523     -0.5370     30.1614    108.3836     54.3787
   405.3000      8.0418      2.1539     -0.5392     30.0695    109.7231     54.3259
   405.4000      8.0418      2.1562     -0.5410     29.9296    110.8933     54.2482
   405.5000      8.0415      2.1593     -0.5423     29.7392    111.7589     54.1440
   405.6000      8.0415      2.1633     -0.5430     29.4985    112.2080     54.0135
   405.7000      8.0415      2.1680     -0.5427     29.2108    112.1675     53.8592
   405.8000      8.0414      2.1734     -0.5416     28.8825    111.6173     53.6859
   405.9000      8.0414      2.1794     -0.5396     28.5233    110.5890     53.5009
   406.0000      8.0412      2.1856     -0.5369     28.1458    109.1715     53.3129
   406.1000      8.0412      2.1919     -0.5335     27.7649    107.4902     53.1309
   406.2000      8.0412      2.1980     -0.5299     27.3967    105.6943     52.9635
