~Version Information
VERS.                      2.0: CWLS Log ASCII Standard - VERSION 2.0
WRAP.                       NO: One line per depth step
~Well Information Block
STRT.FT               185.5000: 
STOP.FT              2039.2500: 
STEP.FT                 0.2500: 
NULL.                -999.2500: 
COMP.          Petrogulf Corporation: COMPANY
WELL.            Montoya 7-12R: WELL
FLD.           Purgatorie River: FIELD
LOC.           1769' FNL & 658' FWL--: LOCATION
PROV.                       CO: PROVINCE
CNTY.               Las Animas: COUNTRY
SRVC.                         : SERVICE COMPANY
DATE.          Wed Feb 09 09:05:42 2005: LOG DATE
UWI.         005 071 08240  : UNIQUE WELL ID
~Curve Information Block
DEPT.FT            0 000 00 00: Depth
CCL.                          : Casing Collar Locator
CCLRT.                        : CCLRT
TT3.usec                      : CBL 3' Travel Time
AMP3.mV                       : CBL 3' Amplitude
GR.GAPI                       : Gamma Ray
~Parameter Information Block
~A  Depth       CCL        CCLRT        TT3         AMP3         GR     
# ...
   913.5000      0.0000   -999.2500    638.9656      7.2790    130.2608
   913.7500      0.0000   -999.2500    667.4061      7.3767    122.3582
   914.0000      0.0000   -999.2500    681.9659      7.5020    117.5620
   914.2500      0.0000   -999.2500    682.4188      7.6033    114.6102
   914.5000      0.0000   -999.2500    678.2794      7.6380    112.6246
   914.7500      0.0000   -999.2500    680.3545      7.5879    111.2098
   915.0000      0.0000   -999.2500    691.1170      7.4658    109.7703
   915.2500      0.0000   -999.2500    702.9239      7.3104    107.3179
   915.5000      0.0000   -999.2500    704.3082      7.1708    103.0766
   915.7500      0.0000   -999.2500    687.5441      7.0871     97.2280
   916.0000      0.0000   -999.2500    653.6553      7.0725     91.1647
   916.2500      0.0000   -999.2500    614.6517      7.1032     87.1263
   916.5000      0.0000   -999.2500    589.4120      7.1274     87.0993
   916.7500      0.0000   -999.2500    591.0585      7.0931     91.2229
   917.0000      0.0000   -999.2500    615.9577      6.9801     97.0882
   917.2500      0.0000   -999.2500    647.6414      6.8094    101.3453
   917.5000      0.0000   -999.2500    671.6014      6.6205    102.4906
   917.7500      0.0000   -999.2500    684.2081      6.4390    101.9394
   918.0000      0.0000   -999.2500    689.6910      6.2602    102.2709
   918.2500      0.0000   -999.2500    693.1644      6.0603    104.5771
   918.5000      0.0000   -999.2500    696.9568      5.8228    107.6179
   918.7500      0.0000   -999.2500    700.3967      5.5625    109.3591
   919.0000      0.0000   -999.2500    701.1830      5.3229    108.9978
   919.2500      0.0000   -999.2500    696.9670      5.1411    107.3191
   919.5000      0.0000   -999.2500    686.4185      5.0156    105.3860
   919.7500      0.0000   -999.2500    670.4879      4.9065    103.4721
   920.0000      0.0000   -999.2500    654.0511      4.7686    101.4757
   920.2500      0.0000   -999.2500    644.2160      4.5860     99.8693
   920.5000      0.0000   -999.2500    644.1348      4.3762     99.6281
   920.7500      0.0000   -999.2500    649.6406      4.1649    101.2382
   921.0000      0.0000   -999.2500    654.3851      3.9676    104.2495
   921.2500      0.0000   -999.2500    656.7527      3.7956    107.9624
   921.5000      0.0000   -999.2500    659.5696      3.6654    112.0929
   921.7500      0.0000   -999.2500    664.5177      3.5911    116.3746
   922.0000      0.0000   -999.2500    669.6603      3.5746    119.7965
   922.2500      0.0000   -999.2500    672.9059      3.6063    121.1851
   922.5000      0.0000   -999.2500    675.7788      3.6703    121.0539
   922.7500      0.0000   -999.2500    681.0860      3.7484    122.1342
   923.0000      0.0000   -999.2500    687.3266      3.8220    127.1306
   923.2500      0.0000   -999.2500    688.8107      3.8788    135.9877
   923.5000      0.0000   -999.2500    682.6868      3.9156    145.7170
   923.7500      0.0000   -999.2500    673.3091      3.9316    152.6596
   924.0000      0.0000   -999.2500    668.1592      3.9207    154.5426
   924.2500      0.0000   -999.2500    671.0328      3.8764    150.9379
   924.5000      0.0000   -999.2500    680.1144      3.8002    143.1738
   924.7500      0.0000   -999.2500    690.4218      3.6976    134.4432
   925.0000      0.0000   -999.2500    696.7253      3.5642    128.8467
   925.2500      0.0000   -999.2500    696.1060      3.3835    128.9250
   925.5000      0.0000   -999.2500    690.0645      3.1467    133.7931
   925.7500      0.0000   -999.2500    683.4470      2.8728    139.8073
   926.0000      0.0000   -999.2500    679.5861      2.6073    142.9528
   926.2500      0.0000   -999.2500    677.0002      2.3950    140.9674
   926.5000      0.0000   -999.2500    672.1248      2.2537    134.2213
   926.7500      0.0000   -999.2500    664.3297      2.1752    125.3350
   927.0000      0.0000   -999.2500    656.8263      2.1479    117.8336
   927.2500      0.0000   -999.2500    653.0467      2.1720    114.5453
   927.5000      0.0000   -999.2500    652.9234      2.2473    116.3157
   927.7500      0.0000   -999.2500    652.6531      2.3541    121.4159
   928.0000      0.0000   -999.2500    648.4572      2.4603    126.4528
   928.2500      0.0000   -999.2500    641.4421      2.5550    128.8239
   928.5000      0.0000   -999.2500    638.1277      2.6678    128.5881
   928.7500      0.0000   -999.2500    644.4341      2.8510    127.8797
   929.0000      0.0000   -999.2500    659.0045      3.1376    128.7675
   929.2500      0.0000   -999.2500    673.7994      3.5142    131.8492
   929.5000      0.0000   -999.2500    681.4283      3.9310    136.4856
   929.7500      0.0000   -999.2500    680.8090      4.3379    141.6496
   930.0000      0.0000   -999.2500    675.6318      4.7108    146.1546
   930.2500      0.0000   -999.2500    668.7997      5.0480    148.6869
   930.5000      0.0000   -999.2500    660.2018      5.3491    148.6333
   930.7500      0.0000   -999.2500    650.0939      5.6067    146.8541
   931.0000      0.0000   -999.2500    642.6420      5.8142    145.0224
   931.2500      0.0000   -999.2500    644.0432      5.9720    144.3535
   931.5000      0.0000   -999.2500    656.7920      6.0844    145.1749
   931.7500      0.0000   -999.2500    676.8126      6.1582    146.8626
   932.0000      0.0000   -999.2500    696.8979      6.2082    147.6040
   932.2500      0.0000   -999.2500    712.0707      6.2554    145.2427
   932.5000      0.0000   -999.2500    720.4318      6.3064    139.5020
   932.7500      0.0000   -999.2500    720.4554      6.3339    133.1354
   933.0000      0.0000   -999.2500    711.2283      6.2887    130.0738
   933.2500      0.0000   -999.2500    696.4180      6.1367    132.4154
   933.5000      0.0000   -999.2500    684.7899      5.8811    139.4476
   933.7500      0.0000   -999.2500    684.1889      5.5594    148.7390
   934.0000      0.0000   -999.2500    695.7167      5.2270    157.1506
   934.2500      0.0000   -999.2500    714.1300      4.9359    161.3856
   934.5000      0.0000   -999.2500    732.1674      4.7108    159.3556
   934.7500      0.0000   -999.2500    744.1516      4.5420    151.8251
   935.0000      0.0000   -999.2500    747.6350      4.4018    142.1782
   935.2500      0.0000   -999.2500    743.3308      4.2647    134.0417
   935.5000      0.0000   -999.2500    733.7018      4.1096    129.1344
   935.7500      0.0000   -999.2500    721.5283      3.9174    127.1072
   936.0000      0.0000   -999.2500    709.4719      3.6807    126.5490
   936.2500      0.0000   -999.2500    700.0699      3.4128    125.8206
   936.5000      0.0000   -999.2500    695.3399      3.1371    123.7456
   936.7500      0.0000   -999.2500    696.2272      2.8692    120.1843
   937.0000      0.0000   -999.2500    702.1910      2.6141    115.5938
   937.2500      0.0000   -999.2500    710.9075      2.3785    109.8107
   937.5000      0.0000   -999.2500    718.5095      2.1746    101.8556
   937.7500      0.0000   -999.2500    721.0125      2.0092     91.2291
   938.0000      0.0000   -999.2500    716.5267      1.8756     79.0180
   938.2500      0.0000   -999.2500    706.4339      1.7639     67.4724
   938.5000      0.0000   -999.2500    694.1081      1.6744     58.6658
   938.7500      0.0000   -999.2500    682.3352      1.6136     53.3740
   939.0000      0.0000   -999.2500    672.1316      1.5801     50.8291
   939.2500      0.0000   -999.2500    663.7365      1.5598     49.4222
   939.5000      0.0000   -999.2500    657.6815      1.5380     47.7827
   939.7500      0.0000   -999.2500    654.1475      1.5136     45.4473
   940.0000      0.0000   -999.2500    651.8389      1.5032     42.8862
   940.2500      0.0000   -999.2500    648.7242      1.5238     41.0288
   940.5000      0.0000   -999.2500    644.1388      1.5715     40.3877
   940.7500      0.0000   -999.2500    639.4798      1.6204     40.4923
   941.0000      0.0000   -999.2500    636.8243      1.6454     40.5431
   941.2500      0.0000   -999.2500    637.6198      1.6382     40.7285
