~Version Information
VERS.                      2.0: CWLS Log ASCII Standard - VERSION 2.0
WRAP.                       NO: One line per depth step
~Well Information Block
STRT.FT                 3.7500: 
STOP.FT               979.7500: 
STEP.FT                 0.2500: 
NULL.                -999.2500: 
COMP.          Pioneer Natural Resources: COMPANY
WELL.          Rising Star 22-11: WELL
FLD.           Purgatoire River: FIELD
LOC.           2152' FNL & 2105' FWL: LOCATION
PROV.                 Colorado: PROVINCE
CNTY.               Las Animas: COUNTRY
SRVC.                Patterson: SERVICE COMPANY
DATE.          Sat Apr 16 09:17:01 2005: LOG DATE
UWI.           05 071 08354 00: UNIQUE WELL ID
~Curve Information Block
DEPT.FT            0 000 00 00: Depth
GR.GAPI                       : Gamma Ray
CCL.                          : Casing Collar Locator
TT3.usec                      : CBL 3' Travel Time
AMP3.mV                       : CBL 3' Amplitude
~Parameter Information Block
~A  Depth        GR         CCL         TT3         AMP3    
     3.7500   -999.2500   -999.2500   -999.2500   -999.2500
     4.0000   -999.2500   -999.2500   -999.2500   -999.2500
     4.2500   -999.2500   -999.2500   -999.2500   -999.2500
     4.5000   -999.2500   -999.2500   -999.2500   -999.2500
     4.7500   -999.2500   -999.2500   1350.0000      0.6967
     5.0000   -999.2500   -999.2500   1350.0000      0.6947
     5.2500   -999.2500   -999.2500   1350.0000      0.6926
     5.5000   -999.2500   -999.2500   1350.0000      0.6903
     5.7500   -999.2500   -999.2500   1350.0000      0.6892
     6.0000   -999.2500   -999.2500   1350.0000      0.6902
     6.2500   -999.2500   -999.2500   1350.0000      0.6923
     6.5000   -999.2500   -999.2500   1350.0000      0.6937
     6.7500   -999.2500   -999.2500   1349.9359      0.6938
     7.0000   -999.2500   -999.2500   1349.5176      0.6943
     7.2500   -999.2500   -999.2500   1347.3934      0.7057
     7.5000   -999.2500   -999.2500   1338.9918      0.7616
     7.7500   -999.2500   -999.2500   1313.1110      0.9384
     8.0000   -999.2500   -999.2500   1251.0195      1.3557
     8.2500   -999.2500   -999.2500   1134.9999      2.1191
     8.5000   -999.2500   -999.2500    966.1511      3.2111
     8.7500   -999.2500   -999.2500    774.7416      4.4336
     9.0000   -999.2500   -999.2500    605.6959      5.5042
     9.2500   -999.2500   -999.2500    489.3358      6.2362
     9.5000   -999.2500   -999.2500    426.8395      6.6246
     9.7500   -999.2500   -999.2500    400.5576      6.7801
    10.0000   -999.2500   -999.2500    391.8028      6.8194
    10.2500   -999.2500      0.0000    389.3997      6.8137
    10.5000   -999.2500      0.0000    388.8250      6.7952
    10.7500   -999.2500      0.0000    388.8645      6.7796
    11.0000   -999.2500      0.0000    389.8026      6.7759
    11.2500   -999.2500      0.0000    393.5144      6.7840
    11.5000   -999.2500      0.0000    404.7821      6.7941
    11.7500   -999.2500      0.0000    431.6300      6.7986
    12.0000   -999.2500      0.0000    481.6581      6.8020
    12.2500   -999.2500      0.0000    554.3905      6.8156
    12.5000   -999.2500      0.0000    636.7848      6.8429
    12.7500   -999.2500      0.0000    709.4025      6.8741
    13.0000   -999.2500      0.0000    758.7282      6.8950
    13.2500   -999.2500      0.0000    782.9528      6.8957
    13.5000   -999.2500      0.0000    787.0730      6.8689
    13.7500   -999.2500      0.0000    775.9257      6.8040
    14.0000   -999.2500     -1.5942    753.3997      6.6899
    14.2500   -999.2500      0.0000    725.2988      6.5270
    14.5000   -999.2500      0.0000    698.2795      6.3351
    14.7500   -999.2500      0.0000    676.2892      6.1381
    15.0000   -999.2500      0.0000    664.2115      5.9313
    15.2500   -999.2500      0.0000    675.0676      5.6688
    15.5000   -999.2500      0.0000    720.8102      5.3152
    15.7500     40.4701      0.0000    787.9265      4.9242
    16.0000     39.5968      0.0000    833.9194      4.6303
    16.2500     38.8094      0.0000    825.5453      4.5276
    16.5000     38.3999      0.0000    779.7507      4.5771
    16.7500     38.5007     -2.2009    753.2104      4.6509
    17.0000     39.1422      0.0000    788.0445      4.6492
    17.2500     40.3743      0.0000    876.0084      4.5727
    17.5000     42.2778      0.0000    974.0352      4.5187
    17.7500     44.8126      0.0000   1041.1516      4.6200
    18.0000     47.5847      0.0000   1057.7112      4.9473
    18.2500     49.7872      0.0000   1024.7809      5.4397
    18.5000     50.5713      0.0000    958.8666      5.9468
    18.7500     49.7065      0.0000    884.6575      6.3488
    19.0000     47.8296      0.0000    823.4430      6.6201
    19.2500     45.8909      0.0000    783.9779      6.7895
    19.5000     44.4519      0.0000    762.9352      6.8843
    19.7500     43.6982      0.0000    752.0664      6.9208
    20.0000     43.9251      0.0000    744.4291      6.9188
    20.2500     45.4960      0.0000    736.9862      6.9010
    20.5000     48.1301      0.0000    730.2100      6.8836
    20.7500     50.6446      0.0000    726.1325      6.8725
    21.0000     51.8305      0.0000    725.9879      6.8669
    21.2500     51.4603      0.0000    729.2957      6.8655
    21.5000     50.2219      0.0000    734.5614      6.8696
    21.7500     48.9199      0.0000    740.2726      6.8803
    22.0000     48.0453      0.0000    745.2618      6.8957
    22.2500     47.8225      0.0000    748.8318      6.9114
    22.5000     48.1982      0.0000    750.8981      6.9244
    22.7500     48.7096      0.0000    751.8516      6.9349
    23.0000     48.6126      0.0000    752.1775      6.9438
    23.2500     47.4013      0.0000    752.2089      6.9494
    23.5000     45.2740      0.0000    752.1241      6.9466
    23.7500     43.0022      0.0000    752.0325      6.9325
    24.0000     41.3321      0.0000    752.0178      6.9105
    24.2500     40.6950      0.0000    752.1708      6.8870
    24.5000     41.4862      0.0000    752.6428      6.8633
    24.7500     44.1594      0.0000    753.7552      6.8345
    25.0000     48.6839      0.0000    755.9836      6.7975
    25.2500     54.2534      0.0000    759.5913      6.7573
    25.5000     59.9687      0.0000    764.0503      6.7224
    25.7500     65.5098      0.0000    767.9474      6.6961
    26.0000     70.6657      0.0000    769.8000      6.6754
    26.2500     74.4842      0.0000    769.2439      6.6572
    26.5000     75.5875      0.0000    767.4607      6.6432
    26.7500     73.5917      0.0000    766.4719      6.6368
    27.0000     69.8854      0.0000    768.0981      6.6390
    27.2500     66.5953      0.0000    774.3199      6.6480
    27.5000     64.8730      0.0000    788.5409      6.6588
    27.7500     64.5566      0.0000    814.7690      6.6637
    28.0000     65.2377      0.0000    854.4191      6.6553
    28.2500     66.9731      0.0000    904.8464      6.6324
    28.5000     69.9588      0.0000    961.0630      6.6013
    28.7500     74.0727      0.0000   1015.7040      6.5703
    29.0000     78.8129      0.0000   1056.1633      6.5397
    29.2500     83.3669      0.0000   1066.1102      6.4963
    29.5000     86.7768      0.0000   1035.0836      6.4165
    29.7500     88.5069      0.0000    968.6915      6.2804
    30.0000     89.1193      0.0000    889.4524      6.0881
    30.2500     90.1393      0.0000    828.3011      5.8585
    30.5000     92.7785      0.0000    813.5820      5.6110
    30.7500     96.5000      0.0000    860.5089      5.3579
    31.0000     98.9804      0.0000    962.0219      5.1146
    31.2500     98.0829      0.0000   1088.5692      4.9055
    31.5000     94.1567      0.0000   1203.1255      4.7501
    31.7500     89.9303      0.0000   1282.1107      4.6486
    32.0000     87.9235      0.0000   1323.3411      4.5860
    32.2500     88.4499      0.0000   1336.4547      4.5464
    32.5000     90.1548      0.0000   1328.8395      4.5286
    32.7500     91.6975      0.0000   1300.1223      4.5559
    33.0000     92.5053      0.0000   1248.0377      4.6714
    33.2500     92.4386      0.0000   1178.5200      4.9091
    33.5000     91.4707      0.0000   1109.0133      5.2593
    33.7500     89.8675      0.0000   1060.6813      5.6569
    34.0000     88.1234      0.0000   1047.4586      6.0112
    34.2500     86.3326      0.0000   1070.7224      6.2581
    34.5000     84.0691      0.0000   1119.8040      6.3905
    34.7500     81.2306      0.0000   1176.9683      6.4370
    35.0000     78.5931      0.0000   1225.6515      6.4261
    35.2500     77.3069      0.0000   1257.6014      6.3775
    35.5000     78.0641      0.0000   1274.7151      6.3132
    35.7500     80.7041      0.0000   1285.1290      6.2588
    36.0000     84.3266      0.0000   1296.4568      6.2362
    36.2500     87.7660      0.0000   1310.9148      6.2581
    36.5000     90.2427      0.0000   1325.3190      6.3198
    36.7500     91.8065      0.0000   1334.8097      6.3932
    37.0000     93.1079      0.0000   1336.2622      6.4415
