~Version Information
 VERS.                                  2.0 : CWLS LAS VERSION
 WRAP.                                   NO : WRAPING MODE
 SWARE .                 MController 2.5.0I : SOFTWARE VERSION
~Well Information
 WELL.                        Montoya 6-14v : WELL
 COMP.                       Petrogulf Corp : COMPANY
 FLD.                      Purgatorie River : FIELD
 LOC.                 SW/SW Sec 6 T33S R67W : LOCATION
 DATE.                              8/12/04 : DATE(S) LOGGED
 SRVC.       Blanco Geological Services LLC : SERVICE COMPANY
 STAT.                                   CO : STATE
 CNTY.                           Las Animas : COUNTY
 CTRY.                                  USA : COUNTRY
 API.                       05-071-08070-00 : API NUMBER
 STRT.FT                             803.00 : START DEPTH
 STOP.FT                            2673.00 : STOP DEPTH
 STEP.FT                               1.00 : DEPTH INCREMENT
 NULL.                                -9999 : NULL VALUE
~Curve information
 DEPTH.FT                                   :
 ROP.MIN/FT                                 :
 GAS.UNITS                                  :
~ASCII Log data
       803.0      -9999.0          4.2   
       804.0          0.2          3.3 
       805.0          0.2          3.3 
       806.0          0.2          3.5 
       807.0          0.2          3.3 
       808.0          0.2          3.3 
       809.0          0.1          3.3 
       810.0          0.1          3.3 
       811.0          0.1          3.6 
       812.0          0.1          3.3 
       813.0          0.2          3.6 
       814.0          0.2          3.4 
       815.0          0.1          3.7 
       816.0          0.2          3.5 
       817.0          0.8          3.6 
       818.0          0.3          3.5 
       819.0          0.3          3.6 
       820.0          0.2          3.5 
       821.0          0.2          3.6 
       822.0          0.3          3.9 
       823.0          0.2          3.5 
       824.0          0.2          3.6 
       825.0          0.2          3.3 
       826.0          0.2          3.5 
       827.0          0.2          3.4 
       828.0          0.2          3.6 
       829.0          0.2          3.3 
       830.0          0.1          3.5 
       831.0          0.2          3.4 
       832.0          0.2          3.5 
       833.0          0.2          3.5 
       834.0          0.1          3.5 
       835.0          0.2          3.8 
       836.0          0.1          3.3 
       837.0          0.1          3.4 
       838.0          2.0          3.6 
       839.0          0.2          3.6 
       840.0          0.2          3.4 
       841.0          0.2          3.3 
       842.0          0.1          3.6 
       843.0          0.1          3.6 
       844.0          0.1          3.7 
       845.0          0.1          3.5 
       846.0          0.1          3.3 
       847.0          0.1          3.2 
       848.0          0.2          3.3 
       849.0          0.2          3.3 
       850.0          0.2          3.5 
       851.0          0.2          3.3 
       852.0          0.2          3.4 
       853.0          0.2          3.3 
       854.0          0.2          3.3 
       855.0          0.1          3.2 
       856.0          0.2          3.4 
       857.0          0.2          3.3 
       858.0          0.2          3.3 
       859.0          0.2          3.2 
       860.0          0.2          3.4 
       861.0          0.1          3.3 
       862.0          0.1          3.2 
       863.0          0.2          3.3 
       864.0          0.2          3.2 
       865.0          0.1          3.5 
       866.0          0.1          3.5 
       867.0          0.1          3.5 
       868.0          1.8          3.7 
       869.0          0.2          3.4 
       870.0          0.2          3.5 
       871.0          0.3          3.7 
       872.0          0.2          3.8 
       873.0          0.2          3.8 
       874.0          0.3          3.7 
       875.0          0.2          3.6 
       876.0          0.2          3.2 
       877.0          0.2          3.3 
       878.0          0.2          3.5 
       879.0          0.2          3.2 
       880.0          0.2          3.5 
       881.0          0.2          3.6 
       882.0          0.2          3.5 
       883.0          0.1          3.5 
       884.0          0.2          3.3 
       885.0          0.1          3.3 
       886.0          0.1          3.2 
       887.0          0.2          3.0 
       888.0          0.1          3.4 
       889.0          0.2          3.3 
       890.0          0.1          3.5 
       891.0          0.2          3.5 
       892.0          0.1          3.2 
       893.0          0.1          3.2 
       894.0          0.2          3.5 
       895.0          0.2          3.5 
       896.0          0.3          3.2 
       897.0          0.2          3.4 
       898.0          3.8          4.2 
       899.0          0.3          3.8 
       900.0          0.2          3.4 
       901.0          0.2          3.2 
       902.0          0.2          3.1 
       903.0          0.2          3.5 
       904.0          0.2          3.3 
       905.0          0.1          3.6 
       906.0          0.1          3.2 
       907.0          0.2          3.3 
       908.0          0.2          3.3 
       909.0          0.2          3.4 
       910.0          0.2          3.6 
       911.0          0.2          3.3 
       912.0          0.2          3.5 
       913.0          0.2          3.6 
       914.0          0.2          3.4 
       915.0          0.2          3.5 
       916.0          0.2          3.2 
       917.0          0.1          3.2 
       918.0          0.1          3.1 
       919.0          0.2          3.2 
       920.0          0.2          3.3 
       921.0          0.2          3.3 
       922.0          0.1          3.4 
       923.0          0.1          3.3 
       924.0          0.1          3.2 
       925.0          0.1          3.6 
       926.0          0.2          3.5 
       927.0          0.1          3.6 
       928.0          2.4          3.9 
       929.0          0.3          3.6 
       930.0          0.3          3.5 
       931.0          0.2          3.6 
       932.0          0.2          3.6 
       933.0          0.2          3.3 
       934.0          0.2          3.7 
       935.0          0.3          3.2 
       936.0          0.2          3.4 
       937.0          0.2          3.4 
       938.0          0.2          3.6 
       939.0          0.2          3.4 
       940.0          0.2          3.5 
       941.0          0.2          3.4 
       942.0          0.1          3.5 
       943.0          0.1          3.3 
       944.0          0.1          3.2 
       945.0          0.1          3.4 
       946.0          0.1          3.6 
       947.0          0.3          3.5 
       948.0          0.3          3.5 
       949.0          0.2          3.5 
       950.0          0.2          3.3 
       951.0          0.2          3.3 
       952.0          0.2          3.2 
       953.0          0.2          3.4 
       954.0          0.2          3.6 
       955.0          0.2          3.7 
       956.0          0.1          3.3 
       957.0          0.1          3.5 
       958.0          2.0          3.9 
       959.0          0.1          3.6 
       960.0          0.2          3.7 
       961.0          0.2          3.6 
       962.0          0.1          3.7 
       963.0          0.1          3.6 
       964.0          0.1          3.4 
       965.0          0.3          3.6 
       966.0          0.2          3.3 
       967.0          0.2          3.4 
       968.0          0.2          3.1 
       969.0          0.1          1.9 
       970.0          0.2          1.8 
       971.0          0.2          2.0 
       972.0          0.2          1.8 
       973.0          0.2          1.8 
       974.0          0.2          1.7 
       975.0          0.2          1.0 
       976.0          0.2          1.0 
       977.0          0.1          0.7 
       978.0          0.2          1.0 
       979.0          0.2          0.9 
       980.0          0.1          0.8 
       981.0          0.1          1.0 
       982.0          0.2          1.1 
       983.0          0.3          1.0 
       984.0          0.3          1.0 
       985.0          0.2          1.1 
       986.0          0.2          1.2 
       987.0          0.2          1.2 
       988.0          2.8          1.8 
       989.0          0.3          1.7 
       990.0          0.1          1.4 
       991.0          0.2          1.4 
       992.0          0.2          1.4 
       993.0          0.2          1.2 
       994.0          0.1          1.0 
       995.0          0.1          1.2 
       996.0          0.2          1.3 
       997.0          0.3          1.4 
       998.0          0.2          1.3 
       999.0          0.3          1.4 
      1000.0          0.2          1.4 
      1001.0          0.2          1.1 
      1002.0          0.2          1.2 
