~Version Information
VERS.                      2.0: CWLS Log ASCII Standard - VERSION 2.0
WRAP.                       NO: One line per depth step
~Well Information Block
STRT.FT                15.0000: 
STOP.FT              2409.7500: 
STEP.FT                 0.2500: 
NULL.                -999.2500: 
COMP.          Pioneer Natural Resources: COMPANY
WELL.          Oink Oink 14-36: WELL
FLD.           Purgatoire River: FIELD
LOC.           216' FSL & 263' FWL: LOCATION
PROV.                 Colorado: PROVINCE
CNTY.               Las Animas: COUNTRY
SRVC.                Patterson: SERVICE COMPANY
DATE.          Wed Jun 22 11:05:26 2005: LOG DATE
UWI.           05 071 08394 00: UNIQUE WELL ID
~Curve Information Block
DEPT.FT            0 000 00 00: Depth
GR.GAPI                       : Gamma Ray
CCL.                          : Casing Collar Locator
TT3.usec                      : CBL 3' Travel Time
AMP3.mV                       : CBL 3' Amplitude
~Parameter Information Block
~A  Depth        GR         CCL         TT3         AMP3    
# ...
  2058.5000     71.4048      0.0000    641.7450      2.4150
  2058.7500     75.8576      0.0000    637.3530      2.3996
  2059.0000     82.1085      0.0000    633.4677      2.4090
  2059.2500     88.1691      0.0000    632.3401      2.4368
  2059.5000     92.2412      0.0000    635.0218      2.4778
  2059.7500     93.7065      0.0000    641.0424      2.5248
  2060.0000     92.9975      0.0000    648.6110      2.5681
  2060.2500     91.0551      0.0000    655.4440      2.5999
  2060.5000     88.8522      0.0000    660.0093      2.6192
  2060.7500     87.0986      0.0000    662.4958      2.6320
  2061.0000     86.2175      0.0000    664.8454      2.6453
  2061.2500     86.4271      0.0000    669.3799      2.6595
  2061.5000     87.7011      0.0000    676.5000      2.6693
  2061.7500     89.7155      0.0000    683.5109      2.6701
  2062.0000     91.9276      0.0000    686.2305      2.6610
  2062.2500     93.8652      0.0000    682.0997      2.6408
  2062.5000     95.5231      0.0000    671.9108      2.6041
  2062.7500     97.3322      0.0000    659.0130      2.5464
  2063.0000     99.4776      0.0000    647.2527      2.4751
  2063.2500    101.4874      0.0000    639.3431      2.4081
  2063.5000    102.8074      0.0000    636.2932      2.3612
  2063.7500    103.4429      0.0000    637.4774      2.3388
  2064.0000    103.6059      0.0000    640.8401      2.3346
  2064.2500    103.0931      0.0000    643.5126      2.3387
  2064.5000    101.3717      0.0000    643.3492      2.3444
  2064.7500     98.0571      0.0000    640.4922      2.3525
  2065.0000     93.1669      0.0000    637.2615      2.3680
  2065.2500     87.1656      0.0000    636.3256      2.3932
  2065.5000     81.0065      0.0000    638.8729      2.4246
  2065.7500     76.1535      0.0000    644.1385      2.4587
  2066.0000     74.2528      0.0000    650.3533      2.4963
  2066.2500     76.2414      0.0000    656.3004      2.5412
  2066.5000     81.4767      0.0000    662.0667      2.5945
  2066.7500     87.8815      0.0000    668.2701      2.6539
  2067.0000     93.2989      0.0000    674.9395      2.7182
  2067.2500     96.9936      0.0000    681.4245      2.7909
  2067.5000     99.9206      0.0000    686.7303      2.8745
  2067.7500    103.3941      0.0000    689.2880      2.9653
  2068.0000    107.4848      0.0000    687.0629      3.0548
  2068.2500    110.8310      0.0000    679.1642      3.1367
  2068.5000    111.9053      0.0000    667.5345      3.2094
  2068.7500    110.2387      0.0000    656.1915      3.2721
  2069.0000    106.6471      0.0000    648.5228      3.3187
  2069.2500    102.6973      0.0000    645.6798      3.3384
  2069.5000     99.6951      0.0000    647.1743      3.3228
  2069.7500     97.5718      0.0000    652.0399      3.2723
  2070.0000     94.9533      0.0000    659.2674      3.1987
  2070.2500     90.8882      0.0000    667.6942      3.1191
  2070.5000     86.3466      0.0000    675.5529      3.0497
  2070.7500     83.4531      0.0000    679.9039      3.0017
  2071.0000     83.3582      0.0000    677.0325      2.9810
  2071.2500     85.2852      0.0000    663.9575      2.9906
  2071.5000     87.3891      0.0000    639.3818      3.0322
  2071.7500     88.1062      0.0000    603.6083      3.1058
  2072.0000     86.9991      0.0000    559.3403      3.2081
  2072.2500     84.7465      0.0000    513.1385      3.3324
  2072.5000     82.3199      0.0000    473.7974      3.4704
  2072.7500     80.1772      0.0000    447.2832      3.6153
  2073.0000     78.4618      0.0000    433.5795      3.7628
  2073.2500     77.6801      0.0000    428.5677      3.9108
  2073.5000     78.5805      0.0000    427.8648      4.0571
  2073.7500     81.3863      0.0000    428.8383      4.1976
  2074.0000     85.6510      0.0000    430.6416      4.3258
  2074.2500     90.8145      0.0000    433.9298      4.4359
  2074.5000     96.3306      0.0000    441.1187      4.5251
  2074.7500    101.2319      0.0000    456.4221      4.5920
  2075.0000    104.2474      0.0000    483.9689      4.6321
  2075.2500    104.6618      0.0000    523.8632      4.6391
  2075.5000    102.8980      0.0000    569.7357      4.6169
  2075.7500    100.3469      0.0000    611.4558      4.5876
  2076.0000     98.6086      0.0000    641.0904      4.5804
  2076.2500     98.5194      0.0000    656.5399      4.6089
  2076.5000     99.7946      0.0000    660.7431      4.6613
  2076.7500    101.6751      0.0000    658.6689      4.7093
  2077.0000    103.6350      0.0000    654.5728      4.7238
  2077.2500    105.4080      0.0000    650.7469      4.6861
  2077.5000    106.7567      0.0000    647.9333      4.5928
  2077.7500    107.3895      0.0000    646.5110      4.4560
  2078.0000    107.0083      0.0000    647.2535      4.2940
  2078.2500    105.5376      0.0000    651.0402      4.1195
  2078.5000    103.3140      0.0000    657.8004      3.9377
  2078.7500    100.7965      0.0000    665.6611      3.7531
  2079.0000     98.0681      0.0000    671.4027      3.5728
  2079.2500     94.7951      0.0000    672.2772      3.4028
  2079.5000     90.5596      0.0000    667.7261      3.2449
  2079.7500     85.2758      0.0000    659.5104      3.1021
  2080.0000     79.7235      0.0000    650.3605      2.9817
  2080.2500     75.6488      0.0000    642.4781      2.8919
  2080.5000     74.7171      0.0000    636.8111      2.8371
  2080.7500     77.0803      0.0000    633.3339      2.8205
  2081.0000     81.2784      0.0000    632.0174      2.8467
  2081.2500     85.6531      0.0000    633.3276      2.9168
  2081.5000     89.5005      0.0000    637.4625      3.0183
  2081.7500     92.7529      0.0000    643.4324      3.1259
  2082.0000     95.1285      0.0000    649.4521      3.2129
  2082.2500     96.1837      0.0000    654.2204      3.2659
  2082.5000     96.0187      0.0000    657.5608      3.2885
  2082.7500     95.3327      0.0000    660.0624      3.2937
  2083.0000     94.6659      0.0000    662.5688      3.2923
  2083.2500     93.9484      0.0000    666.0979      3.2865
  2083.5000     92.9069      0.0000    671.7791      3.2729
  2083.7500     91.7637      0.0000    679.9854      3.2523
  2084.0000     91.3278      0.0000    688.9001      3.2340
  2084.2500     92.2492      0.0000    694.5183      3.2302
  2084.5000     94.2175      0.0000    693.4413      3.2476
  2084.7500     96.0363      0.0000    686.1459      3.2852
  2085.0000     96.5118      0.0000    676.8696      3.3394
  2085.2500     95.3028      0.0000    670.2756      3.4070
  2085.5000     93.0345      0.0000    668.7399      3.4828
  2085.7500     90.6831      0.0000    672.1470      3.5585
  2086.0000     88.8934      0.0000    678.6382      3.6268
  2086.2500     87.7207      0.0000    685.1960      3.6843
  2086.5000     86.8227      0.0000    688.7034      3.7273
  2086.7500     85.9188      0.0000    687.5668      3.7480
  2087.0000     85.1457      0.0000    682.6870      3.7378
  2087.2500     84.9158      0.0000    677.1270      3.6954
  2087.5000     85.4038      0.0000    674.8954      3.6282
  2087.7500     86.2303      0.0000    679.1436      3.5466
  2088.0000     86.5778      0.0000    690.1813      3.4583
  2088.2500     85.6698      0.0000    704.7322      3.3685
  2088.5000     83.4079      0.0000    717.4535      3.2849
  2088.7500     80.6817      0.0000    723.6203      3.2211
  2089.0000     78.9369      0.0000    720.9371      3.1906
  2089.2500     79.1506      0.0000    710.0720      3.1999
  2089.5000     80.9135      0.0000    694.4991      3.2441
  2089.7500     82.6165      0.0000    679.1693      3.3113
  2090.0000     82.9331      0.0000    667.9178      3.3890
  2090.2500     82.0869      0.0000    661.7195      3.4699
  2090.5000     81.3947      0.0000    659.3233      3.5492
  2090.7500     81.8543      0.0000    659.1559      3.6189
  2091.0000     83.5202      0.0000    660.6630      3.6650
  2091.2500     85.7867      0.0000    664.5354      3.6761
  2091.5000     87.7486      0.0000    671.7100      3.6559
  2091.7500     88.5672      0.0000    681.4155      3.6226
