~Version Information
VERS.                      2.0: CWLS Log ASCII Standard - VERSION 2.0
WRAP.                       NO: One line per depth step
~Well Information Block
STRT.FT                17.7500: 
STOP.FT              1139.0000: 
STEP.FT                 0.2500: 
NULL.                -999.2500: 
COMP.          El Paso E&P Company L.P.: COMPANY
WELL.              VPR "ST" 38: WELL
FLD.           Purgatorie River: FIELD
LOC.           687' FNL & 2121' FEL: LOCATION
CNTY.               Las Animas: COUNTY
SRVC.          Superior Well Services: SERVICE COMPANY
DATE.          Sat Oct 13 22-40-21 2007: LOG DATE
UWI.           05-071-08357-00: UNIQUE WELL ID
STAT.                       CO: STATE
~Curve Information Block
DEPT.FT            0 000 00 00: Depth
CCL.                          : Casing Collar Locator
TT3.usec                      : CBL 3' Travel Time
AMP3.mV                       : CBL 3' Amplitude
GR.GAPI                       : Gamma Ray
~Parameter Information Block
~A  Depth       CCL         TT3         AMP3         GR     
# ...
  1089.7500      0.0000    410.5481      3.0447     68.2772
  1090.0000      0.0000    407.5065      3.0359     68.6216
  1090.2500      0.0000    406.6991      3.0387     67.4291
  1090.5000      0.0000    406.6912      3.0490     64.7523
  1090.7500      0.0000    407.0067      3.0661     59.3843
  1091.0000      0.0000    407.5053      3.0894     56.6113
  1091.2500      0.0000    408.1371      3.1147     55.3668
  1091.5000      0.0000    408.8549      3.1356     56.0355
  1091.7500      0.0000    409.5764      3.1470     57.0532
  1092.0000      0.0000    410.2210      3.1486     56.7671
  1092.2500      0.0000    410.7619      3.1457     55.0699
  1092.5000      0.0000    411.2275      3.1456     53.9227
  1092.7500      0.0000    411.6565      3.1536     53.2529
  1093.0000      0.0000    412.0688      3.1708     53.4987
  1093.2500      0.0000    412.4814      3.1952     54.3485
  1093.5000      0.0000    412.9394      3.2228     55.0651
  1093.7500      0.0000    413.5150      3.2501     56.5426
  1094.0000      0.0000    414.2644      3.2756     57.8634
  1094.2500      0.0000    415.1756      3.2987     59.7342
  1094.5000      0.0000    416.1546      3.3169     60.1648
  1094.7500      0.0000    417.0615      3.3254     58.7344
  1095.0000      0.0000    417.7710      3.3213     56.7901
  1095.2500      0.0000    418.2209      3.3068     54.3726
  1095.5000      0.0000    418.4223      3.2893     54.1293
  1095.7500      0.0000    418.4319      3.2752     56.1253
  1096.0000      0.0000    418.3127      3.2657     58.4442
  1096.2500      0.0000    418.1133      3.2584     61.7863
  1096.5000      0.0000    417.8680      3.2515     62.9949
  1096.7500      0.0000    417.6043      3.2452     62.6485
  1097.0000      0.0000    417.3456      3.2401     61.4599
  1097.2500      0.0000    417.1100      3.2362     59.7237
  1097.5000      0.0000    416.9132      3.2339     59.1157
  1097.7500      0.0000    416.7708      3.2334     58.8108
  1098.0000      0.0000    416.6886      3.2348     58.5507
  1098.2500      0.0000    416.6514      3.2383     57.7075
  1098.5000      0.0000    416.6327      3.2435     57.1382
  1098.7500      0.0000    416.6218      3.2480     57.0756
  1099.0000      0.0000    416.6339      3.2488     57.7893
  1099.2500      0.0000    416.6928      3.2473     59.9973
  1099.5000      0.0000    416.8096      3.2484     62.2070
  1099.7500      0.0000    416.9805      3.2565     66.4072
  1100.0000      0.0000    417.1953      3.2714     69.3188
  1100.2500      0.0000    417.4466      3.2889     72.4707
  1100.5000      0.0000    417.7301      3.3056     73.0808
  1100.7500      0.0000    418.0319      3.3206     71.7272
  1101.0000      0.0000    418.3145      3.3355     69.9074
  1101.2500      0.0000    418.5283      3.3521     66.8595
  1101.5000      0.0000    418.6455      3.3702     64.8562
  1101.7500      0.0000    418.6746      3.3882     61.8389
  1102.0000      0.0000    418.6353      3.4032     59.8743
  1102.2500      0.0000    418.5327      3.4145     57.7460
  1102.5000      0.0000    418.3701      3.4227     57.5183
  1102.7500      0.0000    418.1840      3.4276     59.1617
  1103.0000      0.0000    418.0520      3.4267     60.7713
  1103.2500      0.0000    418.0536      3.4195     62.3311
  1103.5000      0.0000    418.2207      3.4123     62.8168
  1103.7500      0.0000    418.5260      3.4151     64.1821
  1104.0000      0.0000    418.9112      3.4333     65.9623
  1104.2500      0.0000    419.3206      3.4644     68.9516
  1104.5000      0.0000    419.7170      3.5015     70.3422
  1104.7500      0.0000    420.0869      3.5397     71.1263
  1105.0000      0.0000    420.4347      3.5765     70.9790
  1105.2500      0.0000    420.7698      3.6085     70.0826
  1105.5000      0.0000    421.0826      3.6311     69.1796
  1105.7500      0.0000    421.3152      3.6412     67.5527
  1106.0000      0.0000    421.3647      3.6391     66.2742
  1106.2500      0.0000    421.1532      3.6284     64.0660
  1106.5000      0.0000    420.7107      3.6138     62.6586
  1106.7500      0.0000    420.1618      3.5984     61.5382
  1107.0000      0.0000    419.6169      3.5801     61.9438
  1107.2500      0.0000    419.1036      3.5538     64.5491
  1107.5000      0.0000    418.6183      3.5175     67.3591
  1107.7500      0.0000    418.2039      3.4763     72.2779
  1108.0000      0.0000    417.9351      3.4389     75.3346
  1108.2500      0.0000    417.8435      3.4121     78.0881
  1108.5000      0.0000    417.8949      3.3977     77.8008
  1108.7500      0.0000    418.0412      3.3932     73.5061
  1109.0000      0.0000    418.2698      3.3940     68.5823
  1109.2500      0.0000    418.5850      3.3964     60.2863
  1109.5000      0.0000    418.9485      3.3975     55.5649
  1109.7500      0.0000    419.2662      3.3951     51.0882
  1110.0000      0.0000    419.4476      3.3893     49.6826
  1110.2500      0.0000    419.4701      3.3842     48.5450
  1110.5000      0.0000    419.3800      3.3863     47.7366
  1110.7500      0.0000    419.2461      3.3993     46.3577
  1111.0000      0.0000    419.1220      3.4209     45.6975
  1111.2500      0.0000    419.0373      3.4440     45.4967
  1111.5000      0.0000    419.0008      3.4609     45.8390
  1111.7500      0.0000    419.0037      3.4671     47.0954
  1112.0000      0.0000    419.0249      3.4640     48.8341
  1112.2500      0.0000    419.0390      3.4559     53.5837
  1112.5000      0.0000    419.0187      3.4463     57.8820
  1112.7500      0.0000    418.9232      3.4365     63.6969
  1113.0000      0.0000    418.6795      3.4277     65.6250
  1113.2500      0.0000    418.1738      3.4199     64.9106
  1113.5000      0.0000    417.2794      3.4097     62.9610
  1113.7500      0.0000    415.9166      3.3929     60.1935
  1114.0000      0.0000    414.0986      3.3704     59.4137
  1114.2500      0.0000    411.9115      3.3496     60.1901
  1114.5000      0.0000    409.4471      3.3394     61.5895
  1114.7500      0.0000    406.7677      3.3448     63.7715
  1115.0000      0.0000    403.9480      3.3653     64.5448
  1115.2500      0.0000    401.1310      3.3965     63.8907
  1115.5000      0.0000    398.5252      3.4328     62.3135
  1115.7500      0.0000    396.3592      3.4697     59.2461
  1116.0000      0.0000    394.8695      3.5031     57.3618
  1116.2500      0.0000    394.3121      3.5253     54.9746
  1116.5000      0.0000    394.9020      3.5263     53.4008
  1116.7500      0.0000    396.6783      3.5020     51.0450
  1117.0000      0.0000    399.4243      3.4597     49.9039
  1117.2500      0.0000    402.7404      3.4140     49.6753
  1117.5000      0.0000    406.1945      3.3771     50.9012
  1117.7500      0.0000    409.4299      3.3500     55.3909
  1118.0000      0.0000    412.2083      3.3247     60.1606
  1118.2500      0.0000    414.4341      3.2930     68.7310
  1118.5000      0.0000    416.1494      3.2549     74.1020
  1118.7500      0.0000    417.4726      3.2188     79.4966
  1119.0000      0.0000    418.5203      3.1936     80.4587
  1119.2500      0.0000    419.3741      3.1823     77.6873
  1119.5000      0.0000    420.0902      3.1815     73.9558
  1119.7500      0.0000    420.7038      3.1847     68.7340
  1120.0000      0.0000    421.2187      3.1866     67.1537
  1120.2500      0.0000    421.6174      3.1864     67.5226
  1120.5000      0.0000    421.8925      3.1877     67.7931
  1120.7500      0.0000    422.0624      3.1940     65.1426
  1121.0000      0.0000    422.1487      3.2044     61.1433
  1121.2500      0.0000    422.1491      3.2134     54.3455
  1121.5000      0.0000    422.0438      3.2158     51.2070
  1121.7500      0.0000    421.8224      3.2115     50.3265
  1122.0000      0.0000    421.4947      3.2052     51.9435
  1122.2500      0.0000    421.0814      3.2016     55.3444
  1122.5000      0.0000    420.6078      3.2022     56.4453
  1122.7500      0.0000    420.1058      3.2050     53.4611
  1123.0000      0.0000    419.6071      3.2068     47.5421
