~Version Information
VERS.                      2.0: CWLS Log ASCII Standard - VERSION 2.0
WRAP.                       NO: One line per depth step
~Well Information Block
STRT.FT               840.0000: 
STOP.FT              2448.5000: 
STEP.FT                 0.2500: 
NULL.                -999.2500: 
COMP.          Petrogulf Corporation: COMPANY
WELL.             Leier 17-42V: WELL
FLD.           Purgatorie River: FIELD
LOC.           2309' FNL & 1062' FEL SENE 17 33S 67W: LOCATION
PROV.                 Colorado: PROVINCE
CNTY.               Las Animas: COUNTRY
SRVC.                Patterson: SERVICE COMPANY
DATE.          Thu Sep 22 09:40:29 2005: LOG DATE
UWI.                 071 08409: UNIQUE WELL ID
~Curve Information Block
DEPT.FT            0 000 00 00: Depth
SP.mV                         : DIL Spontaneous Potential
RILD.Ohm-m                    : DIL Deep Resistivity
RILM.Ohm-m                    : DIL Medium Resistivity
RLL3.Ohm-m                    : DIL Shallow Resistivity
GR.GAPI                       : Gamma Ray
~Parameter Information Block
~A  Depth        SP         RILD        RILM        RLL3         GR     
# ...
  1568.0000    207.5107     14.3070     13.8070     12.4515    144.2782
  1568.2500    207.7623     13.6187     14.2091     13.3629    126.9389
  1568.5000    207.8399     13.3149     14.3264     16.4328    128.3262
  1568.7500    207.7463     12.9231     14.5102     18.8930    119.7915
  1569.0000    207.6659     12.5766     14.8678     17.5215    118.1128
  1569.2500    207.6258     12.4165     14.8973     16.2609    115.6872
  1569.5000    207.5606     12.1897     14.6173     19.1503    112.0115
  1569.7500    207.6366     11.9688     14.1778     24.3361    110.4030
  1570.0000    207.7637     11.6256     13.3612     22.1942    100.9282
  1570.2500    207.8968     11.4298     12.5071     15.8220     83.2132
  1570.5000    207.8634     11.2361     11.6240     11.5827     81.8554
  1570.7500    207.6175     10.7797     10.9195      9.8508     94.0884
  1571.0000    207.3098     10.5136     10.4284      9.5684    116.1789
  1571.2500    207.0408     10.0063     10.1351      9.6738    134.2736
  1571.5000    206.7501      9.5564      9.7119     10.2673    124.9087
  1571.7500    206.5693      9.1213      9.3547     10.0857    140.5032
  1572.0000    206.4510      8.7710      8.9236      9.5066    144.6213
  1572.2500    206.2841      8.4027      8.4787      9.3028    162.3320
  1572.5000    206.2237      8.0811      8.0925      9.1354    161.9935
  1572.7500    206.1733      7.7471      7.8015      8.8248    148.4772
  1573.0000    206.0118      7.5483      7.5567      8.5651    150.7156
  1573.2500    205.6949      7.4218      7.3235      8.2828    139.7864
  1573.5000    205.3045      7.2770      7.1992      8.1167    155.0257
  1573.7500    204.8190      7.1011      7.0437      8.5182    181.5592
  1574.0000    204.3000      7.0605      6.9578      8.5825    156.1973
  1574.2500    203.7743      6.9675      6.9529      8.3575    146.5284
  1574.5000    203.2178      6.9251      6.8501      8.3628    145.3740
  1574.7500    202.6449      6.9551      6.7851      8.6730    157.4025
  1575.0000    202.0629      7.1123      6.7217      8.9488    172.2330
  1575.2500    201.3118      7.2617      6.7004      8.3924    162.3385
  1575.5000    200.4398      7.4915      6.7539      7.5745    160.6596
  1575.7500    199.5069      7.7224      6.8689      7.3376    150.9943
  1576.0000    198.5322      7.9473      7.1871      7.4687    137.3432
  1576.2500    197.5565      8.1842      7.6408      7.9518    132.0359
  1576.5000    196.6019      8.4740      8.3975      9.9325    173.5914
  1576.7500    195.6296      8.7037      9.0667     14.2796    167.1533
  1577.0000    194.9238      8.8764      9.7934     19.3381    141.6319
  1577.2500    194.3028      9.2397     10.4123     22.0537    124.1209
  1577.5000    193.5937      9.5609     10.8530     20.8775    109.2337
  1577.7500    192.6649      9.9529     11.2370     18.5471    104.2330
  1578.0000    191.8480     10.4938     11.5058     16.3827    105.4716
  1578.2500    191.0432     11.1106     11.9006     15.3194     94.6817
  1578.5000    190.2347     11.8846     12.3657     14.4788    104.5060
  1578.7500    189.4329     12.6063     13.0487     13.7583    110.7275
  1579.0000    188.8546     13.3583     14.0563     13.9176    120.5657
  1579.2500    188.4615     13.9904     15.2151     14.9060    110.3081
  1579.5000    188.3111     14.2745     16.0946     17.4357    124.3418
  1579.7500    188.3853     14.3359     17.0794     20.8040    125.9734
  1580.0000    188.6747     14.3392     17.8682     22.2245    114.3832
  1580.2500    189.0955     14.5827     18.3427     22.6287    112.7084
  1580.5000    189.6987     14.5211     18.1325     23.5354    118.1092
  1580.7500    190.4734     14.2356     18.3192     23.5559    101.9866
  1581.0000    191.3228     13.7582     18.1118     20.2820     82.5578
  1581.2500    192.2318     13.2535     17.8297     17.3165    115.6722
  1581.5000    193.2993     12.9664     17.3174     18.1847    101.7570
  1581.7500    194.5942     12.3500     16.5896     22.7821     88.4420
  1582.0000    195.7500     11.8448     15.7929     22.7443    108.6431
  1582.2500    196.6665     11.4521     14.4216     18.4878    119.0442
  1582.5000    197.3694     11.1412     13.0185     15.5742     98.1505
  1582.7500    198.0313     10.6565     11.9279     13.0577     93.7538
  1583.0000    198.5751     10.0991     10.9170     10.6595    116.8459
  1583.2500    199.1012      9.7041     10.1486      9.3381    110.5241
  1583.5000    199.7889      9.3487      9.5268      8.8806    138.5843
  1583.7500    200.6765      8.9584      9.0963      9.2682    149.6014
  1584.0000    201.7645      8.6034      8.6955      9.1353    138.7019
  1584.2500    202.5948      8.1285      8.4220      8.8126    137.9230
  1584.5000    203.2135      7.7354      8.0593      8.8040    163.5041
  1584.7500    203.6288      7.4432      7.7317      8.7189    157.0302
  1585.0000    204.0127      7.1706      7.4255      8.4023    124.4159
  1585.2500    204.5143      6.9741      7.1771      8.8516    143.9643
  1585.5000    205.1310      6.8741      6.9278      8.6189    127.7206
  1585.7500    205.8186      6.8011      6.6897      8.2772    139.1057
  1586.0000    206.5833      6.7291      6.5043      7.8886    145.6978
  1586.2500    207.4319      6.6610      6.3938      7.1910    140.4932
  1586.5000    208.1528      6.6709      6.3533      6.7986    160.4555
  1586.7500    208.7642      6.6362      6.3279      7.0829    163.3689
  1587.0000    209.2439      6.6815      6.4029      7.6320    159.6040
  1587.2500    209.4966      6.6833      6.4517      8.0682    163.0578
  1587.5000    209.6196      6.6703      6.4962      8.0487    183.3440
  1587.7500    209.6455      6.6438      6.6071      8.0664    172.2013
  1588.0000    209.5175      6.6778      6.6689      7.9793    137.0438
  1588.2500    209.3325      6.6634      6.7078      7.9057    138.6767
  1588.5000    208.8871      6.7443      6.7466      8.2792    147.2881
  1588.7500    208.1275      6.8408      6.8055      8.3383    146.3810
  1589.0000    207.1935      6.9688      6.9417      8.0770    154.1003
  1589.2500    206.1886      7.0307      7.1213      7.8499    134.2859
  1589.5000    205.2408      7.0754      7.2928      8.4084    167.7503
  1589.7500    204.1556      7.1229      7.4656      8.9347    147.4233
  1590.0000    203.0935      7.1789      7.6136      9.2225    129.9612
  1590.2500    202.2670      7.2045      7.7595      9.2538    121.2891
  1590.5000    201.6003      7.2926      7.8026      9.2592    125.7085
  1590.7500    200.9555      7.3078      7.8629      9.3079    117.0793
  1591.0000    200.2881      7.3221      7.9154      9.3744    127.9524
  1591.2500    199.5867      7.3008      7.9383      9.2800    124.4936
  1591.5000    198.7357      7.2754      7.9165      9.3672    135.6264
  1591.7500    197.6954      7.3019      7.8943      9.5695    119.3999
  1592.0000    196.7330      7.3138      7.8360      9.5538    116.8255
  1592.2500    195.7559      7.3852      7.7196      9.1998    117.8222
  1592.5000    194.8234      7.4142      7.5600      8.7864    106.6568
  1592.7500    193.8954      7.5058      7.5104      8.4592    118.3034
  1593.0000    192.9898      7.5251      7.5854      7.8324    106.2937
  1593.2500    192.0041      7.5729      7.6386      8.2373    116.1949
  1593.5000    191.0589      7.6077      7.7301      9.1425    103.1842
  1593.7500    190.0195      7.6823      7.8174      9.6131    102.4577
  1594.0000    188.8675      7.6885      7.9676      9.8171     96.1441
  1594.2500    187.8710      7.7804      7.9829     10.1763     71.0333
  1594.5000    186.9986      7.8580      8.0121     10.4346     89.8759
  1594.7500    186.1612      8.0532      8.0464     10.0194     82.8848
  1595.0000    185.3918      8.3515      8.1678      9.4319    105.7681
  1595.2500    184.7542      8.7472      8.3536      9.1265     89.7725
  1595.5000    184.2023      9.0984      8.7152      9.3310     92.6550
  1595.7500    183.6536      9.5301      9.1634      9.5276    113.4839
