~Version Information
VERS.                      2.0: CWLS Log ASCII Standard - VERSION 2.0
WRAP.                       NO: One line per depth step
~Well Information Block
STRT.FT               240.0000: 
STOP.FT              1453.0000: 
STEP.FT                 0.2500: 
NULL.                -999.2500: 
COMP.          Petrogulf Corporation: COMPANY
WELL.          Robinson 15-12R: WELL
FLD.           Purgatorie River: FIELD
LOC.           1752' FNL & 561' FWL: LOCATION
PROV.                 Colorado: PROVINCE
CNTY.               Las Animas: COUNTRY
SRVC.                Patterson: SERVICE COMPANY
DATE.          Tue Sep 13 15:11:42 2005: LOG DATE
UWI.                          : UNIQUE WELL ID
~Curve Information Block
DEPT.FT            0 000 00 00: Depth
SP.mV                         : DIL Spontaneous Potential
RILD.Ohm-m                    : DIL Deep Resistivity
RILM.Ohm-m                    : DIL Medium Resistivity
RLL3.Ohm-m                    : DIL Shallow Resistivity
GR.GAPI                       : Gamma Ray
~Parameter Information Block
~A  Depth        SP         RILD        RILM        RLL3         GR     
# ...
   408.0000   2000.0000     17.4558     18.7268   2000.0000    150.3235
   408.2500   2000.0000     17.1508     17.3454   2000.0000    165.5476
   408.5000   2000.0000     16.8462     15.3488   2000.0000    180.5643
   408.7500   2000.0000     16.3423     14.4665   2000.0000    179.1555
   409.0000   2000.0000     16.1679     13.8367   2000.0000    168.7483
   409.2500   2000.0000     15.8632     13.4829   2000.0000    179.2776
   409.5000   2000.0000     15.8734     13.2999   2000.0000    175.8253
   409.7500   2000.0000     15.9938     13.3035   2000.0000    167.8761
   410.0000   2000.0000     15.7035     14.2668   2000.0000    173.5323
   410.2500   2000.0000     15.2716     14.8874   2000.0000    182.4497
   410.5000   2000.0000     15.6566     15.3892   2000.0000    155.1585
   410.7500   2000.0000     15.3766     16.1942   2000.0000    161.1724
   411.0000   2000.0000     15.6534     16.8492   2000.0000    158.7510
   411.2500   2000.0000     15.5178     17.5621   2000.0000    153.5155
   411.5000   2000.0000     15.2540     17.4115   2000.0000    146.0990
   411.7500   2000.0000     15.7461     17.0172   2000.0000    171.9049
   412.0000   2000.0000     15.4412     16.5288   2000.0000    173.5686
   412.2500   2000.0000     15.5011     16.2002   2000.0000    177.7290
   412.5000   2000.0000     15.8123     15.9990   2000.0000    160.2565
   412.7500   2000.0000     15.6449     15.6277   2000.0000    163.1800
   413.0000   2000.0000     15.4057     15.3965   2000.0000    167.5395
   413.2500   2000.0000     15.8150     15.0303   2000.0000    172.3815
   413.5000   2000.0000     16.0304     14.5217   2000.0000    159.4305
   413.7500   2000.0000     15.4005     14.4453   2000.0000    161.1555
   414.0000   2000.0000     15.2324     14.3221   2000.0000    167.6713
   414.2500   2000.0000     15.0346     13.6280   2000.0000    169.1399
   414.5000   2000.0000     14.9876     13.6824   2000.0000    158.6700
   414.7500   2000.0000     14.8076     13.3153   2000.0000    157.9107
   415.0000   2000.0000     15.0134     13.4484   2000.0000    178.8034
   415.2500   2000.0000     15.3327     13.6984   2000.0000    145.2701
   415.5000   2000.0000     15.6783     13.6361   2000.0000    168.5485
   415.7500   2000.0000     15.7341     13.9818   2000.0000    158.4370
   416.0000   2000.0000     16.0043     14.9401   2000.0000    152.0149
   416.2500   2000.0000     16.3453     15.6353   2000.0000    158.0303
   416.5000   2000.0000     17.1824     16.4682   2000.0000    152.6655
   416.7500   2000.0000     17.6130     18.2272   2000.0000    133.3816
   417.0000   2000.0000     18.4455     18.5383   2000.0000    133.6996
   417.2500   2000.0000     18.7350     18.7864   2000.0000    118.0441
   417.5000   2000.0000     19.3492     20.3447   2000.0000    128.9784
   417.7500   2000.0000     20.7133     21.1491   2000.0000    133.0596
   418.0000   2000.0000     21.8696     22.2073   2000.0000    121.8678
   418.2500   2000.0000     22.3265     22.7015   2000.0000    126.0555
   418.5000   2000.0000     22.1948     23.6597   2000.0000    121.8476
   418.7500   2000.0000     23.1341     24.7651   2000.0000    121.0499
   419.0000   2000.0000     23.6053     24.1369   2000.0000    117.8715
   419.2500   2000.0000     23.3306     24.0971   2000.0000    125.1615
   419.5000   2000.0000     23.0682     24.1691   2000.0000    128.9624
   419.7500   2000.0000     20.9866     24.6962   2000.0000    131.3111
   420.0000   2000.0000     21.5257     25.4055   2000.0000    114.5606
   420.2500   2000.0000     22.0366     24.3778   2000.0000    116.1926
   420.5000   2000.0000     21.6182     24.1009   2000.0000    117.0237
   420.7500   2000.0000     20.8429     23.2531   2000.0000    121.9045
   421.0000   2000.0000     20.0274     23.5891   2000.0000    114.0600
   421.2500   2000.0000     20.4911     22.5466   2000.0000    142.1522
   421.5000   2000.0000     20.3702     20.6774   2000.0000    152.7674
   421.7500   2000.0000     19.8159     20.0052   2000.0000    170.4207
   422.0000   2000.0000     20.0005     19.5946   2000.0000    159.3040
   422.2500   2000.0000     20.6801     19.4806   2000.0000    156.2778
   422.5000   2000.0000     20.8560     19.0024   2000.0000    162.3526
   422.7500   2000.0000     19.9290     19.3883   2000.0000    156.0520
   423.0000   2000.0000     19.2366     20.3891   2000.0000    152.7536
   423.2500   2000.0000     18.4163     20.9924   2000.0000    148.1599
   423.5000   2000.0000     17.5027     22.1168   2000.0000    121.7041
   423.7500   2000.0000     16.8748     21.0328   2000.0000    116.4776
   424.0000   2000.0000     16.2474     19.3002   2000.0000    109.6492
   424.2500   2000.0000     15.9829     17.9367   2000.0000    122.7402
   424.5000   2000.0000     15.3171     16.9930   2000.0000    145.3351
   424.7500   2000.0000     14.9443     15.9031   2000.0000    133.6599
   425.0000   2000.0000     14.2238     14.6778   2000.0000    144.4612
   425.2500   2000.0000     14.3718     13.9999   2000.0000    150.0360
   425.5000   2000.0000     13.5577     13.6948   2000.0000    151.8497
   425.7500   2000.0000     13.4708     12.7363   2000.0000    158.9570
   426.0000   2000.0000     13.2905     11.9279   2000.0000    164.8060
   426.2500   2000.0000     12.7252     11.2407   2000.0000    158.9954
   426.5000   2000.0000     12.4749     10.8969   2000.0000    180.7322
   426.7500   2000.0000     12.4267     10.6610   2000.0000    171.2807
   427.0000   2000.0000     12.2857     10.5692   2000.0000    150.7395
   427.2500   2000.0000     12.4113     10.6987   2000.0000    166.4578
   427.5000   2000.0000     12.5061     10.7610   2000.0000    163.2583
   427.7500   2000.0000     12.4642     11.2830   2000.0000    166.6735
   428.0000   2000.0000     12.3779     11.6162   2000.0000    137.2165
   428.2500   2000.0000     12.7771     12.1748   2000.0000    140.6761
   428.5000   2000.0000     12.7227     12.7152   2000.0000    113.9080
   428.7500   2000.0000     13.4986     13.2483   2000.0000    136.4628
   429.0000   2000.0000     14.0371     13.5523   2000.0000    156.3564
   429.2500   2000.0000     14.7140     14.8271   2000.0000    141.4622
   429.5000   2000.0000     15.3841     15.3660   2000.0000    121.1848
   429.7500   2000.0000     15.7277     15.8223   2000.0000    122.9489
   430.0000   2000.0000     17.2022     17.0995   2000.0000    130.4093
   430.2500   2000.0000     17.7375     17.8726   2000.0000    115.8564
   430.5000   2000.0000     19.5060     18.9138   2000.0000    101.6080
   430.7500   2000.0000     19.7520     20.4783   2000.0000    103.2132
   431.0000   2000.0000     21.2372     21.8711   2000.0000    100.6736
   431.2500   2000.0000     21.6968     23.3315   2000.0000     94.6923
   431.5000   2000.0000     22.8312     25.6636   2000.0000    116.4365
   431.7500   2000.0000     23.2516     27.5490   2000.0000    102.2350
   432.0000   2000.0000     25.0544     28.5874   2000.0000     89.3426
   432.2500   2000.0000     26.3880     33.4567   2000.0000     76.5010
   432.5000   2000.0000     28.6747     34.8882   2000.0000     83.1211
   432.7500   2000.0000     28.1443     36.6540   2000.0000     72.0820
   433.0000   2000.0000     28.9666     38.6667   2000.0000     71.6486
   433.2500   2000.0000     31.9514     40.8695   2000.0000     67.6820
   433.5000   2000.0000     33.5870     46.7984   2000.0000     54.6875
   433.7500   2000.0000     35.1072     45.8080   2000.0000     51.3602
   434.0000   2000.0000     37.5437     51.3802   2000.0000     49.2165
   434.2500   2000.0000     37.7269     51.4758   2000.0000     40.2507
   434.5000   2000.0000     37.6406     53.3267   2000.0000     45.8283
   434.7500   2000.0000     41.4446     57.9546   2000.0000     45.0522
   435.0000   2000.0000     42.1622     67.1588   2000.0000     40.7322
   435.2500   2000.0000     41.9866     66.9887   2000.0000     37.2231
   435.5000   2000.0000     43.4203     72.0089   2000.0000     31.8192
   435.7500   2000.0000     44.3335     69.6438   2000.0000     25.8866
