~Version Information
VERS.                      2.0: CWLS Log ASCII Standard - VERSION 2.0
WRAP.                       NO: One line per depth step
~Well Information Block
STRT.FT                -4.7500: 
STOP.FT              1784.7500: 
STEP.FT                 0.2500: 
NULL.                -999.2500: 
COMP.          Pioneer Natural Resources: COMPANY
WELL.          Buckeye 11-13 Tr: WELL
FLD.           Purgatorie River: FIELD
LOC.           211' FNL & 1054' FWL--: LOCATION
STAT.                       CO: State
CNTY.               Las Animas: COUNTY
CTRY. USA : Country
SECT. 13 : Section
TOWN. 33S : Township
RANG. 67W : range
SRVC.          Patterson Wireline: SERVICE COMPANY
DATE.          Wed Mar 16 09:19:21 2005: LOG DATE
API.           05 071 08317 00: UNIQUE WELL ID
~Curve Information Block
DEPT.FT            0 000 00 00: Depth
CCL.                          : Casing Collar Locator
TT3.usec                      : CBL 3' Travel Time
AMP3.mV                       : CBL 3' Amplitude
GR.GAPI                       : Gamma Ray
~Parameter Information Block
~A  Depth       CCL         TT3         AMP3         GR     
# ...
  1033.7500      0.0000    589.5425      5.8897    119.1865
  1034.0000      0.0000    595.3319      5.9736    120.3735
  1034.2500      0.0000    620.3715      6.1048    121.2653
  1034.5000      0.0000    660.1742      6.2643    120.6366
  1034.7500      0.0000    702.1011      6.4206    118.6228
  1035.0000      0.0000    730.3840      6.5466    116.9817
  1035.2500      0.0000    736.5289      6.6271    117.4684
  1035.5000      0.0000    725.4065      6.6641    119.6905
  1035.7500      0.0000    710.9188      6.6735    121.2311
  1036.0000      0.0000    705.6336      6.6655    120.2482
  1036.2500      0.0000    713.4526      6.6320    117.3726
  1036.5000      0.0000    729.8773      6.5643    114.7609
  1036.7500      0.0000    747.0765      6.4776    113.9730
  1037.0000      0.0000    757.9200      6.3944    115.1874
  1037.2500      0.0000    757.0849      6.3101    117.6887
  1037.5000      0.0000    741.9534      6.2030    120.4329
  1037.7500      0.0000    714.7105      6.0823    122.6605
  1038.0000      0.0000    682.9529      5.9987    124.3494
  1038.2500      0.0000    656.5801      5.9977    125.8441
  1038.5000      0.0000    642.6342      6.0716    127.2751
  1038.7500      0.0000    642.3242      6.1667    128.6144
  1039.0000      0.0000    652.4451      6.2290    130.0235
  1039.2500      0.0000    669.0223      6.2379    131.8399
  1039.5000      0.0000    689.8104      6.2021    134.1828
  1039.7500      0.0000    714.2488      6.1390    136.4888
  1040.0000      0.0000    741.3128      6.0619    137.5060
  1040.2500      0.0000    767.4826      5.9744    136.0746
  1040.5000      0.0000    787.7384      5.8706    131.8382
  1040.7500      0.0000    799.0026      5.7467    124.9120
  1041.0000      0.0000    802.0076      5.6177    115.3267
  1041.2500      0.0000    799.8550      5.5165    103.5215
  1041.5000      0.0000    795.6573      5.4718     91.0728
  1041.7500      0.0000    791.4852      5.4868     80.1889
  1042.0000      0.0000    788.3334      5.5377     72.3366
  1042.2500      0.0000    786.3597      5.5901     67.6026
  1042.5000      0.0000    785.2654      5.6206     65.4174
  1042.7500      0.0000    784.7170      5.6254     65.5619
  1043.0000      0.0000    784.5201      5.6110     68.1762
  1043.2500      0.0000    784.5507      5.5799     72.9545
  1043.5000      0.0000    784.6646      5.5324     78.9326
  1043.7500      0.0000    784.7414      5.4768     85.2466
  1044.0000      0.0000    784.7290      5.4282     91.5214
  1044.2500      0.0000    784.5595      5.3971     97.1228
  1044.5000      0.0000    783.9965      5.3901    100.6018
  1044.7500      0.0000    782.6912      5.4172    100.5270
  1045.0000      0.0000    780.5606      5.4836     96.6966
  1045.2500      0.0000    778.1119      5.5731     90.4268
  1045.5000      0.0000    776.0638      5.6546     84.1004
  1045.7500      0.0000    774.4276      5.7031     80.5021
  1046.0000      0.0000    772.3771      5.7095     81.6580
  1046.2500      0.0000    769.4749      5.6756     87.4088
  1046.5000      0.0000    766.5814      5.6134     94.9783
  1046.7500      0.0000    764.8436      5.5484    100.4352
  1047.0000      0.0000    764.1075      5.5135    101.3074
  1047.2500      0.0000    763.1450      5.5344     98.1379
  1047.5000      0.0000    761.2270      5.6133     93.4614
  1047.7500      0.0000    758.6057      5.7231     89.5180
  1048.0000      0.0000    755.6733      5.8255     87.2375
  1048.2500      0.0000    752.6304      5.8993     86.7215
  1048.5000      0.0000    749.9675      5.9507     87.7003
  1048.7500      0.0000    748.4361      5.9972     89.5314
  1049.0000      0.0000    748.1991      6.0538     91.5021
  1049.2500      0.0000    748.4503      6.1274     93.4808
  1049.5000      0.0000    748.3915      6.2094     96.0584
  1049.7500      0.0000    748.4720      6.2750     99.7816
  1050.0000      0.0000    749.6222      6.2978    104.1634
  1050.2500      0.0000    750.7289      6.2653    107.6895
  1050.5000      0.0000    748.1439      6.1871    109.1116
  1050.7500      0.0000    739.0555      6.0968    108.6429
  1051.0000      0.0000    724.8568      6.0359    107.6187
  1051.2500      0.0000    710.1910      6.0211    107.1642
  1051.5000      0.0000    698.9442      6.0294    107.4219
  1051.7500      0.0000    691.5671      6.0168    107.8183
  1052.0000      0.0000    685.3000      5.9473    107.8051
  1052.2500      0.0000    675.9615      5.8150    107.3782
  1052.5000      0.0000    660.5107      5.6551    107.0199
  1052.7500      0.0000    640.2160      5.5279    107.2646
  1053.0000      0.0000    622.0906      5.4842    108.3710
  1053.2500      0.0000    615.4722      5.5385    110.1301
  1053.5000      0.0000    625.2348      5.6659    111.7463
  1053.7500      0.0000    648.0988      5.8158    112.0747
  1054.0000      0.0000    675.5278      5.9397    110.3446
  1054.2500      0.0000    699.3177      6.0181    106.9056
  1054.5000      0.0000    714.7316      6.0582    103.2573
  1054.7500      0.0000    721.2808      6.0716    100.9924
  1055.0000      0.0000    722.8757      6.0576    100.4405
  1055.2500      0.0000    725.9080      5.9994    100.4258
  1055.5000      0.0000    734.5778      5.8747     99.3185
  1055.7500      0.0000    747.4763      5.6850     96.1961
  1056.0000      0.0000    759.1818      5.4780     91.4044
  1056.2500      0.0000    764.9986      5.3277     86.5819
  1056.5000      0.0000    764.0609      5.2866     83.9337
  1056.7500      0.0000    758.8608      5.3626     84.8116
  1057.0000      0.0000    752.7809      5.5287     88.6742
  1057.2500      0.0000    748.0120      5.7326     93.3174
  1057.5000      0.0000    745.0450      5.9018     96.2132
  1057.7500      0.0000    743.3898      5.9681     96.1576
  1058.0000      0.0000    742.4236      5.9108     94.1182
  1058.2500      0.0000    741.7709      5.7746     92.3603
  1058.5000      0.0000    741.2559      5.6403     92.4831
  1058.7500      0.0000    740.6416      5.5776     94.3703
  1059.0000      0.0000    739.3040      5.6197     97.0052
  1059.2500      0.0000    736.1720      5.7585     99.8163
  1059.5000      0.0000    730.3602      5.9517    102.8689
  1059.7500      0.0000    722.3527      6.1422    105.9212
  1060.0000      0.0000    714.7086      6.2854    107.8222
  1060.2500      0.0000    711.0947      6.3574    107.2612
  1060.5000      0.0000    713.6475      6.3430    104.1112
  1060.7500      0.0000    720.5112      6.2283     99.7586
  1061.0000      0.0000    726.2189      6.0147     95.8935
  1061.2500      0.0000    725.6546      5.7465     93.1862
  1061.5000      0.0000    718.3206      5.5114     91.3709
  1061.7500      0.0000    708.4749      5.4039     90.1896
  1062.0000      0.0000    701.3323      5.4771     89.6014
  1062.2500      0.0000    699.5331      5.7165     89.1590
  1062.5000      0.0000    702.1730      6.0433     87.9298
  1062.7500      0.0000    705.5555      6.3479     85.4127
  1063.0000      0.0000    705.1693      6.5402     82.2537
  1063.2500      0.0000    698.7656      6.5927     79.7626
  1063.5000      0.0000    688.2115      6.5505     78.9343
  1063.7500      0.0000    677.6087      6.4940     80.1331
  1064.0000      0.0000    668.9615      6.4746     83.3850
  1064.2500      0.0000    659.8201      6.4827     88.5120
  1064.5000      0.0000    645.5546      6.4745     94.9538
  1064.7500      0.0000    624.5383      6.4194    101.6068
  1065.0000      0.0000    601.6638      6.3213    107.0093
  1065.2500      0.0000    586.7222      6.2067    110.1052
  1065.5000      0.0000    588.0571      6.1037    111.1532
  1065.7500      0.0000    606.3596      6.0362    111.6423
  1066.0000      0.0000    634.5045      6.0171    112.9661
  1066.2500      0.0000    663.7852      6.0127    115.2462
  1066.5000      0.0000    689.9350      5.9284    117.4547
  1066.7500      0.0000    713.1429      5.6850    118.3582
  1067.0000      0.0000    733.9475      5.3197    117.2619
