~Version Information
VERS.                      2.0: CWLS Log ASCII Standard - VERSION 2.0
WRAP.                       NO: One line per depth step
~Well Information Block
STRT.FT               235.0000: 
STOP.FT              1634.5000: 
STEP.FT                 0.2500: 
NULL.                -999.2500: 
COMP.          Petrogulf Corporation: COMPANY
WELL.             State 16-41R: WELL
FLD.           Purgatorie River: FIELD
LOC.           280' FNL & 907' FEL: LOCATION
SECT.                       16: SECTION
TOWN.                      33S: TOWNSHIP
RANG.                      67W: RANGE
STAT.                 Colorado: STATE
CNTY.               Las Animas: COUNTY
CTRY.                      USA: COUNTRY
SRVC.                Patterson: SERVICE COMPANY
DATE.         Tue Oct 18 15:59:41 2005: LOG DATE
API.              05-071-08345: UNIQUE WELL ID
~Curve Information Block
DEPT.FT            0 000 00 00: Depth
SP.mV                         : DIL Spontaneous Potential
RILD.Ohm-m                    : DIL Deep Resistivity
RILM.Ohm-m                    : DIL Medium Resistivity
RLL3.Ohm-m                    : DIL Shallow Resistivity
GR.GAPI                       : Gamma Ray
~Parameter Information Block
~A  Depth        SP         RILD        RILM        RLL3         GR     
# ...
   879.0000    199.3312      8.7503      8.6393     10.8851    104.2669
   879.2500    198.8067      8.7408      8.7126     11.4173    103.3341
   879.5000    198.2023      8.7332      8.7896     12.0616    102.5275
   879.7500    197.5127      8.7243      8.8570     12.6842    102.1317
   880.0000    196.7337      8.7129      8.9039     13.0691    101.8927
   880.2500    195.8621      8.7000      8.9233     13.0386    102.2596
   880.5000    194.8956      8.6893      8.9134     12.5945    103.7367
   880.7500    193.8322      8.6857      8.8776     11.9286    104.8929
   881.0000    192.6691      8.6929      8.8229     11.2737    105.6330
   881.2500    191.4019      8.7107      8.7586     10.7533    105.1688
   881.5000    190.0258      8.7348      8.6940     10.3749    104.0311
   881.7500    188.5369      8.7577      8.6370     10.1194    103.9033
   882.0000    186.9355      8.7726      8.5938      9.9920    105.0148
   882.2500    185.2286      8.7757      8.5680      9.9978    105.9475
   882.5000    183.4314      8.7679      8.5611     10.1090    106.7553
   882.7500    181.5675      8.7544      8.5731     10.2793    107.3167
   883.0000    179.6676      8.7432      8.6025     10.4781    109.4344
   883.2500    177.7677      8.7427      8.6475     10.7019    111.6648
   883.5000    175.9052      8.7605      8.7064     10.9508    114.7908
   883.7500    174.1162      8.8020      8.7780     11.2051    116.0033
   884.0000    172.4316      8.8703      8.8622     11.4319    116.7856
   884.2500    170.8733      8.9665      8.9592     11.6123    117.4548
   884.5000    169.4515      9.0896      9.0699     11.7585    119.8441
   884.7500    168.1641      9.2372      9.1949     11.9021    122.3942
   885.0000    166.9968      9.4056      9.3343     12.0746    126.9518
   885.2500    165.9264      9.5908      9.4882     12.2946    129.9969
   885.5000    164.9256      9.7891      9.6564     12.5621    133.7624
   885.7500    163.9682      9.9981      9.8394     12.8552    135.3051
   886.0000    163.0348     10.2175     10.0393     13.1350    135.9417
   886.2500    162.1163     10.4504     10.2600     13.3565    135.5065
   886.5000    161.2157     10.7031     10.5083     13.4858    134.0695
   886.7500    160.3469     10.9839     10.7928     13.5319    132.5982
   887.0000    159.5315     11.3006     11.1233     13.5795    129.5237
   887.2500    158.7945     11.6582     11.5099     13.7857    127.1852
   887.5000    158.1594     12.0574     11.9613     14.3187    124.4611
   887.7500    157.6456     12.4955     12.4837     15.2715    123.9529
   888.0000    157.2671     12.9677     13.0803     16.6018    125.7067
   888.2500    157.0338     13.4692     13.7505     18.1421    128.0791
   888.5000    156.9529     13.9961     14.4898     19.6917    131.6233
   888.7500    157.0302     14.5445     15.2895     21.1423    133.0094
   889.0000    157.2691     15.1096     16.1358     22.5319    132.9183
   889.2500    157.6685     15.6845     17.0088     23.9577    131.2959
   889.5000    158.2187     16.2591     17.8813     25.4263    126.3026
   889.7500    158.8988     16.8209     18.7196     26.7907    121.3872
   890.0000    159.6759     17.3562     19.4854     27.8253    112.9788
   890.2500    160.5080     17.8511     20.1417     28.3520    107.9788
   890.5000    161.3490     18.2924     20.6588     28.3207    103.2936
   890.7500    162.1557     18.6681     21.0205     27.8192    102.3410
   891.0000    162.8932     18.9684     21.2264     27.0237    103.1418
   891.2500    163.5387     19.1867     21.2901     26.1116    104.3559
   891.5000    164.0819     19.3182     21.2345     25.1875    106.7471
   891.7500    164.5246     19.3598     21.0857     24.2741    108.8397
   892.0000    164.8779     19.3122     20.8673     23.3735    112.3433
   892.2500    165.1608     19.1830     20.5981     22.5359    114.1814
   892.5000    165.3970     18.9868     20.2912     21.8665    114.9404
   892.7500    165.6120     18.7436     19.9559     21.4555    113.9705
   893.0000    165.8291     18.4766     19.6001     21.2917    111.3875
   893.2500    166.0660     18.2100     19.2327     21.2340    109.9400
   893.5000    166.3323     17.9643     18.8648     21.0775    109.3181
   893.7500    166.6294     17.7519     18.5093     20.6802    109.8472
   894.0000    166.9521     17.5758     18.1797     20.0684    111.1260
   894.2500    167.2906     17.4339     17.8879     19.4291    111.9527
   894.5000    167.6327     17.3244     17.6427     18.9798    113.5412
   894.7500    167.9636     17.2492     17.4491     18.8166    115.4062
   895.0000    168.2664     17.2126     17.3090     18.8694    120.0223
   895.2500    168.5217     17.2189     17.2228     18.9805    124.2171
   895.5000    168.7095     17.2701     17.1914     19.0141    131.5369
   895.7500    168.8125     17.3643     17.2175     18.9189    136.5210
   896.0000    168.8195     17.4958     17.3055     18.7399    142.7875
   896.2500    168.7284     17.6559     17.4606     18.6110    145.3836
   896.5000    168.5473     17.8357     17.6863     18.7369    146.4427
   896.7500    168.2928     18.0279     17.9818     19.3251    145.5679
   897.0000    167.9875     18.2274     18.3406     20.4447    142.7737
   897.2500    167.6568     18.4310     18.7498     21.8993    140.3751
   897.5000    167.3266     18.6382     19.1914     23.2884    136.6105
   897.7500    167.0219     18.8522     19.6451     24.2762    134.3215
   898.0000    166.7661     19.0801     20.0911     24.8211    131.5958
   898.2500    166.5797     19.3309     20.5127     25.1360    130.3055
   898.5000    166.4793     19.6102     20.8972     25.4644    129.1822
   898.7500    166.4757     19.9137     21.2350     25.9154    129.1117
   899.0000    166.5719     20.2262     21.5191     26.4352    130.2846
   899.2500    166.7613     20.5266     21.7434     26.8421    131.6918
   899.5000    167.0271     20.7985     21.9039     26.9167    133.4115
   899.7500    167.3428     21.0376     21.9994     26.5612    133.5281
   900.0000    167.6748     21.2496     22.0335     25.9094    132.3817
   900.2500    167.9866     21.4395     22.0149     25.2415    131.8087
   900.5000    168.2438     21.6021     21.9565     24.7667    132.8624
   900.7500    168.4193     21.7205     21.8729     24.4926    134.7731
   901.0000    168.4971     21.7750     21.7771     24.2911    138.0244
   901.2500    168.4738     21.7526     21.6781     24.0608    139.7450
   901.5000    168.3575     21.6515     21.5795     23.8200    141.6183
   901.7500    168.1650     21.4787     21.4794     23.6613    142.7280
   902.0000    167.9175     21.2458     21.3711     23.6452    144.1935
   902.2500    167.6355     20.9658     21.2454     23.7489    144.6044
   902.5000    167.3347     20.6539     21.0933     23.8965    143.8338
   902.7500    167.0242     20.3273     20.9088     24.0045    142.5155
   903.0000    166.7055     20.0053     20.6921     23.9960    139.9412
   903.2500    166.3761     19.7061     20.4506     23.8048    138.2383
   903.5000    166.0322     19.4452     20.1985     23.3987    136.2834
   903.7500    165.6724     19.2333     19.9539     22.8008    135.3609
   904.0000    165.2988     19.0738     19.7347     22.0865    133.8937
   904.2500    164.9167     18.9608     19.5549     21.3642    132.7044
   904.5000    164.5326     18.8773     19.4211     20.7722    131.5022
   904.7500    164.1528     18.7991     19.3309     20.5009    131.9446
   905.0000    163.7823     18.7004     19.2718     20.7997    134.9879
   905.2500    163.4255     18.5626     19.2231     21.8854    137.8247
   905.5000    163.0871     18.3793     19.1581     23.7394    140.6570
   905.7500    162.7728     18.1578     19.0493     25.9598    140.2633
   906.0000    162.4888     17.9145     18.8741     27.8716    135.7844
   906.2500    162.2413     17.6703     18.6216     28.8674    131.1367
   906.5000    162.0361     17.4496     18.2965     28.7073    124.5546
   906.7500    161.8801     17.2809     17.9202     27.5655    122.0979
