~Version Information
VERS.                      2.0: CWLS Log ASCII Standard - VERSION 2.0
WRAP.                       NO: One line per depth step
~Well Information Block
STRT.FT               664.0000: 
STOP.FT              1113.5000: 
STEP.FT                 0.1000: 
NULL.                -999.2500: 
COMP.          Petrogulf Corporation: COMPANY
WELL.          Great Plains 22-21R: WELL
FLD.           Purgatorie River: FIELD
LOC.           73' FNL & 1992' FWL: LOCATION
PROV.                 Colorado: PROVINCE
CNTY.               Las Animas: COUNTRY
SRVC.                Patterson: SERVICE COMPANY
DATE.          Thu Sep 08 08:02:28 2005: LOG DATE
UWI.                          : UNIQUE WELL ID
~Curve Information Block
DEPT.FT            0 000 00 00: Depth
DCAL.in                       : CDL Caliper
RHOB.g/cc                     : CDL Bulk Density
RHOC.g/cc                     : CDL Density Correction
DPOR.pu                       : CDL Density Porosity
GR.GAPI                       : Gamma Ray
NPOR.pu                       : Neutron Porosity
~Parameter Information Block
~A  Depth       DCAL        RHOB        RHOC        DPOR         GR         NPOR    
# ...
   980.8000      8.4210      2.2749      0.1168     22.7339    165.0135     31.4529
   980.9000      8.4210      2.2573      0.0591     23.8003    163.3155     32.0498
   981.0000      8.3962      2.2435      0.0793     24.6384    162.5753     32.2503
   981.1000      8.3962      2.2261      0.1111     25.6924    166.9618     32.1141
   981.2000      8.3962      2.1998      0.0961     27.2846    175.1544     32.0563
   981.3000      8.4237      2.1770      0.0700     28.6667    180.5120     32.2121
   981.4000      8.4237      2.1754      0.0898     28.7607    181.8278     32.3585
   981.5000      8.3268      2.1935      0.0767     27.6677    182.9872     32.2164
   981.6000      8.3268      2.2128      0.0689     26.4970    185.0694     31.9617
   981.7000      8.3268      2.2226      0.0918     25.9013    191.1033     32.0839
   981.8000      8.2693      2.2311      0.0747     25.3851    204.9979     32.2612
   981.9000      8.2693      2.2554      0.0421     23.9123    220.3736     32.0313
   982.0000      8.2933      2.3000      0.0694     21.2136    227.0934     31.7654
   982.1000      8.2933      2.3453      0.0798     18.4696    224.1326     31.7828
   982.2000      8.2933      2.3594      0.1125     17.6120    215.4563     31.9162
   982.3000      8.2485      2.3367      0.0360     18.9850    203.2812     31.9111
   982.4000      8.2485      2.3091      0.0327     20.6595    188.1936     31.7980
   982.5000      8.2900      2.2999      0.0444     21.2209    171.3504     31.7730
   982.6000      8.2900      2.3021      0.0831     21.0875    157.0429     31.7985
   982.7000      8.2900      2.3009      0.0760     21.1593    150.2813     31.6458
   982.8000      8.3332      2.2968      0.0574     21.4039    147.7034     31.2699
   982.9000      8.3332      2.3020      0.0642     21.0912    141.8976     30.8879
   983.0000      8.3046      2.3232      0.0403     19.8086    133.3300     30.6610
   983.1000      8.3046      2.3601      0.0639     17.5720    127.3337     30.4914
   983.2000      8.3046      2.4060      0.0905     14.7906    124.7183     30.3279
   983.3000      8.2746      2.4484      0.1219     12.2176    124.8351     30.1898
   983.4000      8.2746      2.4759      0.1449     10.5526    127.1756     30.0753
   983.5000      8.3224      2.4845      0.1344     10.0275    128.5602     30.0214
   983.6000      8.3224      2.4749      0.1549     10.6142    127.8539     30.0116
   983.7000      8.3224      2.4538      0.0571     11.8919    123.9156     30.0601
   983.8000      8.4248      2.4364      0.0774     12.9462    117.3394     30.0620
   983.9000      8.4248      2.4243      0.0767     13.6769    113.2882     29.8901
   984.0000      8.3585      2.4047      0.0442     14.8688    112.4370     29.7245
   984.1000      8.3585      2.3716      0.0164     16.8751    110.5171     29.6879
   984.2000      8.3585      2.3331      0.0292     19.2065    107.6847     29.6881
   984.3000      8.4307      2.3020      0.0204     21.0895    106.4390     29.7852
   984.4000      8.4307      2.2895      0.0168     21.8483    106.6730     30.1197
   984.5000      8.5330      2.2987      0.0383     21.2881    107.8395     30.4155
   984.6000      8.5330      2.3250      0.0446     19.6965    109.4743     30.3263
   984.7000      8.5330      2.3550      0.1352     17.8788    110.1329     30.2210
   984.8000      8.5581      2.3703      0.1728     16.9494    108.7603     30.5836
   984.9000      8.5581      2.3688      0.1879     17.0397    108.2136     31.0664
   985.0000      8.4674      2.3585      0.2284     17.6660    113.3680     31.3096
   985.1000      8.4674      2.3378      0.2152     18.9236    122.3069     31.5631
   985.2000      8.4674      2.3075      0.1551     20.7579    127.9556     31.8813
   985.3000      8.4958      2.2728      0.1701     22.8577    127.8340     32.1153
   985.4000      8.4958      2.2318      0.1317     25.3441    125.0036     32.3020
   985.5000      8.3603      2.1825      0.1393     28.3335    123.1358     32.4887
   985.6000      8.3603      2.1280      0.0933     31.6335    120.6734     32.5774
   985.7000      8.3603      2.0725      0.0801     34.9977    114.6333     32.5115
   985.8000      8.2474      2.0187      0.0592     38.2581    107.5057     32.5169
   985.9000      8.2474      1.9715      0.0586     41.1230    103.8446     32.6957
   986.0000      8.1998      1.9330      0.0538     43.4562    104.0812     32.7294
   986.1000      8.1998      1.8995      0.0195     45.4876    105.3289     32.3344
   986.2000      8.1998      1.8677      0.0108     47.4138    105.0205     31.9580
   986.3000      8.2175      1.8407      0.0030     49.0509    101.4976     32.0825
   986.4000      8.2175      1.8318     -0.0025     49.5884     96.1806     32.3364
   986.5000      8.2293      1.8586     -0.0234     47.9611     92.1399     32.1662
   986.6000      8.2293      1.9292      0.0688     43.6850     90.6401     31.6641
   986.7000      8.2293      2.0320      0.1801     37.4526     92.4792     31.3311
   986.8000      8.2304      2.1429      0.2234     30.7327     97.1326     31.3697
   986.9000      8.2304      2.2466      0.2087     24.4497    100.1287     31.3873
   987.0000      8.1844      2.3440      0.2325     18.5473     98.0084     31.0993
   987.1000      8.1844      2.4403      0.2553     12.7121     94.2302     30.5357
   987.2000      8.1844      2.5299      0.2268      7.2811     93.2666     29.6649
   987.3000      8.0979      2.5918      0.1634      3.5268     94.3836     28.6022
   987.4000      8.0979      2.6091      0.1391      2.4794     96.8097     27.7489
   987.5000      7.9450      2.5901      0.1496      3.6328    101.7710     27.2698
   987.6000      7.9450      2.5689      0.0597      4.9121    108.0892     26.9018
   987.7000      7.9450      2.5706      0.0881      4.8108    113.3761     26.4592
   987.8000      7.9138      2.5809      0.0916      4.1900    116.8205     26.0183
   987.9000      7.9138      2.5804      0.0665      4.2196    118.7151     25.6370
   988.0000      7.9143      2.5751      0.0367      4.5374    118.5959     25.3733
   988.1000      7.9143      2.5771      0.0308      4.4162    116.0607     25.2144
   988.2000      7.9143      2.5818      0.1099      4.1342    113.8370     24.9052
   988.3000      7.8974      2.5772      0.0926      4.4144    115.2540     24.4409
   988.4000      7.8974      2.5641      0.0796      5.2048    119.2978     24.1159
   988.5000      7.8761      2.5537      0.0638      5.8361    124.5941     24.0251
   988.6000      7.8761      2.5598      0.0697      5.4644    132.3534     24.0773
   988.7000      7.8761      2.5830      0.0952      4.0583    140.0695     24.0028
   988.8000      7.8896      2.6048      0.0911      2.7399    140.9384     23.6429
   988.9000      7.8896      2.6094      0.1354      2.4605    134.0243     23.2907
   989.0000      7.8829      2.6038      0.0597      2.7971    126.8026     23.2511
   989.1000      7.8829      2.6060      0.1044      2.6686    123.9405     23.4508
   989.2000      7.8829      2.6130      0.0979      2.2446    125.6975     23.8876
   989.3000      7.8772      2.6167      0.0782      2.0167    132.1160     24.6518
   989.4000      7.8772      2.6171      0.1206      1.9919    138.9906     25.2290
   989.5000      7.8864      2.6054      0.1134      2.7052    142.5365     25.2870
   989.6000      7.8864      2.5833      0.0926      4.0400    145.3434     25.1810
   989.7000      7.8864      2.5698      0.0891      4.8614    150.1049     24.9818
   989.8000      7.8716      2.5704      0.0741      4.8242    153.9892     24.6752
   989.9000      7.8716      2.5775      0.0239      4.3941    151.1718     24.6287
   990.0000      7.8775      2.5863      0.0768      3.8605    143.5195     24.9076
   990.1000      7.8775      2.5992      0.0447      3.0790    138.8100     25.1176
   990.2000      7.8775      2.6183      0.0880      1.9207    138.8333     24.9832
   990.3000      7.8821      2.6292      0.0918      1.2579    139.0343     24.5527
