~Version Information
VERS.                      2.0: CWLS Log ASCII Standard - VERSION 2.0
WRAP.                       NO: One line per depth step
~Well Information Block
STRT.FT               650.0000: 
STOP.FT              1080.5000: 
STEP.FT                 0.1000: 
NULL.                -999.2500: 
COMP.          Pioneer Natural Resources: COMPANY
WELL.            Galileo 21-11: WELL
FLD.           Purgatoire River: FIELD
LOC.           407' FNL & 2394' FWL: LOCATION
PROV.                 Colorado: PROVINCE
CNTY.               Las Animas: COUNTRY
SRVC.                Patterson: SERVICE COMPANY
DATE.          Mon Apr 11 16:20:08 2005: LOG DATE
UWI.           05 071 08353 00: UNIQUE WELL ID
~Curve Information Block
DEPT.FT            0 000 00 00: Depth
DCAL.in                       : CDL Caliper
RHOB.g/cc                     : CDL Bulk Density
RHOC.g/cc                     : CDL Density Correction
DPOR.pu                       : CDL Density Porosity
GR.GAPI                       : Gamma Ray
NPOR.pu                       : Neutron Porosity
~Parameter Information Block
~A  Depth       DCAL        RHOB        RHOC        DPOR         GR         NPOR    
# ...
   736.4000      8.0208      2.0893      0.1329     33.9796     89.1184     18.2423
   736.5000      8.0237      2.1534      0.2208     30.0994     91.3543     20.4924
   736.6000      8.0237      2.2148      0.2931     26.3775     92.8364     22.2477
   736.7000      8.0237      2.2729      0.2896     22.8568     92.2057     23.1311
   736.8000      8.0226      2.3347      0.2311     19.1067     89.2280     23.5820
   736.9000      8.0226      2.4060      0.2146     14.7856     86.2540     24.2380
   737.0000      8.0218      2.4723      0.2197     10.7690     87.1903     25.6140
   737.1000      8.0218      2.5140      0.2011      8.2440     91.8189     27.3401
   737.2000      8.0218      2.5362      0.1447      6.8972     96.1560     28.5362
   737.3000      8.0174      2.5608      0.1641      5.4084     98.8271     28.7893
   737.4000      8.0174      2.5905      0.1700      3.6040    101.9246     28.3447
   737.5000      7.9968      2.6098      0.1563      2.4337    107.0181     27.7731
   737.6000      7.9968      2.6201      0.0984      1.8143    114.4234     27.4157
   737.7000      7.9968      2.6313      0.0971      1.1323    121.5711     27.1782
   737.8000      7.9930      2.6335      0.1377      1.0020    124.8714     26.7190
   737.9000      7.9930      2.6259      0.0499      1.4577    124.5919     26.2150
   738.0000      7.9917      2.6163      0.1052      2.0429    122.7143     26.0915
   738.1000      7.9917      2.5799      0.1126      4.2486    120.7518     26.2483
   738.2000      7.9917      2.5079     -0.0026      8.6145    120.8500     26.4496
   738.3000      7.9946      2.4448     -0.0402     12.4354    125.2363     26.4669
   738.4000      7.9946      2.4235     -0.0375     13.7262    131.0608     25.9739
   738.5000      7.9941      2.4304      0.0073     13.3095    132.3828     25.1095
   738.6000      7.9941      2.4445      0.0028     12.4559    127.1898     24.7011
   738.7000      7.9941      2.4578      0.0226     11.6478    118.7612     25.0171
   738.8000      7.9928      2.4689      0.0234     10.9771    112.8185     25.5055
   738.9000      7.9928      2.4810      0.0811     10.2454    113.8220     25.6574
   739.0000      7.9930      2.5032      0.1409      8.8966    119.7481     25.4581
   739.1000      7.9930      2.5415      0.1463      6.5767    121.4567     25.2411
   739.2000      7.9930      2.5806      0.1777      4.2035    118.4632     25.4995
   739.3000      7.9955      2.6015      0.1569      2.9414    118.3761     26.2770
   739.4000      7.9955      2.6067      0.1564      2.6230    120.2267     27.1509
   739.5000      7.9934      2.6047      0.1911      2.7434    119.1792     27.7268
   739.6000      7.9934      2.5970      0.1571      3.2110    114.1968     27.7378
   739.7000      7.9934      2.5798      0.1563      4.2522    108.4268     27.4306
   739.8000      7.9926      2.5433      0.1014      6.4656    105.1077     27.0832
   739.9000      7.9926      2.4900      0.0766      9.6962    103.4448     26.7995
   740.0000      7.9924      2.4467      0.0142     12.3242    102.6806     26.9026
   740.1000      7.9924      2.4407      0.0023     12.6839    102.2916     27.2760
   740.2000      7.9924      2.4679      0.0327     11.0370     99.7335     27.3802
   740.3000      7.9939      2.5076      0.0383      8.6277     96.1991     27.1750
   740.4000      7.9939      2.5526      0.1058      5.9017     94.1370     26.9850
   740.5000      7.9916      2.6005      0.1272      2.9985     91.8302     27.0060
   740.6000      7.9916      2.6461      0.1746      0.2379     90.6388     26.9103
   740.7000      7.9916      2.6813      0.1630     -1.8982     92.9622     26.4424
   740.8000      7.9750      2.6943      0.1965     -2.6837     95.2839     26.0690
   740.9000      7.9750      2.6803      0.1888     -1.8339     96.3587     25.9144
   741.0000      7.9908      2.6629      0.1191     -0.7800     98.9247     25.6398
   741.1000      7.9908      2.6631      0.1046     -0.7962    104.0500     25.2122
   741.2000      7.9908      2.6585      0.0900     -0.5154    111.5939     24.9043
   741.3000      7.9938      2.6205      0.0471      1.7866    118.6000     24.7590
   741.4000      7.9938      2.5627     -0.0208      5.2891    119.3872     24.5305
   741.5000      7.9924      2.5168      0.0079      8.0737    114.4138     24.2969
   741.6000      7.9924      2.4918     -0.0137      9.5876    108.6245     24.3362
   741.7000      7.9924      2.4812     -0.0142     10.2311    104.7834     24.5001
   741.8000      7.9930      2.4774     -0.0194     10.4626    102.7375     24.3204
   741.9000      7.9930      2.4745     -0.0189     10.6374    102.0178     23.4138
   742.0000      7.9930      2.4683      0.0531     11.0147    102.0049     21.9223
   742.1000      7.9930      2.4572      0.0545     11.6855    102.8117     20.4317
   742.2000      7.9930      2.4503      0.0617     12.1006    107.1360     19.2933
   742.3000      7.9923      2.4558      0.0911     11.7707    114.5959     18.8199
   742.4000      7.9923      2.4631      0.1433     11.3250    118.9759     18.9755
   742.5000      7.9928      2.4578      0.1274     11.6456    118.1461     19.0093
   742.6000      7.9928      2.4378      0.1436     12.8581    114.9194     18.6198
   742.7000      7.9928      2.4021      0.1008     15.0257    110.0148     18.2698
   742.8000      7.9948      2.3491      0.0588     18.2393    105.0796     18.2463
   742.9000      7.9948      2.2896      0.0248     21.8418    101.1281     18.6292
   743.0000      7.9942      2.2381      0.0352     24.9644     98.9927     19.4554
   743.1000      7.9942      2.1983      0.0016     27.3749    100.0271     20.1770
   743.2000      7.9942      2.1734      0.0047     28.8828    101.2126     20.2796
   743.3000      7.9940      2.1721      0.0010     28.9645    101.5929     20.2378
   743.4000      7.9940      2.1976      0.0078     27.4205    103.0365     20.6003
   743.5000      7.9958      2.2343      0.1283     25.1912    103.6921     21.2693
   743.6000      7.9958      2.2628      0.1397     23.4675    103.0113     22.0873
   743.7000      7.9958      2.2886      0.1324     21.9028    104.5920     23.1420
   743.8000      7.9952      2.3261      0.1751     19.6312    109.4860     24.4292
   743.9000      7.9952      2.3719      0.2198     16.8529    113.7356     25.6335
   744.0000      7.9946      2.4201      0.1838     13.9347    115.9876     26.4989
   744.1000      7.9946      2.4662      0.1756     11.1385    117.5244     26.9638
   744.2000      7.9946      2.5027      0.1275      8.9287    116.3740     26.9614
   744.3000      7.9933      2.5329      0.1488      7.0973    112.9486     26.5980
   744.4000      7.9933      2.5582      0.1876      5.5606    112.1104     26.2935
   744.5000      7.9930      2.5685      0.1715      4.9376    114.3997     26.5408
   744.6000      7.9930      2.5632      0.1530      5.2592    115.6010     27.2129
   744.7000      7.9930      2.5561      0.1508      5.6909    114.2003     27.9833
   744.8000      7.9922      2.5534      0.1116      5.8549    112.1672     28.7063
   744.9000      7.9922      2.5470      0.1171      6.2454    108.7686     28.8606
   745.0000      7.9946      2.5343      0.0693      7.0130    105.1155     28.0918
   745.1000      7.9946      2.5251      0.0079      7.5700    105.8350     27.1017
   745.2000      7.9946      2.5243      0.0488      7.6172    108.8896     26.7485
   745.3000      7.9905      2.5309      0.0079      7.2180    109.3123     27.0456
   745.4000      7.9905      2.5436      0.0342      6.4495    106.4196     27.3183
   745.5000      7.9919      2.5448      0.0685      6.3773    102.6760     26.9881
   745.6000      7.9919      2.5140      0.0660      8.2423    102.4116     26.4122
   745.7000      7.9919      2.4663     -0.0210     11.1310    105.8094     25.8833
   745.8000      7.9933      2.4335      0.0023     13.1192    109.1003     25.0635
   745.9000      7.9933      2.4168     -0.0183     14.1315    112.1318     23.9983
