~Version Information
VERS.                      2.0: CWLS Log ASCII Standard - VERSION 2.0
WRAP.                       NO: One line per depth step
~Well Information Block
STRT.FT               784.0000: 
STOP.FT              1033.0000: 
STEP.FT                 0.1000: 
NULL.                -999.2500: 
COMP.          Pioneer Natural Resources: COMPANY
WELL.          Run-Away-Train 43-26: WELL
FLD.           Purgatoire River: FIELD
LOC.           1693' FSL & 1195' FEL: LOCATION
PROV.                 Colorado: PROVINCE
CNTY.               Las Animas: COUNTRY
SRVC.                Patterson: SERVICE COMPANY
DATE.          Wed Apr 06 07:23:28 2005: LOG DATE
UWI.           05 071 08188 00: UNIQUE WELL ID
~Curve Information Block
DEPT.FT            0 000 00 00: Depth
DCAL.in                       : CDL Caliper
RHOB.g/cc                     : CDL Bulk Density
RHOC.g/cc                     : CDL Density Correction
DPOR.pu                       : CDL Density Porosity
GR.GAPI                       : Gamma Ray
NPOR.pu                       : Neutron Porosity
~Parameter Information Block
~A  Depth       DCAL        RHOB        RHOC        DPOR         GR         NPOR    
# ...
   966.4000      7.8170      2.6192      0.1338      1.8694    136.9042     24.1856
   966.5000      7.8256      2.5776      0.1062      4.3887    146.8235     24.1139
   966.6000      7.8256      2.5621      0.1055      5.3248    144.3347     24.1558
   966.7000      7.8256      2.5592      0.1367      5.5019    137.2022     24.3599
   966.8000      7.8487      2.5414      0.0708      6.5818    131.0703     24.6652
   966.9000      7.8487      2.5114      0.0178      8.3987    125.6328     25.1377
   967.0000      7.8222      2.4822      0.0276     10.1720    124.1780     25.6771
   967.1000      7.8222      2.4637      0.0054     11.2927    127.4649     25.7438
   967.2000      7.8222      2.4717      0.0078     10.8050    130.0727     25.2490
   967.3000      7.8514      2.5132      0.0375      8.2935    128.5677     25.0974
   967.4000      7.8514      2.5682      0.1179      4.9562    124.2376     25.6515
   967.5000      7.8342      2.6034      0.1378      2.8268    119.2117     26.1316
   967.6000      7.8342      2.6063      0.0823      2.6493    111.7204     25.8506
   967.7000      7.8342      2.5910      0.1062      3.5769    103.1317     24.8943
   967.8000      7.8393      2.5672      0.0604      5.0183     98.2021     23.9083
   967.9000      7.8393      2.5402      0.0259      6.6565     96.4017     23.2757
   968.0000      7.8278      2.5169      0.0491      8.0670     93.8618     22.8322
   968.1000      7.8278      2.4933     -0.0107      9.4994     88.7123     22.3695
   968.2000      7.8278      2.4645     -0.0123     11.2398     81.5638     22.0392
   968.3000      7.8232      2.4326     -0.0080     13.1765     76.1300     21.9718
   968.4000      7.8232      2.4037      0.0169     14.9290     79.0017     22.0726
   968.5000      7.8595      2.3918     -0.0520     15.6515     88.7630     22.4736
   968.6000      7.8595      2.4083     -0.0179     14.6460     96.9196     23.1248
   968.7000      7.8595      2.4491      0.0410     12.1731    101.3820     23.5506
   968.8000      7.8459      2.4998      0.1899      9.1044    105.8877     23.6664
   968.9000      7.8459      2.5501      0.2169      6.0556    110.7405     23.8649
   969.0000      7.8603      2.6068      0.1626      2.6194    113.2475     24.4096
   969.1000      7.8603      2.6678      0.3082     -1.0814    113.5158     25.0930
   969.2000      7.8603      2.7044      0.2768     -3.2959    113.4014     25.5010
   969.3000      7.8455      2.7046      0.3080     -3.3083    112.6460     25.5998
   969.4000      7.8455      2.6900      0.2289     -2.4217    110.6089     25.6819
   969.5000      7.7983      2.6874      0.2284     -2.2639    107.6866     25.7673
   969.6000      7.7983      2.6997      0.2423     -3.0095    104.4119     25.6005
   969.7000      7.7983      2.7068      0.2351     -3.4402    103.8049     25.2301
   969.8000      7.8147      2.6963      0.1579     -2.8078    105.7039     25.0140
   969.9000      7.8147      2.6709      0.1016     -1.2649    104.3599     24.9265
   970.0000      7.8488      2.6289      0.1389      1.2771     98.6603     24.5507
   970.1000      7.8488      2.5707      0.1152      4.8080     92.2975     23.8810
   970.2000      7.8488      2.5206      0.0767      7.8429     88.2834     23.3510
   970.3000      7.8538      2.5041      0.0806      8.8423     89.7443     23.3190
   970.4000      7.8538      2.5161      0.0719      8.1137     96.2094     23.5604
   970.5000      7.8263      2.5446      0.0617      6.3863    101.0731     23.6176
   970.6000      7.8263      2.5824      0.0950      4.0998     99.5182     23.4688
   970.7000      7.8263      2.6127      0.0688      2.2612     94.6505     23.3261
   970.8000      7.8274      2.6222      0.1405      1.6833     92.6708     23.1755
   970.9000      7.8274      2.6116      0.1517      2.3298     93.0286     22.8605
   971.0000      7.8440      2.5841      0.1233      3.9919     91.8520     22.1728
   971.1000      7.8440      2.5352      0.1385      6.9563     90.9582     21.3759
   971.2000      7.8440      2.4709      0.0025     10.8545     93.3661     21.2992
   971.3000      7.8435      2.4221     -0.0264     13.8107     97.8410     22.1109
   971.4000      7.8435      2.4095     -0.0236     14.5767    101.8913     22.9707
   971.5000      7.8384      2.4283     -0.0264     13.4346    102.5834     23.3418
   971.6000      7.8384      2.4721     -0.0474     10.7809     97.9020     23.4771
   971.7000      7.8384      2.5242      0.0585      7.6247     91.6265     23.6620
   971.8000      7.8737      2.5517      0.0646      5.9561     89.6960     24.0265
   971.9000      7.8737      2.5519      0.0772      5.9463     92.0211     24.3198
   972.0000      7.8789      2.5513      0.0957      5.9798     94.9481     24.1369
   972.1000      7.8789      2.5542      0.1507      5.8089     97.7750     23.7340
   972.2000      7.8789      2.5509      0.0842      6.0060    101.7296     23.7876
   972.3000      7.8522      2.5498      0.0589      6.0743    107.7993     24.4956
   972.4000      7.8522      2.5503      0.0696      6.0411    112.6712     25.2941
   972.5000      7.8393      2.5408      0.0265      6.6207    112.5188     25.7687
   972.6000      7.8393      2.5347      0.0595      6.9880    110.0803     25.9275
   972.7000      7.8393      2.5510      0.0658      5.9982    108.5308     25.7064
   972.8000      7.8732      2.5743      0.0802      4.5853    108.3480     25.3079
   972.9000      7.8732      2.5773      0.0438      4.4061    108.4186     25.2018
   973.0000      7.9110      2.5652      0.0254      5.1393    105.3983     25.3240
   973.1000      7.9110      2.5610      0.0506      5.3967    100.0617     25.2951
   973.2000      7.9110      2.5705      0.0659      4.8189     95.4640     24.9596
   973.3000      7.8765      2.5942      0.0690      3.3788     92.4883     24.3565
   973.4000      7.8765      2.6273      0.0824      1.3784     90.0662     23.5444
   973.5000      7.8698      2.6424      0.1160      0.4591     85.2910     22.6365
   973.6000      7.8698      2.6171      0.0566      1.9940     78.7036     21.8573
   973.7000      7.8698      2.5692      0.0114      4.8972     74.8409     21.2695
   973.8000      7.8735      2.5298     -0.0210      7.2865     74.5566     20.9923
   973.9000      7.8735      2.5058     -0.0047      8.7418     73.2188     21.1379
   974.0000      7.8517      2.4931     -0.0825      9.5104     69.5407     21.5824
   974.1000      7.8517      2.4963     -0.0360      9.3150     68.2868     22.0824
   974.2000      7.8517      2.5127      0.0283      8.3221     73.5061     22.1444
   974.3000      7.8455      2.5273      0.0108      7.4363     81.5921     21.6916
   974.4000      7.8455      2.5282      0.0146      7.3808     85.9266     21.4245
   974.5000      7.8597      2.5152      0.0209      8.1724     86.3242     21.5585
   974.6000      7.8597      2.5000     -0.0139      9.0932     86.2482     21.8992
   974.7000      7.8597      2.4941      0.0046      9.4496     89.5147     22.4375
   974.8000      7.8690      2.4950      0.0074      9.3968     96.6248     22.9284
   974.9000      7.8690      2.4977      0.0250      9.2310    103.4757     22.9865
   975.0000      7.8779      2.5032     -0.0357      8.8992    108.5309     22.5740
   975.1000      7.8779      2.5084     -0.0302      8.5834    111.4372     21.9675
   975.2000      7.8779      2.5135     -0.0449      8.2743    110.0593     21.4190
   975.3000      7.8672      2.5215      0.0334      7.7884    104.9508     21.1054
   975.4000      7.8672      2.5177      0.0297      8.0203    101.1065     21.3163
   975.5000      7.8784      2.4967     -0.0324      9.2879     99.2027     22.0464
   975.6000      7.8784      2.4784      0.0092     10.3983     95.9362     22.4482
   975.7000      7.8784      2.4750      0.0026     10.6037     92.0119     21.8833
   975.8000      7.8845      2.4852     -0.0301      9.9857     89.3261     20.9454
   975.9000      7.8845      2.5031      0.0539      8.9045     87.5917     20.8564
