~Version Information
 VERS.                                  2.0 : CWLS LAS VERSION
 WRAP.                                   NO : WRAPING MODE
 SWARE .                 MController 2.5.0E : SOFTWARE VERSION
~Well Information
 WELL.                        Rangely 22-28 : WELL
 COMP.             Evergreen Operating Corp : COMPANY
 FLD.                      Purgatorie River : FIELD
 LOC.                SE/NW Sec 28 T32S R67W : LOCATION
 DATE.                09/14/2004-09/15/2004 : DATE(S) LOGGED
 SRVC.       Blanco Geological Services LLC : SERVICE COMPANY
 STAT.                                   CO : STATE
 CNTY.                           Las Animas : COUNTY
 CTRY.                                  USA : COUNTRY
 API.                       05-071-08044-00 : API NUMBER
 STRT.FT                             858.00 : START DEPTH
 STOP.FT                            2847.00 : STOP DEPTH
 STEP.FT                               1.00 : DEPTH INCREMENT
 NULL.                                -9999 : NULL VALUE
~Curve information
 DEPTH.FT                                   :
 ROP.MIN/FT                                 :
 GAS.UNITS                                  :
~ASCII Log data
      858.00    -9999.000         13.7 
      859.00        0.200         14.3 
      860.00        0.183         14.4 
      861.00        0.200         14.4 
      862.00        0.200         14.6 
      863.00        0.200         14.2 
      864.00        0.233         14.3 
      865.00        0.200         14.4 
      866.00        0.200         14.4 
      867.00        0.200         14.1 
      868.00        0.167         14.1 
      869.00        0.200         14.1 
      870.00        0.167         14.1 
      871.00        0.133         14.1 
      872.00        0.167         14.1 
      873.00        0.167         14.5 
      874.00        0.133         14.5 
      875.00        0.267         14.6 
      876.00        0.283         14.7 
      877.00        0.267         15.3 
      878.00        0.267         16.7 
      879.00        1.533         60.3 
      880.00        0.200         38.0 
      881.00        0.200         34.0 
      882.00        0.183         33.5 
      883.00        0.167         31.6 
      884.00        0.167         30.5 
      885.00        0.133         29.3 
      886.00        0.167         29.3 
      887.00        0.133         29.3 
      888.00        0.167         28.4 
      889.00        0.167         28.4 
      890.00        0.167         28.6 
      891.00        0.133         28.6 
      892.00        0.167         29.2 
      893.00        0.200         29.2 
      894.00        0.233         28.6 
      895.00        0.267         28.1 
      896.00        0.267         27.1 
      897.00        0.300         26.8 
      898.00        0.283         24.2 
      899.00        0.233         18.2 
      900.00        0.200         18.2 
      901.00        0.133         17.7 
      902.00        0.167         15.8 
      903.00        0.167         15.1 
      904.00        0.200         14.7 
      905.00        0.267         14.3 
      906.00        0.167         14.3 
      907.00        0.267         14.6 
      908.00        0.267         14.8 
      909.00        0.233         14.3 
      910.00        0.300         14.5 
      911.00        0.650         14.9 
      912.00        0.200         14.8 
      913.00        0.200         14.4 
      914.00        0.200         14.5 
      915.00        0.367         14.1 
      916.00        0.333         14.8 
      917.00        0.267         14.4 
      918.00        0.200         14.6 
      919.00        0.167         14.3 
      920.00        0.167         14.8 
      921.00        0.167         14.9 
      922.00        0.100         14.9 
      923.00        0.100         14.9 
      924.00        0.117         14.8 
      925.00        0.133         15.3 
      926.00        0.167         15.5 
      927.00        0.200         15.5 
      928.00        0.200         16.0 
      929.00        0.167         16.5 
      930.00        0.167         16.5 
      931.00        0.167         16.8 
      932.00        0.200         16.6 
      933.00        0.167         16.6 
      934.00        0.167         16.6 
      935.00        0.133         15.5 
      936.00        0.167         15.5 
      937.00        0.133         15.6 
      938.00        0.167         16.0 
      939.00        0.267         15.8 
      940.00        0.267         15.4 
      941.00        0.283         16.3 
      942.00        0.267         20.0 
      943.00        0.267         21.2 
      944.00        0.667         21.8 
      945.00        0.233         19.1 
      946.00        0.233         18.9 
      947.00        0.200         17.2 
      948.00        0.417         16.7 
      949.00        0.367         17.1 
      950.00        0.167         16.4 
      951.00        0.200         16.2 
      952.00        0.367         15.9 
      953.00        0.333         16.4 
      954.00        0.167         16.3 
      955.00        0.167         15.5 
      956.00        0.167         15.1 
      957.00        0.167         15.7 
      958.00        0.167         16.5 
      959.00        0.233         16.5 
      960.00        0.267         15.9 
      961.00        0.217         15.9 
      962.00        0.433         15.5 
      963.00        0.167         14.7 
      964.00        0.167         14.7 
      965.00        0.167         14.7 
      966.00        0.133         14.5 
      967.00        0.267         16.0 
      968.00        0.267         18.8 
      969.00        0.267         18.8 
      970.00        0.367         18.1 
      971.00        0.267         19.6 
      972.00        0.133         20.3 
      973.00        0.317         20.1 
      974.00        0.467         19.0 
      975.00        0.267         16.6 
      976.00        0.267         17.3 
      977.00        0.267         16.0 
      978.00        0.267         15.9 
      979.00        0.200         15.2 
      980.00        0.167         15.2 
      981.00        0.167         15.6 
      982.00        0.167         12.9 
      983.00        0.167          2.0 
      984.00        0.150          2.0 
      985.00        0.167          2.4 
      986.00        0.167          2.4 
      987.00        0.267        146.6 
      988.00        0.200        146.6 
      989.00        0.067        207.0 
      990.00        0.133        207.0 
      991.00        0.267        216.1 
      992.00        0.300        212.2 
      993.00        0.200        198.1 
      994.00        0.400        193.6 
      995.00        0.267        210.2 
      996.00        0.500       1141.3 
      997.00        0.550       1380.2 
      998.00        0.267       1364.3 
      999.00        0.267       1203.6 
     1000.00        0.200       1070.9 
     1001.00        0.267        887.9 
     1002.00        0.067        875.1 
     1003.00        0.200        807.4 
     1004.00        0.167        737.7 
     1005.00        0.167        694.9 
     1006.00        0.267        687.1 
     1007.00        0.417        626.5 
     1008.00        0.167        618.4 
     1009.00        0.167        609.0 
     1010.00        0.200        606.9 
     1011.00        0.333        596.5 
     1012.00        0.200        585.0 
     1013.00        0.200        592.1 
     1014.00        0.167        592.1 
     1015.00        0.200        601.2 
     1016.00        0.167        593.1 
     1017.00        0.167        593.1 
     1018.00        0.133        583.0 
     1019.00        0.433        572.2 
     1020.00        0.333        554.4 
     1021.00        0.133        538.9 
     1022.00        0.283        553.4 
     1023.00        0.267        791.6 
     1024.00        0.267       1174.3 
     1025.00        0.267       1472.5 
     1026.00        0.267       1755.5 
     1027.00        0.833       1739.3 
     1028.00        0.317       1240.7 
     1029.00        0.267        938.5 
     1030.00        0.233        909.2 
     1031.00        0.233        810.8 
     1032.00        0.567        728.6 
     1033.00        0.200        662.2 
     1034.00        0.367        653.4 
     1035.00        0.533        629.9 
     1036.00        0.167        618.7 
     1037.00        0.167        617.4 
     1038.00        0.267        612.0 
     1039.00        0.283        605.9 
     1040.00        0.200        605.9 
     1041.00        0.167        627.2 
     1042.00        0.200        633.2 
     1043.00        0.167        633.2 
     1044.00        0.533        622.4 
     1045.00        0.267        595.8 
     1046.00        0.267        587.7 
     1047.00        0.267        587.1 
     1048.00        0.267        650.1 
     1049.00        0.267       1026.1 
     1050.00        0.267       1413.5 
     1051.00        0.267       1676.0 
     1052.00        0.283       1749.1 
     1053.00        0.367       1646.3 
     1054.00        0.333       1255.8 
     1055.00        0.200       1066.5 
     1056.00        0.133        931.7 
     1057.00        0.133        931.7 
