~Version Information
VERS.                      2.0: CWLS Log ASCII Standard - VERSION 2.0
WRAP.                       NO: One line per depth step
~Well Information Block
STRT.FT               298.0000: 
STOP.FT              1302.0000: 
STEP.FT                 0.1000: 
NULL.                -999.2500: 
COMP.          Pioneer Natural Resources: COMPANY
WELL.          Bouncer 41-27 Tr: WELL
FLD.           Purgatoire River: FIELD
LOC.           292' FNL & 222' FEL: LOCATION
PROV.                 Colorado: PROVINCE
CNTY.               Las Animas: COUNTRY
SRVC.                Patterson: SERVICE COMPANY
DATE.          Mon Feb 07 12:55:19 2005: LOG DATE
UWI.           05 071 08291 00: UNIQUE WELL ID
~Curve Information Block
DEPT.FT            0 000 00 00: Depth
DCAL.in                       : CDL Caliper
RHOB.g/cc                     : CDL Bulk Density
RHOC.g/cc                     : CDL Density Correction
DPOR.pu                       : CDL Density Porosity
GR.GAPI                       : Gamma Ray
NPOR.pu                       : Neutron Porosity
~Parameter Information Block
~A  Depth       DCAL        RHOB        RHOC        DPOR         GR         NPOR    
# ...
  1286.8000      7.9122      2.4435      0.0482     12.5169   -999.2500     10.5951
  1286.9000      7.9122      2.4302      0.0611     13.3231   -999.2500      9.6316
  1287.0000      7.8360      2.4366      0.0653     12.9339   -999.2500      8.7240
  1287.1000      7.8360      2.4561      0.0888     11.7495   -999.2500      8.2748
  1287.2000      7.8360      2.4800      0.0770     10.3051   -999.2500      8.4859
  1287.3000      7.7993      2.5028      0.0935      8.9193   -999.2500     10.5332
  1287.4000      7.7993      2.5266      0.0788      7.4816   -999.2500     18.0406
  1287.5000      7.7937      2.5498      0.1160      6.0709   -999.2500     32.0080
  1287.6000      7.7937      2.5533      0.1733      5.8581   -999.2500     42.9835
  1287.7000      7.7937      2.5246      0.1123      7.5979   -999.2500     47.0362
  1287.8000      7.8528      2.4832      0.0717     10.1078   -999.2500     47.8324
  1287.9000      7.8528      2.4598      0.0007     11.5294   -999.2500     47.9167
  1288.0000      7.8926      2.4624      0.0518     11.3686   -999.2500     47.9214
  1288.1000      7.8926      2.4733      0.0303     10.7093   -999.2500   -999.2500
  1288.2000      7.8926      2.4797      0.0357     10.3230   -999.2500   -999.2500
  1288.3000      7.9330      2.4884      0.0562      9.7965   -999.2500   -999.2500
  1288.4000      7.9330      2.5117      0.0324      8.3816   -999.2500   -999.2500
  1288.5000      7.9261      2.5436      0.1090      6.4473   -999.2500   -999.2500
  1288.6000      7.9261      2.5565      0.1174      5.6640   -999.2500   -999.2500
  1288.7000      7.9261      2.5400      0.0964      6.6666   -999.2500   -999.2500
  1288.8000      7.9180      2.5146      0.0669      8.2039   -999.2500   -999.2500
  1288.9000      7.9180      2.5015      0.0788      8.9977   -999.2500   -999.2500
  1289.0000      7.9192      2.5042      0.0400      8.8366   -999.2500   -999.2500
  1289.1000      7.9192      2.5137      0.0736      8.2634   -999.2500   -999.2500
  1289.2000      7.9192      2.5177      0.0869      8.0202   -999.2500   -999.2500
  1289.3000      7.9418      2.5089      0.1004      8.5539   -999.2500   -999.2500
  1289.4000      7.9418      2.4907      0.0474      9.6555   -999.2500   -999.2500
  1289.5000      7.9402      2.4801      0.0250     10.2959   -999.2500   -999.2500
  1289.6000      7.9402      2.4802      0.0620     10.2900   -999.2500   -999.2500
  1289.7000      7.9402      2.4763      0.0188     10.5284   -999.2500   -999.2500
  1289.8000      7.9150      2.4655      0.0025     11.1824   -999.2500   -999.2500
  1289.9000      7.9150      2.4577     -0.0201     11.6546   -999.2500   -999.2500
  1290.0000      7.9271      2.4581      0.0066     11.6280   -999.2500   -999.2500
  1290.1000      7.9271      2.4584      0.0198     11.6119   -999.2500   -999.2500
  1290.2000      7.9271      2.4513     -0.0424     12.0412   -999.2500   -999.2500
  1290.3000      7.9184      2.4467     -0.0402     12.3213   -999.2500   -999.2500
  1290.4000      7.9184      2.4495      0.0022     12.1530   -999.2500   -999.2500
  1290.5000      7.9082      2.4434      0.0018     12.5196   -999.2500   -999.2500
  1290.6000      7.9082      2.4132      0.0539     14.3491   -999.2500   -999.2500
  1290.7000      7.9082      2.3694     -0.0369     17.0087   -999.2500   -999.2500
  1290.8000      7.9143      2.3359     -0.0219     19.0372   -999.2500   -999.2500
  1290.9000      7.9143      2.3117      0.0117     20.5020   -999.2500   -999.2500
  1291.0000      7.9198      2.2878     -0.0481     21.9531   -999.2500   -999.2500
  1291.1000      7.9198      2.2771     -0.0514     22.5973   -999.2500   -999.2500
  1291.2000      7.9198      2.2937     -0.0124     21.5943   -999.2500   -999.2500
  1291.3000      7.9331      2.3374      0.0238     18.9466   -999.2500   -999.2500
  1291.4000      7.9331      2.3951      0.1140     15.4497   -999.2500   -999.2500
  1291.5000      7.9623      2.4460      0.1292     12.3666   -999.2500   -999.2500
  1291.6000      7.9623      2.4720      0.1509     10.7858   -999.2500   -999.2500
  1291.7000      7.9623      2.4658      0.0847     11.1659   -999.2500   -999.2500
  1291.8000      7.9728      2.4494     -0.0117     12.1600   -999.2500   -999.2500
  1291.9000      7.9728      2.4538      0.0329     11.8931   -999.2500   -999.2500
  1292.0000      7.9197      2.4713      0.0397     10.8322   -999.2500   -999.2500
  1292.1000      7.9197      2.4806      0.0180     10.2685   -999.2500   -999.2500
  1292.2000      7.9197      2.4826      0.0269     10.1446   -999.2500   -999.2500
  1292.3000      7.9154      2.4879      0.0213      9.8247   -999.2500   -999.2500
  1292.4000      7.9154      2.4991      0.0605      9.1478   -999.2500   -999.2500
  1292.5000      7.9178      2.5112      0.0302      8.4092   -999.2500   -999.2500
  1292.6000      7.9178      2.5146      0.0831      8.2041   -999.2500   -999.2500
  1292.7000      7.9178      2.5018      0.0532      8.9847   -999.2500   -999.2500
  1292.8000      7.9166      2.4906     -0.0067      9.6609   -999.2500   -999.2500
  1292.9000      7.9166      2.4985      0.0364      9.1829   -999.2500   -999.2500
  1293.0000      7.9202      2.5103      0.0210      8.4656   -999.2500   -999.2500
  1293.1000      7.9202      2.5055      0.0559      8.7571   -999.2500   -999.2500
  1293.2000      7.9202      2.4888     -0.0076      9.7693   -999.2500   -999.2500
  1293.3000      7.9281      2.4849     -0.0081     10.0061   -999.2500   -999.2500
  1293.4000      7.9281      2.5005      0.0109      9.0592   -999.2500   -999.2500
  1293.5000      7.9030      2.5191      0.0734      7.9322   -999.2500   -999.2500
  1293.6000      7.9030      2.5328      0.0467      7.1017   -999.2500   -999.2500
  1293.7000      7.9030      2.5487      0.0546      6.1376   -999.2500   -999.2500
  1293.8000      7.8919      2.5669      0.0820      5.0368   -999.2500   -999.2500
  1293.9000      7.8919      2.5763      0.1504      4.4668   -999.2500   -999.2500
  1294.0000      7.8635      2.5725      0.0970      4.6950   -999.2500   -999.2500
  1294.1000      7.8635      2.5580      0.1230      5.5751   -999.2500   -999.2500
  1294.2000      7.8635      2.5289      0.0597      7.3389   -999.2500   -999.2500
  1294.3000      7.8404      2.4923     -0.0051      9.5599   -999.2500   -999.2500
  1294.4000      7.8404      2.4710     -0.0289     10.8466   -999.2500   -999.2500
  1294.5000      7.8662      2.4761     -0.0316     10.5416   -999.2500   -999.2500
  1294.6000      7.8662      2.4864      0.0208      9.9155   -999.2500   -999.2500
  1294.7000      7.8662      2.4705     -0.0028     10.8806   -999.2500   -999.2500
  1294.8000      7.8942      2.4355     -0.0036     12.9987   -999.2500   -999.2500
  1294.9000      7.8942      2.4246     -0.0098     13.6583   -999.2500   -999.2500
  1295.0000      7.8913      2.4608     -0.0141     11.4638   -999.2500   -999.2500
  1295.1000      7.8913      2.5176      0.0583      8.0245   -999.2500   -999.2500
  1295.2000      7.8913      2.5540      0.1150      5.8191   -999.2500   -999.2500
  1295.3000      7.8482      2.5602      0.0956      5.4402   -999.2500   -999.2500
  1295.4000      7.8482      2.5529      0.1116      5.8837   -999.2500   -999.2500
  1295.5000      7.8272      2.5475      0.0622      6.2118   -999.2500   -999.2500
  1295.6000      7.8272      2.5508      0.0424      6.0098   -999.2500   -999.2500
  1295.7000      7.8272      2.5640      0.0528      5.2118   -999.2500   -999.2500
  1295.8000      7.7409      2.5790      0.0652      4.3021   -999.2500   -999.2500
  1295.9000      7.7409      2.5819      0.0758      4.1249   -999.2500   -999.2500
  1296.0000      7.8525      2.5669      0.0837      5.0363   -999.2500   -999.2500
  1296.1000      7.8525      2.5363      0.0771      6.8897   -999.2500   -999.2500
  1296.2000      7.8525      2.5053     -0.0119      8.7671   -999.2500   -999.2500
  1296.3000      7.9063      2.5044     -0.0005      8.8238   -999.2500   -999.2500
