~Version Information
VERS.                      2.0: CWLS Log ASCII Standard - VERSION 2.0
WRAP.                       NO: One line per depth step
~Well Information Block
STRT.FT               682.0000: 
STOP.FT              2190.5000: 
STEP.FT                 0.1000: 
NULL.                -999.2500: 
COMP.          Pioneer Natural Resources: COMPANY
WELL.               King 22-13: WELL
FLD.           Purgatoire River: FIELD
LOC.           2419' FNL & 1806' FWL----: LOCATION
PROV.                 Colorado: PROVINCE
CNTY.               Las Animas: COUNTRY
SRVC.                Patterson: SERVICE COMPANY
DATE.          Fri Apr 01 07:38:12 2005: LOG DATE
UWI.           05 071 08318 00: UNIQUE WELL ID
~Curve Information Block
DEPT.FT            0 000 00 00: Depth
DCAL.in                       : CDL Caliper
RHOB.g/cc                     : CDL Bulk Density
RHOC.g/cc                     : CDL Density Correction
DPOR.pu                       : CDL Density Porosity
NPOR.pu                       : Neutron Porosity
GR.GAPI                       : Gamma Ray
~Parameter Information Block
~A  Depth       DCAL        RHOB        RHOC        DPOR        NPOR         GR     
# ...
   778.0000      8.2016      2.1093     -0.0228     32.7678     24.0829    111.4004
   778.1000      8.2016      2.0097     -0.0507     38.8088     22.6497    108.8994
   778.2000      8.2016      1.8959     -0.1162     45.7037     20.9368    107.4855
   778.3000      8.2136      1.7917     -0.1071     52.0159     19.2507    100.7805
   778.4000      8.2136      1.7161     -0.0647     56.6013     17.4119     90.4136
   778.5000      8.2212      1.6777      0.0466     58.9267     15.7713     83.0814
   778.6000      8.2212      1.6871      0.0455     58.3596     14.4319     82.1506
   778.7000      8.2212      1.7493      0.0850     54.5899     12.9768     85.8595
   778.8000      8.2317      1.8462      0.1723     48.7123     11.7726     91.0243
   778.9000      8.2317      1.9492      0.2346     42.4707     11.3869     95.5292
   779.0000      8.2532      2.0407      0.2642     36.9256     11.6256    100.3842
   779.1000      8.2532      2.1076      0.2859     32.8721     12.3097    105.0789
   779.2000      8.2532      2.1365      0.2675     31.1186     13.6833    106.0477
   779.3000      8.2791      2.1244      0.2325     31.8548     15.8513    104.5517
   779.4000      8.2791      2.0798      0.0983     34.5561     18.2068    103.1395
   779.5000      8.2957      2.0192     -0.0542     38.2306     19.7347    100.9207
   779.6000      8.2957      1.9543     -0.0707     42.1631     19.8971     97.5796
   779.7000      8.2957      1.8834     -0.0893     46.4579     18.9529     94.9222
   779.8000      8.2896      1.8022     -0.0826     51.3811     17.8148     92.7829
   779.9000      8.2896      1.7218     -0.1268     56.2534     16.9982     90.3700
   780.0000      8.2687      1.6654     -0.0939     59.6728     16.1951     88.8484
   780.1000      8.2687      1.6441     -0.0316     60.9624     14.9230     86.4170
   780.2000      8.2687      1.6598      0.0646     60.0116     13.3740     81.4441
   780.3000      8.2561      1.7113      0.1228     56.8894     12.2523     76.6362
   780.4000      8.2561      1.7884      0.1590     52.2191     11.6858     75.4283
   780.5000      8.2516      1.8812      0.1594     46.5964     11.1955     78.1604
   780.6000      8.2516      1.9804      0.2128     40.5790     10.6974     82.6543
   780.7000      8.2516      2.0714      0.2227     35.0688     10.6039     86.5779
   780.8000      8.2480      2.1503      0.1997     30.2874     11.1125     90.7378
   780.9000      8.2480      2.2243      0.1574     25.7989     12.3468     97.0433
   781.0000      8.2481      2.2923      0.1464     21.6810     13.9978    103.4308
   781.1000      8.2481      2.3474      0.1002     18.3406     15.1854    104.9089
   781.2000      8.2481      2.3883      0.0746     15.8623     15.9974    102.8743
   781.3000      8.2528      2.4176      0.0161     14.0846     17.0404    103.6444
   781.4000      8.2528      2.4368      0.0673     12.9229     18.0824    106.2697
   781.5000      8.2517      2.4528      0.0234     11.9530     18.4700    105.0616
   781.6000      8.2517      2.4835      0.0383     10.0925     18.1684    101.0715
   781.7000      8.2517      2.5281      0.0594      7.3898     17.9534     99.4006
   781.8000      8.2459      2.5622      0.1142      5.3182     18.1838    102.1817
   781.9000      8.2459      2.5673      0.0988      5.0148     18.4626    107.5915
   782.0000      8.2413      2.5477      0.0459      6.2003     18.8401    111.3612
   782.1000      8.2413      2.5276      0.0037      7.4184     19.8456    109.4508
   782.2000      8.2413      2.5241      0.0240      7.6331     21.2372    102.9461
   782.3000      8.2248      2.5280      0.0400      7.3967     22.0207    100.3902
   782.4000      8.2248      2.5250      0.0121      7.5761     21.5060    104.9078
   782.5000      8.1986      2.5198     -0.0063      7.8893     20.1384    108.0171
   782.6000      8.1986      2.5239     -0.0143      7.6427     18.9681    104.5049
   782.7000      8.1986      2.5318      0.0195      7.1642     18.5712     99.8887
   782.8000      8.1838      2.5193      0.0255      7.9182     18.9000     99.9115
   782.9000      8.1838      2.4813      0.0232     10.2216     19.4546    104.4234
   783.0000      8.1811      2.4504     -0.0565     12.0984     19.8552    109.8753
   783.1000      8.1811      2.4523      0.0057     11.9796     20.2710    112.4815
   783.2000      8.1811      2.4785     -0.0286     10.3966     20.8934    110.2762
   783.3000      8.1811      2.5080      0.0541      8.6056     21.2517    105.9641
   783.4000      8.1811      2.5246      0.0453      7.5998     20.9867    103.1905
   783.5000      8.1806      2.5300      0.0571      7.2737     20.6595    101.3373
   783.6000      8.1806      2.5376      0.0173      6.8148     20.6961    100.3217
   783.7000      8.1806      2.5481      0.0615      6.1761     20.7366     99.8080
   783.8000      8.1795      2.5464      0.0548      6.2801     20.4936     95.7686
   783.9000      8.1795      2.5280      0.0327      7.3930     20.3954     89.4926
   784.0000      8.1788      2.5045      0.0154      8.8170     20.7017     87.3208
   784.1000      8.1788      2.4870      0.0110      9.8758     20.9690     90.6840
   784.2000      8.1788      2.4842      0.0215     10.0513     20.9240     99.3222
   784.3000      8.1791      2.4932      0.0047      9.5001     20.8878    111.0082
   784.4000      8.1791      2.4949      0.0370      9.4016     21.2278    118.9250
   784.5000      8.1786      2.4822     -0.0372     10.1669     21.5185    118.1915
   784.6000      8.1786      2.4775     -0.0502     10.4548     21.2390    110.6980
   784.7000      8.1786      2.4853      0.0272      9.9829     20.9660    106.2007
   784.8000      8.1770      2.4859      0.0232      9.9466     21.2288    108.2136
   784.9000      8.1770      2.4853     -0.0419      9.9828     21.4642    109.9566
   785.0000      8.1762      2.4980      0.0003      9.2119     21.3405    109.3759
   785.1000      8.1762      2.5145      0.0282      8.2112     21.2927    107.1215
   785.2000      8.1762      2.5213      0.0492      7.7973     21.4462    102.4260
   785.3000      8.1744      2.5186      0.0430      7.9663     21.5523     98.3229
   785.4000      8.1744      2.5133      0.0391      8.2825     21.5380     98.9596
   785.5000      8.1693      2.5008      0.0881      9.0416     21.2101    102.3707
   785.6000      8.1693      2.4769     -0.0166     10.4928     20.6045    104.8301
   785.7000      8.1693      2.4541     -0.0033     11.8750     20.1668    105.1874
   785.8000      8.1635      2.4390     -0.0108     12.7890     20.1724    102.6433
   785.9000      8.1635      2.4301      0.0097     13.3286     20.3488     99.1424
   786.0000      8.1598      2.4324     -0.0050     13.1894     20.4652     99.5125
   786.1000      8.1598      2.4505     -0.0010     12.0890     20.7321    103.9360
   786.2000      8.1598      2.4713      0.0719     10.8292     21.3118    108.1018
   786.3000      8.1574      2.4786      0.0534     10.3894     21.9363    109.4548
   786.4000      8.1574      2.4764      0.0555     10.5235     22.1268    107.8803
   786.5000      8.1571      2.4798      0.0690     10.3133     22.0367    105.7502
   786.6000      8.1571      2.5014      0.0492      9.0058     22.0721    104.9577
   786.7000      8.1571      2.5347      0.1236      6.9874     21.9361    106.6445
   786.8000      8.1638      2.5528      0.1608      5.8889     21.4123    110.7054
   786.9000      8.1638      2.5405      0.1022      6.6365     20.9944    114.5125
   787.0000      8.1732      2.5048      0.0915      8.8012     20.8397    115.6371
   787.1000      8.1732      2.4631      0.0063     11.3290     20.6697    113.8171
   787.2000      8.1732      2.4342      0.0333     13.0807     20.7057    112.4948
   787.3000      8.1777      2.4168      0.0489     14.1327     21.2126    114.3239
   787.4000      8.1777      2.4031      0.0182     14.9650     21.7743    113.6842
   787.5000      8.1785      2.3970      0.0331     15.3324     21.6420    106.2049
