~Version Information
VERS.                      2.0: CWLS Log ASCII Standard - VERSION 2.0
WRAP.                       NO: One line per depth step
~Well Information Block
STRT.FT               221.2000: 
STOP.FT              2260.4000: 
STEP.FT                 0.1000: 
NULL.                -999.2500: 
COMP.          Petrogulf Corporation: COMPANY
WELL.          Anderson 18-43V: WELL
FLD.           Purgatorie River: FIELD
LOC.           1782' FSL & 887' FEL--: LOCATION
CNTY.               Las Animas: COUNTY
SRVC.                         : SERVICE COMPANY
DATE.          Mon Sep 13 14:11:09 2004: LOG DATE
UWI.                          : UNIQUE WELL ID
STAT.                       CO: STATE
~Curve Information Block
DEPT.FT            0 000 00 00: Depth
TT3.usec                      : CBL 3' Travel Time
AMP3.mV                       : CBL 3' Amplitude
GR.GAPI                       : Gamma Ray
CCL.                          : Casing Collar Locator
~Parameter Information Block
~A  Depth       TT3         AMP3         GR         CCL     
# ...
   234.6000   -999.2500   -999.2500     61.8281      0.0000
   234.7000   -999.2500   -999.2500     61.8281      0.0000
   234.8000   -999.2500   -999.2500     64.9410      0.0000
   234.9000   -999.2500   -999.2500     64.9410      0.0000
   235.0000   -999.2500   -999.2500     68.1656      0.0000
   235.1000   -999.2500   -999.2500     68.1656      0.0000
   235.2000   -999.2500   -999.2500     68.1656      0.0000
   235.3000    906.0000      1.8100     69.2010      0.0000
   235.4000    906.0000      1.8100     69.2010      0.0000
   235.5000    906.0000      1.8713     67.7990      0.0000
   235.6000    906.0000      1.8713     67.7990      0.0000
   235.7000    906.0000      1.8713     67.7990      0.0000
   235.8000    906.0000      1.9755     65.2184      0.0000
   235.9000    906.0000      1.9755     65.2184      0.0000
   236.0000    906.0000      2.0696     62.5352      0.0000
   236.1000    906.0000      2.0696     62.5352      0.0000
   236.2000    906.0000      2.0696     62.5352      0.0000
   236.3000    906.0000      2.1112     59.6712      0.0000
   236.4000    906.0000      2.1112     59.6712      0.0000
   236.5000    906.0000      2.0889     55.9610      0.0000
   236.6000    906.0000      2.0889     55.9610      0.0000
   236.7000    906.0000      2.0889     55.9610      0.0000
   236.8000    906.0000      2.0173     51.3403      0.0000
   236.9000    906.0000      2.0173     51.3403      0.0000
   237.0000    906.0000      1.9242     46.8298      0.0000
   237.1000    906.0000      1.9242     46.8298      0.0000
   237.2000    906.0000      1.9242     46.8298      0.0000
   237.3000    906.0000      1.8419     43.9576      0.0000
   237.4000    906.0000      1.8419     43.9576      0.0000
   237.5000    906.0000      1.7980     43.7721      0.0000
   237.6000    906.0000      1.7980     43.7721      0.0000
   237.7000    906.0000      1.7980     43.7721      0.0000
   237.8000    906.0000      1.8034     46.2223      0.0000
   237.9000    906.0000      1.8034     46.2223      0.0000
   238.0000    906.0000      1.8476     50.1110      0.0000
   238.1000    906.0000      1.8476     50.1110      0.0000
   238.2000    906.0000      1.8476     50.1110      0.0000
   238.3000    906.0000      1.9026     53.6312      0.0000
   238.4000    906.0000      1.9026     53.6312      0.0000
   238.5000    906.0000      1.9367     55.4568      0.0000
   238.6000    906.0000      1.9367     55.4568      0.0000
   238.7000    906.0000      1.9367     55.4568      0.0000
   238.8000    906.0000      1.9330     55.6349      0.0000
   238.9000    906.0000      1.9330     55.6349      0.0000
   239.0000    906.0000      1.9046     55.1464      0.0000
   239.1000    906.0000      1.9046     55.1464      0.0000
   239.2000    906.0000      1.9046     55.1464      0.0000
   239.3000    906.0000      1.8851     54.4861      0.0000
   239.4000    906.0000      1.8851     54.4861      0.0000
   239.5000    906.0000      1.8980     53.2570      0.0000
   239.6000    906.0000      1.8980     53.2570      0.0000
   239.7000    906.0000      1.8980     53.2570      0.0000
   239.8000    906.0000      1.9344     51.3268      0.0000
   239.9000    906.0000      1.9344     51.3268      0.0000
   240.0000    906.0000      1.9622     49.5571      0.0000
   240.1000    906.0000      1.9622     49.5571      0.0000
   240.2000    906.0000      1.9622     49.5571      0.0000
   240.3000    906.0000      1.9563     48.8490      0.0000
   240.4000    906.0000      1.9563     48.8490      0.0000
   240.5000    906.0000      1.9228     49.0347      0.0000
   240.6000    906.0000      1.9228     49.0347      0.0000
   240.7000    906.0000      1.9228     49.0347      0.0000
   240.8000    906.0000      1.8920     49.2457      0.0000
   240.9000    906.0000      1.8920     49.2457      0.0000
   241.0000    906.0000      1.8868     49.1282      0.0000
   241.1000    906.0000      1.8868     49.1282      0.0000
   241.2000    906.0000      1.8868     49.1282      0.0000
   241.3000    906.0000      1.9001     49.1824      0.0000
   241.4000    906.0000      1.9001     49.1824      0.0000
   241.5000    906.0000      1.9008     49.8765      0.0000
   241.6000    906.0000      1.9008     49.8765      0.0000
   241.7000    906.0000      1.9008     49.8765      0.0000
   241.8000    906.0000      1.8644     50.8750      0.0000
   241.9000    906.0000      1.8644     50.8750      0.0000
   242.0000    906.0000      1.7972     51.4331      0.0000
   242.1000    906.0000      1.7972     51.4331      0.0000
   242.2000    906.0000      1.7972     51.4331      0.0000
   242.3000    906.0000      1.7328     51.4418      0.0000
   242.4000    906.0000      1.7328     51.4418      0.0000
   242.5000    906.0000      1.7040     51.7420      0.0000
   242.6000    906.0000      1.7040     51.7420      0.0000
   242.7000    906.0000      1.7040     51.7420      0.0000
   242.8000    906.0000      1.7178     53.1618      0.0000
   242.9000    906.0000      1.7178     53.1618      0.0000
   243.0000    906.0000      1.7534     55.3591      0.0000
   243.1000    906.0000      1.7534     55.3591      0.0000
   243.2000    906.0000      1.7534     55.3591      0.0000
   243.3000    906.0000      1.7838     57.0937      0.0000
   243.4000    906.0000      1.7838     57.0937      0.0000
   243.5000    906.0000      1.7987     57.8212      0.0000
   243.6000    906.0000      1.7987     57.8212      0.0000
   243.7000    906.0000      1.7987     57.8212      0.0000
   243.8000    906.0000      1.8069     58.5148      0.0000
   243.9000    906.0000      1.8069     58.5148      0.0000
   244.0000    906.0000      1.8167     60.3385      0.0000
   244.1000    906.0000      1.8167     60.3385      0.0000
   244.2000    906.0000      1.8167     60.3385      0.0000
   244.3000    906.0000      1.8223     62.8315      0.0000
   244.4000    906.0000      1.8223     62.8315      0.0000
   244.5000    906.0000      1.8144     64.1994      0.0000
   244.6000    906.0000      1.8144     64.1994      0.0000
   244.7000    906.0000      1.8144     64.1994      0.0000
   244.8000    906.0000      1.7970     63.3324      0.0000
   244.9000    906.0000      1.7970     63.3324      0.0000
   245.0000    906.0000      1.7866     60.8741      0.0000
   245.1000    906.0000      1.7866     60.8741      0.0000
   245.2000    906.0000      1.7866     60.8741      0.0000
   245.3000    906.0000      1.7960     58.2513      0.0000
   245.4000    906.0000      1.7960     58.2513      0.0000
   245.5000    906.0000      1.8224     56.1187      0.0000
   245.6000    906.0000      1.8224     56.1187      0.0000
   245.7000    906.0000      1.8224     56.1187      0.0000
   245.8000    906.0000      1.8499     53.9822      0.0000
   245.9000    906.0000      1.8499     53.9822      0.0000
   246.0000    906.0000      1.8627     51.2494      0.0000
   246.1000    906.0000      1.8627     51.2494      0.0000
   246.2000    906.0000      1.8627     51.2494      0.0000
   246.3000    906.0000      1.8576     48.4209      0.0000
   246.4000    906.0000      1.8576     48.4209      0.0000
   246.5000    906.0000      1.8445     46.9873      0.0000
   246.6000    906.0000      1.8445     46.9873      0.0000
   246.7000    906.0000      1.8445     46.9873      0.0000
   246.8000    906.0000      1.8370     48.0442      0.0000
   246.9000    906.0000      1.8370     48.0442      0.0000
   247.0000    906.0000      1.8447     51.0834      0.0000
   247.1000    906.0000      1.8447     51.0834      0.0000
   247.2000    906.0000      1.8447     51.0834      0.0000
   247.3000    906.0000      1.8660     54.1970      0.0000
   247.4000    906.0000      1.8660     54.1970      0.0000
   247.5000    906.0000      1.8882     55.5136      0.0000
   247.6000    906.0000      1.8882     55.5136      0.0000
   247.7000    906.0000      1.8882     55.5136      0.0000
   247.8000    906.0000      1.8977     54.7174      0.0000
   247.9000    906.0000      1.8977     54.7174      0.0000
