~Version Information
VERS.                      2.0: CWLS Log ASCII Standard - VERSION 2.0
WRAP.                       NO: One line per depth step
~Well Information Block
STRT.FT               780.0000: 
STOP.FT              3152.2500: 
STEP.FT                 0.2500: 
NULL.                -999.2500: 
COMP.          Pioneer Natural Resources: COMPANY
WELL.            Paradise 13-8: WELL
FLD.           Purgatoire River: FIELD
LOC.           1896' FSL & 1120' FWL: LOCATION
PROV.                 Colorado: PROVINCE
CNTY.               Las Animas: COUNTRY
SRVC.                Patterson: SERVICE COMPANY
DATE.          Sat Jan 22 20:39:47 2005: LOG DATE
UWI.           05 071 07946 00: UNIQUE WELL ID
~Curve Information Block
DEPT.FT            0 000 00 00: Depth
SN.Ohm-m                      : IEL Short Normal
SP.mV                         : IEL Spontaneous Potential
DIR.Ohm-m                     : IEL Induction Resistivity
GR.GAPI                       : Gamma Ray
~Parameter Information Block
~A  Depth        SN          SP         DIR          GR     
# ...
  3125.0000     26.2855     11.6594     21.0824   -999.2500
  3125.2500     25.7727     11.9663     20.8885   -999.2500
  3125.5000     25.2192     12.3660     20.6686   -999.2500
  3125.7500     24.6625     12.7803     20.4035   -999.2500
  3126.0000     24.1816     13.1107     20.1199   -999.2500
  3126.2500     23.8529     13.2774     19.8789   -999.2500
  3126.5000     23.6952     13.2484     19.7433   -999.2500
  3126.7500     23.6460     13.0495     19.7443   -999.2500
  3127.0000     23.5930     12.7536     19.8638   -999.2500
  3127.2500     23.4410     12.4586     20.0408   -999.2500
  3127.5000     23.1651     12.2613     20.1975   -999.2500
  3127.7500     22.8206     12.2298     20.2733   -999.2500
  3128.0000     22.5081     12.3797     20.2498   -999.2500
  3128.2500     22.3230     12.6605     20.1509   -999.2500
  3128.5000     22.3177     12.9571     20.0242   -999.2500
  3128.7500     22.4909     13.1117     19.9175   -999.2500
  3129.0000     22.8027     12.9576     19.8639   -999.2500
  3129.2500     23.2001     12.3524     19.8792   -999.2500
  3129.5000     23.6359     11.1985     19.9667   -999.2500
  3129.7500     24.0734      9.4488     20.1249   -999.2500
  3130.0000     24.4887      7.1074     20.3533   -999.2500
  3130.2500     24.8844      4.2322     20.6546   -999.2500
  3130.5000     25.3061      0.9457     21.0330   -999.2500
  3130.7500     25.8330     -2.5572     21.4856   -999.2500
  3131.0000     26.5320     -6.0177     21.9926   -999.2500
  3131.2500     27.3963     -9.1467     22.5107   -999.2500
  3131.5000     28.3125    -11.6796     22.9739   -999.2500
  3131.7500     29.0851    -13.4354     23.3071   -999.2500
  3132.0000     29.5201    -14.3564     23.4498   -999.2500
  3132.2500     29.5226    -14.5124     23.3785   -999.2500
  3132.5000     29.1394    -14.0675     23.1166   -999.2500
  3132.7500     28.5122    -13.2252     22.7234   -999.2500
  3133.0000     27.7788    -12.1740     22.2667   -999.2500
  3133.2500     26.9994    -11.0526     21.7904   -999.2500
  3133.5000     26.1570     -9.9382     21.2976   -999.2500
  3133.7500     25.2133     -8.8540     20.7602   -999.2500
  3134.0000     24.1697     -7.7835     20.1529   -999.2500
  3134.2500     23.0906     -6.6883     19.4868   -999.2500
  3134.5000     22.0832     -5.5293     18.8148   -999.2500
  3134.7500     21.2503     -4.2917     18.2082   -999.2500
  3135.0000     20.6432     -3.0095     17.7241   -999.2500
  3135.2500     20.2425     -1.7775     17.3843   -999.2500
  3135.5000     19.9758     -0.7423     17.1685   -999.2500
  3135.7500     19.7634     -0.0685     17.0224   -999.2500
  3136.0000     19.5594      0.1076     16.8811   -999.2500
  3136.2500     19.3647     -0.2808     16.7003   -999.2500
  3136.5000     19.2112     -1.2132     16.4765   -999.2500
  3136.7500     19.1330     -2.5937     16.2394   -999.2500
  3137.0000     19.1466     -4.2865     16.0282   -999.2500
  3137.2500     19.2558     -6.1574     15.8756   -999.2500
  3137.5000     19.4722     -8.1040     15.8067   -999.2500
  3137.7500     19.8148    -10.0653     15.8433   -999.2500
  3138.0000     20.2806    -12.0105     16.0006   -999.2500
  3138.2500     20.8150    -13.9172     16.2752   -999.2500
  3138.5000     21.3204    -15.7493     16.6352   -999.2500
  3138.7500     21.6956    -17.4446     17.0189   -999.2500
  3139.0000     21.8763    -18.9162     17.3511   -999.2500
  3139.2500     21.8555    -20.0668     17.8367   -999.2500
  3139.5000     21.6865    -20.8142     17.9278   -999.2500
  3139.7500     21.4692    -21.1170     17.9116   -999.2500
  3140.0000     21.3090    -20.9922     17.8431   -999.2500
  3140.2500     21.2657    -20.5167     17.7720   -999.2500
  3140.5000     21.3234    -19.8104     17.7224   -999.2500
  3140.7500     21.4043    -19.0083     17.6933   -999.2500
  3141.0000     21.4134    -18.2345     17.6710   -999.2500
  3141.2500     21.2831    -17.5842     17.6495   -999.2500
  3141.5000     20.9974    -17.1170     17.6533   -999.2500
  3141.7500     20.5984    -16.8565     17.7671   -999.2500
  3142.0000     20.1788    -16.7909     18.1764   -999.2500
  3142.2500     19.8553    -16.8770     19.2268   -999.2500
  3142.5000     19.7223    -17.0488     21.5520   -999.2500
  3142.7500     19.8069    -17.2314     25.7818   -999.2500
  3143.0000     20.0504    -17.3595     36.0383   -999.2500
  3143.2500     20.3385    -17.3894     63.0789   -999.2500
  3143.5000     20.5614    -17.3040    198.8892   -999.2500
  3143.7500     20.6644    -17.1062 100000.0000   -999.2500
  3144.0000     20.6541    -16.8094 100000.0000   -999.2500
  3144.2500     20.5686    -16.4282 100000.0000   -999.2500
  3144.5000     20.4423    -15.9746 100000.0000   -999.2500
  3144.7500     20.2906    -15.4601 100000.0000   -999.2500
  3145.0000     20.1150    -14.8987 100000.0000   -999.2500
  3145.2500     19.9172    -14.3080 100000.0000   -999.2500
  3145.5000     19.7122    -13.7028 100000.0000   -999.2500
  3145.7500     19.5323    -13.0831 100000.0000   -999.2500
  3146.0000     19.4122    -12.4220 100000.0000   -999.2500
  3146.2500     19.3657    -11.6617 100000.0000   -999.2500
  3146.5000     19.3578    -10.7284 100000.0000   -999.2500
  3146.7500     19.2602     -9.5638 100000.0000   -999.2500
  3147.0000     18.7778     -8.1624 100000.0000   -999.2500
  3147.2500     17.4304     -6.5930 100000.0000   -999.2500
  3147.5000     14.7640     -4.9885 100000.0000   -999.2500
  3147.7500     10.7877     -3.5055 100000.0000   -999.2500
  3148.0000      6.2290     -2.2717 100000.0000   -999.2500
  3148.2500      2.1811     -1.3500 100000.0000   -999.2500
  3148.5000     -0.6108     -0.7324 100000.0000   -999.2500
  3148.7500     -2.1085     -0.3614 100000.0000   -999.2500
  3149.0000     -2.7337     -0.1617 100000.0000   -999.2500
  3149.2500     -2.9369     -0.0654 100000.0000   -999.2500
  3149.5000     -2.9883     -0.0238 100000.0000   -999.2500
  3149.7500     -2.9984     -0.0078 100000.0000   -999.2500
  3150.0000   -999.2500     -0.0022 100000.0000   -999.2500
  3150.2500   -999.2500     -0.0005   5278.7803   -999.2500
  3150.5000   -999.2500   -999.2500   2103.2891   -999.2500
  3150.7500   -999.2500   -999.2500   1564.2449   -999.2500
  3151.0000   -999.2500   -999.2500   1390.5160   -999.2500
  3151.2500   -999.2500   -999.2500   1329.2418   -999.2500
  3151.5000   -999.2500   -999.2500   1308.8494   -999.2500
  3151.7500   -999.2500   -999.2500   1302.8260   -999.2500
  3152.0000   -999.2500   -999.2500   1301.2892   -999.2500
  3152.2500   -999.2500   -999.2500 100000.0000   -999.2500
