~Version Information
VERS.                      2.0: CWLS Log ASCII Standard - VERSION 2.0
WRAP.                       NO: One line per depth step
~Well Information Block
STRT.FT                -8.2500: 
STOP.FT              2356.2500: 
STEP.FT                 0.2500: 
NULL.                -999.2500: 
COMP.          Petrogulf Corporation: COMPANY
WELL.             State 16-12V: WELL
FLD.           Purgatorie River: FIELD
LOC.           1992' FNL & 1237' FWL: LOCATION
PROV.                 Colorado: PROVINCE
CNTY.               Las Animas: COUNTRY
SRVC.                Patterson: SERVICE COMPANY
DATE.          Thu Aug 11 14:44:06 2005: LOG DATE
UWI.                          : UNIQUE WELL ID
~Curve Information Block
DEPT.FT            0 000 00 00: Depth
GR.GAPI                       : Gamma Ray
CCL.                          : Casing Collar Locator
TT3.usec                      : CBL 3' Travel Time
AMP3.mV                       : CBL 3' Amplitude
~Parameter Information Block
~A  Depth        GR         CCL         TT3         AMP3    
# ...
  1398.7500    143.0863      0.0000    721.0944      9.3969
  1399.0000    139.6121      0.0000    716.0347      8.2545
  1399.2500    138.0449      0.0000    740.2508      7.5037
  1399.5000    136.9994      0.0000    777.2222      7.0133
  1399.7500    134.4219      0.0000    831.9791      6.6502
  1400.0000    130.2034      0.0000    917.2343      6.3085
  1400.2500    126.3059      0.0000   1013.8423      5.9207
  1400.5000    124.5113      0.0000   1071.2610      5.4877
  1400.7500    124.6989      0.0000   1058.2941      5.0919
  1401.0000    125.2604      0.0000    993.3956      4.8599
  1401.2500    124.5839      0.0000    919.4041      4.8760
  1401.5000    122.0194      0.0000    862.2322      5.0978
  1401.7500    117.9593      0.0000    819.0919      5.3809
  1402.0000    113.4755      0.0000    780.6966      5.5940
  1402.2500    109.8140      0.0000    751.5621      5.6843
  1402.5000    107.9057      0.0000    737.5247      5.6740
  1402.7500    108.1200      0.0000    731.2783      5.6381
  1403.0000    110.2524      0.0000    723.0694      5.6474
  1403.2500    113.5075      0.0000    713.1903      5.7067
  1403.5000    116.5469      0.0000    709.4744      5.7617
  1403.7500    118.0077      0.0000    717.4336      5.7526
  1404.0000    117.3236      0.0000    734.0415      5.6584
  1404.2500    115.1015      0.0000    749.6825      5.5132
  1404.5000    112.6521      0.0000    755.2092      5.3666
  1404.7500    111.0209      0.0000    748.1707      5.2405
  1405.0000    110.0778      0.0000    736.1863      5.1467
  1405.2500    108.3856      0.0000    733.6909      5.0973
  1405.5000    104.3530      0.0000    748.4011      5.0869
  1405.7500     97.8810      0.0000    772.0681      5.1156
  1406.0000     90.7374      0.0000    789.1987      5.2235
  1406.2500     85.2837      0.0000    789.0472      5.4706
  1406.5000     83.1412      0.0000    771.0676      5.8539
  1406.7500     84.8980      0.0000    751.5567      6.2500
  1407.0000     90.0835      0.0000    753.0676      6.5025
  1407.2500     96.9652      0.0000    773.5074      6.5770
  1407.5000    103.2209      0.0000    786.9880      6.5770
  1407.7500    107.5613      0.0000    779.9523      6.6211
  1408.0000    110.4398      0.0000    765.1097      6.7766
  1408.2500    112.8382      0.0000    760.9904      7.0841
  1408.5000    114.7796      0.0000    772.3638      7.5448
  1408.7500    115.4959      0.0000    792.8010      8.0849
  1409.0000    114.9078      0.0000    813.0703      8.6217
  1409.2500    114.4628      0.0000    823.8028      9.1668
  1409.5000    116.2039      0.0000    822.6221      9.7943
  1409.7500    121.1179      0.0000    816.3881     10.5075
  1410.0000    128.5779      0.0000    810.5372     11.2147
  1410.2500    137.0882      0.0000    803.1419     11.8440
  1410.5000    145.0519      0.0000    790.0635     12.4147
  1410.7500    151.0006      0.0000    772.3894     13.0158
  1411.0000    153.7908      0.0000    764.0950     13.7328
  1411.2500    153.0754      0.0000    786.8964     14.5352
  1411.5000    149.6233      0.0000    848.1276     15.2175
  1411.7500    144.9015      0.0000    923.1008     15.4661
  1412.0000    140.0633      0.0000    969.6102     14.9962
  1412.2500    135.2942      0.0000    976.7260     13.7355
  1412.5000    130.2234      0.0000    978.4285     12.1110
  1412.7500    124.8735      0.0000    996.0725     10.9413
  1413.0000    119.9742      0.0000   1007.5024     10.6894
  1413.2500    116.1705      0.0000    995.9496     11.1699
  1413.5000    113.1039      0.0000    985.4125     11.9630
  1413.7500    109.7069     -2.0000   1001.6279     12.6448
  1414.0000    105.6224     -2.0000   1022.6464     12.7928
  1414.2500    102.0555      0.0000   1001.0144     12.2161
  1414.5000    100.8102      0.0000    934.7798     11.2418
  1414.7500    102.5260      0.0000    865.7482     10.3989
  1415.0000    106.0476      0.0000    812.3293      9.7807
  1415.2500    109.4671      0.0000    769.4233      9.3087
  1415.5000    111.6328      0.0000    747.5872      9.1976
  1415.7500    112.7968      0.0000    757.8840      9.4806
  1416.0000    114.0332      0.0000    791.6743      9.8932
  1416.2500    115.9846      0.0000    830.9717     10.3737
  1416.5000    118.0503      0.0000    854.0894     10.9844
  1416.7500    118.7518      0.0000    848.8463     11.5832
  1417.0000    116.8029      0.0000    829.5389     11.9777
  1417.2500    111.8262      0.0000    820.9489     12.2025
  1417.5000    104.3909      0.0000    835.1251     12.4296
  1417.7500     95.7533      0.0000    861.6607     12.6965
  1418.0000     87.4079      0.0000    866.5009     12.8541
  1418.2500     80.3337      0.0000    827.5090     12.7712
  1418.5000     74.5885      0.0000    769.0189     12.5192
  1418.7500     69.9306      0.0000    727.9628     12.3110
  1419.0000     66.5267      0.0000    712.2338     12.2170
  1419.2500     64.6059      0.0000    712.9585     12.0310
  1419.5000     63.8039      0.0000    727.2971     11.5185
  1419.7500     63.5052      0.0000    754.0374     10.7013
  1420.0000     63.7579      0.0000    779.5402      9.8251
  1420.2500     65.6143      0.0000    785.1213      9.1389
  1420.5000     70.6656      0.0000    769.6217      8.7530
  1420.7500     79.9441      0.0000    750.2301      8.6755
  1421.0000     92.6652      0.0000    741.4908      8.9262
  1421.2500    105.9573      0.0000    744.3259      9.5545
  1421.5000    116.2546      0.0000    748.7978     10.5616
  1421.7500    121.2827      0.0000    743.0162     11.8503
  1422.0000    121.0634      0.0000    730.5468     13.2166
  1422.2500    117.5356      0.0000    727.7817     14.3997
  1422.5000    113.3207      0.0000    736.2384     15.2057
  1422.7500    110.1891      0.0000    744.2494     15.5829
  1423.0000    107.9575      0.0000    751.9830     15.5852
  1423.2500    104.8577      0.0000    763.9883     15.3090
  1423.5000     99.5465      0.0000    772.7927     14.8327
  1423.7500     92.8407      0.0000    771.0354     14.1768
  1424.0000     86.9803      0.0000    762.6878     13.3387
  1424.2500     83.2221      0.0000    755.9805     12.3560
  1424.5000     80.7852      0.0000    755.4733     11.3662
  1424.7500     78.2469      0.0000    760.1534     10.6041
  1425.0000     75.4602      0.0000    763.4897     10.1998
  1425.2500     73.8346      0.0000    757.4001     10.0136
  1425.5000     75.0131      0.0000    741.5038      9.8039
  1425.7500     79.4187      0.0000    724.8320      9.4877
  1426.0000     85.8132      0.0000    713.0840      9.1478
  1426.2500     92.0157      0.0000    703.4204      8.8529
  1426.5000     96.2066      0.0000    696.1309      8.5582
  1426.7500     97.9439      0.0000    696.8828      8.1662
  1427.0000     98.1148      0.0000    706.0137      7.6364
  1427.2500     97.8677      0.0000    716.2194      7.0341
  1427.5000     97.6581      0.0000    720.6143      6.4760
  1427.7500     97.3368      0.0000    721.1066      6.0404
  1428.0000     96.7886      0.0000    726.7091      5.7413
  1428.2500     96.0998      0.0000    739.7554      5.5578
  1428.5000     95.2660      0.0000    751.7891      5.4661
  1428.7500     94.1725      0.0000    759.4140      5.4701
  1429.0000     92.9440      0.0000    771.3917      5.5975
  1429.2500     92.1024      0.0000    795.5220      5.8427
  1429.5000     92.3205      0.0000    825.5449      6.1418
  1429.7500     94.1842      0.0000    842.0687      6.4409
  1430.0000     98.2203      0.0000    830.8290      6.7566
  1430.2500    104.7884      0.0000    797.2977      7.1294
  1430.5000    113.4863      0.0000    759.2278      7.5479
  1430.7500    122.7703      0.0000    733.8627      7.9440
  1431.0000    130.6040      0.0000    726.2921      8.2578
  1431.2500    135.6059      0.0000    726.8423      8.4928
  1431.5000    137.6580      0.0000    726.1293      8.6790
  1431.7500    137.8788      0.0000    723.5930      8.8114
  1432.0000    138.0927      0.0000    722.5598      8.8589
