~Version Information
VERS.                      2.0: CWLS Log ASCII Standard - VERSION 2.0
WRAP.                       NO: One line per depth step
~Well Information Block
STRT.FT               -11.2500: 
STOP.FT              1767.0000: 
STEP.FT                 0.2500: 
NULL.                -999.2500: 
COMP.          Petrogulf Corporation: COMPANY
WELL.             McLeod 9-42R: WELL
FLD.           Purgatoire River: FIELD
LOC.           1748' FNL & 372' FEL--: LOCATION
PROV.                 Colorado: PROVINCE
CNTY.               Las Animas: COUNTRY
SRVC.                         : SERVICE COMPANY
DATE.          Thu Sep 29 13:28:07 2005: LOG DATE
UWI.                          : UNIQUE WELL ID
~Curve Information Block
DEPT.FT            0 000 00 00: Depth
GR.GAPI                       : Gamma Ray
CCL.                          : Casing Collar Locator
AMP3.mV                       : CBL 3' Amplitude
AMP5.mV                       : CBL 5' Amplitude
~Parameter Information Block
~A  Depth        GR         CCL         AMP3        AMP5    
# ...
  1261.7500    140.6492      0.0000      4.1625      0.4803
  1262.0000    142.1546      0.0000      4.2475      0.4481
  1262.2500    143.9544      0.0000      4.3397      0.4203
  1262.5000    145.1167      0.0000      4.4271      0.3997
  1262.7500    143.7600      0.0000      4.4929      0.3866
  1263.0000    138.6781      0.0000      4.5257      0.3801
  1263.2500    130.7306      0.0000      4.5321      0.3807
  1263.5000    122.2852      0.0000      4.5354      0.3888
  1263.7500    115.4675      0.0000      4.5596      0.4025
  1264.0000    111.1250      0.0000      4.6150      0.4184
  1264.2500    109.2693      0.0000      4.6978      0.4344
  1264.5000    110.0244      0.0000      4.7974      0.4507
  1264.7500    113.7268      0.0000      4.9003      0.4660
  1265.0000    120.0717      0.0000      4.9907      0.4773
  1265.2500    127.5089      0.0000      5.0518      0.4826
  1265.5000    133.7584      0.0000      5.0720      0.4835
  1265.7500    136.9681      0.0000      5.0521      0.4862
  1266.0000    136.6949      0.0000      5.0069      0.4971
  1266.2500    134.2640      0.0000      4.9550      0.5169
  1266.5000    131.8791      0.0000      4.9124      0.5363
  1266.7500    130.5819      0.0000      4.8906      0.5431
  1267.0000    128.9894      0.0000      4.8950      0.5330
  1267.2500    124.5634      0.0000      4.9198      0.5127
  1267.5000    116.2094      0.0000      4.9523      0.4911
  1267.7500    105.5222      0.0000      4.9817      0.4732
  1268.0000     95.8340      0.0000      4.9995      0.4617
  1268.2500     90.2591      0.0000      4.9971      0.4577
  1268.5000     90.1294      0.0000      4.9729      0.4592
  1268.7500     94.7495      0.0000      4.9374      0.4622
  1269.0000    102.5313      0.0000      4.9062      0.4631
  1269.2500    112.2876      0.0000      4.8864      0.4601
  1269.5000    123.4031      0.0000      4.8759      0.4531
  1269.7500    135.0418      0.0000      4.8688      0.4444
  1270.0000    145.7701      0.0000      4.8568      0.4376
  1270.2500    154.2565      0.0000      4.8296      0.4343
  1270.5000    160.1637      0.0000      4.7811      0.4338
  1270.7500    164.1420      0.0000      4.7156      0.4351
  1271.0000    167.0477      0.0000      4.6484      0.4397
  1271.2500    169.4806      0.0000      4.6006      0.4503
  1271.5000    172.0457      0.0000      4.5939      0.4663
  1271.7500    175.1755      0.0000      4.6405      0.4817
  1272.0000    177.9592      0.0000      4.7330      0.4877
  1272.2500    177.7927      0.0000      4.8443      0.4801
  1272.5000    172.2946      0.0000      4.9411      0.4635
  1272.7500    161.6250      0.0000      4.9989      0.4493
  1273.0000    148.5564      0.0000      5.0104      0.4477
  1273.2500    136.4952      0.0000      4.9859      0.4602
  1273.5000    127.5915      0.0000      4.9475      0.4788
  1273.7500    122.1175      0.0000      4.9217      0.4906
  1274.0000    118.9198      0.0000      4.9305      0.4863
  1274.2500    116.3882      0.0000      4.9816      0.4662
  1274.5000    113.3455      0.0000      5.0614      0.4396
  1274.7500    109.4636      0.0000      5.1380      0.4179
  1275.0000    105.3807      0.0000      5.1798      0.4086
  1275.2500    102.5294      0.0000      5.1764      0.4123
  1275.5000    102.2125      0.0000      5.1434      0.4224
  1275.7500    104.3220      0.0000      5.1086      0.4283
  1276.0000    107.2165      0.0000      5.0935      0.4211
  1276.2500    109.1454      0.0000      5.1010      0.3994
  1276.5000    109.6827      0.0000      5.1180      0.3704
  1276.7500    109.7972      0.0000      5.1273      0.3470
  1277.0000    110.7871      0.0000      5.1181      0.3417
  1277.2500    113.2139      0.0000      5.0865      0.3583
  1277.5000    116.7390      0.0000      5.0326      0.3885
  1277.7500    120.9699      0.0000      4.9628      0.4176
  1278.0000    126.3518      0.0000      4.8912      0.4326
  1278.2500    134.0446      0.0000      4.8348      0.4270
  1278.5000    144.7905      0.0000      4.8006      0.4041
  1278.7500    157.7346      0.0000      4.7804      0.3771
  1279.0000    170.1883      0.0000      4.7586      0.3621
  1279.2500    178.6927      0.0000      4.7268      0.3670
  1279.5000    180.9153      0.0000      4.6902      0.3904
  1279.7500    177.0733      0.0000      4.6595      0.4248
  1280.0000    169.6164      0.0000      4.6378      0.4577
  1280.2500    161.4240      0.0000      4.6213      0.4751
  1280.5000    154.2245      0.0000      4.6083      0.4712
  1280.7500    148.4846      0.0000      4.6014      0.4524
  1281.0000    144.1499      0.0000      4.6012      0.4306
  1281.2500    141.0796      0.0000      4.6024      0.4167
  1281.5000    139.1586      0.0000      4.5967      0.4186
  1281.7500    138.5683      0.0000      4.5744      0.4378
  1282.0000    139.8533      0.0000      4.5320      0.4655
  1282.2500    143.3564      0.0000      4.4833      0.4885
  1282.5000    148.4919      0.0000      4.4542      0.5005
  1282.7500    153.6470      0.0000      4.4610      0.5035
  1283.0000    156.8722      0.0000      4.4989      0.5021
  1283.2500    156.8689      0.0000      4.5504      0.4989
  1283.5000    153.6390      0.0000      4.5981      0.4947
  1283.7500    148.3540      0.0000      4.6283      0.4887
  1284.0000    142.5159      0.0000      4.6353      0.4814
  1284.2500    137.0510      0.0000      4.6274      0.4766
  1284.5000    132.1619      0.0000      4.6204      0.4777
  1284.7500    128.2007      0.0000      4.6245      0.4840
  1285.0000    126.4803      0.0000      4.6402      0.4927
  1285.2500    128.6037      0.0000      4.6622      0.5029
  1285.5000    134.8195      0.0000      4.6833      0.5147
  1285.7500    143.4108      0.0000      4.6983      0.5267
  1286.0000    151.6878      0.0000      4.7094      0.5354
  1286.2500    157.3204      0.0000      4.7243      0.5375
  1286.5000    159.0886      0.0000      4.7463      0.5314
  1286.7500    157.1791      0.0000      4.7715      0.5187
  1287.0000    153.0555      0.0000      4.7964      0.5043
  1287.2500    148.6583      0.0000      4.8194      0.4930
  1287.5000    145.2273      0.0000      4.8361      0.4849
  1287.7500    142.6324      0.0000      4.8395      0.4751
  1288.0000    139.9075      0.0000      4.8267      0.4586
  1288.2500    136.4678      0.0000      4.8036      0.4333
  1288.5000    132.6098      0.0000      4.7807      0.4010
  1288.7500    128.8893      0.0000      4.7658      0.3671
  1289.0000    125.4447      0.0000      4.7587      0.3408
  1289.2500    122.1196      0.0000      4.7529      0.3310
  1289.5000    119.1321      0.0000      4.7415      0.3379
  1289.7500    117.3988      0.0000      4.7195      0.3493
  1290.0000    117.8957      0.0000      4.6829      0.3500
  1290.2500    120.5933      0.0000      4.6318      0.3355
  1290.5000    124.4258      0.0000      4.5742      0.3176
  1290.7500    128.6123      0.0000      4.5247      0.3124
  1291.0000    133.6548      0.0000      4.4879      0.3254
  1291.2500    140.6011      0.0000      4.4353      0.3454
  1291.5000    149.3118      0.0000      4.3147      0.3539
  1291.7500    157.5706      0.0000      4.1053      0.3380
  1292.0000    162.1176      0.0000      3.8558      0.2982
  1292.2500    161.0437      0.0000      3.6455      0.2490
  1292.5000    155.4717      0.0000      3.5141      0.2093
  1292.7500    148.8988      0.0000      3.4428      0.1890
  1293.0000    144.7468      0.0000      3.3909      0.1830
  1293.2500    144.2422     -1.2790      3.3333      0.1796
  1293.5000    146.3416      0.0000      3.2720      0.1725
  1293.7500    149.4827      0.0000      3.2254      0.1638
  1294.0000    153.1598      0.0000      3.2089      0.1600
  1294.2500    157.7808      0.0000      3.2275      0.1658
  1294.5000    163.4643      0.0000      3.2903      0.1817
  1294.7500    169.3282      0.0000      3.4139      0.2048
  1295.0000    173.8784      0.0000      3.5913      0.2323
