~Version Information
VERS.                      2.0: CWLS Log ASCII Standard - VERSION 2.0
WRAP.                       NO: One line per depth step
~Well Information Block
STRT.FT                -2.0000: 
STOP.FT              1016.0000: 
STEP.FT                 0.2500: 
NULL.                -999.2500: 
COMP.          Evergreen Operating Corp.: COMPANY
WELL.              Sunset 24-3: WELL
FLD.           Purgatorie River: FIELD
LOC.           467' FSL & 2262' FWL--: LOCATION
PROV.                       CO: PROVINCE
CNTY.               Las Animas: COUNTRY
SRVC.                         : SERVICE COMPANY
DATE.          Mon Sep 27 13:40:22 2004: LOG DATE
UWI.           005 071 08158  : UNIQUE WELL ID
~Curve Information Block
DEPT.FT            0 000 00 00: Depth
GR.GAPI                       : Gamma Ray
CCL.                          : Casing Collar Locator
TT3.usec                      : CBL 3' Travel Time
AMP3.mV                       : CBL 3' Amplitude
~Parameter Information Block
~A  Depth        GR         CCL         TT3         AMP3    
    -2.0000   -999.2500   -999.2500   -999.2500   -999.2500
    -1.7500   -999.2500   -999.2500   -999.2500   -999.2500
    -1.5000   -999.2500   -999.2500   -999.2500   -999.2500
    -1.2500   -999.2500   -999.2500   -999.2500   -999.2500
    -1.0000   -999.2500   -999.2500   -999.2500   -999.2500
    -0.7500   -999.2500   -999.2500    921.0000     -0.4062
    -0.5000   -999.2500   -999.2500    921.0000     -0.3964
    -0.2500   -999.2500   -999.2500    921.0000     -0.3988
     0.0000   -999.2500   -999.2500    921.0000     -0.4176
     0.2500   -999.2500   -999.2500    921.0000     -0.4366
     0.5000   -999.2500   -999.2500    921.0000     -0.4298
     0.7500   -999.2500   -999.2500    921.0000     -0.3827
     1.0000   -999.2500   -999.2500    921.0000     -0.3055
     1.2500   -999.2500   -999.2500    921.0000     -0.2279
     1.5000   -999.2500   -999.2500    921.0000     -0.1783
     1.7500   -999.2500   -999.2500    921.0000     -0.1661
     2.0000   -999.2500   -999.2500    921.0000     -0.2051
     2.2500   -999.2500   -999.2500    921.0000     -0.2264
     2.5000   -999.2500   -999.2500    921.0000     -0.2418
     2.7500   -999.2500   -999.2500    921.0000     -0.2565
     3.0000   -999.2500   -999.2500    921.0000     -0.2771
     3.2500   -999.2500   -999.2500    921.0000     -0.3042
     3.5000   -999.2500   -999.2500    921.0000     -0.3306
     3.7500   -999.2500   -999.2500    920.9606     -0.3456
     4.0000   -999.2500   -999.2500    920.7041     -0.3342
     4.2500   -999.2500   -999.2500    919.4013     -0.2526
     4.5000   -999.2500      0.0000    914.2491      0.0311
     4.7500   -999.2500      0.0000    898.3812      0.8368
     5.0000   -999.2500      0.0000    860.3186      2.7189
     5.2500   -999.2500      0.0000    789.2092      6.2409
     5.5000   -999.2500      0.0000    685.6900     11.4491
     5.7500   -999.2500      0.0000    568.0528     17.5385
     6.0000   -999.2500      0.0000    463.0612     23.2767
     6.2500   -999.2500      0.0000    387.9905     27.8952
     6.5000   -999.2500      0.0000    342.5432     31.4501
     6.7500   -999.2500      0.0000    316.6687     34.2880
     7.0000   -999.2500      0.0000    302.0032     36.3763
     7.2500   -999.2500      0.0000    295.3252     37.3121
     7.5000   -999.2500      0.0000    295.7901     36.8496
     7.7500   -999.2500      0.0000    303.6490     35.2227
     8.0000   -999.2500      0.0000    323.0739     32.9710
     8.2500   -999.2500      0.0000    364.1878     30.5896
     8.5000   -999.2500      0.0000    437.8652     28.3460
     8.7500   -999.2500      0.0000    543.7822     26.3184
     9.0000   -999.2500      0.0000    663.3538     24.5265
     9.2500   -999.2500      0.0000    768.6796     23.0148
     9.5000     62.8862      0.0000    840.9019     21.8368
     9.7500     61.7936      0.0000    879.3187     21.0005
    10.0000     60.3361      0.0000    894.8522     20.4608
    10.2500     58.6342      0.0000    898.4562     20.1636
    10.5000     56.2156      0.0000    894.4921     20.0881
    10.7500     53.0199      0.0000    879.5588     20.2406
    11.0000     49.9138      0.0000    844.8663     20.6131
    11.2500     48.0909      0.0000    783.6928     21.1553
    11.5000     48.1571      0.0000    701.4329     21.7922
    11.7500     49.8950      0.0000    616.2371     22.4645
    12.0000     52.6198      0.0000    544.2379     23.1540
    12.2500     55.5910      0.0000    486.0255     23.8818
    12.5000     58.3075      0.0000    433.1498     24.6856
    12.7500     60.5173      0.0000    383.7514     25.5898
    13.0000     61.9206      0.0000    344.4379     26.5790
    13.2500     62.1247      0.0000    320.0725     27.5919
    13.5000     61.1131      0.0000    308.5311     28.5428
    13.7500     59.5504      0.0000    304.3184     29.3562
    14.0000     58.3237      0.0000    303.1046     29.9848
    14.2500     57.8708      0.0000    302.7973     30.4014
    14.5000     58.0269      0.0000    302.6975     30.5836
    14.7500     58.2237      0.0000    302.6511     30.5092
    15.0000     57.6591      0.0000    302.6200     30.1628
    15.2500     55.7636      0.0000    302.6079     29.5518
    15.5000     52.9511      0.0000    302.6169     28.7237
    15.7500     50.5326      0.0000    302.6471     27.7664
    16.0000     49.4529      0.0000    302.6954     26.7797
    16.2500     49.4082      0.0000    302.7575     25.8326
    16.5000     49.4715      0.0000    302.8374     24.9416
    16.7500     49.1939      0.0000    302.9540     24.0852
    17.0000     48.8175      0.0000    303.1363     23.2350
    17.2500     48.7835      0.0000    303.4040     22.3856
    17.5000     49.5034      0.0000    303.7437     21.5681
    17.7500     51.4567      0.0000    304.1038     20.8376
    18.0000     54.8652      0.0000    304.4186     20.2430
    18.2500     59.1334      0.0000    304.6447     19.8041
    18.5000     62.9586      0.0000    304.7784     19.5092
    18.7500     65.2106      0.0000    304.8488     19.3213
    19.0000     65.6855      0.0000    304.8971     19.1907
    19.2500     65.0080      0.0000    304.9535     19.0784
    19.5000     63.8557      0.0000    305.0254     18.9757
    19.7500     62.3901      0.0000    305.1023     18.8978
    20.0000     60.5019      0.0000    305.1705     18.8556
    20.2500     58.4766      0.0000    305.2260     18.8375
    20.5000     57.1850      0.0000    305.2776     18.8194
    20.7500     57.3719      0.0000    305.3377     18.7856
    21.0000     58.7209      0.0000    305.4399     18.7345
    21.2500     59.9118      0.0000    305.6819     18.6690
    21.5000     59.8503      0.0000    306.5941     18.5894
    21.7500     58.6402      0.0000    309.8750     18.4942
    22.0000     57.1975      0.0000    319.4101     18.3816
    22.2500     56.2464      0.0000    341.0897     18.2515
    22.5000     55.9997      0.0000    379.8695     18.1091
    22.7500     56.5663      0.0000    435.7088     17.9660
    23.0000     58.1322      0.0000    503.0415     17.8353
    23.2500     60.6285      0.0000    574.1973     17.7228
    23.5000     63.4046      0.0000    641.5389     17.6259
    23.7500     65.2448      0.0000    697.3946     17.5390
    24.0000     64.8869      0.0000    736.2214     17.4597
    24.2500     62.0925      0.0000    758.0170     17.3879
    24.5000     58.3350      0.0000    767.7433     17.3206
    24.7500     55.8269      0.0000    771.2526     17.2456
    25.0000     55.6465      0.0000    772.3870     17.1442
    25.2500     57.2708      0.0000    772.8363     17.0035
    25.5000     59.8079      0.0000    773.1582     16.8289
    25.7500     62.6604      0.0000    773.4962     16.6468
    26.0000     64.7408      0.0000    773.9266     16.4907
    26.2500     64.4158      0.0000    774.4675     16.3819
    26.5000     61.3592      0.0000    775.0778     16.3186
    26.7500     57.7327      0.0000    775.6812     16.2860
    27.0000     56.3815      0.0000    776.3356     16.2710
    27.2500     57.9779      0.0000    777.4845     16.2624
    27.5000     60.6276      0.0000    780.1397     16.2425
    27.7500     62.2190      0.0000    785.4684     16.1919
    28.0000     62.5182      0.0000    793.3495     16.1045
    28.2500     62.8438      0.0000    800.9730     15.9894
    28.5000     64.3170      0.0000    803.9734     15.8537
    28.7500     66.9198      0.0000    800.1984     15.6944
    29.0000     69.9000      0.0000    791.9317     15.5087
    29.2500     72.3777      0.0000    783.6269     15.3045
    29.5000     73.5028      0.0000    778.1105     15.0989
    29.7500     72.7139      0.0000    775.4617     14.9125
    30.0000     70.2780      0.0000    774.4650     14.7626
    30.2500     67.3372      0.0000    774.0919     14.6565
    30.5000     65.2194      0.0000    773.8849     14.5890
    30.7500     64.6858      0.0000    773.7211     14.5453
    31.0000     65.6030      0.0000    773.5763     14.5074
    31.2500     67.0590      0.0000    773.4351     14.4622
