~Version Information
VERS.                      2.0: CWLS Log ASCII Standard - VERSION 2.0
WRAP.                       NO: One line per depth step
~Well Information Block
STRT.FT               757.3000: 
STOP.FT              2418.0000: 
STEP.FT                 0.1000: 
NULL.                -999.2500: 
COMP.          Petrogulf Corporation: COMPANY
WELL.            Montoya 7-21V: WELL
FLD.           Purgatorie River: FIELD
LOC.           738' FSL & 2070' FWL: LOCATION
CNTY.               Las Animas: COUNTY
SRVC.                         : SERVICE COMPANY
DATE.          Fri Aug 20 14:08:15 2004: LOG DATE
UWI.           05 071 08018 00: UNIQUE WELL ID
STAT.                 Colorado: STATE
~Curve Information Block
DEPT.FT            0 000 00 00: Depth
DCAL.in                       : CDL Caliper
RHOB.g/cc                     : CDL Bulk Density
RHOC.g/cc                     : CDL Density Correction
DPOR.pu                       : CDL Density Porosity
GR.GAPI                       : Gamma Ray
NPOR.pu                       : Neutron Porosity
~Parameter Information Block
~A  Depth       DCAL        RHOB        RHOC        DPOR         GR         NPOR    
# ...
  2302.9000      8.0043      1.3698      0.0565     77.5894     49.0423     32.1566
  2303.0000      8.0832      1.3524      0.0469     78.6416     46.1219     32.7125
  2303.1000      8.0832      1.3363      0.0321     79.6158     42.0432     33.4655
  2303.2000      8.0832      1.3210      0.0373     80.5474     38.8165     33.6063
  2303.3000      8.1930      1.3075     -0.0309     81.3652     36.8861     32.7337
  2303.4000      8.1930      1.2997     -0.0250     81.8335     36.0487     31.4687
  2303.5000      8.3046      1.2973     -0.0150     81.9837     34.6556     30.8465
  2303.6000      8.3046      1.2972      0.0094     81.9887     31.5681     31.0207
  2303.7000      8.3046      1.2955      0.0174     82.0888     27.7036     31.2438
  2303.8000      8.3910      1.2875      0.0032     82.5775     24.0397     31.1328
  2303.9000      8.3910      1.2727      0.0147     83.4721     22.3223     30.9110
  2304.0000      8.4041      1.2565     -0.0076     84.4519     23.5631     31.0578
  2304.1000      8.4041      1.2465     -0.0408     85.0583     25.1949     31.8239
  2304.2000      8.4041      1.2426     -0.0447     85.2947     24.2793     32.6305
  2304.3000      8.3800      1.2377     -0.0507     85.5925     22.3162     33.1272
  2304.4000      8.3800      1.2305     -0.0663     86.0320     22.7940     33.4114
  2304.5000      8.3955      1.2233     -0.0191     86.4647     26.4105     33.3581
  2304.6000      8.3955      1.2171     -0.0058     86.8453     30.0552     33.1520
  2304.7000      8.3955      1.2167     -0.0088     86.8693     29.7179     33.2164
  2304.8000      8.4626      1.2313     -0.0294     85.9839     26.0901     33.7182
  2304.9000      8.4626      1.2615      0.0244     84.1521     22.9047     34.1983
  2305.0000      8.6172      1.2929      0.0482     82.2486     22.3008     33.9319
  2305.1000      8.6172      1.3117      0.0450     81.1102     23.6913     33.3633
  2305.2000      8.6172      1.3204     -0.0124     80.5808     25.5234     33.4561
  2305.3000      8.9175      1.3270      0.0547     80.1789     27.4065     33.8418
  2305.4000      8.9175      1.3324      0.0351     79.8531     30.1617     33.9910
  2305.5000      9.2779      1.3340      0.0754     79.7563     33.6728     34.3480
  2305.6000      9.2779      1.3289      0.0527     80.0642     36.9934     34.7341
  2305.7000      9.2779      1.3249      0.0336     80.3082     40.4910     34.3403
  2305.8000      9.3160      1.3491     -0.0002     78.8453     44.3650     33.5612
  2305.9000      9.3160      1.4275      0.0152     74.0892     45.7550     32.9109
  2306.0000      8.9763      1.5400      0.1131     67.2751     42.8139     32.2211
  2306.1000      8.9763      1.6320      0.1481     61.6948     41.0878     32.0093
  2306.2000      8.9763      1.6922      0.1069     58.0463     47.3870     32.4081
  2306.3000      8.7861      1.7627      0.1349     53.7766     60.1954     32.5386
  2306.4000      8.7861      1.8805      0.1829     46.6347     72.7270     31.9834
  2306.5000      8.7648      2.0371      0.2108     37.1446     81.1149     30.8913
  2306.6000      8.7648      2.1844      0.2128     28.2181     84.8787     29.7678
  2306.7000      8.7648      2.2848      0.1633     22.1356     85.8263     28.9687
  2306.8000      8.6540      2.3461      0.1527     18.4164     89.6028     28.3739
  2306.9000      8.6540      2.3976      0.1514     15.2972     98.2790     27.8424
  2307.0000      8.4533      2.4539      0.1796     11.8853    106.8777     27.2303
  2307.1000      8.4533      2.5044      0.2842      8.8242    111.1120     26.5486
  2307.2000      8.4533      2.5343      0.2561      7.0148    108.8774     25.9090
  2307.3000      8.1592      2.5451      0.2651      6.3556    102.0957     25.7151
  2307.4000      8.1592      2.5457      0.1967      6.3232     95.3412     26.1548
  2307.5000      7.9123      2.5444      0.1749      6.3988     93.4682     26.4235
  2307.6000      7.9123      2.5435      0.1525      6.4565    100.1245     25.9744
  2307.7000      7.9123      2.5407      0.1365      6.6232    109.0185     25.1933
  2307.8000      7.8328      2.5335      0.1534      7.0617    108.7757     24.6221
  2307.9000      7.8328      2.5199      0.1392      7.8851    100.8138     24.7276
  2308.0000      7.8545      2.5070      0.1039      8.6689     94.0998     25.5302
  2308.1000      7.8545      2.5047      0.1234      8.8032     91.4553     26.1690
  2308.2000      7.8545      2.5130      0.1389      8.3034     92.1741     26.1970
  2308.3000      7.8779      2.5184      0.1306      7.9755     95.7249     26.3339
  2308.4000      7.8779      2.5125      0.0343      8.3328     99.1361     26.8663
  2308.5000      7.8817      2.5011      0.0183      9.0223     99.7025     27.1811
  2308.6000      7.8817      2.4844      0.0198     10.0377     98.0477     26.9009
  2308.7000      7.8817      2.4607      0.0355     11.4719     97.6004     25.9786
  2308.8000      7.8851      2.4374      0.0171     12.8848    100.8094     24.7690
  2308.9000      7.8851      2.4217      0.0163     13.8372    106.2161     24.3176
  2309.0000      7.8913      2.4196     -0.0144     13.9635    110.8556     25.1924
  2309.1000      7.8913      2.4337      0.0477     13.1084    114.2807     26.4932
  2309.2000      7.8913      2.4511      0.0534     12.0553    118.8676     27.1530
  2309.3000      7.8913      2.4523      0.0420     11.9808    123.3585     27.5056
  2309.4000      7.8913      2.4352      0.0132     13.0174    122.2111     27.8618
  2309.5000      7.8841      2.4170     -0.0013     14.1187    116.4877     27.6701
  2309.6000      7.8841      2.4124      0.0094     14.4017    112.4775     27.1745
  2309.7000      7.8841      2.4228     -0.0028     13.7710    114.4617     26.8113
  2309.8000      7.8823      2.4386      0.0165     12.8148    124.4738     26.2403
  2309.9000      7.8823      2.4354      0.0536     13.0056    136.4772     25.4687
  2310.0000      7.8899      2.3974      0.0065     15.3081    137.5441     25.2030
  2310.1000      7.8899      2.3428     -0.0414     18.6175    126.2630     25.7464
  2310.2000      7.8899      2.2819     -0.0208     22.3066    115.2147     26.3275
  2310.3000      7.8995      2.1892     -0.0109     27.9282    111.0563     26.5003
  2310.4000      7.8995      2.0545     -0.0749     36.0916    107.2386     26.6752
  2310.5000      7.9061      1.9090     -0.0793     44.9062     97.3803     27.0582
  2310.6000      7.9061      1.7861     -0.1297     52.3591     85.3532     27.5787
  2310.7000      7.9061      1.6837     -0.1070     58.5642     78.8633     28.2486
  2310.8000      7.9094      1.5712     -0.1366     65.3835     78.4047     28.9869
  2310.9000      7.9094      1.4439     -0.1689     73.0984     76.6964     29.9401
  2311.0000      7.9284      1.3447     -0.1551     79.1117     69.4956     30.9163
  2311.1000      7.9284      1.3057     -0.0706     81.4737     61.5743     31.2631
  2311.2000      7.9284      1.3122     -0.0234     81.0760     56.4586     30.9754
  2311.3000      8.0004      1.3459     -0.0234     79.0364     50.7530     30.6497
  2311.4000      8.0004      1.4088      0.0144     75.2268     44.0693     30.8295
  2311.5000      8.1138      1.4977      0.0608     69.8377     42.0606     31.4897
  2311.6000      8.1138      1.6026      0.0626     63.4816     47.9834     31.9777
  2311.7000      8.1138      1.7286      0.0608     55.8449     59.1316     31.7905
  2311.8000      8.1312      1.8868      0.1108     46.2525     69.8386     31.2047
  2311.9000      8.1312      2.0669      0.2063     35.3391     75.9746     30.4896
  2312.0000      8.0033      2.2389      0.2356     24.9164     78.9489     29.3717
  2312.1000      8.0033      2.3718      0.2723     16.8577     84.5579     28.1404
  2312.2000      8.0033      2.4505      0.2136     12.0932     94.0737     27.5623
  2312.3000      7.8897      2.4902      0.1546      9.6843    101.4662     27.0115
  2312.4000      7.8897      2.5144      0.1842      8.2211    100.8042     25.5105
