~Version Information
VERS.                      2.0: CWLS Log ASCII Standard - VERSION 2.0
WRAP.                       NO: One line per depth step
~Well Information Block
STRT.FT                -5.2500: 
STOP.FT               769.5000: 
STEP.FT                 0.2500: 
NULL.                -999.2500: 
COMP.          Pioneer Natural Resources: COMPANY
WELL.          HG Duran 34-27 Tr: WELL
FLD.           Purgatorie River: FIELD
LOC.           1076' FSL & 1465' FEL: LOCATION
PROV.                 Colorado: PROVINCE
CNTY.               Las Animas: COUNTRY
SRVC.          Patterson Wireline: SERVICE COMPANY
DATE.          Mon Apr 18 09:19:17 2005: LOG DATE
UWI.           05-071-08218-00: UNIQUE WELL ID
~Curve Information Block
DEPT.FT            0 000 00 00: Depth
CCL.                          : Casing Collar Locator
TT3.usec                      : CBL 3' Travel Time
AMP3.mV                       : CBL 3' Amplitude
GR.GAPI                       : Gamma Ray
~Parameter Information Block
~A  Depth       CCL         TT3         AMP3         GR     
# ...
   698.2500      0.0000    783.4445     15.1347    130.8493
   698.5000      0.0000    783.6037     14.8951    141.6254
   698.7500      0.0000    783.6757     14.5905    149.7892
   699.0000      0.0000    783.6787     14.2758    154.1927
   699.2500      0.0000    783.6423     14.0320    155.7033
   699.5000      0.0000    783.5756     13.9306    156.1707
   699.7500      0.0000    783.4702     13.9863    156.6797
   700.0000      0.0000    783.3329     14.1468    156.8656
   700.2500      0.0000    783.2010     14.3358    155.4998
   700.5000      0.0000    783.1185     14.5054    151.5288
   700.7500      0.0000    783.1073     14.6459    145.1292
   701.0000      0.0000    783.1667     14.7456    138.2431
   701.2500      0.0000    783.2865     14.7625    133.5706
   701.5000      0.0000    783.4434     14.6576    132.5546
   701.7500      0.0000    783.5949     14.4504    134.6236
   702.0000      0.0000    783.6877     14.2248    138.3582
   702.2500      0.0000    783.6785     14.0779    142.7575
   702.5000      0.0000    783.5576     14.0622    147.1784
   702.7500      0.0000    783.3563     14.1723    150.8221
   703.0000      0.0000    783.1255     14.3713    152.8721
   703.2500      0.0000    782.9050     14.6163    153.0617
   703.5000      0.0000    782.7109     14.8561    151.8682
   703.7500      0.0000    782.5534     15.0194    150.0353
   704.0000      0.0000    782.4549     15.0311    147.9896
   704.2500      0.0000    782.4467     14.8519    145.7138
   704.5000      0.0000    782.5469     14.4952    143.0152
   704.7500      0.0000    782.7496     14.0060    140.0145
   705.0000      0.0000    783.0330     13.4438    137.6125
   705.2500      0.0000    783.3690     12.8941    137.1726
   705.5000      0.0000    783.7192     12.4684    139.2186
   705.7500      0.0000    784.0295     12.2567    142.6435
   706.0000      0.0000    784.2409     12.2751    145.8185
   706.2500      0.0000    784.3117     12.4638    148.2831
   706.5000      0.0000    784.2341     12.7349    150.6530
   706.7500      0.0000    784.0313     13.0149    153.3308
   707.0000      0.0000    783.7411     13.2496    156.2410
   707.2500      0.0000    783.4029     13.3951    159.5778
   707.5000      0.0000    783.0535     13.4348    163.7488
   707.7500      0.0000    782.7269     13.4017    168.1673
   708.0000      0.0000    782.4523     13.3609    170.6112
   708.2500      0.0000    782.2496     13.3616    168.6426
   708.5000      0.0000    782.1268     13.4110    162.0237
   708.7500      0.0000    782.0797     13.4865    153.2759
   709.0000      0.0000    782.0961     13.5600    145.6180
   709.2500      0.0000    782.1573     13.6185    140.7093
   709.5000      0.0000    782.2373     13.6754    138.3300
   709.7500      0.0000    782.3052     13.7618    137.3575
   710.0000      0.0000    782.3314     13.9015    136.6144
   710.2500      0.0000    782.2954     14.0892    135.4562
   710.5000      0.0000    782.1943     14.2885    134.1239
   710.7500      0.0000    782.0468     14.4565    133.2532
   711.0000      0.0000    781.8839     14.5828    132.7902
   711.2500      0.0000    781.7329     14.6988    131.7949
   711.5000      0.0000    781.6057     14.8398    129.4829
   711.7500      0.0000    781.5032     15.0044    126.1726
   712.0000      0.0000    781.4297     15.1618    123.1767
   712.2500      0.0000    781.3988     15.2937    121.8809
   712.5000      0.0000    781.4214     15.4128    122.5801
   712.7500      0.0000    781.4877     15.5409    123.9222
   713.0000      0.0000    781.5650     15.6738    123.9250
   713.2500      0.0000    781.6196     15.7775    122.1279
   713.5000      0.0000    781.6398     15.8182    120.4513
   713.7500      0.0000    781.6347     15.7941    121.2443
   714.0000      0.0000    781.6154     15.7365    124.6658
   714.2500      0.0000    781.5796     15.6848    128.4969
   714.5000      0.0000    781.5214     15.6612    130.2428
   714.7500      0.0000    781.4526     15.6649    128.9718
   715.0000      0.0000    781.4022     15.6799    125.5653
   715.2500      0.0000    781.3824     15.6799    121.8607
   715.5000      0.0000    781.3702     15.6372    119.4180
   715.7500      0.0000    781.3371     15.5435    118.7354
   716.0000      0.0000    781.2986     15.4271    119.5888
   716.2500      0.0000    781.3118     15.3377    121.8581
   716.5000      0.0000    781.4125     15.3067    125.3615
   716.7500      0.0000    781.5725     15.3250    128.7500
   717.0000      0.0000    781.7291     15.3561    129.4735
   717.2500      0.0000    781.8474     15.3636    125.7618
   717.5000      0.0000    781.9342     15.3332    118.3574
   717.7500      0.0000    782.0032     15.2789    109.7725
   718.0000      0.0000    782.0532     15.2278    102.2800
   718.2500      0.0000    782.0850     15.1975     97.0980
   718.5000      0.0000    782.1229     15.1916     94.8531
   718.7500      0.0000    782.2029     15.2070     95.6777
   719.0000      0.0000    782.3412     15.2310     98.5828
   719.2500      0.0000    782.5226     15.2350    101.4258
   719.5000      0.0000    782.7253     15.1880    102.1635
   719.7500      0.0000    782.9456     15.0778    100.2818
   720.0000      0.0000    783.1792     14.9103     96.8591
   720.2500      0.0000    783.3760     14.6909     93.0182
   720.5000      0.0000    783.3386     14.4136     88.5933
   720.7500      0.0000    782.4812     14.0712     82.8520
   721.0000      0.0000    779.4156     13.6768     76.2345
   721.2500      0.0000    771.8199     13.2734     70.5485
   721.5000      0.0000    757.4985     12.9154     67.4336
   721.7500      0.0000    736.7357     12.6373     67.1633
   722.0000      0.0000    713.9206     12.4396     68.8611
   722.2500      0.0000    696.1845     12.3049     71.4013
   722.5000      0.0000    689.7862     12.2172     74.0713
   722.7500      0.0000    697.0992     12.1649     76.7009
   723.0000      0.0000    715.6030     12.1383     79.3333
   723.2500      0.0000    738.8788     12.1345     81.8009
   723.5000      0.0000    759.6707     12.1635     83.6276
   723.7500      0.0000    773.5731     12.2386     84.2321
   724.0000      0.0000    780.4191     12.3576     83.0854
   724.2500      0.0000    782.6063     12.4961     79.7928
   724.5000      0.0000    782.6545     12.6228     74.4428
   724.7500      0.0000    782.0691     12.7205     68.0657
   725.0000      0.0000    781.4580     12.7964     62.3583
   725.2500      0.0000    780.9907     12.8692     58.5836
   725.5000      0.0000    780.6838     12.9441     56.8284
   725.7500      0.0000    780.5114     13.0006     56.3016
   726.0000      0.0000    780.4371     13.0132     56.1226
   726.2500      0.0000    780.4412     12.9802     55.9086
   726.5000      0.0000    780.5205     12.9250     55.9692
   726.7500      0.0000    780.6688     12.8711     57.0014
   727.0000      0.0000    780.8613     12.8210     59.4007
   727.2500      0.0000    781.0614     12.7588     62.7335
   727.5000      0.0000    781.2405     12.6636     65.7964
   727.7500      0.0000    781.3932     12.5251     67.2345
   728.0000      0.0000    781.5378     12.3511     66.2493
   728.2500      0.0000    781.6711     12.1603     62.9068
   728.5000      0.0000    781.7399     11.9600     58.0909
   728.7500      0.0000    781.6467     11.7301     53.3768
   729.0000      0.0000    781.3895     11.4202     50.5005
   729.2500      0.0000    781.2775     10.9670     50.2538
   729.5000      0.0000    782.0535     10.3468     51.7355
   729.7500      0.0000    784.9741      9.6307     53.0378
   730.0000      0.0000    792.0298      8.9522     52.8960
   730.2500      0.0000    805.1137      8.3981     51.6943
   730.5000      0.0000    822.7688      7.9692     50.9011
   730.7500      0.0000    837.8105      7.6366     51.5508
   731.0000      0.0000    841.4061      7.3720     53.3439
   731.2500      0.0000    831.3979      7.1359     55.2533
   731.5000      5.0000    814.9969      6.9089     56.7716
