~Version Information
VERS.                      2.0: CWLS Log ASCII Standard - VERSION 2.0
WRAP.                       NO: One line per depth step
~Well Information Block
STRT.FT               245.0000: 
STOP.FT              1919.7000: 
STEP.FT                 0.1000: 
NULL.                -999.2500: 
COMP.          Pioneer Natural Resources: COMPANY
WELL.          Oink Oink 14-36 Tr: WELL
FLD.           Purgatoire River: FIELD
LOC.           236' FSL & 164' FWL--: LOCATION
PROV.                 Colorado: PROVINCE
CNTY.               Las Animas: COUNTRY
SRVC.                Patterson: SERVICE COMPANY
DATE.          Fri Jun 10 08:23:18 2005: LOG DATE
UWI.           05 071 08393 00: UNIQUE WELL ID
~Curve Information Block
DEPT.FT            0 000 00 00: Depth
DCAL.in                       : CDL Caliper
RHOB.g/cc                     : CDL Bulk Density
RHOC.g/cc                     : CDL Density Correction
DPOR.pu                       : CDL Density Porosity
NPOR.pu                       : Neutron Porosity
GR.GAPI                       : Gamma Ray
~Parameter Information Block
~A  Depth       DCAL        RHOB        RHOC        DPOR        NPOR         GR     
# ...
  1339.4000      8.0112      2.5819      0.0789      4.1267     19.2153     63.6579
  1339.5000      8.0104      2.5887      0.0761      3.7156     19.0194     68.3526
  1339.6000      8.0104      2.6040      0.0851      2.7899     18.7606     73.5936
  1339.7000      8.0104      2.6329      0.1096      1.0335     18.8920     75.1400
  1339.8000      8.0100      2.6643      0.0909     -0.8659     19.4194     72.1762
  1339.9000      8.0100      2.7065      0.0722     -3.4256     20.1027     70.2662
  1340.0000      8.0104      2.7837      0.1498     -8.1012     20.7651     72.3300
  1340.1000      8.0104      2.8941      0.1777    -14.7957     21.3590     74.8676
  1340.2000      8.0104      3.0108      0.2368    -21.8689     22.0170     73.8852
  1340.3000      8.0121      3.0960      0.2678    -27.0333     22.7075     70.2555
  1340.4000      8.0121      3.1283      0.2506    -28.9869     23.1343     66.7585
  1340.5000      8.0157      3.1262      0.1898    -28.8595     23.1291     65.1199
  1340.6000      8.0157      3.1163      0.1679    -28.2591     23.1863     68.2680
  1340.7000      8.0157      3.0933      0.1033    -26.8690     23.7627     76.7072
  1340.8000      8.0238      3.0344      0.0821    -23.2952     24.5929     85.2831
  1340.9000      8.0238      2.9354      0.0024    -17.2974     25.1937     89.9054
  1341.0000      8.0393      2.8249     -0.0874    -10.5984     25.3209     94.6037
  1341.1000      8.0393      2.7351     -0.1216     -5.1567     25.0708    105.6778
  1341.2000      8.0393      2.6804     -0.1275     -1.8408     24.7260    117.9503
  1341.3000      8.0653      2.6605     -0.0683     -0.6373     24.5188    123.1076
  1341.4000      8.0653      2.6592     -0.0287     -0.5587     24.3902    123.3384
  1341.5000      8.0969      2.6592      0.0484     -0.5587     24.2815    125.3666
  1341.6000      8.0969      2.6639      0.0103     -0.8442     24.4166    131.1740
  1341.7000      8.0969      2.6798      0.1033     -1.8039     24.5681    137.7183
  1341.8000      8.1140      2.6926      0.0804     -2.5790     24.3395    138.8897
  1341.9000      8.1140      2.6890      0.1128     -2.3628     24.2818    136.8353
  1342.0000      8.1177      2.6750      0.0238     -1.5132     24.8709    141.0405
  1342.1000      8.1177      2.6653      0.0996     -0.9291     25.6516    149.5021
  1342.2000      8.1177      2.6578      0.1093     -0.4730     25.8568    152.9054
  1342.3000      8.1185      2.6419      0.0912      0.4919     25.5438    150.3874
  1342.4000      8.1185      2.6169      0.0542      2.0050     25.5612    146.0310
  1342.5000      8.1193      2.5855      0.0728      3.9103     25.9214    140.3397
  1342.6000      8.1193      2.5563      0.0214      5.6781     25.8509    136.9738
  1342.7000      8.1193      2.5482      0.0100      6.1686     25.2797    141.8952
  1342.8000      8.1204      2.5612      0.0753      5.3836     25.0578    151.1249
  1342.9000      8.1204      2.5734      0.0797      4.6447     25.4586    153.4858
  1343.0000      8.1205      2.5742      0.0762      4.5942     25.9328    147.5968
  1343.1000      8.1205      2.5707      0.0603      4.8058     25.8787    140.9681
  1343.2000      8.1205      2.5731      0.0606      4.6592     25.2220    140.6455
  1343.3000      8.1193      2.5824      0.0866      4.0954     24.8183    148.2536
  1343.4000      8.1193      2.5956      0.0457      3.2972     25.3026    158.1462
  1343.5000      8.1184      2.6148      0.0686      2.1350     26.2176    164.4224
  1343.6000      8.1184      2.6335      0.0820      1.0009     26.7860    164.9375
  1343.7000      8.1184      2.6420      0.0735      0.4826     26.7486    159.0128
  1343.8000      8.1191      2.6471      0.0669      0.1784     26.0784    148.0705
  1343.9000      8.1191      2.6580      0.0870     -0.4834     24.9630    136.1938
  1344.0000      8.1189      2.6655      0.1055     -0.9420     24.4216    128.9519
  1344.1000      8.1189      2.6612      0.0620     -0.6809     25.0007    128.9552
  1344.2000      8.1189      2.6489      0.0906      0.0687     25.8949    129.8364
  1344.3000      8.1180      2.6311      0.0604      1.1438     26.5677    126.4127
  1344.4000      8.1180      2.6147      0.0495      2.1388     27.1388    122.9274
  1344.5000      8.1203      2.6060      0.0361      2.6684     27.4411    127.1367
  1344.6000      8.1203      2.5965      0.0495      3.2447     27.2622    138.5657
  1344.7000      8.1203      2.5764      0.0596      4.4603     26.9584    150.8643
  1344.8000      8.1250      2.5561      0.0106      5.6918     26.8188    158.4293
  1344.9000      8.1250      2.5494      0.0354      6.0999     26.8032    155.5694
  1345.0000      8.1296      2.5477      0.0693      6.2014     26.7960    148.4468
  1345.1000      8.1296      2.5403      0.0328      6.6480     26.7287    149.5246
  1345.2000      8.1296      2.5333      0.0200      7.0726     26.8119    152.7462
  1345.3000      8.1338      2.5317      0.0063      7.1695     27.4199    148.8614
  1345.4000      8.1338      2.5159      0.0536      8.1250     28.6624    142.1081
  1345.5000      8.1400      2.4520      0.0479     12.0001     30.0557    136.9370
  1345.6000      8.1400      2.3385     -0.0372     18.8801     31.3337    131.0537
  1345.7000      8.1400      2.2025     -0.0431     27.1207     32.7534    122.4621
  1345.8000      8.1476      2.0620     -0.1046     35.6350     34.1215    115.5062
  1345.9000      8.1476      1.9275     -0.1569     43.7891     34.9430    111.7542
  1346.0000      8.1542      1.8011     -0.1538     51.4499     35.1714    108.7028
  1346.1000      8.1542      1.6823     -0.1878     58.6481     35.3508    107.1179
  1346.2000      8.1542      1.5853     -0.1978     64.5300     35.6996    105.7649
  1346.3000      8.1738      1.5278     -0.1779     68.0103     35.9715     99.9298
  1346.4000      8.1738      1.5242     -0.1143     68.2326     36.1922     93.1276
  1346.5000      8.2577      1.5812     -0.0123     64.7764     36.3927     91.1861
  1346.6000      8.2577      1.6810      0.1444     58.7300     36.1962     92.6802
  1346.7000      8.2577      1.7862      0.2219     52.3507     35.3365     94.8540
  1346.8000      8.4198      1.8746      0.2466     46.9936     34.1651     99.3500
  1346.9000      8.4198      1.9460      0.2650     42.6681     33.4076    107.0673
  1347.0000      8.5171      2.0054      0.2116     39.0668     33.3090    112.9130
  1347.1000      8.5171      2.0599      0.1814     35.7658     33.5032    114.0415
  1347.2000      8.5171      2.1168      0.1693     32.3140     33.6700    115.8710
  1347.3000      8.4384      2.1790      0.1798     28.5478     33.5445    123.2800
  1347.4000      8.4384      2.2417      0.1637     24.7446     33.1948    132.1075
  1347.5000      8.3126      2.2915      0.1733     21.7274     32.9764    137.5923
  1347.6000      8.3126      2.3200      0.1247     19.9972     32.9051    139.9921
  1347.7000      8.3126      2.3434      0.0892     18.5794     32.8007    139.7099
  1347.8000      8.2663      2.3763      0.1421     16.5855     32.7607    136.7524
  1347.9000      8.2663      2.4032      0.1443     14.9560     32.7373    130.5564
  1348.0000      8.2857      2.4114      0.1363     14.4588     32.4265    124.4262
  1348.1000      8.2857      2.4193      0.1255     13.9824     31.6596    123.2502
  1348.2000      8.2857      2.4414      0.2022     12.6446     30.5520    125.6861
  1348.3000      8.3256      2.4640      0.2024     11.2745     29.7549    126.1674
  1348.4000      8.3256      2.4721      0.1799     10.7792     29.8351    125.9400
  1348.5000      8.3491      2.4632      0.1397     11.3206     30.4239    129.2068
  1348.6000      8.3491      2.4469      0.0523     12.3079     31.0079    133.7057
  1348.7000      8.3491      2.4381      0.1162     12.8438     31.2790    134.7567
  1348.8000      8.3563      2.4422      0.0925     12.5940     31.1057    131.7225
  1348.9000      8.3563      2.4617      0.1012     11.4128     31.1513    128.7923
