~Version Information
VERS.                      2.0: CWLS Log ASCII Standard - VERSION 2.0
WRAP.                       NO: One line per depth step
~Well Information Block
STRT.FT               340.0000: 
STOP.FT              1731.0000: 
STEP.FT                 0.1000: 
NULL.                -999.2500: 
COMP.          Pioneer Natural Resources: COMPANY
WELL.          Rancher 12-35 Tr: WELL
FLD.           Purgatoire River: FIELD
LOC.           2242' FNL & 308' FWL SWNW 35 32S 67W: LOCATION
PROV.                 Colorado: PROVINCE
CNTY.               Las Animas: COUNTRY
SRVC.                Patterson: SERVICE COMPANY
DATE.          Tue Jul 05 07:18:22 2005: LOG DATE
UWI.              05 071 08430 00: UNIQUE WELL ID
~Curve Information Block
DEPT.FT            0 000 00 00: Depth
DCAL.in                       : CDL Caliper
RHOB.g/cc                     : CDL Bulk Density
RHOC.g/cc                     : CDL Density Correction
DPOR.pu                       : CDL Density Porosity
GR.GAPI                       : Gamma Ray
NPOR.pu                       : Neutron Porosity
~Parameter Information Block
~A  Depth       DCAL        RHOB        RHOC        DPOR         GR         NPOR    
# ...
   436.0000      8.0778      2.5746      0.1362      4.5716     96.1425     27.3229
   436.1000      8.0778      2.5679      0.1390      4.9745     94.1564     26.6777
   436.2000      8.0778      2.5614      0.0613      5.3711     96.5543     26.3496
   436.3000      8.0660      2.5521      0.0535      5.9346     97.5882     26.3718
   436.4000      8.0660      2.5482      0.0393      6.1676     98.4995     26.5034
   436.5000      8.1134      2.5576     -0.0047      5.5971    106.5050     26.6689
   436.6000      8.1134      2.5726      0.0384      4.6891    117.0608     26.8732
   436.7000      8.1134      2.5665      0.0525      5.0624    119.2038     26.8018
   436.8000      8.1273      2.5300      0.0311      7.2743    113.5797     26.4224
   436.9000      8.1273      2.4892      0.0045      9.7451    109.1342     26.0720
   437.0000      8.1316      2.4729      0.0185     10.7357    108.1112     25.9087
   437.1000      8.1316      2.4837      0.0121     10.0793    106.1938     25.9963
   437.2000      8.1316      2.5055      0.0010      8.7594    102.7243     26.2113
   437.3000      8.1452      2.5217      0.0460      7.7762    102.3815     26.2579
   437.4000      8.1452      2.5314      0.0068      7.1897    107.6515     26.0829
   437.5000      8.1942      2.5388      0.0001      6.7417    113.9914     25.8713
   437.6000      8.1942      2.5366      0.0196      6.8715    114.7213     25.8170
   437.7000      8.1942      2.5221      0.0317      7.7518    109.7770     25.7025
   437.8000      8.1811      2.5084      0.0217      8.5828    106.4832     25.3222
   437.9000      8.1811      2.5044     -0.0126      8.8215    108.7264     24.9217
   438.0000      8.1468      2.4999      0.0170      9.0995    111.4785     24.7066
   438.1000      8.1468      2.4875     -0.0040      9.8512    111.7822     24.8031
   438.2000      8.1468      2.4852     -0.0196      9.9879    112.4238     25.1289
   438.3000      8.1166      2.5049      0.0312      8.7957    113.4306     25.1490
   438.4000      8.1166      2.5282      0.1057      7.3836    112.7526     24.6910
   438.5000      8.0880      2.5415      0.1087      6.5746    112.3061     24.2879
   438.6000      8.0880      2.5521      0.1321      5.9344    114.0918     24.3022
   438.7000      8.0880      2.5610      0.1295      5.3967    116.4997     24.6277
   438.8000      8.0889      2.5575      0.1851      5.6038    116.8370     25.1311
   438.9000      8.0889      2.5359      0.1687      6.9169    116.1023     25.7344
   439.0000      8.0060      2.5052      0.0851      8.7752    118.1853     26.2710
   439.1000      8.0060      2.4843      0.1002     10.0453    123.0121     26.5238
   439.2000      8.0060      2.4907      0.0392      9.6549    125.5458     26.3079
   439.3000      7.9832      2.5348      0.1027      6.9825    123.7197     25.7215
   439.4000      7.9832      2.5972      0.2050      3.2018    118.9783     25.1119
   439.5000      8.0104      2.6381      0.2372      0.7235    112.1356     24.7295
   439.6000      8.0104      2.6430      0.1898      0.4242    107.0621     24.6367
   439.7000      8.0104      2.6312      0.1632      1.1371    107.6395     24.7436
   439.8000      8.0380      2.6220      0.1175      1.7000    110.9422     24.7222
   439.9000      8.0380      2.6193      0.1041      1.8594    110.3461     24.4081
   440.0000      8.0368      2.6127      0.0890      2.2605    102.2074     24.0436
   440.1000      8.0368      2.5887      0.0879      3.7168     90.8781     23.9919
   440.2000      8.0368      2.5556      0.0118      5.7198     83.2343     24.1764
   440.3000      8.0455      2.5362     -0.0107      6.8961     81.4080     24.2030
   440.4000      8.0455      2.5297      0.0476      7.2883     82.2865     24.0347
   440.5000      8.0520      2.5241      0.0417      7.6292     82.4484     23.8640
   440.6000      8.0520      2.5257      0.0313      7.5324     81.6112     23.6002
   440.7000      8.0520      2.5443      0.0162      6.4086     82.2827     23.0527
   440.8000      8.0406      2.5714      0.1020      4.7631     86.3032     22.4889
   440.9000      8.0406      2.5918      0.1185      3.5258     90.5476     22.3229
   441.0000      8.0633      2.5984      0.1518      3.1277     90.7933     22.4788
   441.1000      8.0633      2.5878      0.1146      3.7714     89.0056     22.4992
   441.2000      8.0633      2.5747      0.0575      4.5657     87.5514     22.2862
   441.3000      8.0335      2.5816      0.0821      4.1426     83.4286     22.1867
   441.4000      8.0335      2.5993      0.1292      3.0708     76.3420     22.2081
   441.5000      8.0315      2.6046      0.0712      2.7506     71.8442     21.9990
   441.6000      8.0315      2.5917      0.1002      3.5340     72.4723     21.5637
   441.7000      8.0315      2.5678      0.0698      4.9806     74.0257     21.2011
   441.8000      8.0261      2.5531      0.0277      5.8705     73.2162     20.9642
   441.9000      8.0261      2.5560      0.0324      5.6984     71.9838     20.7017
   442.0000      8.0259      2.5579      0.0201      5.5804     72.0414     20.4427
   442.1000      8.0259      2.5501      0.0557      6.0528     72.6794     20.2258
   442.2000      8.0259      2.5466      0.0105      6.2674     73.2230     19.9750
   442.3000      8.0920      2.5529      0.0189      5.8823     73.9652     19.9188
   442.4000      8.0920      2.5517      0.0210      5.9569     74.1960     20.0214
   442.5000      8.1161      2.5337     -0.0051      7.0503     71.2462     19.9163
   442.6000      8.1161      2.5141     -0.0135      8.2359     64.6238     19.7640
   442.7000      8.1161      2.5030      0.0202      8.9078     60.4758     19.7954
   442.8000      8.1174      2.4937     -0.0037      9.4733     63.4443     19.6788
   442.9000      8.1174      2.4844     -0.0173     10.0386     69.2903     19.3148
   443.0000      8.1245      2.4851     -0.0453      9.9921     71.5862     19.0912
   443.1000      8.1245      2.4951     -0.0043      9.3866     70.4242     19.2400
   443.2000      8.1245      2.4970     -0.0129      9.2704     69.6815     19.5577
   443.3000      8.1201      2.4830      0.0066     10.1201     67.2476     19.6995
   443.4000      8.1201      2.4608      0.0087     11.4690     61.8139     19.7198
   443.5000      8.1036      2.4444     -0.0341     12.4621     60.0988     19.9019
   443.6000      8.1036      2.4390      0.0059     12.7871     64.5135     20.2975
   443.7000      8.1036      2.4371      0.0031     12.9032     71.8770     20.6061
   443.8000      8.0541      2.4368     -0.0026     12.9229     78.3178     20.5895
   443.9000      8.0541      2.4383     -0.0142     12.8323     78.1919     20.4429
   444.0000      8.0490      2.4431     -0.0273     12.5370     72.7145     20.2377
   444.1000      8.0490      2.4619      0.0136     11.3972     68.6309     20.2159
   444.2000      8.0490      2.4998     -0.0020      9.1034     67.7432     20.8489
   444.3000      8.0529      2.5356      0.0754      6.9337     69.1192     21.8144
   444.4000      8.0529      2.5404      0.0827      6.6411     71.6892     22.3347
   444.5000      8.0317      2.5223      0.0260      7.7420     75.0861     22.1453
   444.6000      8.0317      2.5100      0.0427      8.4845     79.8870     21.8270
   444.7000      8.0317      2.5060      0.0189      8.7294     84.5303     22.0778
   444.8000      8.0332      2.5014      0.0298      9.0068     88.8658     22.7190
   444.9000      8.0332      2.5049     -0.0008      8.7910     92.2468     23.0517
   445.0000      8.0317      2.5230     -0.0003      7.6945     92.5126     22.8587
   445.1000      8.0317      2.5398      0.0713      6.6782     89.9108     22.5772
   445.2000      8.0317      2.5392      0.0386      6.7167     86.3823     22.4512
   445.3000      8.0730      2.5247      0.0531      7.5918     84.6843     22.2388
   445.4000      8.0730      2.5047      0.0276      8.8069     84.2226     21.8360
   445.5000      8.1013      2.4871     -0.0290      9.8703     81.9349     21.6406
