~Version Information
VERS.                      2.0: CWLS Log ASCII Standard - VERSION 2.0
WRAP.                       NO: One line per depth step
~Well Information Block
STRT.FT               745.0000: 
STOP.FT              2945.7000: 
STEP.FT                 0.1000: 
NULL.                -999.2500: 
COMP.          Pioneer Natural Resources: COMPANY
WELL.          Old Yeller 31-32: WELL
FLD.           Purgatoire River: FIELD
LOC.           1832' FEL & 793' FNL--: LOCATION
STAT.                 Colorado: State
CNTY.               Las Animas: COUNTY
CTRY. USA : Country
SECT. 32 : Section
TOWN. 32S : Township
RANG. 67W : Range
SRVC.                Patterson: SERVICE COMPANY
DATE.          Mon Aug 29 11:12:35 2005: LOG DATE
API.           05 071 08356 00: UNIQUE WELL ID
~Curve Information Block
DEPT.FT            0 000 00 00: Depth
DCAL.in                       : CDL Caliper
RHOB.g/cc                     : CDL Bulk Density
RHOC.g/cc                     : CDL Density Correction
DPOR.pu                       : CDL Density Porosity
NPOR.pu                       : Neutron Porosity
GR.GAPI                       : Gamma Ray
~Parameter Information Block
~A  Depth       DCAL        RHOB        RHOC        DPOR        NPOR         GR     
# ...
  2194.6000      8.0127      2.5791      0.0190      4.2981     24.9762    103.7154
  2194.7000      8.0127      2.5658     -0.0170      5.1027     25.6628    113.1172
  2194.8000      8.0175      2.5570      0.0020      5.6338     26.2416    126.4008
  2194.9000      8.0175      2.5556      0.0268      5.7242     26.5103    136.8646
  2195.0000      8.0279      2.5409      0.0307      6.6124     26.6986    146.1927
  2195.1000      8.0279      2.5092      0.0202      8.5330     26.9880    158.1512
  2195.2000      8.0279      2.4867      0.0062      9.8953     27.2806    167.2116
  2195.3000      8.0363      2.4956     -0.0182      9.3552     27.4747    167.0918
  2195.4000      8.0363      2.5244      0.0712      7.6150     27.3198    164.0642
  2195.5000      8.0386      2.5415      0.0654      6.5786     26.7639    166.1388
  2195.6000      8.0386      2.5352      0.0332      6.9568     25.9388    169.4740
  2195.7000      8.0386      2.5162      0.0438      8.1069     25.0398    168.2448
  2195.8000      8.0387      2.5026     -0.0044      8.9307     24.3459    165.7972
  2195.9000      8.0387      2.5134      0.0110      8.2761     24.0573    163.4604
  2196.0000      8.0400      2.5409      0.0878      6.6094     24.3171    158.2713
  2196.1000      8.0400      2.5582      0.1298      5.5657     24.8373    151.9329
  2196.2000      8.0400      2.5620      0.0711      5.3335     24.9687    146.0410
  2196.3000      8.0402      2.5719      0.0248      4.7326     24.6138    139.8343
  2196.4000      8.0402      2.5950      0.1132      3.3327     24.0470    134.2685
  2196.5000      8.0394      2.6227      0.0900      1.6545     23.4189    131.8714
  2196.6000      8.0394      2.6487      0.1060      0.0802     22.9760    133.4534
  2196.7000      8.0394      2.6640      0.1069     -0.8478     22.6686    134.9133
  2196.8000      8.0391      2.6621      0.0741     -0.7353     22.2753    133.7103
  2196.9000      8.0391      2.6543      0.0723     -0.2597     22.3184    130.4716
  2197.0000      8.0360      2.6513      0.0854     -0.0804     23.0519    125.8922
  2197.1000      8.0360      2.6508      0.0582     -0.0463     23.8825    124.5528
  2197.2000      8.0360      2.6470      0.0762      0.1834     24.4290    130.0151
  2197.3000      8.0334      2.6317      0.0963      1.1063     24.5200    135.1239
  2197.4000      8.0334      2.6035      0.0414      2.8212     24.0717    131.2557
  2197.5000      8.0364      2.5739      0.0036      4.6146     23.7437    126.3196
  2197.6000      8.0364      2.5574     -0.0175      5.6129     24.3455    130.4819
  2197.7000      8.0364      2.5613      0.0229      5.3739     25.6214    137.6261
  2197.8000      8.0388      2.5747      0.0489      4.5657     26.7293    138.4692
  2197.9000      8.0388      2.5763      0.0869      4.4687     27.2476    136.5124
  2198.0000      8.0379      2.5577      0.0481      5.5931     27.3957    138.6128
  2198.1000      8.0379      2.5324      0.0316      7.1297     27.5904    140.9583
  2198.2000      8.0379      2.5151     -0.0098      8.1776     27.8734    140.5337
  2198.3000      8.0375      2.5031      0.0251      8.9001     28.0263    144.6329
  2198.4000      8.0375      2.4897      0.0044      9.7165     28.2231    153.9066
  2198.5000      8.0391      2.4817     -0.0026     10.1976     28.7613    158.2359
  2198.6000      8.0391      2.4854      0.0314      9.9772     29.2349    154.7468
  2198.7000      8.0391      2.4954      0.0290      9.3716     29.0915    147.9332
  2198.8000      8.0394      2.5126      0.0101      8.3248     28.6668    143.9531
  2198.9000      8.0394      2.5370      0.0627      6.8472     28.5362    148.7929
  2199.0000      8.0386      2.5586      0.0743      5.5398     28.5551    159.6980
  2199.1000      8.0386      2.5711      0.0970      4.7811     28.3100    167.5105
  2199.2000      8.0386      2.5768      0.0633      4.4363     27.7142    169.5745
  2199.3000      8.0380      2.5781      0.0904      4.3554     27.1470    168.9194
  2199.4000      8.0380      2.5728      0.1100      4.6818     26.9619    165.0778
  2199.5000      8.0373      2.5666      0.0972      5.0547     26.8687    157.6977
  2199.6000      8.0373      2.5730      0.0773      4.6660     26.4795    152.7932
  2199.7000      8.0373      2.5940      0.1177      3.3969     26.0263    155.2282
  2199.8000      8.0329      2.6204      0.0641      1.7941     25.8658    158.7639
  2199.9000      8.0329      2.6363      0.1539      0.8294     25.8384    156.6597
  2200.0000      8.0230      2.6309      0.0512      1.1560     25.6469    153.7823
  2200.1000      8.0230      2.6219      0.0301      1.7019     25.6684    154.3005
  2200.2000      8.0230      2.6209      0.0964      1.7619     26.0685    154.0668
  2200.3000      8.0157      2.6166      0.0645      2.0269     26.2009    151.4954
  2200.4000      8.0157      2.6103      0.0407      2.4069     25.8112    150.3632
  2200.5000      8.0141      2.6140      0.0238      2.1848     25.3189    153.6786
  2200.6000      8.0141      2.6227      0.0629      1.6555     25.1181    158.2587
  2200.7000      8.0141      2.6271      0.0126      1.3898     25.2994    158.0624
  2200.8000      8.0121      2.6275      0.0771      1.3645     25.7928    153.4252
  2200.9000      8.0121      2.6192      0.0457      1.8646     26.5595    148.0167
  2201.0000      8.0091      2.6064      0.0030      2.6405     27.2098    143.9890
  2201.1000      8.0091      2.6018      0.0265      2.9184     27.2665    140.2949
  2201.2000      8.0091      2.5989      0.0459      3.0992     26.8623    135.2238
  2201.3000      8.0086      2.5798      0.0577      4.2522     26.3573    132.0274
  2201.4000      8.0086      2.5485     -0.0286      6.1500     25.7934    135.2406
  2201.5000      8.0098      2.5305     -0.0232      7.2451     25.5010    143.9323
  2201.6000      8.0098      2.5363     -0.0055      6.8920     25.7527    148.7113
  2201.7000      8.0098      2.5541      0.0049      5.8143     26.0091    144.7616
  2201.8000      8.0107      2.5719      0.0235      4.7307     25.9342    142.5238
  2201.9000      8.0107      2.5836      0.0575      4.0212     25.7761    148.0838
  2202.0000      8.0095      2.5863      0.0282      3.8610     25.6856    153.0126
  2202.1000      8.0095      2.5874      0.0160      3.7920     25.6694    153.2219
  2202.2000      8.0095      2.5962      0.0245      3.2612     25.7799    155.4157
  2202.3000      8.0083      2.6074      0.0604      2.5842     25.8610    162.6431
  2202.4000      8.0083      2.6101      0.0803      2.4152     25.6469    168.7342
  2202.5000      8.0079      2.6033      0.0813      2.8316     25.3722    168.6871
  2202.6000      8.0079      2.5927      0.0388      3.4703     25.3274    165.7725
  2202.7000      8.0079      2.5810      0.0412      4.1832     25.3242    166.0134
  2202.8000      8.0086      2.5642      0.0558      5.2009     25.3090    170.2956
  2202.9000      8.0086      2.5497     -0.0235      6.0776     25.4205    171.9997
  2203.0000      8.0096      2.5465      0.0704      6.2751     25.5522    165.0694
  2203.1000      8.0096      2.5457      0.0525      6.3217     25.8428    155.9238
  2203.2000      8.0096      2.5507     -0.0219      6.0168     26.4217    153.7072
  2203.3000      8.0108      2.5736      0.0023      4.6326     26.7164    155.5285
  2203.4000      8.0108      2.5987      0.0731      3.1091     26.4928    156.1873
  2203.5000      8.0131      2.6033      0.0421      2.8323     26.2342    155.7457
  2203.6000      8.0131      2.5934      0.0139      3.4328     26.2860    153.6319
  2203.7000      8.0131      2.5801      0.0552      4.2360     26.7205    151.9256
  2203.8000      8.0135      2.5658     -0.0137      5.1050     27.3785    155.8401
  2203.9000      8.0135      2.5574     -0.0064      5.6137     27.9571    162.7977
  2204.0000      8.0125      2.5495      0.0646      6.0908     28.2426    164.6633
  2204.1000      8.0125      2.5387      0.0064      6.7461     28.0477    164.1120
