~Version Information
 VERS.                                  2.0 : CWLS LAS VERSION
 WRAP.                                   NO : WRAPING MODE
 SWARE .                 MController 2.5.0J : SOFTWARE VERSION
~Well Information
 WELL.                       Lavedure 7-44R : WELL
 COMP.                Petrogulf Corporation : COMPANY
 FLD.                      Purgatoire River : FIELD
 LOC.                 SE/SE Sec 7 T33S R67W : LOCATION
 DATE.                             09/23/05 : DATE(S) LOGGED
 SRVC.       BLANCO Geological Services LLC : SERVICE COMPANY
 STAT.                                   CO : STATE
 CNTY.                           Las Animas : COUNTY
 CTRY.                                  USA : COUNTRY
 API.                       05-071-08090-00 : API NUMBER
 STRT.FT                             828.00 : START DEPTH
 STOP.FT                            2020.00 : STOP DEPTH
 STEP.FT                               1.00 : DEPTH INCREMENT
 NULL.                                -9999 : NULL VALUE
~Curve information
 DEPTH.FT                                   :
 ROP.MIN/FT                                 :
 GAS.UNITS                                  :
~ASCII Log data
# ...
      1028.0         0.20          3.5 
      1029.0         0.20          3.3 
      1030.0         0.20          3.5 
      1031.0         0.23          3.2 
      1032.0         0.18          2.9 
      1033.0         0.17          3.1 
      1034.0         0.23          2.9 
      1035.0         0.27          2.9 
      1036.0         0.20          2.8 
      1037.0         0.20          2.9 
      1038.0         0.20          2.9 
      1039.0         0.27          2.8 
      1040.0         0.20          2.8 
      1041.0         0.17          2.7 
      1042.0         0.17          2.9 
      1043.0         0.17          3.1 
      1044.0         0.17          3.4 
      1045.0         0.13          3.3 
      1046.0         0.18          3.3 
      1047.0         2.67          3.0 
      1048.0         0.38          2.8 
      1049.0         0.37          2.5 
      1050.0         0.37          2.7 
      1051.0         0.23          3.0 
      1052.0         0.30          2.8 
      1053.0         0.23          2.7 
      1054.0         0.23          2.8 
      1055.0         0.17          2.8 
      1056.0         0.13          3.0 
      1057.0         0.13          2.7 
      1058.0         0.23          3.0 
      1059.0         0.20          2.8 
      1060.0         0.20          2.8 
      1061.0         0.25          2.9 
      1062.0         0.27          2.9 
      1063.0         0.23          3.0 
      1064.0         0.23          2.9 
      1065.0         0.27          2.6 
      1066.0         0.23          3.0 
      1067.0         0.23          3.1 
      1068.0         0.30          2.9 
      1069.0         0.20          2.9 
      1070.0         0.27          3.2 
      1071.0         0.23          2.9 
      1072.0         0.23          4.1 
      1073.0         0.20          4.3 
      1074.0         0.22          3.5 
      1075.0         0.17          3.1 
      1076.0         0.20          2.7 
      1077.0         1.73          3.1 
      1078.0         0.17          3.3 
      1079.0         0.30          3.0 
      1080.0         0.52          2.9 
      1081.0         0.37          3.3 
      1082.0         0.33          3.3 
      1083.0         0.30          3.0 
      1084.0         0.27          3.6 
      1085.0         0.27          3.8 
      1086.0         0.27          4.1 
      1087.0         0.23          4.2 
      1088.0         0.27          4.1 
      1089.0         0.27          4.3 
      1090.0         0.25          4.0 
      1091.0         0.30          4.1 
      1092.0         0.30          3.7 
      1093.0         0.23          3.7 
      1094.0         0.23          3.8 
      1095.0         0.23          3.6 
      1096.0         0.23          3.5 
      1097.0         0.20          3.7 
      1098.0         0.23          3.6 
      1099.0         0.23          3.6 
      1100.0         0.27          3.6 
      1101.0         0.20          3.9 
      1102.0         0.22          5.2 
      1103.0         0.17          6.4 
      1104.0         0.13          8.1 
      1105.0         0.10          9.0 
      1106.0         0.13          9.3 
      1107.0         3.38         20.0 
      1108.0         0.20          7.0 
      1109.0         0.33          6.5 
      1110.0         0.37          5.9 
      1111.0         0.30          5.2 
      1112.0         0.17          5.0 
      1113.0         0.23          5.2 
      1114.0         0.22          5.2 
      1115.0         0.20          5.5 
      1116.0         0.17          5.8 
      1117.0         0.20          5.6 
      1118.0         0.20          5.3 
      1119.0         0.23          5.2 
      1120.0         0.30          5.1 
      1121.0         0.30          4.5 
      1122.0         0.20          4.2 
      1123.0         0.23          4.2 
      1124.0         0.23          4.1 
      1125.0         0.45          4.1 
      1126.0         0.40          4.4 
      1127.0         0.20          4.2 
      1128.0         0.17          4.2 
      1129.0         0.17          4.6 
      1130.0         0.17          5.1 
      1131.0         0.10          4.7 
      1132.0         0.17          5.0 
      1133.0         0.17          5.1 
      1134.0         0.17          4.6 
      1135.0         0.20          5.0 
      1136.0         0.27          4.4 
      1137.0         3.18         18.7 
      1138.0         0.45          6.8 
      1139.0         0.33          5.0 
      1140.0         0.27          4.8 
      1141.0         0.33          4.6 
      1142.0         0.27          4.2 
      1143.0         0.23          6.1 
      1144.0         0.20          8.0 
      1145.0         0.23          8.3 
      1146.0         0.20          8.1 
      1147.0         0.23          8.4 
      1148.0         0.20          7.6 
      1149.0         0.20          7.3 
      1150.0         0.25          6.9 
      1151.0         0.20          6.4 
      1152.0         0.27          5.8 
      1153.0         0.23          5.4 
      1154.0         0.20          4.6 
      1155.0         0.20          4.6 
      1156.0         0.20          4.5 
      1157.0         0.17          4.8 
      1158.0         0.17          4.8 
      1159.0         0.23          4.7 
      1160.0         0.23          4.8 
      1161.0         0.20          5.0 
      1162.0         0.23          5.4 
      1163.0         0.40          5.5 
      1164.0         0.32          5.1 
      1165.0         0.37          5.1 
      1166.0         0.27          3.9 
      1167.0         2.88         23.2 
      1168.0         0.30          8.8 
      1169.0         0.37          7.2 
      1170.0         0.33          5.8 
      1171.0         0.53          5.3 
      1172.0         0.33          4.9 
      1173.0         0.22          4.3 
      1174.0         0.20          4.5 
      1175.0         0.20          4.2 
      1176.0         0.17          4.1 
      1177.0         0.23          4.2 
      1178.0         0.40          4.2 
      1179.0         0.23          4.0 
      1180.0         0.23          4.3 
      1181.0         0.20          3.8 
      1182.0         0.23          3.9 
      1183.0         0.23          4.2 
      1184.0         0.23          3.9 
      1185.0         0.20          4.0 
      1186.0         0.25          4.1 
      1187.0         0.23          3.9 
      1188.0         0.23          4.0 
      1189.0         0.20          3.8 
      1190.0         0.23          3.7 
      1191.0         0.20          3.9 
      1192.0         0.20          3.9 
      1193.0         0.20          3.9 
      1194.0         0.20          4.3 
      1195.0         0.17          4.1 
      1196.0         0.17          4.1 
      1197.0         3.08         24.2 
      1198.0         0.23          9.9 
      1199.0         0.33          8.3 
      1200.0         0.27          7.8 
      1201.0         0.23          7.6 
      1202.0         0.28          6.9 
      1203.0         0.30          6.3 
      1204.0         0.27          5.9 
      1205.0         0.23          5.8 
      1206.0         0.23          5.8 
      1207.0         0.20          6.0 
      1208.0         0.20          5.9 
      1209.0         0.20          5.7 
      1210.0         0.20          7.8 
      1211.0         0.10          9.9 
      1212.0         0.13         11.6 
      1213.0         0.13         14.7 
      1214.0         0.07         16.8 
      1215.0         0.10         18.1 
      1216.0         0.10         21.5 
      1217.0         0.10         23.7 
      1218.0         0.10         25.9 
      1219.0         0.10         28.3 
      1220.0         0.07         28.7 
      1221.0         0.12         30.3 
      1222.0         0.10         31.3 
      1223.0         0.10         31.7 
      1224.0         0.17         33.1 
      1225.0         0.27         36.0 
      1226.0         0.30         36.0 
      1227.0         4.05         58.7 
