~Version Information
VERS.                      2.0: CWLS Log ASCII Standard - VERSION 2.0
WRAP.                       NO: One line per depth step
~Well Information Block
STRT.FT                 3.0000: 
STOP.FT              1884.7500: 
STEP.FT                 0.2500: 
NULL.                -999.2500: 
COMP.          Pioneer Natural Resources: COMPANY
WELL.          Blackjack 32-11 Tr: WELL
FLD.           Purgatoire River: FIELD
LOC.           2066' FNL & 1453' FEL: LOCATION
PROV.                 Colorado: PROVINCE
CNTY.               Las Animas: COUNTRY
SRVC.                Patterson: SERVICE COMPANY
DATE.          Fri Aug 19 11:07:11 2005: LOG DATE
UWI.           05 071 08310 00: UNIQUE WELL ID
~Curve Information Block
DEPT.FT            0 000 00 00: Depth
CCL.                          : Casing Collar Locator
TT3.usec                      : CBL 3' Travel Time
AMP3.mV                       : CBL 3' Amplitude
GR.GAPI                       : Gamma Ray
~Parameter Information Block
~A  Depth       CCL         TT3         AMP3         GR     
# ...
   974.5000      0.0000    854.6245      8.9140    103.0462
   974.7500      0.0000    851.5779      8.9208     98.3318
   975.0000      0.0000    849.0236      8.8881     93.5051
   975.2500      0.0000    848.3666      8.7750     88.4209
   975.5000      0.0000    849.3724      8.5770     83.9386
   975.7500      0.0000    850.6066      8.3340     82.0044
   976.0000      0.0000    849.9235      8.1140     84.3900
   976.2500      0.0000    845.7814      7.9763     91.1275
   976.5000      0.0000    838.9120      7.9347    100.2860
   976.7500      0.0000    832.3389      7.9541    109.0516
   977.0000      0.0000    829.3946      7.9815    114.8224
   977.2500      0.0000    831.0782      7.9811    115.9332
   977.5000      0.0000    834.8643      7.9500    112.3740
   977.7500      0.0000    836.3218      7.9124    106.0156
   978.0000      0.0000    832.2350      7.9008     99.6391
   978.2500      0.0000    822.2319      7.9337     95.4308
   978.5000      0.0000    808.2485      8.0035     94.1436
   978.7500      0.0000    793.4420      8.0864     95.1705
   979.0000      0.0000    780.7880      8.1633     97.1941
   979.2500      0.0000    771.3519      8.2235     99.0378
   979.5000      0.0000    764.1329      8.2477    100.0638
   979.7500      0.0000    757.9958      8.2014     99.9406
   980.0000      0.0000    753.2255      8.0538     98.5061
   980.2500      0.0000    751.6909      7.8023     96.0173
   980.5000      0.0000    756.6857      7.4836     93.2617
   980.7500      0.0000    772.2719      7.1686     91.1589
   981.0000      0.0000    800.6444      6.9377     90.1767
   981.2500      0.0000    837.9518      6.8430     90.0883
   981.5000      0.0000    873.5087      6.8889     90.2312
   981.7500      0.0000    896.4125      7.0474     90.0206
   982.0000      0.0000    904.6677      7.2848     89.3737
   982.2500      0.0000    905.6710      7.5602     88.7364
   982.5000      0.0000    906.2762      7.8051     88.7461
   982.7500      0.0000    904.5867      7.9216     89.9129
   983.0000      0.0000    892.9901      7.8127     92.4431
   983.2500      0.0000    866.8434      7.4455     95.9802
   983.5000      0.0000    829.2559      6.9205     99.4530
   983.7500      0.0000    790.7252      6.4576    101.6483
   984.0000      0.0000    765.6703      6.2410    102.1452
   984.2500      0.0000    765.4559      6.2645    101.3707
   984.5000      0.0000    791.2288      6.3744     99.7587
   984.7500      0.0000    833.3709      6.4451     97.2806
   985.0000      0.0000    878.3200      6.4597     93.9490
   985.2500     -2.6907    915.8420      6.4529     90.4560
   985.5000     -3.0000    941.8770      6.4523     88.0309
   985.7500      3.0000    957.6254      6.4725     87.7650
   986.0000      0.0000    965.7264      6.5352     90.2302
   986.2500      0.0000    964.8571      6.6929     95.3585
   986.5000      0.0000    949.4434      7.0330    102.1403
   986.7500      0.0000    917.2971      7.6259    108.6243
   987.0000      0.0000    875.9370      8.4473    112.8667
   987.2500      0.0000    838.6910      9.3677    114.1639
   987.5000      0.0000    815.0695     10.2208    113.2624
   987.7500      0.0000    805.7170     10.8732    111.3164
   988.0000      0.0000    805.5018     11.2631    108.8599
   988.2500      0.0000    808.8432     11.4134    105.9312
   988.5000      0.0000    810.7064     11.4100    102.9910
   988.7500      0.0000    804.3287     11.3516    101.4609
   989.0000      0.0000    781.5209     11.3088    103.2642
   989.2500      0.0000    737.2617     11.3113    109.4244
   989.5000      0.0000    674.9719     11.3507    118.5442
   989.7500      0.0000    607.6941     11.3887    126.7833
   990.0000      0.0000    552.8782     11.3802    130.0389
   990.2500      0.0000    524.4731     11.3015    126.6627
   990.5000      0.0000    528.8919     11.1629    118.4132
   990.7500      0.0000    565.1179     10.9979    109.1729
   991.0000      0.0000    624.4041     10.8465    102.6021
   991.2500      0.0000    690.5883     10.7482    100.3371
   991.5000      0.0000    746.0142     10.7369    101.8018
   991.7500      0.0000    780.3801     10.8229    105.3042
   992.0000      0.0000    794.0726     10.9758    109.1202
   992.2500      0.0000    794.0388     11.1349    111.9785
   992.5000      0.0000    787.9789     11.2457    113.3113
   992.7500      0.0000    781.3510     11.2844    113.4194
   993.0000      0.0000    776.6404     11.2604    113.3154
   993.2500      0.0000    772.8905     11.2168    114.1054
   993.5000      0.0000    765.7169     11.2182    116.0174
   993.7500      0.0000    750.1922     11.3072    117.8072
   994.0000      0.0000    726.5847     11.4672    117.6025
   994.2500      0.0000    703.3711     11.6357    114.7975
   994.5000      0.0000    691.4208     11.7493    110.7605
   994.7500      0.0000    692.3649     11.7780    107.2674
   995.0000      0.0000    693.5408     11.7308    104.6762
   995.2500      0.0000    677.3561     11.6388    102.0525
   995.5000      0.0000    637.1827     11.5300     98.5722
   995.7500      0.0000    583.8815     11.4123     94.2789
   996.0000      0.0000    537.2164     11.2786     89.9550
   996.2500      0.0000    512.8256     11.1234     86.8341
   996.5000      0.0000    517.2615     10.9532     86.1044
   996.7500      0.0000    550.0285     10.7825     88.1007
   997.0000      0.0000    604.0588     10.6270     91.9348
   997.2500      0.0000    664.9448     10.5012     96.0936
   997.5000      0.0000    715.9456     10.4171     99.4939
   997.7500      0.0000    747.3863     10.3800    102.1205
   998.0000      0.0000    760.5001     10.3823    104.8936
   998.2500      0.0000    762.5943     10.4041    108.9002
   998.5000      0.0000    760.9304     10.4252    114.4649
   998.7500      0.0000    760.9459     10.4395    120.8614
   999.0000      0.0000    766.5021     10.4608    126.9902
   999.2500      0.0000    778.2271     10.5138    132.1249
   999.5000      0.0000    791.6845     10.6162    135.8836
   999.7500      0.0000    799.8063     10.7629    137.8384
  1000.0000      0.0000    798.6142     10.9273    137.5712
  1000.2500      0.0000    789.8839     11.0790    135.0461
  1000.5000      0.0000    778.0087     11.2005    130.6233
  1000.7500      0.0000    765.9209     11.2846    124.6432
  1001.0000      0.0000    754.9274     11.3224    117.2441
  1001.2500      0.0000    746.8312     11.3067    108.7189
  1001.5000      0.0000    744.0905     11.2550     99.9092
  1001.7500      0.0000    747.5081     11.2252     92.2040
  1002.0000      0.0000    754.7250     11.2913     87.2257
  1002.2500      0.0000    761.9799     11.4838     86.0526
  1002.5000      0.0000    767.3487     11.7412     88.1707
  1002.7500      0.0000    771.3810     11.9346     91.3895
  1003.0000      0.0000    774.5443     11.9608     93.2630
  1003.2500      0.0000    775.4802     11.8118     92.5984
  1003.5000      0.0000    772.7566     11.5573     89.7259
  1003.7500      0.0000    767.7226     11.2826     85.9502
  1004.0000      0.0000    764.7184     11.0513     82.9601
  1004.2500      0.0000    767.6783     10.8994     82.0831
  1004.5000      0.0000    775.9927     10.8322     83.6093
  1004.7500      0.0000    784.3553     10.8300     86.9965
  1005.0000      0.0000    787.6339     10.8650     91.7028
  1005.2500      0.0000    785.2702     10.9165     97.5027
  1005.5000      0.0000    780.3767     10.9716    104.1672
  1005.7500      0.0000    776.2098     11.0168    111.2255
  1006.0000      0.0000    774.7703     11.0341    117.8445
  1006.2500      0.0000    776.5927     11.0078    122.6502
  1006.5000      0.0000    779.6742     10.9361    124.1143
  1006.7500      0.0000    779.9543     10.8351    121.8556
  1007.0000      0.0000    774.8107     10.7281    117.5727
  1007.2500      0.0000    765.7086     10.6278    114.1944
  1007.5000      0.0000    756.5248     10.5315    113.8543
  1007.7500      0.0000    749.9081     10.4356    116.6827
