~Version Information
VERS.                      2.0: CWLS Log ASCII Standard - VERSION 2.0
WRAP.                       NO: One line per depth step
~Well Information Block
STRT.FT               710.0000: 
STOP.FT              2921.0000: 
STEP.FT                 0.1000: 
NULL.                -999.2500: 
COMP.          Petrogulf Corporation: COMPANY
WELL.            Montoya 1-41V: WELL
FLD.           Purgatorie River: FIELD
LOC.           610' FNL & 1205' FEL: LOCATION
PROV.                 Colorado: PROVINCE
CNTY.               Las Animas: COUNTRY
SRVC.                Patterson: SERVICE COMPANY
DATE.          Mon Aug 22 07:54:27 2005: LOG DATE
UWI.                          : UNIQUE WELL ID
~Curve Information Block
DEPT.FT            0 000 00 00: Depth
DCAL.in                       : CDL Caliper
RHOB.g/cc                     : CDL Bulk Density
RHOC.g/cc                     : CDL Density Correction
DPOR.pu                       : CDL Density Porosity
GR.GAPI                       : Gamma Ray
NPOR.pu                       : Neutron Porosity
~Parameter Information Block
~A  Depth       DCAL        RHOB        RHOC        DPOR         GR         NPOR    
# ...
  1007.6000      8.4394      2.5088      0.0774      8.5596    134.1056     25.4146
  1007.7000      8.4394      2.5084      0.0992      8.5835    135.7055     25.3434
  1007.8000      8.4501      2.5041      0.0639      8.8429    137.3082     25.0845
  1007.9000      8.4501      2.5035      0.0471      8.8778    138.0973     24.7707
  1008.0000      8.4370      2.5131      0.0822      8.2957    135.5235     24.6849
  1008.1000      8.4370      2.5295      0.0823      7.3040    132.1840     24.8057
  1008.2000      8.4370      2.5426      0.1142      6.5084    132.8970     25.0312
  1008.3000      8.4315      2.5422      0.0737      6.5354    136.2472     25.4084
  1008.4000      8.4315      2.5324      0.0797      7.1300    137.3760     25.8515
  1008.5000      8.4248      2.5288      0.0685      7.3442    136.1984     26.1624
  1008.6000      8.4248      2.5402      0.0702      6.6531    135.7139     26.2957
  1008.7000      8.4248      2.5558      0.1010      5.7068    135.2644     26.3240
  1008.8000      8.4262      2.5632      0.0681      5.2597    133.6698     26.3313
  1008.9000      8.4262      2.5624      0.1024      5.3108    131.5347     26.1994
  1009.0000      8.4330      2.5545      0.0680      5.7883    128.3630     25.7864
  1009.1000      8.4330      2.5423      0.0436      6.5285    124.1922     25.2539
  1009.2000      8.4330      2.5231      0.0493      7.6931    121.8307     24.8040
  1009.3000      8.4248      2.4823      0.0564     10.1625    123.0931     24.3844
  1009.4000      8.4248      2.4166      0.0468     14.1481    127.7160     23.8057
  1009.5000      8.4227      2.3541     -0.0064     17.9343    135.2030     23.0945
  1009.6000      8.4227      2.3295     -0.0015     19.4246    142.3154     22.4128
  1009.7000      8.4227      2.3398      0.0595     18.8023    145.6922     21.9461
  1009.8000      8.4265      2.3563      0.0747     17.7993    148.6441     21.9111
  1009.9000      8.4265      2.3693      0.0442     17.0115    154.3607     22.4795
  1010.0000      8.4324      2.3854      0.0962     16.0376    159.3334     23.7345
  1010.1000      8.4324      2.4124      0.0942     14.4019    162.4963     25.3160
  1010.2000      8.4324      2.4628      0.1570     11.3449    166.3323     26.4480
  1010.3000      8.4760      2.5323      0.2210      7.1316    170.5136     26.8918
  1010.4000      8.4760      2.5935      0.2033      3.4272    174.8820     27.2389
  1010.5000      8.5089      2.6281      0.2398      1.3268    179.9323     27.8118
  1010.6000      8.5089      2.6429      0.1325      0.4319    182.8554     28.1796
  1010.7000      8.5089      2.6541      0.1354     -0.2478    179.9850     28.1476
  1010.8000      8.4823      2.6627      0.1360     -0.7670    172.8778     28.0062
  1010.9000      8.4823      2.6622      0.1162     -0.7378    166.6889     27.8490
  1011.0000      8.4644      2.6554      0.0956     -0.3246    165.7978     27.6518
  1011.1000      8.4644      2.6452      0.1072      0.2883    170.7311     27.5403
  1011.2000      8.4644      2.6275      0.0583      1.3649    176.3107     27.3992
  1011.3000      8.4668      2.6021      0.0668      2.9039    177.9356     26.9754
  1011.4000      8.4668      2.5835      0.0365      4.0302    176.2899     26.2846
  1011.5000      8.4819      2.5827      0.0574      4.0804    173.7287     25.7063
  1011.6000      8.4819      2.5919      0.0324      3.5217    170.9538     25.5343
  1011.7000      8.4819      2.6002      0.0594      3.0167    168.9417     25.5388
  1011.8000      8.4976      2.6010      0.1084      2.9715    168.8309     25.5209
  1011.9000      8.4976      2.5966      0.0863      3.2359    168.5651     25.5874
  1012.0000      8.5176      2.6021      0.0640      2.9030    165.0047     25.7897
  1012.1000      8.5176      2.6142      0.1213      2.1727    158.8302     26.0329
  1012.2000      8.5176      2.6118      0.0831      2.3163    153.5046     26.3585
  1012.3000      8.5333      2.6040      0.0158      2.7869    151.6338     26.9784
  1012.4000      8.5333      2.6127      0.0662      2.2635    152.2276     27.8373
  1012.5000      8.4937      2.6304      0.0769      1.1857    152.8877     28.5647
  1012.6000      8.4937      2.6419      0.0824      0.4885    154.0238     28.9230
  1012.7000      8.4937      2.6401      0.1140      0.5985    155.4644     28.9259
  1012.8000      8.5039      2.6214      0.0876      1.7340    155.0370     28.5824
  1012.9000      8.5039      2.5916      0.0733      3.5365    151.0666     27.9385
  1013.0000      8.4975      2.5644      0.0247      5.1901    146.2682     27.2417
  1013.1000      8.4975      2.5529      0.0103      5.8832    146.8071     26.7039
  1013.2000      8.4975      2.5605      0.0527      5.4224    153.2432     26.4578
  1013.3000      8.4825      2.5744      0.0532      4.5824    160.3903     26.4452
  1013.4000      8.4825      2.5766      0.0957      4.4502    164.9681     26.3543
  1013.5000      8.4937      2.5660      0.0493      5.0926    166.0719     26.1141
  1013.6000      8.4937      2.5648      0.0311      5.1608    165.8988     25.9575
  1013.7000      8.4937      2.5831      0.1123      4.0548    166.5481     26.0269
  1013.8000      8.5068      2.6003      0.1279      3.0131    166.8231     26.1672
  1013.9000      8.5068      2.6041      0.1201      2.7820    166.1325     26.2911
  1014.0000      8.5052      2.6020      0.1200      2.9075    165.3405     26.3853
  1014.1000      8.5052      2.6010      0.0741      2.9719    164.0689     26.3816
  1014.2000      8.5052      2.6085      0.0857      2.5121    162.7354     26.5928
  1014.3000      8.5052      2.6264      0.0998      1.4305    163.1925     27.0683
  1014.4000      8.5052      2.6422      0.1154      0.4724    164.7097     27.3302
  1014.5000      8.5395      2.6515      0.0948     -0.0896    165.1382     27.3658
  1014.6000      8.5395      2.6664      0.1086     -0.9955    161.2272     27.4004
  1014.7000      8.5395      2.6912      0.1441     -2.4983    151.7537     27.3690
  1014.8000      8.5621      2.7153      0.1395     -3.9564    143.6356     27.2963
  1014.9000      8.5621      2.7280      0.1277     -4.7282    141.5428     27.3030
  1015.0000      8.5111      2.7233      0.1644     -4.4408    141.2836     27.2880
  1015.1000      8.5111      2.7048      0.1042     -3.3233    139.9242     27.0375
  1015.2000      8.5111      2.6876      0.0921     -2.2787    138.2570     26.5188
  1015.3000      8.4639      2.6763      0.0986     -1.5956    136.7320     25.8458
  1015.4000      8.4639      2.6634      0.0776     -0.8123    135.3767     25.1331
  1015.5000      8.4722      2.6438      0.0844      0.3785    133.3743     24.4095
  1015.6000      8.4722      2.6170      0.0797      2.0004    130.3516     23.7532
  1015.7000      8.4722      2.5885      0.0514      3.7265    127.1200     23.3343
  1015.8000      8.4344      2.5653      0.0470      5.1355    123.4273     23.0762
  1015.9000      8.4344      2.5479      0.0398      6.1861    118.4886     22.7243
  1016.0000      8.4293      2.5383      0.0231      6.7718    112.2921     22.1958
  1016.1000      8.4293      2.5387      0.0453      6.7468    106.5553     21.5792
  1016.2000      8.4293      2.5380      0.0687      6.7858    103.1255     20.9967
  1016.3000      8.4218      2.5243      0.0224      7.6192    100.6554     20.4230
  1016.4000      8.4218      2.5045      0.0446      8.8206     97.5427     19.8411
  1016.5000      8.4135      2.4951      0.0054      9.3906     94.7681     19.4477
  1016.6000      8.4135      2.5035      0.0371      8.8811     94.6816     19.3491
  1016.7000      8.4135      2.5191      0.0720      7.9358     96.0827     19.4003
  1016.8000      8.4154      2.5276      0.0596      7.4172     96.4188     19.3324
  1016.9000      8.4154      2.5227      0.0780      7.7139     95.7329     18.9089
  1017.0000      8.4187      2.5025      0.0737      8.9377     92.6479     18.3737
  1017.1000      8.4187      2.4778      0.0555     10.4363     88.5630     18.1961
