~Version Information
VERS.                      2.0: CWLS Log ASCII Standard - VERSION 2.0
WRAP.                       NO: One line per depth step
~Well Information Block
STRT.FT                -4.2500: 
STOP.FT              2218.5000: 
STEP.FT                 0.2500: 
NULL.                -999.2500: 
COMP.          Pioneer Natural Resources: COMPANY
WELL.             Warrior 32-1: WELL
FLD.           Purgatorie River: FIELD
LOC.           2624' FNL & 2392' FEL--: LOCATION
PROV.                       CO: PROVINCE
CNTY.               Las Animas: COUNTRY
SRVC.                         : SERVICE COMPANY
DATE.          Tue Oct 12 10:54:12 2004: LOG DATE
UWI.           005 071 08176 : UNIQUE WELL ID
~Curve Information Block
DEPT.FT            0 000 00 00: Depth
GR.GAPI                       : Gamma Ray
CCL.                          : Casing Collar Locator
TT3.usec                      : CBL 3' Travel Time
AMP3.mV                       : CBL 3' Amplitude
~Parameter Information Block
~A  Depth        GR         CCL         TT3         AMP3    
# ...
  2039.2500     70.5139      0.0000    566.8001      5.5670
  2039.5000     73.3612      0.0000    560.2810      5.5559
  2039.7500     75.7012      0.0000    558.1335      5.5146
  2040.0000     75.9138      0.0000    555.7853      5.4451
  2040.2500     73.6154      0.0000    549.8228      5.3637
  2040.5000     70.0046      0.0000    538.8854      5.2984
  2040.7500     67.1728      0.0000    524.0537      5.2723
  2041.0000     66.7294      0.0000    508.6918      5.2806
  2041.2500     68.6981      0.0000    496.4243      5.2952
  2041.5000     71.6217      0.0000    488.7643      5.2967
  2041.7500     73.9004      0.0000    485.0614      5.2954
  2042.0000     74.9844      0.0000    484.3477      5.3117
  2042.2500     75.0390      0.0000    486.9579      5.3444
  2042.5000     73.9561      0.0000    494.5586      5.3650
  2042.7500     71.5387      0.0000    508.1755      5.3445
  2043.0000     68.4370      0.0000    525.2686      5.2819
  2043.2500     65.9601      0.0000    539.5277      5.2070
  2043.5000     64.8658      0.0000    545.4609      5.1580
  2043.7500     64.8754      0.0000    543.2125      5.1531
  2044.0000     65.4732      0.0000    537.4753      5.1818
  2044.2500     66.8415      0.0000    533.1100      5.2145
  2044.5000     69.7590      0.0000    534.4777      5.2166
  2044.7500     74.5876      0.0000    546.9214      5.1633
  2045.0000     80.5432      0.0000    573.3709      5.0534
  2045.2500     86.1262      0.0000    608.1036      4.9103
  2045.5000     90.3072      0.0000    637.0850      4.7666
  2045.7500     93.2735      0.0000    646.6442      4.6428
  2046.0000     95.9790      0.0000    632.7663      4.5377
  2046.2500     98.9670      0.0000    604.6992      4.4302
  2046.5000    101.7010      0.0000    580.8053      4.2951
  2046.7500    102.8927      0.0000    577.0687      4.1296
  2047.0000    101.4742      0.0000    595.7266      3.9676
  2047.2500     97.6314      0.0000    625.1785      3.8573
  2047.5000     93.0222      0.0000    651.1694      3.8260
  2047.7500     89.4982      0.0000    667.1615      3.8763
  2048.0000     87.3961      0.0000    675.3128      4.0063
  2048.2500     85.5138      0.0000    680.9155      4.2064
  2048.5000     82.8983      0.0000    687.3332      4.4366
  2048.7500     79.9784      0.0000    694.9909      4.6243
  2049.0000     77.7763      0.0000    702.8862      4.6945
  2049.2500     76.8879      0.0000    709.6335      4.6082
  2049.5000     77.5445      0.0000    713.5704      4.3888
  2049.7500     79.8500      0.0000    713.4232      4.1195
  2050.0000     83.5021      0.0000    709.4599      3.9003
  2050.2500     87.7300      0.0000    703.3510      3.7902
  2050.5000     91.9048      0.0000    696.7579      3.7905
  2050.7500     95.9953      0.0000    690.6696      3.8716
  2051.0000    100.1137      0.0000    686.1016      3.9985
  2051.2500    103.7274      0.0000    684.3359      4.1335
  2051.5000    105.8184      0.0000    685.5263      4.2429
  2051.7500    106.0368      0.0000    687.1990      4.3106
  2052.0000    105.3807      0.0000    684.2714      4.3391
  2052.2500    105.3536      0.0000    670.5988      4.3293
  2052.5000    106.4637      0.0000    642.1896      4.2673
  2052.7500    107.8260      0.0000    602.1318      4.1316
  2053.0000    108.2630      0.0000    563.1890      3.9177
  2053.2500    107.3903      0.0000    542.4468      3.6636
  2053.5000    105.4585      0.0000    549.9121      3.4513
  2053.7500    102.6716      0.0000    581.3041      3.3703
  2054.0000     99.1554      0.0000    621.5511      3.4598
  2054.2500     95.3003      0.0000    654.7786      3.6776
  2054.5000     91.5982      0.0000    671.9363      3.9316
  2054.7500     88.2466      0.0000    671.9385      4.1577
  2055.0000     85.1083      0.0000    658.4137      4.3692
  2055.2500     81.8536      0.0000    636.8040      4.6138
  2055.5000     78.1495      0.0000    613.9554      4.8887
  2055.7500     74.0533     -2.0000    597.8365      5.1158
  2056.0000     70.2899     -2.0000    594.0646      5.1985
  2056.2500     67.9725      0.0000    601.0607      5.0932
  2056.5000     67.9294      0.0000    610.4828      4.8468
  2056.7500     70.1900      0.0000    614.8871      4.5827
  2057.0000     73.9051      0.0000    613.6462      4.4249
  2057.2500     77.5855      0.0000    609.0139      4.4075
  2057.5000     79.5253      0.0000    598.8807      4.4712
  2057.7500     78.6821      0.0000    578.2062      4.5665
  2058.0000     75.8613      0.0000    548.4842      4.7254
  2058.2500     73.8028      0.0000    523.0098      5.0009
  2058.5000     75.3753      0.0000    519.3041      5.3734
  2058.7500     81.4597      0.0000    544.2322      5.7570
  2059.0000     90.2644      0.0000    586.2518      6.0730
  2059.2500     98.0865      0.0000    623.7266      6.2940
  2059.5000    101.0994      0.0000    641.9263      6.4358
  2059.7500     97.6141      0.0000    642.5061      6.5270
  2060.0000     89.0633      0.0000    637.7839      6.5835
  2060.2500     78.5678      0.0000    638.0250      6.6010
  2060.5000     68.6912      0.0000    645.0769      6.5689
  2060.7500     60.5994      0.0000    655.5883      6.4886
  2061.0000     54.6099      0.0000    666.3669      6.3785
  2061.2500     50.8417      0.0000    676.0186      6.2648
  2061.5000     49.3547      0.0000    684.0742      6.1693
  2061.7500     50.0944      0.0000    690.2371      6.1013
  2062.0000     53.0015      0.0000    694.3633      6.0556
  2062.2500     58.0391      0.0000    696.5146      6.0151
  2062.5000     64.9380      0.0000    696.5038      5.9576
  2062.7500     73.0995      0.0000    692.8914      5.8680
  2063.0000     81.7545      0.0000    682.2910      5.7511
  2063.2500     89.8305      0.0000    660.9111      5.6292
  2063.5000     95.8124      0.0000    628.8048      5.5247
  2063.7500     98.5333      0.0000    593.3664      5.4476
  2064.0000     98.2470      0.0000    566.8292      5.4017
  2064.2500     96.4472      0.0000    557.9271      5.3976
  2064.5000     94.7459      0.0000    564.5734      5.4482
  2064.7500     94.2052      0.0000    574.0866      5.5485
  2065.0000     95.1627      0.0000    571.7443      5.6612
  2065.2500     97.0466      0.0000    552.1364      5.7283
  2065.5000     98.6276      0.0000    524.5601      5.7014
  2065.7500     98.9839      0.0000    507.4097      5.5682
  2066.0000     98.2109      0.0000    515.7368      5.3618
  2066.2500     97.1038      0.0000    551.5519      5.1565
  2066.5000     96.2471      0.0000    603.3706      5.0489
  2066.7500     95.3347      0.0000    654.3758      5.1133
  2067.0000     93.1896      0.0000    692.6577      5.3547
  2067.2500     88.6474      0.0000    716.0283      5.7023
  2067.5000     81.9703      0.0000    729.2620      6.0548
  2067.7500     75.4524      0.0000    737.9623      6.3351
  2068.0000     72.0284      0.0000    744.5261      6.5102
  2068.2500     72.9286      0.0000    748.4556      6.5721
  2068.5000     76.7891      0.0000    749.0580      6.5149
  2068.7500     81.1193      0.0000    747.1497      6.3467
  2069.0000     84.6013      0.0000    744.4894      6.1211
  2069.2500     87.9122      0.0000    742.3835      5.9338
  2069.5000     92.1760      0.0000    741.1299      5.8629
  2069.7500     96.8374      0.0000    740.2385      5.9102
  2070.0000     99.7123      0.0000    738.6148      6.0076
  2070.2500     99.3896      0.0000    734.5626      6.0809
  2070.5000     96.9263      0.0000    726.2946      6.1052
  2070.7500     94.6955      0.0000    713.5650      6.1050
  2071.0000     93.9625      0.0000    699.3210      6.1129
  2071.2500     93.9449      0.0000    688.8238      6.1385
  2071.5000     92.7691      0.0000    685.5333      6.1751
  2071.7500     88.9566      0.0000    687.5654      6.2202
  2072.0000     82.4045      0.0000    688.8467      6.2794
  2072.2500     74.3671      0.0000    683.9609      6.3553
  2072.5000     66.4579      0.0000    672.5195      6.4451
