~Version Information
VERS.                      2.0: CWLS Log ASCII Standard - VERSION 2.0
WRAP.                       NO: One line per depth step
~Well Information Block
STRT.FT               580.0000: 
STOP.FT              1756.7500: 
STEP.FT                 0.2500: 
NULL.                -999.2500: 
COMP.          Pioneer Natural Resources: COMPANY
WELL.          Lookout Point 31-23 Tr: WELL
FLD.           Purgatoire River: FIELD
LOC.           541' FNL & 1786' FEL: LOCATION
PROV.                 Colorado: PROVINCE
CNTY.               Las Animas: COUNTRY
SRVC.                Patterson: SERVICE COMPANY
DATE.          Sun Jan 23 04:14:25 2005: LOG DATE
UWI.           05 071 08260 00: UNIQUE WELL ID
~Curve Information Block
DEPT.FT            0 000 00 00: Depth
DIR.Ohm-m                     : IEL Induction Resistivity
GR.GAPI                       : Gamma Ray
SN.Ohm-m                      : IEL Short Normal
SP.mV                         : IEL Spontaneous Potential
~Parameter Information Block
~A  Depth       DIR          GR          SN          SP     
# ...
  1250.0000      9.5462    138.8379     11.0583    136.3276
  1250.2500      9.3209    141.3036     10.9950    135.7628
  1250.5000      9.1403    144.1622     10.9698    135.1374
  1250.7500      9.0289    145.1901     10.9994    134.5005
  1251.0000      9.0045    145.1873     11.0854    133.8741
  1251.2500      9.0773    143.8775     11.1988    133.2597
  1251.5000      9.2504    138.6734     11.2992    132.6560
  1251.7500      9.5197    132.2152     11.3720    132.0764
  1252.0000      9.8729    118.1457     11.4460    131.5555
  1252.2500     10.2881    107.2797     11.5819    131.1398
  1252.5000     10.7349     92.5353     11.8638    130.8688
  1252.7500     11.1810     85.6309     12.3995    130.7528
  1253.0000     11.6016     81.1655     13.2864    130.7590
  1253.2500     11.9849     82.0565     14.5319    130.8126
  1253.5000     12.3285     87.8662     16.0023    130.8146
  1253.7500     12.6318     93.3120     17.4657    130.6723
  1254.0000     12.8920    100.9518     18.6998    130.3316
  1254.2500     13.1072    104.3192     19.5681    129.7969
  1254.5000     13.2791    105.5119     20.0187    129.1317
  1254.7500     13.4097    103.5147     20.0475    128.4398
  1255.0000     13.4959     96.7543     19.6865    127.8390
  1255.2500     13.5303     90.6402     19.0227    127.4367
  1255.5000     13.5093     81.8844     18.2120    127.3127
  1255.7500     13.4405     78.3537     17.4467    127.5079
  1256.0000     13.3412     79.2113     16.8795    128.0181
  1256.2500     13.2264     84.2943     16.5477    128.7923
  1256.5000     13.0981     97.3540     16.3613    129.7409
  1256.7500     12.9435    108.2477     16.1737    130.7536
  1257.0000     12.7434    124.9361     15.8807    131.7238
  1257.2500     12.4852    134.4452     15.4738    132.5719
  1257.5000     12.1706    143.9604     15.0178    133.2617
  1257.7500     11.8156    147.0788     14.5906    133.8014
  1258.0000     11.4445    148.8770     14.2413    134.2324
  1258.2500     11.0835    149.3279     13.9820    134.6082
  1258.5000     10.7564    149.1568     13.8022    134.9730
  1258.7500     10.4825    147.9395     13.6848    135.3462
  1259.0000     10.2745    144.3108     13.6185    135.7174
  1259.2500     10.1379    141.4452     13.6019    136.0513
  1259.5000     10.0712    137.8862     13.6416    136.2973
  1259.7500     10.0692    136.1980     13.7454    136.4019
  1260.0000     10.1280    134.3225     13.9190    136.3171
  1260.2500     10.2491    133.3416     14.1689    136.0066
  1260.5000     10.4420    131.7748     14.5059    135.4504
  1260.7500     10.7205    129.8706     14.9417    134.6466
  1261.0000     11.0962    123.8109     15.4855    133.6135
  1261.2500     11.5728    116.9393     16.1457    132.3883
  1261.5000     12.1459    103.1022     16.9353    131.0237
  1261.7500     12.8097     93.0258     17.8845    129.5830
  1262.0000     13.5636     79.7338     19.0499    128.1366
  1262.2500     14.4142     73.4516     20.4969    126.7608
  1262.5000     15.3684     68.9600     22.2399    125.5365
  1262.7500     16.4216     69.1915     24.1771    124.5420
  1263.0000     17.5436     73.2478     26.0792    123.8405
  1263.2500     18.6649     77.2438     27.6530    123.4670
  1263.5000     19.6732     82.7714     28.6464    123.4230
  1263.7500     20.4298     85.0828     28.9293    123.6817
  1264.0000     20.8054     86.2602     28.5153    124.2000
  1264.2500     20.7251     86.3659     27.5313    124.9289
  1264.5000     20.1977     87.7174     26.1676    125.8174
  1264.7500     19.3124     90.5510     24.6259    126.8121
  1265.0000     18.2048     98.6869     23.0706    127.8604
  1265.2500     17.0147    106.5180     21.5997    128.9180
  1265.5000     15.8578    120.1762     20.2475    129.9597
  1265.7500     14.8139    128.9982     19.0131    130.9785
  1266.0000     13.9275    139.1864     17.8901    131.9704
  1266.2500     13.2143    143.0541     16.8807    132.9056
  1266.5000     12.6713    144.5573     15.9936    133.7050
  1266.7500     12.2857    143.5327     15.2384    134.2432
  1267.0000     12.0429    140.6396     14.6294    134.3833
  1267.2500     11.9309    138.2113     14.1954    134.0315
  1267.5000     11.9443    133.0707     13.9870    133.1822
  1267.7500     12.0854    127.9217     14.0721    131.9312
  1268.0000     12.3618    117.4129     14.5157    130.4527
  1268.2500     12.7796    109.3707     15.3468    128.9552
  1268.5000     13.3378     98.1078     16.5252    127.6334
  1268.7500     14.0236     92.4040     17.9331    126.6282
  1269.0000     14.8142     87.5228     19.4112    125.9989
  1269.2500     15.6827     86.3559     20.8201    125.7113
  1269.5000     16.6051     85.9571     22.0823    125.6487
  1269.7500     17.5659     85.5136     23.1744    125.6467
  1270.0000     18.5547     83.7762     24.0920    125.5450
  1270.2500     19.5499     82.1709     24.8285    125.2385
  1270.5000     20.4960     80.1062     25.3818    124.7072
  1270.7500     21.2956     79.3799     25.7675    124.0172
  1271.0000     21.8475     79.3799     26.0174    123.2943
  1271.2500     22.1146     80.0308     26.1633    122.6839
  1271.5000     22.1567     82.0615     26.2231    122.3110
  1271.7500     22.0859     84.2194     26.1989    122.2525
  1272.0000     21.9912     88.6059     26.0856    122.5234
  1272.2500     21.9029     92.1367     25.8857    123.0795
  1272.5000     21.8084     98.0534     25.6189    123.8308
  1272.7500     21.6889    102.2080     25.3206    124.6627
  1273.0000     21.5440    108.1078     25.0290    125.4589
  1273.2500     21.3899    111.1924     24.7752    126.1202
  1273.5000     21.2463    113.3835     24.5864    126.5773
  1273.7500     21.1289    112.9089     24.4896    126.7973
  1274.0000     21.0529    109.8215     24.5026    126.7847
  1274.2500     21.0367    106.8354     24.6193    126.5778
  1274.5000     21.0972    101.8168     24.8083    126.2380
  1274.7500     21.2390     98.3053     25.0328    125.8362
  1275.0000     21.4505     93.1055     25.2766    125.4384
  1275.2500     21.7104     90.1204     25.5489    125.0979
  1275.5000     21.9981     87.1678     25.8612    124.8544
  1275.7500     22.2979     86.2579     26.1977    124.7371
  1276.0000     22.5897     85.7154     26.5133    124.7633
  1276.2500     22.8388     85.4229     26.7700    124.9309
  1276.5000     23.0016     84.9694     26.9799    125.2111
  1276.7500     23.0530     85.0349     27.2051    125.5488
  1277.0000     23.0116     86.5595     27.5003    125.8782
  1277.2500     22.9350     88.5950     27.8548    126.1454
  1277.5000     22.8877     91.5225     28.1941    126.3279
  1277.7500     22.9055     91.6473     28.4286    126.4387
  1278.0000     22.9812     87.0192     28.4997    126.5178
  1278.2500     23.0739     81.1323     28.3995    126.6185
  1278.5000     23.1326     71.2138     28.1725    126.7975
  1278.7500     23.1200     65.8947     27.9012    127.1105
  1279.0000     23.0247     61.7692     27.6688    127.6059
  1279.2500     22.8569     61.6048     27.5147    128.3127
  1279.5000     22.6316     64.1970     27.4149    129.2249
  1279.7500     22.3546     67.1898     27.3011    130.2934
  1280.0000     22.0217     73.1134     27.1050    131.4334
  1280.2500     21.6357     78.0362     26.7945    132.5485
  1280.5000     21.2216     86.7834     26.3791    133.5575
  1280.7500     20.8243     93.0940     25.8890    134.4108
  1281.0000     20.4876    101.7517     25.3466    135.0861
  1281.2500     20.2345    105.8204     24.7577    135.5708
  1281.5000     20.0649    107.8167     24.1273    135.8463
  1281.7500     19.9695    106.3625     23.4858    135.8875
  1282.0000     19.9469    101.7117     22.9036    135.6809
  1282.2500     20.0104     98.4297     22.4785    135.2485
  1282.5000     20.1813     94.8886     22.2965    134.6625
  1282.7500     20.4721     93.4913     22.3832    134.0396
  1283.0000     20.8704     91.9116     22.6752    133.5134
  1283.2500     21.3333     90.7086     23.0368    133.1990
