~Version Information
VERS.                      2.0: CWLS Log ASCII Standard - VERSION 2.0
WRAP.                       NO: One line per depth step
~Well Information Block
STRT.FT                 0.0000: 
STOP.FT              2159.0000: 
STEP.FT                 0.2500: 
NULL.                -999.2500: 
COMP.          Petrogulf Corporation: COMPANY
WELL.               Furu 6-23R: WELL
FLD.           Purgatoire River: FIELD
LOC.           2211' FSL & 1780' FWL: LOCATION
CNTY.               Las Animas: COUNTY
SRVC.                         : SERVICE COMPANY
DATE.          Fri Jul 14 16:00:32 2006: LOG DATE
UWI.           05 071 08266 00: UNIQUE WELL ID
STAT.                       CO: STATE
~Curve Information Block
DEPT.FT            0 000 00 00: Depth
GR.GAPI                       : Gamma Ray
CCL.                          : Casing Collar Locator
TT3.usec                      : CBL 3' Travel Time
AMP3.mV                       : CBL 3' Amplitude
~Parameter Information Block
~A  Depth        GR         CCL         TT3         AMP3    
# ...
   569.5000     72.4078      0.0000    256.8481     84.2760
   569.7500     73.0463      0.0000    256.8505     84.4968
   570.0000     73.9920      0.0000    256.8475     84.7091
   570.2500     74.8796      0.0000    256.8522     84.8786
   570.5000     75.3266      0.0000    256.8716     84.9915
   570.7500     74.7157      0.0000    256.9026     85.0542
   571.0000     72.7566      0.0000    256.9363     85.0881
   571.2500     70.0354      0.0000    256.9621     85.1220
   571.5000     67.6363      0.0000    256.9682     85.1818
   571.7500     66.6031      0.0000    256.9464     85.2812
   572.0000     68.1423      0.0000    256.8976     85.4150
   572.2500     73.6960      0.0000    256.8302     85.5599
   572.5000     84.0779      0.0000    256.7557     85.6832
   572.7500     98.9932      0.0000    256.6884     85.7567
   573.0000    117.9088      0.0000    256.6483     85.7701
   573.2500    140.5541      0.0000    256.6529     85.7357
   573.5000    165.4760      0.0000    256.6980     85.6809
   573.7500    188.5277      0.0000    256.7542     85.6348
   574.0000    204.0502      0.0000    256.7899     85.6149
   574.2500    208.1583      0.0000    256.7956     85.6223
   574.5000    201.0661      0.0000    256.7833     85.6461
   574.7500    186.7562      0.0000    256.7686     85.6738
   575.0000    170.6940      0.0000    256.7617     85.6994
   575.2500    157.2883      0.0000    256.7664     85.7254
   575.5000    148.4232      0.0000    256.7796     85.7592
   575.7500    143.4769      0.0000    256.7926     85.8065
   576.0000    140.5564      0.0000    256.7989     85.8652
   576.2500    138.2847      0.0000    256.7990     85.9239
   576.5000    136.7981      0.0000    256.7990     85.9652
   576.7500    137.0725      0.0000    256.8060     85.9723
   577.0000    139.8019      0.0000    256.8244     85.9359
   577.2500    145.6682      0.0000    256.8517     85.8569
   577.5000    156.1009      0.0000    256.8779     85.7424
   577.7500    171.9411      0.0000    256.8948     85.5986
   578.0000    190.7929      0.0000    256.9066     85.4279
   578.2500    207.2442      0.0000    256.9286     85.2333
   578.5000    216.7820      0.0000    256.9727     85.0268
   578.7500    218.7718      0.0000    257.0341     84.8326
   579.0000    215.2041      0.0000    257.0914     84.6808
   579.2500    207.9913      0.0000    257.1226     84.5936
   579.5000    198.5649      0.0000    257.1216     84.5757
   579.7500    188.9271      0.0000    257.0971     84.6147
   580.0000    181.3349      0.0000    257.0600     84.6917
   580.2500    176.6680      0.0000    257.0164     84.7928
   580.5000    173.8266      0.0000    256.9739     84.9128
   580.7500    171.2245      0.0000    256.9449     85.0514
   581.0000    168.7158      0.0000    256.9381     85.2051
   581.2500    167.4941      0.0000    256.9514     85.3626
   581.5000    168.0361      0.0000    256.9744     85.5068
   581.7500    168.9621      0.0000    256.9969     85.6198
   582.0000    168.5257      0.0000    257.0108     85.6886
   582.2500    166.7313      0.0000    257.0099     85.7078
   582.5000    165.2150      0.0000    256.9950     85.6784
   582.7500    165.0222      0.0000    256.9779     85.6070
   583.0000    165.1116      0.0000    256.9735     85.5052
   583.2500    163.4892      0.0000    256.9854     85.3894
   583.5000    159.5647      0.0000    257.0036     85.2775
   583.7500    154.9248      0.0000    257.0152     85.1834
   584.0000    151.7433      0.0000    257.0170     85.1116
   584.2500    150.7077      0.0000    257.0171     85.0521
   584.5000    150.6716      0.0000    257.0220     84.9811
   584.7500    150.2293      0.0000    257.0271     84.8602
   585.0000    149.2544      0.0000    257.0247     84.6354
   585.2500    148.4355      0.0000    257.0206     84.2339
   585.5000    147.6331      0.0000    257.0316     83.5598
   585.7500    145.6899      0.0000    257.0738     82.4882
   586.0000    141.8436      0.0000    257.1676     80.8637
   586.2500    136.4330      0.0000    257.3716     78.5140
   586.5000    130.2074      0.0000    257.8008     75.2944
   586.7500    123.8557      0.0000    258.5707     71.1616
   587.0000    118.3177      0.0000    259.6803     66.2447
   587.2500    114.7732      0.0000    260.9462     60.8726
   587.5000    113.9481      0.0000    262.0864     55.5176
   587.7500    115.4976      0.0000    262.8963     50.6784
   588.0000    118.0543      0.0000    263.3483     46.7555
   588.2500    119.9191      0.0000    263.5437     43.9829
   588.5000    120.0666      0.0000    263.6008     42.4421
   588.7500    118.7540      2.0000    263.5851     42.1315
   589.0000    117.1125      1.8616    263.5028     43.0381
   589.2500    116.0831      0.0000    263.3180     45.1664
   589.5000    115.6352      0.0000    262.9674     48.5072
   589.7500    114.7622      0.0000    262.3791     52.9657
   590.0000    112.2874      0.0000    261.5131     58.2943
   590.2500    108.0295      0.0000    260.4146     64.0774
   590.5000    103.1147      0.0000    259.2339     69.7951
   590.7500     98.7908      0.0000    258.1718     74.9429
   591.0000     95.1110      0.0000    257.3791     79.1596
   591.2500     91.3137      0.0000    256.8907     82.2976
   591.5000     87.4760      0.0000    256.6433     84.4156
   591.7500     85.2030      0.0000    256.5421     85.7091
   592.0000     86.1796      0.0000    256.5152     86.4216
   592.2500     90.1131      0.0000    256.5258     86.7753
   592.5000     94.7220      0.0000    256.5565     86.9358
   592.7500     97.9026      0.0000    256.5919     87.0068
   593.0000     99.4014      0.0000    256.6177     87.0417
   593.2500    100.3056      0.0000    256.6300     87.0612
   593.5000    101.6857      0.0000    256.6351     87.0669
   593.7500    104.4256      0.0000    256.6387     87.0536
   594.0000    109.8983      0.0000    256.6399     87.0127
   594.2500    119.4640      0.0000    256.6370     86.9362
   594.5000    132.6183      0.0000    256.6340     86.8177
   594.7500    146.1663      0.0000    256.6368     86.6575
   595.0000    156.0177      0.0000    256.6467     86.4657
   595.2500    160.1442      0.0000    256.6575     86.2623
   595.5000    159.9366      0.0000    256.6589     86.0721
   595.7500    158.7536      0.0000    256.6443     85.9146
   596.0000    159.1145      0.0000    256.6178     85.7957
   596.2500    161.2052      0.0000    256.5938     85.7068
   596.5000    163.5690      0.0000    256.5892     85.6316
   596.7500    164.5255      0.0000    256.6133     85.5555
   597.0000    163.2043      0.0000    256.6606     85.4712
   597.2500    160.3050      0.0000    256.7143     85.3783
   597.5000    158.2270      0.0000    256.7611     85.2805
   597.7500    159.6225      0.0000    256.8002     85.1831
   598.0000    164.9239      0.0000    256.8342     85.0934
   598.2500    171.3878      0.0000    256.8567     85.0205
   598.5000    175.0032      0.0000    256.8590     84.9721
   598.7500    173.2715      0.0000    256.8443     84.9514
   599.0000    166.5221      0.0000    256.8266     84.9548
   599.2500    157.6083      0.0000    256.8157     84.9745
   599.5000    150.4644      0.0000    256.8090     85.0030
   599.7500    147.8575      0.0000    256.7987     85.0346
   600.0000    149.6761      0.0000    256.7821     85.0647
   600.2500    153.4476      0.0000    256.7626     85.0847
   600.5000    156.8771      0.0000    256.7457     85.0813
   600.7500    159.9545      0.0000    256.7361     85.0380
   601.0000    164.2681      0.0000    256.7351     84.9423
   601.2500    170.1840      0.0000    256.7392     84.7926
   601.5000    175.3468      0.0000    256.7408     84.6022
   601.7500    176.6545      0.0000    256.7348     84.3982
   602.0000    173.5103      0.0000    256.7213     84.2151
   602.2500    168.4090      0.0000    256.7038     84.0869
   602.5000    164.4343      0.0000    256.6845     84.0388
   602.7500    162.9711      0.0000    256.6638     84.0817
