~Version Information
VERS.                      2.0: CWLS Log ASCII Standard - VERSION 2.0
WRAP.                       NO: One line per depth step
~Well Information Block
STRT.FT               -10.8000: 
STOP.FT              2238.7000: 
STEP.FT                 0.1000: 
NULL.                -999.2500: 
COMP.          Petrogulf Corporation: COMPANY
WELL.             McLeod 9-42V: WELL
FLD.           Purgatorie River: FIELD
LOC.           1658' FNL & 415' FEL----: LOCATION
CNTY.               Las Animas: COUNTY
SRVC.                         : SERVICE COMPANY
DATE.          Wed Nov 17 12:01:16 2004: LOG DATE
UWI.                          : UNIQUE WELL ID
STAT.                       CO: STATE
~Curve Information Block
DEPT.FT            0 000 00 00: Depth
GR.GAPI                       : Gamma Ray
CCL.                          : Casing Collar Locator
TT3.usec                      : CBL 3' Travel Time
AMP3.mV                       : CBL 3' Amplitude
~Parameter Information Block
~A  Depth        GR         CCL         TT3         AMP3    
# ...
   873.6000     57.5829      0.0000    774.5252     20.1502
   873.7000     57.5829      0.0000    774.5252     20.1502
   873.8000     56.6412      0.0000    762.9258     20.6789
   873.9000     56.6412      0.0000    762.9258     20.6789
   874.0000     57.5230      0.0000    745.5388     21.2415
   874.1000     57.5230      0.0000    745.5388     21.2415
   874.2000     57.5230      0.0000    745.5388     21.2415
   874.3000     61.4220      0.0000    713.5234     21.8472
   874.4000     61.4220      0.0000    713.5234     21.8472
   874.5000     67.4976      0.0000    657.6390     22.4901
   874.6000     67.4976      0.0000    657.6390     22.4901
   874.7000     67.4976      0.0000    657.6390     22.4901
   874.8000     73.0719      0.0000    577.5146     23.1477
   874.9000     73.0719      0.0000    577.5146     23.1477
   875.0000     75.7165      0.0000    486.9610     23.7985
   875.1000     75.7165      0.0000    486.9610     23.7985
   875.2000     75.7165      0.0000    486.9610     23.7985
   875.3000     75.3176      0.0000    407.0483     24.4339
   875.4000     75.3176      0.0000    407.0483     24.4339
   875.5000     73.9572      0.0000    352.0778     25.0449
   875.6000     73.9572      0.0000    352.0778     25.0449
   875.7000     73.9572      0.0000    352.0778     25.0449
   875.8000     73.9081      0.0000    322.5942     25.6020
   875.9000     73.9081      0.0000    322.5942     25.6020
   876.0000     76.1229      0.0000    310.2369     26.0651
   876.1000     76.1229      0.0000    310.2369     26.0651
   876.2000     76.1229      0.0000    310.2369     26.0651
   876.3000     80.4610      0.0000    306.1568     26.4186
   876.4000     80.4610      0.0000    306.1568     26.4186
   876.5000     86.5755      0.0000    305.0584     26.6927
   876.6000     86.5755      0.0000    305.0584     26.6927
   876.7000     86.5755      0.0000    305.0584     26.6927
   876.8000     94.4658      0.0000    304.7725     26.9504
   876.9000     94.4658      0.0000    304.7725     26.9504
   877.0000    104.7734      0.0000    304.6417     27.2520
   877.1000    104.7734      0.0000    304.6417     27.2520
   877.2000    104.7734      0.0000    304.6417     27.2520
   877.3000    118.3542      0.0000    304.5061     27.6278
   877.4000    118.3542      0.0000    304.5061     27.6278
   877.5000    134.6747      0.0000    304.3181     28.0795
   877.6000    134.6747      0.0000    304.3181     28.0795
   877.7000    134.6747      0.0000    304.3181     28.0795
   877.8000    150.6268      0.0000    304.0717     28.6042
   877.9000    150.6268      0.0000    304.0717     28.6042
   878.0000    161.6481      0.0000    303.7746     29.2077
   878.1000    161.6481      0.0000    303.7746     29.2077
   878.2000    161.6481      0.0000    303.7746     29.2077
   878.3000    164.4704      0.0000    303.4480     29.8888
   878.4000    164.4704      0.0000    303.4480     29.8888
   878.5000    159.2260      0.0000    303.1250     30.6187
   878.6000    159.2260      0.0000    303.1250     30.6187
   878.7000    159.2260      0.0000    303.1250     30.6187
   878.8000    149.4298      0.0000    302.8390     31.3545
   878.9000    149.4298      0.0000    302.8390     31.3545
   879.0000    139.9643      0.0000    302.6068     32.0709
   879.1000    139.9643      0.0000    302.6068     32.0709
   879.2000    139.9643      0.0000    302.6068     32.0709
   879.3000    134.3102      0.0000    302.4248     32.7571
   879.4000    134.3102      0.0000    302.4248     32.7571
   879.5000    132.7307      0.0000    302.2830     33.3774
   879.6000    132.7307      0.0000    302.2830     33.3774
   879.7000    132.7307      0.0000    302.2830     33.3774
   879.8000    132.7489      0.0000    302.1785     33.8565
   879.9000    132.7489      0.0000    302.1785     33.8565
   880.0000    131.8273      0.0000    302.1146     34.1223
   880.1000    131.8273      0.0000    302.1146     34.1223
   880.2000    131.8273      0.0000    302.1146     34.1223
   880.3000    130.0995      0.0000    302.0948     34.1477
   880.4000    130.0995      0.0000    302.0948     34.1477
   880.5000    130.1892      0.0000    302.1214     33.9402
   880.6000    130.1892      0.0000    302.1214     33.9402
   880.7000    130.1892      0.0000    302.1214     33.9402
   880.8000    133.8396      0.0000    302.2001     33.5054
   880.9000    133.8396      0.0000    302.2001     33.5054
   881.0000    139.2233      0.0000    302.3438     32.8343
   881.1000    139.2233      0.0000    302.3438     32.8343
   881.2000    139.2233      0.0000    302.3438     32.8343
   881.3000    142.4251      0.0000    302.5967     31.9211
   881.4000    142.4251      0.0000    302.5967     31.9211
   881.5000    141.4285      0.0000    303.0894     30.7917
   881.6000    141.4285      0.0000    303.0894     30.7917
   881.7000    141.4285      0.0000    303.0894     30.7917
   881.8000    137.8228      0.0000    304.4171     29.5275
   881.9000    137.8228      0.0000    304.4171     29.5275
   882.0000    134.5126      0.0000    308.6789     28.2532
   882.1000    134.5126      0.0000    308.6789     28.2532
   882.2000    134.5126      0.0000    308.6789     28.2532
   882.3000    132.5534      0.0000    321.1398     27.0763
   882.4000    132.5534      0.0000    321.1398     27.0763
   882.5000    130.6301      0.0000    350.6757     26.0317
   882.6000    130.6301      0.0000    350.6757     26.0317
   882.7000    130.6301      0.0000    350.6757     26.0317
   882.8000    126.9474      0.0000    405.6921     25.0926
   882.9000    126.9474      0.0000    405.6921     25.0926
   883.0000    120.8918      0.0000    485.6553     24.2237
   883.1000    120.8918      0.0000    485.6553     24.2237
   883.2000    120.8918      0.0000    485.6553     24.2237
   883.3000    112.9339      0.0000    576.2056     23.4043
   883.4000    112.9339      0.0000    576.2056     23.4043
   883.5000    103.7857      0.0000    656.0660     22.6044
   883.6000    103.7857      0.0000    656.0660     22.6044
   883.7000    103.7857      0.0000    656.0660     22.6044
   883.8000     94.3128      0.0000    710.9037     21.7682
   883.9000     94.3128      0.0000    710.9037     21.7682
   884.0000     85.9195      0.0000    740.2021     20.8476
   884.1000     85.9195      0.0000    740.2021     20.8476
   884.2000     85.9195      0.0000    740.2021     20.8476
   884.3000     80.0954      0.0000    752.3752     19.8519
   884.4000     80.0954      0.0000    752.3752     19.8519
   884.5000     77.3658      0.0000    756.3591     18.8565
   884.6000     77.3658      0.0000    756.3591     18.8565
   884.7000     77.3658      0.0000    756.3591     18.8565
   884.8000     77.1260      0.0000    757.5588     17.9614
   884.9000     77.1260      0.0000    757.5588     17.9614
   885.0000     78.4634      0.0000    758.2178     17.2378
   885.1000     78.4634      0.0000    758.2178     17.2378
   885.2000     78.4634      0.0000    758.2178     17.2378
   885.3000     80.5764      0.0000    758.9469     16.6977
   885.4000     80.5764      0.0000    758.9469     16.6977
   885.5000     82.6194      0.0000    759.7078     16.2998
   885.6000     82.6194      0.0000    759.7078     16.2998
   885.7000     82.6194      0.0000    759.7078     16.2998
   885.8000     83.9937      0.0000    760.2856     15.9835
   885.9000     83.9937      0.0000    760.2856     15.9835
   886.0000     85.0005      0.0000    760.5210     15.7043
   886.1000     85.0005      0.0000    760.5210     15.7043
   886.2000     85.0005      0.0000    760.5210     15.7043
   886.3000     86.6393      0.0000    760.4393     15.4390
   886.4000     86.6393      0.0000    760.4393     15.4390
   886.5000     89.3452      0.0000    760.2079     15.1703
   886.6000     89.3452      0.0000    760.2079     15.1703
   886.7000     89.3452      0.0000    760.2079     15.1703
   886.8000     92.0249      0.0000    760.0038     14.8780
   886.9000     92.0249      0.0000    760.0038     14.8780
