~Version Information
VERS.                      2.0: CWLS Log ASCII Standard - VERSION 2.0
WRAP.                       NO: One line per depth step
~Well Information Block
STRT.FT               275.0000: 
STOP.FT              1682.2000: 
STEP.FT                 0.1000: 
NULL.                -999.2500: 
COMP.          Pioneer Natural Resources: COMPANY
WELL.               Elmo 14-21: WELL
FLD.           Purgatoire River: FIELD
LOC.           623' FSL & 450' FWL----: LOCATION
PROV.                 Colorado: PROVINCE
CNTY.               Las Animas: COUNTRY
SRVC.                Patterson: SERVICE COMPANY
DATE.          Wed May 18 08:17:30 2005: LOG DATE
UWI.           05 071 08360 00: UNIQUE WELL ID
~Curve Information Block
DEPT.FT            0 000 00 00: Depth
DCAL.in                       : CDL Caliper
RHOB.g/cc                     : CDL Bulk Density
RHOC.g/cc                     : CDL Density Correction
DPOR.pu                       : CDL Density Porosity
NPOR.pu                       : Neutron Porosity
GR.GAPI                       : Gamma Ray
~Parameter Information Block
~A  Depth       DCAL        RHOB        RHOC        DPOR        NPOR         GR     
# ...
   457.4000      8.2070      2.5112     -0.0148      8.4130     17.2905     61.8564
   457.5000      8.2038      2.5251      0.0376      7.5679     16.7034     53.7404
   457.6000      8.2038      2.5466      0.0426      6.2671     16.6429     48.1634
   457.7000      8.2038      2.5524      0.0435      5.9169     16.7727     46.2275
   457.8000      8.2044      2.5397      0.0322      6.6868     16.1865     47.7829
   457.9000      8.2044      2.5300      0.0256      7.2698     15.2988     50.5375
   458.0000      8.2050      2.5371      0.0317      6.8416     14.8856     49.8667
   458.1000      8.2050      2.5501      0.0734      6.0557     14.8818     46.4293
   458.2000      8.2050      2.5517      0.0415      5.9583     14.9903     45.9468
   458.3000      8.2027      2.5337      0.0705      7.0487     15.0689     49.1714
   458.4000      8.2027      2.5053     -0.0040      8.7683     15.0204     51.8179
   458.5000      8.2029      2.4918     -0.0513      9.5855     14.8640     52.6808
   458.6000      8.2029      2.4991      0.0251      9.1481     14.6218     53.3505
   458.7000      8.2029      2.5068      0.0368      8.6791     14.1743     53.5921
   458.8000      8.2058      2.5053      0.0097      8.7681     13.8082     52.4997
   458.9000      8.2058      2.4958      0.0315      9.3445     13.8594     50.7167
   459.0000      8.2071      2.4769      0.0096     10.4924     14.4315     48.7796
   459.1000      8.2071      2.4538     -0.0076     11.8919     15.4168     47.6019
   459.2000      8.2071      2.4404     -0.0177     12.7001     16.1068     47.0076
   459.3000      8.2054      2.4517     -0.0611     12.0211     15.9397     47.2269
   459.4000      8.2054      2.4870      0.0146      9.8797     15.5043     49.7917
   459.5000      8.2021      2.5163      0.0737      8.1060     15.4443     52.5862
   459.6000      8.2021      2.5176      0.0298      8.0231     15.7789     53.2308
   459.7000      8.2021      2.5059      0.0054      8.7309     16.3548     52.7550
   459.8000      8.1998      2.4855      0.0789      9.9710     16.6666     54.1184
   459.9000      8.1998      2.4325      0.0518     13.1832     16.5217     58.3281
   460.0000      8.2018      2.3513     -0.0549     18.1007     16.5617     61.8631
   460.1000      8.2018      2.2826     -0.0381     22.2643     16.9576     61.4341
   460.2000      8.2018      2.2552     -0.0679     23.9291     17.0944     59.5557
   460.3000      8.2063      2.2663     -0.0635     23.2541     16.7812     59.7133
   460.4000      8.2063      2.2968     -0.0430     21.4071     16.4625     63.8002
   460.5000      8.2079      2.3441     -0.0479     18.5397     16.4955     72.6564
   460.6000      8.2079      2.4143      0.0654     14.2847     16.9074     81.2789
   460.7000      8.2079      2.4824      0.1751     10.1580     17.6627     84.5632
   460.8000      8.2060      2.5249      0.2001      7.5793     18.6940     84.5164
   460.9000      8.2060      2.5708      0.1748      4.7984     19.8244     86.8668
   461.0000      8.2050      2.6559      0.2892     -0.3565     20.9051     92.6336
   461.1000      8.2050      2.7411      0.4537     -5.5205     21.7522     95.8621
   461.2000      8.2050      2.7521      0.3412     -6.1856     22.2617     94.1791
   461.3000      8.2067      2.6998      0.1392     -3.0166     22.4758     92.5982
   461.4000      8.2067      2.6599      0.0898     -0.5980     22.7880     94.4562
   461.5000      8.2082      2.6523      0.1448     -0.1383     23.6917     97.9542
   461.6000      8.2082      2.6453      0.1084      0.2843     24.8533     99.9856
   461.7000      8.2082      2.6356      0.0275      0.8747     25.6735     98.5699
   461.8000      8.2068      2.6362      0.0410      0.8374     26.3369     96.6056
   461.9000      8.2068      2.6376      0.0332      0.7541     27.1821     96.8695
   462.0000      8.2004      2.6357     -0.0068      0.8673     28.1821     97.4835
   462.1000      8.2004      2.6383      0.0128      0.7087     29.2694     98.7874
   462.2000      8.2004      2.6412      0.0421      0.5313     30.2775    103.1258
   462.3000      8.1912      2.6396      0.0254      0.6300     30.7704    106.5239
   462.4000      8.1912      2.6390     -0.0076      0.6687     30.4350    105.9092
   462.5000      8.1848      2.6421      0.0221      0.4786     29.6151    104.8167
   462.6000      8.1848      2.6410      0.0358      0.5447     28.7020    105.1672
   462.7000      8.1848      2.6290      0.0320      1.2726     27.7929    102.8127
   462.8000      8.1825      2.6115      0.0355      2.3305     26.7459     95.6359
   462.9000      8.1825      2.6003      0.0211      3.0113     25.4652     91.5569
   463.0000      8.1817      2.5989      0.0390      3.0991     24.1572     95.9196
   463.1000      8.1817      2.5991      0.0572      3.0839     23.3253    101.1460
   463.2000      8.1817      2.5934      0.0387      3.4314     23.2510    100.6251
   463.3000      8.1819      2.5854      0.0354      3.9175     23.4272     96.5833
   463.4000      8.1819      2.5816      0.0371      4.1478     23.1989     92.4734
   463.5000      8.1812      2.5812      0.0267      4.1683     22.4036     88.5983
   463.6000      8.1812      2.5843      0.0208      3.9798     21.4997     83.4827
   463.7000      8.1812      2.5903      0.0578      3.6198     21.2302     79.2463
   463.8000      8.1797      2.5861      0.0711      3.8701     21.6834     80.7046
   463.9000      8.1797      2.5619      0.0149      5.3377     22.1497     84.7358
   464.0000      8.1809      2.5319     -0.0066      7.1575     22.0442     83.7211
   464.1000      8.1809      2.5133      0.0125      8.2825     21.3075     77.9649
   464.2000      8.1809      2.5032      0.0255      8.8976     20.3173     73.5054
   464.3000      8.1840      2.4960     -0.0002      9.3321     19.7710     72.3285
   464.4000      8.1840      2.4991     -0.0152      9.1484     19.8056     72.7760
   464.5000      8.1848      2.5132      0.0266      8.2903     19.7807     73.3369
   464.6000      8.1848      2.5244      0.0457      7.6126     19.4466     72.5491
   464.7000      8.1848      2.5281      0.0281      7.3879     18.9829     70.4774
   464.8000      8.1830      2.5323      0.0186      7.1346     18.2554     69.2736
   464.9000      8.1830      2.5330      0.0455      7.0934     17.5263     68.9483
   465.0000      8.1817      2.5242      0.0372      7.6257     17.3261     67.7664
   465.1000      8.1817      2.5202      0.0265      7.8668     17.5570     65.1036
   465.2000      8.1817      2.5273      0.0795      7.4360     17.9731     60.7953
   465.3000      8.1824      2.5296      0.0524      7.2964     18.3106     58.3432
   465.4000      8.1824      2.5241      0.0158      7.6283     18.1198     61.2061
   465.5000      8.1840      2.5186      0.0560      7.9617     17.5048     64.7861
   465.6000      8.1840      2.5141      0.0403      8.2354     16.8293     63.1794
   465.7000      8.1840      2.5188     -0.0073      7.9531     16.2503     57.5204
   465.8000      8.1847      2.5389      0.0446      6.7348     15.8451     53.7779
   465.9000      8.1847      2.5612      0.0493      5.3830     15.5435     55.7577
   466.0000      8.1841      2.5659      0.0781      5.0987     15.2586     59.5061
   466.1000      8.1841      2.5486      0.0260      6.1459     14.9259     60.1781
   466.2000      8.1841      2.5284      0.0472      7.3706     14.5158     58.0430
   466.3000      8.1830      2.5181      0.0323      7.9958     14.2205     54.1874
   466.4000      8.1830      2.5098      0.0123      8.4964     14.3108     50.6759
   466.5000      8.1824      2.4992     -0.0065      9.1381     14.6951     49.2515
   466.6000      8.1824      2.4922      0.0285      9.5613     14.8791     48.9015
   466.7000      8.1824      2.4908     -0.0186      9.6515     14.5962     48.3589
   466.8000      8.1827      2.4900      0.0120      9.6958     14.1765     47.7579
   466.9000      8.1827      2.4809      0.0381     10.2478     13.9260     46.8314
