~Version Information
VERS.                      2.0: CWLS Log ASCII Standard - VERSION 2.0
WRAP.                       NO: One line per depth step
~Well Information Block
STRT.FT               906.0000: 
STOP.FT              1960.5000: 
STEP.FT                 0.2500: 
NULL.                -999.2500: 
COMP.          Petrogulf Corporation: COMPANY
WELL.            Torcom 17-33R: WELL
FLD.           Purgatorie River: FIELD
LOC.           1483' FSL & 1804' FEL: LOCATION
PROV.                 Colorado: PROVINCE
CNTY.               Las Animas: COUNTRY
SRVC.                Patterson: SERVICE COMPANY
DATE.          Thu Aug 18 08:33:01 2005: LOG DATE
UWI.                071 08069 : UNIQUE WELL ID
~Curve Information Block
DEPT.FT            0 000 00 00: Depth
SP.mV                         : DIL Spontaneous Potential
RILD.Ohm-m                    : DIL Deep Resistivity
RILM.Ohm-m                    : DIL Medium Resistivity
RLL3.Ohm-m                    : DIL Shallow Resistivity
GR.GAPI                       : Gamma Ray
~Parameter Information Block
~A  Depth        SP         RILD        RILM        RLL3         GR     
# ...
  1046.0000    108.6193     23.3479     23.6200     57.7822    149.2814
  1046.2500    108.9202     23.5492     21.3752     36.7634    152.4365
  1046.5000    110.7224     22.8358     19.8717     21.9130    151.0901
  1046.7500    112.2299     22.9718     19.4741     17.8570    154.9344
  1047.0000    112.6586     22.7857     19.2064     17.0013    151.4436
  1047.2500    115.1124     22.0896     19.2444     17.4061    148.4062
  1047.5000    116.3391     21.1183     19.3754     21.4918    135.9937
  1047.7500    117.7390     19.9283     19.8161     22.2829    124.1264
  1048.0000    118.5796     19.2815     20.1881     23.0813    129.5358
  1048.2500    120.2759     19.0567     20.4057     31.5489    123.3702
  1048.5000    119.8760     18.8619     20.4602     34.1381    130.2874
  1048.7500    119.0746     19.0126     20.4759     30.9835    137.3855
  1049.0000    118.6206     19.1400     20.2090     29.4516    129.6231
  1049.2500    117.9756     19.7564     20.5235     26.6254    130.4148
  1049.5000    118.0725     19.9594     20.9703     23.5646    136.7974
  1049.7500    119.7415     20.8009     21.3861     24.3214    138.4242
  1050.0000    121.7199     21.9589     21.8322     24.4658    132.8359
  1050.2500    123.5522     22.9859     22.0733     25.5684    131.2535
  1050.5000    124.0136     24.3297     22.5216     24.1686    132.8502
  1050.7500    124.3830     25.2879     22.9792     22.8939    129.1420
  1051.0000    124.0189     26.5887     23.2925     23.5307    136.1492
  1051.2500    123.6018     27.1464     25.1113     23.3797    135.2333
  1051.5000    123.0599     28.7869     26.6111     25.4301    126.2858
  1051.7500    121.9694     29.1086     29.3116     30.7476    115.1825
  1052.0000    121.4222     28.6698     31.1114     39.8500    104.7941
  1052.2500    121.4422     28.8901     34.7095     48.4398    110.7388
  1052.5000    123.3612     29.1954     35.6887     50.7080    109.0914
  1052.7500    122.0061     30.0487     36.4338     45.8522    104.0895
  1053.0000    121.8677     29.0318     38.4587     47.7056     96.2029
  1053.2500    123.3638     29.6680     39.6135     59.2252    100.5473
  1053.5000    123.4015     30.7395     40.8004     64.1857    100.5492
  1053.7500    122.8175     30.3434     40.7660     59.8941    106.7664
  1054.0000    122.4723     31.6766     39.0936     61.6082    107.8547
  1054.2500    122.0277     31.8843     36.3508     50.4723    107.2845
  1054.5000    119.9544     32.1818     34.1652     35.5806    131.7306
  1054.7500    117.7549     31.9335     33.1674     25.8240    134.5532
  1055.0000    115.4921     31.6790     31.5466     25.4729    123.6780
  1055.2500    115.3525     31.1904     31.1664     24.2408    114.6341
  1055.5000    113.6212     29.8753     30.9088     28.4272    115.0587
  1055.7500    111.6172     29.0895     30.3277     27.7388    117.4208
  1056.0000    109.5684     27.9849     30.6283     27.0042    118.6897
  1056.2500    107.4918     26.7431     30.0298     33.3511    117.0187
  1056.5000    105.9165     25.3004     29.0921     39.7294    111.6940
  1056.7500    103.9449     24.6758     27.6133     41.0847    120.8861
  1057.0000    103.1965     24.6115     25.6527     41.1028    133.7057
  1057.2500    102.2062     24.5336     24.6864     36.9230    130.1151
  1057.5000    100.8511     24.9449     24.0434     30.4746    121.9881
  1057.7500     99.7052     26.1591     23.4410     29.3616    119.7103
  1058.0000     96.7681     27.3410     23.4338     29.2179    102.1779
  1058.2500     94.2407     29.6315     24.0499     23.5949     98.4180
  1058.5000     94.2745     32.0418     26.3727     26.8387     67.6022
  1058.7500     92.5746     34.3413     29.5918     38.7205     49.7202
  1059.0000     90.6906     36.8060     35.2045     78.2235     33.7691
  1059.2500     91.4709     39.7042     44.9107    139.5407     26.4832
  1059.5000     91.1735     41.1244     57.0349    199.5831     20.9385
  1059.7500     90.8055     42.2411     69.0498    221.7167     19.8882
  1060.0000     89.5190     43.3131     83.6503    204.4501     18.1087
  1060.2500     88.6485     44.2466     92.5900    153.2577     19.1434
  1060.5000     89.0949     44.3470     86.1906     91.6835     22.3489
  1060.7500     90.4844     46.4653     79.5716     63.0757     25.7059
  1061.0000     92.7452     47.2076     77.3542     77.1870     33.5933
  1061.2500     95.5201     48.3552     72.4784    122.8308     41.4248
  1061.5000    100.0978     47.5332     70.2485    177.8176     58.8762
  1061.7500    103.4914     50.6355     59.3430    187.5147     65.6112
  1062.0000    106.6504     51.0980     50.8308    112.9960     85.0543
  1062.2500    109.8651     52.1027     44.4675     45.3675     95.0837
  1062.5000    111.1881     47.0352     43.3065     23.0438     91.8693
  1062.7500    112.8710     45.7599     44.1279     29.8524     87.4770
  1063.0000    112.8640     44.5561     44.3059     52.1460     97.3362
  1063.2500    111.5583     41.8709     44.8638     79.2744    102.5098
  1063.5000    109.9639     39.9891     45.9914     60.9577    121.7673
  1063.7500    111.1720     37.0222     43.4494     40.0863    124.2244
  1064.0000    111.9960     33.4805     43.7793     34.9034    125.9413
  1064.2500    112.6869     29.5173     42.9869     36.2109    116.3697
  1064.5000    112.7082     28.5420     41.5278     53.3867    114.3235
  1064.7500    112.7038     26.9839     38.9489     71.2410    117.0464
  1065.0000    112.6842     25.4047     35.4158     78.4780    120.6470
  1065.2500    114.0198     24.4119     31.0052     62.2596    128.3450
  1065.5000    115.7317     22.4771     27.1471     36.0179    144.3196
  1065.7500    117.1568     21.6343     23.9567     25.6347    154.3056
  1066.0000    117.7431     20.3119     21.1609     22.9629    156.5960
  1066.2500    118.5252     19.1890     19.1673     23.5541    163.4949
  1066.5000    119.2776     18.5494     17.9260     22.3749    164.0556
  1066.7500    119.7778     18.1550     16.7616     17.7558    159.6809
  1067.0000    120.1751     17.1115     15.9753     18.1115    156.2934
  1067.2500    119.9789     16.0151     15.5895     17.5970    151.7569
  1067.5000    120.0065     15.3158     14.9700     19.9557    163.3337
  1067.7500    119.3191     14.6591     14.8429     18.7119    155.5590
  1068.0000    118.8216     13.8478     14.6449     18.1939    150.6039
  1068.2500    118.1161     13.2416     14.2499     17.8526    147.7211
  1068.5000    116.9068     12.7830     13.9705     21.2343    128.8040
  1068.7500    115.4079     12.6377     13.7934     18.8231    129.7138
  1069.0000    114.2031     12.5817     13.1681     18.1078    135.1620
  1069.2500    113.2173     12.5626     12.5504     17.8385    134.6976
  1069.5000    111.1543     12.7059     12.0954     19.9883    150.3125
  1069.7500    108.0417     12.8052     11.9992     15.7435    143.9048
  1070.0000    104.4835     12.6991     12.0834     15.9505    144.9894
  1070.2500    103.6446     12.8702     12.5020     14.9635    143.4744
  1070.5000    106.2426     12.7515     12.7688     17.8531    139.9090
  1070.7500    107.1580     12.7959     13.0813     20.7589    134.7652
  1071.0000    105.5376     12.8668     13.2927     24.8315    140.4473
  1071.2500    102.4857     12.9510     13.1984     20.5944    152.0785
  1071.5000    100.2909     13.0263     13.0660     19.4327    154.3036
  1071.7500     97.9858     13.4110     13.0463     16.3974    152.7765
  1072.0000     94.4658     13.7877     12.9676     14.7953    152.2545
  1072.2500     90.0742     14.2745     13.4967     13.4134    153.3566
  1072.5000     87.0572     15.2726     14.1280     15.7199    148.9946
  1072.7500     83.9634     15.8443     15.1042     20.2671    144.6532
  1073.0000     79.4963     16.5542     16.4138     22.7326    130.1212
  1073.2500     74.2305     16.9726     17.4074     22.3507    126.5498
  1073.5000     71.3644     17.4913     18.6788     22.9817    126.6579
  1073.7500     70.2034     17.9474     19.7837     26.6894    131.8540
