~Version Information
VERS.                      2.0: CWLS Log ASCII Standard - VERSION 2.0
WRAP.                       NO: One line per depth step
~Well Information Block
STRT.FT               748.2500: 
STOP.FT              2498.5000: 
STEP.FT                 0.2500: 
NULL.                -999.2500: 
COMP.          Petrogulf Corporation: COMPANY
WELL.           Montoya 13-41V: WELL
FLD.           Purgatorie River: FIELD
LOC.           449' FNL & 891' FEL: LOCATION
CNTY.               Las Animas: COUNTY
SRVC.                         : SERVICE COMPANY
DATE.          Tue Aug 17 13:22:31 2004: LOG DATE
UWI.           05 071 08021 00: UNIQUE WELL ID
STAT.                 Colorado: STATE
~Curve Information Block
DEPT.FT            0 000 00 00: Depth
SP.mV                         : DIL Spontaneous Potential
RILD.Ohm-m                    : DIL Deep Resistivity
RILM.Ohm-m                    : DIL Medium Resistivity
RLL3.Ohm-m                    : DIL Shallow Resistivity
GR.GAPI                       : Gamma Ray
~Parameter Information Block
~A  Depth        SP         RILD        RILM        RLL3         GR     
# ...
  1336.2500     55.4188     46.6515     79.0713     66.4188     68.2496
  1336.5000     54.9469     50.2303     78.8217     68.3182     68.0598
  1336.7500     54.4485     52.2741     78.5606     70.3490     67.3318
  1337.0000     54.0600     52.5076     78.2324     72.3799     66.0695
  1337.2500     53.8914     51.4041     77.8509     74.2951     65.3431
  1337.5000     54.0115     49.8075     77.5043     76.0662     64.5239
  1337.7500     54.4489     48.4397     77.3346     77.8510     64.1021
  1338.0000     55.1885     47.6931     77.4800     80.0168     63.3362
  1338.2500     56.1656     47.6518     78.0170     83.0002     62.5478
  1338.5000     57.2654     48.1676     78.8968     87.0390     61.0266
  1338.7500     58.3250     48.9345     79.8838     91.9362     59.9784
  1339.0000     59.1618     49.5703     80.5442     97.0213     58.4504
  1339.2500     59.6269     49.7316     80.3098    101.3518     57.4525
  1339.5000     59.6641     49.2136     78.6717    104.0241     56.5775
  1339.7500     59.3505     47.9732     75.4165    104.3963     57.2028
  1340.0000     58.8931     46.0852     70.7773    102.1315     61.4095
  1340.2500     58.5593     43.6888     65.3151     97.1481     66.8545
  1340.5000     58.5792     40.9763     59.6575     89.6217     78.8050
  1340.7500     59.0563     38.1869     54.2786     80.0641     88.7521
  1341.0000     59.9292     35.5644     49.4207     69.3481    105.2592
  1341.2500     61.0105     33.2927     45.1345     58.5449    116.2720
  1341.5000     62.0687     31.4499     41.3593     48.6215    130.8442
  1341.7500     62.9176     30.0092     37.9986     40.1906    138.4929
  1342.0000     63.4755     28.8728     34.9663     33.4673    146.8788
  1342.2500     63.7604     27.9229     32.2108     28.3945    150.9496
  1342.5000     63.8499     27.0651     29.7133     24.7908    155.5290
  1342.7500     63.8343     26.2467     27.4766     22.4321    157.6691
  1343.0000     63.7817     25.4505     25.5082     21.0934    159.5353
  1343.2500     63.7314     24.6741     23.8113     20.5894    160.0533
  1343.5000     63.6972     23.9187     22.3809     20.7818    160.0822
  1343.7500     63.6825     23.1933     21.2041     21.5119    159.5759
  1344.0000     63.6871     22.5229     20.2654     22.5082    157.7198
  1344.2500     63.7092     21.9503     19.5497     23.3889    155.8506
  1344.5000     63.7485     21.5265     19.0444     23.7996    153.1718
  1344.7500     63.8000     21.2989     18.7423     23.5874    152.3028
  1345.0000     63.8400     21.3024     18.6414     22.8745    153.1835
  1345.2500     63.8213     21.5574     18.7455     21.9989    155.0913
  1345.5000     63.6767     22.0688     19.0631     21.4053    158.7245
  1345.7500     63.3481     22.8265     19.6063     21.5737    160.4655
  1346.0000     62.8323     23.8051     20.3871     22.9868    159.7644
  1346.2500     62.2109     24.9634     21.4126     26.0631    156.2572
  1346.5000     61.6523     26.2466     22.6773     31.0180    146.5702
  1346.7500     61.3635     27.5891     24.1525     37.6972    137.9577
  1347.0000     61.5185     28.9199     25.7756     45.4914    123.9180
  1347.2500     62.1877     30.1753     27.4429     53.4047    115.3594
  1347.5000     63.3111     31.3174     29.0157     60.2629    106.1569
  1347.7500     64.7123     32.3511     30.3440     64.9902    103.0730
  1348.0000     66.1551     33.3223     31.3073     66.8842    102.3609
  1348.2500     67.4072     34.2891     31.8523     65.8251    103.5781
  1348.5000     68.2874     35.2680     32.0067     62.3285    106.5155
  1348.7500     68.6803     36.1787     31.8603     57.3821    108.6738
  1349.0000     68.5369     36.8199     31.5267     52.0990    111.7055
  1349.2500     67.8623     36.9169     31.1100     47.3423    113.4602
  1349.5000     66.7206     36.2603     30.6851     43.4938    115.7558
  1349.7500     65.2376     34.8529     30.2959     40.4599    117.4157
  1350.0000     63.5988     32.9298     29.9608     37.8829    121.2909
  1350.2500     62.0290     30.8279     29.6854     35.4321    125.3449
  1350.5000     60.7458     28.8316     29.4700     33.0133    133.1910
  1350.7500     59.9099     27.1051     29.3164     30.7958    138.5379
  1351.0000     59.5899     25.7099     29.2285     29.0740    144.8107
  1351.2500     59.7582     24.6482     29.2117     28.0724    147.2773
  1351.5000     60.3153     23.8983     29.2708     27.8263    148.3506
  1351.7500     61.1180     23.4315     29.4072     28.2009    147.3615
  1352.0000     62.0066     23.2189     29.6194     29.0316    143.4408
  1352.2500     62.8281     23.2302     29.9028     30.2973    139.6248
  1352.5000     63.4585     23.4319     30.2520     32.2089    133.4490
  1352.7500     63.8319     23.7819     30.6633     35.1325    129.7941
  1353.0000     63.9634     24.2204     31.1313     39.3562    125.7390
  1353.2500     63.9453     24.6654     31.6464     44.8097    124.0351
  1353.5000     63.9122     25.0185     32.1869     50.9047    122.4026
  1353.7500     63.9819     25.1931     32.7147     56.6123    121.3630
  1354.0000     64.2017     25.1537     33.1723     60.7645    119.4015
  1354.2500     64.5277     24.9374     33.4942     62.4277    118.2678
  1354.5000     64.8485     24.6385     33.6253     61.1756    118.3116
  1354.7500     65.0270     24.3643     33.5409     57.1898    119.9671
  1355.0000     64.9580     24.1954     33.2605     51.2090    124.1863
  1355.2500     64.5969     24.1739     32.8421     44.3503    127.2500
  1355.5000     63.9780     24.3149     32.3641     37.8072    130.9448
  1355.7500     63.2003     24.6237     31.9048     32.4992    132.4545
  1356.0000     62.4093     25.1023     31.5284     28.8390    133.1657
  1356.2500     61.7546     25.7382     31.2795     26.7492    132.7272
  1356.5000     61.3563     26.4838     31.1868     25.8943    131.2613
  1356.7500     61.2681     27.2448     31.2702     25.9444    130.2434
  1357.0000     61.4686     27.8966     31.5468     26.7054    129.6242
  1357.2500     61.8839     28.3287     32.0338     28.0870    130.2073
  1357.5000     62.4273     28.4971     32.7491     30.0068    132.2280
  1357.7500     63.0423     28.4433     33.7065     32.3427    133.4329
  1358.0000     63.7171     28.2729     34.9065     34.9722    133.3157
  1358.2500     64.4634     28.1105     36.3246     37.8607    131.5490
  1358.5000     65.2742     28.0551     37.8924     41.1231    126.7211
  1358.7500     66.0859     28.1397     39.4775     45.0071    122.5096
  1359.0000     66.7747     28.2964     40.8693     49.7696    115.6613
  1359.2500     67.1915     28.3447     41.7882     55.4598    111.3024
  1359.5000     67.2222     28.0402     41.9402     61.6685    105.4734
  1359.7500     66.8459     27.1966     41.1148     67.3960    101.9986
  1360.0000     66.1573     25.8094     39.2824     71.2281     97.8441
  1360.2500     65.3470     24.0634     36.6272     71.8761     96.5900
  1360.5000     64.6427     22.2155     33.4742     68.8283     98.0646
  1360.7500     64.2335     20.4748     30.1709     62.6588    101.0428
  1361.0000     64.2050     18.9567     26.9933     54.7167    107.3183
  1361.2500     64.5193     17.6983     24.1094     46.4091    112.5438
  1361.5000     65.0340     16.6860     21.5917     38.6249    122.8031
  1361.7500     65.5624     15.8757     19.4485     31.6677    131.4782
  1362.0000     65.9443     15.2062     17.6523     25.5714    145.8500
  1362.2500     66.0871     14.6133     16.1617     20.3938    154.8703
  1362.5000     65.9803     14.0474     14.9333     16.2532    165.4777
  1362.7500     65.6640     13.4882     13.9284     13.2032    170.0545
  1363.0000     65.1946     12.9461     13.1159     11.1559    173.3456
  1363.2500     64.6142     12.4509     12.4727      9.9260    173.7451
  1363.5000     63.9583     12.0343     11.9823      9.3161    173.1370
  1363.7500     63.2782     11.7186     11.6339      9.1582    172.8507
  1364.0000     62.6644     11.5109     11.4200      9.3114    173.7601
