~Version Information
VERS.                      2.0: CWLS Log ASCII Standard - VERSION 2.0
WRAP.                       NO: One line per depth step
~Well Information Block
STRT.FT               964.0000: 
STOP.FT              2440.0000: 
STEP.FT                 0.2500: 
NULL.                -999.2500: 
COMP.          Petrogulf Corporation: COMPANY
WELL.              Hand 8-44 V: WELL
FLD.           Purgatorie River: FIELD
LOC.           1076' FEL & 820' FSL: LOCATION
CNTY.               Las Animas: COUNTY
SRVC.                         : SERVICE COMPANY
DATE.          Fri Nov 21 11:54:17 2003: LOG DATE
UWI.                          : UNIQUE WELL ID
STAT.                 Colorado: STATE
~Curve Information Block
DEPT.FT            0 000 00 00: Depth
SP.mV                         : IEL Spontaneous Potential
DIR.Ohm-m                     : IEL Induction Resistivity
GR.GAPI                       : Gamma Ray
~Parameter Information Block
~A  Depth        SP         DIR          GR     
# ...
  1715.5000     -4.1124     23.2659     80.0453
  1715.7500     -4.0903     23.4548     77.3318
  1716.0000     -4.0680     23.7233     73.3958
  1716.2500     -4.0477     24.0919     71.4810
  1716.5000     -4.0313     24.5338     70.2213
  1716.7500     -4.0194     24.9880     70.2020
  1717.0000     -4.0119     25.3872     70.2703
  1717.2500     -4.0077     25.6773     69.9308
  1717.5000     -4.0055     25.8233     69.2809
  1717.7500     -4.0040     25.8207     69.4045
  1718.0000     -4.0022     25.7158     70.8569
  1718.2500     -3.9997     25.6067     72.2255
  1718.5000     -3.9966     25.6005     73.5766
  1718.7500     -3.9935     25.7542     73.4946
  1719.0000     -3.9911     26.0408     72.0691
  1719.2500     -3.9900     26.3667     70.9077
  1719.5000     -3.9905     26.6262     70.1537
  1719.7500     -3.9923     26.7564     70.7621
  1720.0000     -3.9950     26.7583     73.4633
  1720.2500     -3.9982     26.6781     76.1914
  1720.5000     -4.0013     26.5766     80.4949
  1720.7500     -4.0036     26.5038     82.5516
  1721.0000     -4.0041     26.4843     83.3258
  1721.2500     -4.0028     26.5140     82.3473
  1721.5000     -3.9999     26.5683     79.5164
  1721.7500     -3.9967     26.6204     77.3480
  1722.0000     -3.9945     26.6565     74.7419
  1722.2500     -3.9943     26.6811     73.9677
  1722.5000     -3.9970     26.7083     74.4734
  1722.7500     -4.0024     26.7490     75.4753
  1723.0000     -4.0096     26.8032     76.7277
  1723.2500     -4.0176     26.8621     76.8137
  1723.5000     -4.0252     26.9122     75.3524
  1723.7500     -4.0315     26.9375     73.2745
  1724.0000     -4.0361     26.9183     68.7788
  1724.2500     -4.0392     26.8321     65.2785
  1724.5000     -4.0412     26.6602     60.2874
  1724.7500     -4.0430     26.3976     57.6436
  1725.0000     -4.0454     26.0588     55.0265
  1725.2500     -4.0491     25.6744     54.0866
  1725.5000     -4.0540     25.2794     53.6050
  1725.7500     -4.0594     24.8949     53.7616
  1726.0000     -4.0637     24.5174     54.3699
  1726.2500     -4.0648     24.1176     54.7345
  1726.5000     -4.0616     23.6496     54.8613
  1726.7500     -4.0537     23.0719     54.7870
  1727.0000     -4.0417     22.3771     55.4122
  1727.2500     -4.0270     21.6119     57.1346
  1727.5000     -4.0114     20.8633     62.6779
  1727.7500     -3.9969     20.2089     68.2640
  1728.0000     -3.9852     19.6688     77.9718
  1728.2500     -3.9775     19.1937     84.0131
  1728.5000     -3.9744     18.6967     90.5772
  1728.7500     -3.9757     18.1052     92.9162
  1729.0000     -3.9806     17.3945     94.0175
  1729.2500     -3.9885     16.5841     93.9114
  1729.5000     -3.9991     15.7143     93.5545
  1729.7500     -4.0116     14.8255     93.4527
  1730.0000     -4.0238     13.9517     93.8097
  1730.2500     -4.0332     13.1207     94.7506
  1730.5000     -4.0383     12.3538     97.9579
  1730.7500     -4.0399     11.6650    101.5109
  1731.0000     -4.0403     11.0590    108.7835
  1731.2500     -4.0421     10.5296    114.6428
  1731.5000     -4.0471     10.0603    124.5338
  1731.7500     -4.0552      9.6286    131.6882
  1732.0000     -4.0653      9.2152    142.4291
  1732.2500     -4.0759      8.8119    148.4906
  1732.5000     -4.0855      8.4238    153.8393
  1732.7500     -4.0926      8.0630    154.5043
  1733.0000     -4.0957      7.7410    152.1254
  1733.2500     -4.0942      7.4643    149.0270
  1733.5000     -4.0888      7.2345    142.6947
  1733.7500     -4.0813      7.0501    137.6707
  1734.0000     -4.0738      6.9078    130.3349
  1734.2500     -4.0682      6.8023    126.7462
  1734.5000     -4.0658      6.7268    124.8189
  1734.7500     -4.0671      6.6735    126.0124
  1735.0000     -4.0725      6.6356    130.7638
  1735.2500     -4.0818      6.6075    135.1710
  1735.5000     -4.0947      6.5859    142.2438
  1735.7500     -4.1099      6.5695    146.5232
  1736.0000     -4.1254      6.5588    151.6621
  1736.2500     -4.1385      6.5556    154.4057
  1736.5000     -4.1473      6.5615    158.0320
  1736.7500     -4.1519      6.5772    160.0354
  1737.0000     -4.1548      6.6020    161.7436
  1737.2500     -4.1593      6.6335    162.0178
  1737.5000     -4.1666      6.6686    162.4379
  1737.7500     -4.1754      6.7050    163.6233
  1738.0000     -4.1823      6.7426    166.9205
  1738.2500     -4.1836      6.7837    169.3880
  1738.5000     -4.1780      6.8314    172.2753
  1738.7500     -4.1667      6.8874    173.5044
  1739.0000     -4.1533      6.9504    174.2495
  1739.2500     -4.1411      7.0176    173.5583
  1739.5000     -4.1317      7.0864    169.8981
  1739.7500     -4.1250      7.1558    166.0282
  1740.0000     -4.1196      7.2253    160.0645
  1740.2500     -4.1141      7.2944    157.0094
  1740.5000     -4.1075      7.3628    154.0580
  1740.7500     -4.0995      7.4309    152.8623
  1741.0000     -4.0900      7.5001    152.3024
  1741.2500     -4.0791      7.5711    153.1005
  1741.5000     -4.0672      7.6428    155.9010
  1741.7500     -4.0547      7.7123    158.1092
  1742.0000     -4.0421      7.7766    160.5355
  1742.2500     -4.0299      7.8345    161.0684
  1742.5000     -4.0188      7.8877    159.8893
  1742.7500     -4.0098      7.9400    157.9066
  1743.0000     -4.0040      7.9965    154.2530
  1743.2500     -4.0021      8.0619    152.3176
  1743.5000     -4.0042      8.1408    151.1553
  1743.7500     -4.0090      8.2361    151.4059
  1744.0000     -4.0146      8.3492    152.3384
  1744.2500     -4.0190      8.4794    152.7834
  1744.5000     -4.0212      8.6255    152.8424
  1744.7500     -4.0212      8.7866    152.6338
  1745.0000     -4.0192      8.9629    152.3463
  1745.2500     -4.0153      9.1536    152.2090
  1745.5000     -4.0097      9.3538    151.7467
  1745.7500     -4.0027      9.5530    150.8881
  1746.0000     -3.9956      9.7384    148.1004
  1746.2500     -3.9893      9.9021    145.2264
  1746.5000     -3.9847     10.0465    140.5093
  1746.7500     -3.9819     10.1806    138.0384
  1747.0000     -3.9809     10.3129    136.0610
  1747.2500     -3.9812     10.4461    135.5439
  1747.5000     -3.9823     10.5769    134.9847
  1747.7500     -3.9833     10.6992    134.5435
  1748.0000     -3.9828     10.8077    134.1584
  1748.2500     -3.9799     10.8987    134.4232
  1748.5000     -3.9746     10.9698    135.9002
  1748.7500     -3.9685     11.0168    137.4997
  1749.0000     -3.9641     11.0331    140.1124
  1749.2500     -3.9634     11.0113    141.4033
  1749.5000     -3.9667     10.9491    142.0065
  1749.7500     -3.9728     10.8524    141.6952
  1750.0000     -3.9794     10.7331    141.1973
  1750.2500     -3.9841     10.5994    141.2801
  1750.5000     -3.9854     10.4480    141.6385
  1750.7500     -3.9834     10.2652    141.3405
  1751.0000     -3.9793     10.0409    139.2048
  1751.2500     -3.9751      9.7850    136.7438
  1751.5000     -3.9729      9.5286    132.7402
  1751.7500     -3.9741      9.3089    130.9510
  1752.0000     -3.9792      9.1511    131.2542
  1752.2500     -3.9877      9.0607    133.8881
  1752.5000     -3.9982      9.0272    140.9449
  1752.7500     -4.0085      9.0321    146.8129
  1753.0000     -4.0163      9.0583    155.7077
  1753.2500     -4.0196      9.0953    161.0769
  1753.5000     -4.0179      9.1418    167.5077
  1753.7500     -4.0116      9.2025    169.9555
  1754.0000     -4.0020      9.2859    169.1399
  1754.2500     -3.9912      9.4023    165.0555
  1754.5000     -3.9813      9.5629    154.4242
  1754.7500     -3.9740      9.7786    145.5912
  1755.0000     -3.9702     10.0580    132.1482
  1755.2500     -3.9702     10.4034    124.2910
  1755.5000     -3.9734     10.8080    115.8541
  1755.7500     -3.9791     11.2528    113.1121
  1756.0000     -3.9864     11.7072    113.3070
  1756.2500     -3.9938     12.1345    115.3585
  1756.5000     -4.0002     12.5028    118.6831
  1756.7500     -4.0041     12.7969    119.8627
  1757.0000     -4.0044     13.0216    119.6689
