~Version Information
VERS.                      2.0: CWLS Log ASCII Standard - VERSION 2.0
WRAP.                       NO: One line per depth step
~Well Information Block
STRT.FT               387.1000: 
STOP.FT              1748.0000: 
STEP.FT                 0.1000: 
NULL.                -999.2500: 
COMP.          Evergreen Operating Corp.: COMPANY
WELL.          Pachorek 13-31 Tr: WELL
FLD.           Cottontail Pass: FIELD
LOC.           1575' FSL & 900' FWL--API# 05-071-07019-00: LOCATION
PROV.                 Colorado: PROVINCE
CNTY.               Las Animas: COUNTRY
SRVC.          Scientific Data Systems, Inc.: SERVICE COMPANY
DATE.          Tue Aug 08 15:02:37 2000: LOG DATE
UWI.                      05071070190000:UNIQUE WELL IDENTIFICATION
~Curve Information Block
DEPT.FT            0 000 00 00: Depth
DCAL.in                       : CDL Caliper
RHOB.g/cc                     : CDL Bulk Density
RHOC.g/cc                     : CDL Density Correction
DPOR.pu                       : CDL Density Porosity
GR.GAPI                       : Gamma Ray
NPOR.pu                       : Neutron Porosity
~Parameter Information Block
~A  Depth       DCAL        RHOB        RHOC        DPOR         GR         NPOR    
# ...
  1289.5000      7.9136      2.5237      0.0481      7.6548     97.1758     13.0592
  1289.6000      7.9136      2.5233      0.0462      7.6782     95.9711     12.8868
  1289.7000      7.9136      2.5231      0.0444      7.6931     94.9875     12.7277
  1289.8000      7.9079      2.5229      0.0428      7.7008     94.1926     12.5793
  1289.9000      7.9079      2.5229      0.0411      7.7031     93.5647     12.4393
  1290.0000      7.9014      2.5229      0.0396      7.7021     93.0972     12.3056
  1290.1000      7.9014      2.5229      0.0382      7.7007     92.7880     12.1762
  1290.2000      7.9014      2.5229      0.0369      7.7015     92.6364     12.0496
  1290.3000      7.9022      2.5228      0.0357      7.7072     92.6398     11.9246
  1290.4000      7.9022      2.5226      0.0346      7.7206     92.7836     11.8006
  1290.5000      7.9109      2.5222      0.0335      7.7437     93.0403     11.6773
  1290.6000      7.9109      2.5217      0.0322      7.7785     93.3714     11.5551
  1290.7000      7.9109      2.5209      0.0308      7.8262     93.7297     11.4346
  1290.8000      7.9157      2.5199      0.0290      7.8869     94.0645     11.3168
  1290.9000      7.9157      2.5187      0.0269      7.9600     94.3270     11.2029
  1291.0000      7.9166      2.5173      0.0246      8.0441     94.4799     11.0941
  1291.1000      7.9166      2.5157      0.0222      8.1368     94.5031     10.9921
  1291.2000      7.9166      2.5141      0.0200      8.2345     94.3971     10.8982
  1291.3000      7.9198      2.5125      0.0182      8.3338     94.1867     10.8143
  1291.4000      7.9198      2.5109      0.0171      8.4302     93.9173     10.7424
  1291.5000      7.9237      2.5094      0.0168      8.5197     93.6550     10.6850
  1291.6000      7.9237      2.5081      0.0175      8.5981     93.4748     10.6450
  1291.7000      7.9237      2.5071      0.0191      8.6618     93.4544     10.6261
  1291.8000      7.9256      2.5063      0.0214      8.7078     93.6633     10.6324
  1291.9000      7.9256      2.5059      0.0243      8.7338     94.1524     10.6681
  1292.0000      7.9244      2.5058      0.0275      8.7384     94.9435     10.7376
  1292.1000      7.9244      2.5061      0.0308      8.7209     96.0263     10.8444
  1292.2000      7.9244      2.5068      0.0339      8.6814     97.3539     10.9905
  1292.3000      7.9219      2.5078      0.0366      8.6206     98.8486     11.1756
  1292.4000      7.9219      2.5091      0.0389      8.5397    100.4050     11.3970
  1292.5000      7.9192      2.5107      0.0406      8.4402    101.9067     11.6489
  1292.6000      7.9192      2.5127      0.0419      8.3241    103.2389     11.9221
  1292.7000      7.9192      2.5148      0.0426      8.1930    104.3044     12.2056
  1292.8000      7.9174      2.5172      0.0428      8.0489    105.0413     12.4862
  1292.9000      7.9174      2.5198      0.0425      7.8934    105.4325     12.7511
  1293.0000      7.9153      2.5225      0.0417      7.7281    105.5042     12.9885
  1293.1000      7.9153      2.5253      0.0405      7.5547    105.3230     13.1892
  1293.2000      7.9153      2.5283      0.0388      7.3743    104.9838     13.3477
  1293.3000      7.9103      2.5314      0.0369      7.1885    104.5891     13.4624
  1293.4000      7.9103      2.5345      0.0346      6.9986    104.2308     13.5354
  1293.5000      7.9028      2.5377      0.0324      6.8065    103.9696     13.5715
  1293.6000      7.9028      2.5409      0.0302      6.6142    103.8355     13.5780
  1293.7000      7.9028      2.5440      0.0282      6.4238    103.8213     13.5633
  1293.8000      7.8980      2.5471      0.0265      6.2380    103.8924     13.5361
  1293.9000      7.8980      2.5500      0.0252      6.0596    104.0054     13.5051
  1294.0000      7.8960      2.5528      0.0243      5.8916    104.1202     13.4789
  1294.1000      7.8960      2.5553      0.0236      5.7369    104.2133     13.4659
  1294.2000      7.8960      2.5576      0.0229      5.5982    104.2807     13.4742
  1294.3000      7.8965      2.5596      0.0221      5.4776    104.3388     13.5113
  1294.4000      7.8965      2.5613      0.0210      5.3770    104.4174     13.5837
  1294.5000      7.9007      2.5626      0.0195      5.2972    104.5524     13.6966
  1294.6000      7.9007      2.5636      0.0176      5.2386    104.7764     13.8526
  1294.7000      7.9007      2.5642      0.0152      5.2010    105.1218     14.0514
  1294.8000      7.9086      2.5645      0.0123      5.1834    105.6193     14.2897
  1294.9000      7.9086      2.5645      0.0092      5.1847    106.2972     14.5616
  1295.0000      7.9202      2.5641      0.0059      5.2035    107.1877     14.8585
  1295.1000      7.9202      2.5636      0.0025      5.2381    108.3203     15.1708
  1295.2000      7.9202      2.5628     -0.0009      5.2870    109.7153     15.4886
  1295.3000      7.9332      2.5617     -0.0041      5.3488    111.3770     15.8032
  1295.4000      7.9332      2.5605     -0.0072      5.4220    113.2819     16.1070
  1295.5000      7.9482      2.5592     -0.0100      5.5056    115.3719     16.3945
  1295.6000      7.9482      2.5576     -0.0125      5.5984    117.5579     16.6619
  1295.7000      7.9482      2.5560     -0.0146      5.6993    119.7255     16.9067
  1295.8000      7.9599      2.5542     -0.0162      5.8075    121.7531     17.1277
  1295.9000      7.9599      2.5523     -0.0172      5.9220    123.5304     17.3246
  1296.0000      7.9642      2.5503     -0.0174      6.0417    124.9773     17.4983
  1296.1000      7.9642      2.5483     -0.0168      6.1657    126.0568     17.6510
  1296.2000      7.9642      2.5462     -0.0153      6.2927    126.7868     17.7864
  1296.3000      7.9642      2.5440     -0.0131      6.4213    127.2349     17.9102
  1296.4000      7.9642      2.5419     -0.0101      6.5497    127.5102     18.0295
  1296.5000      7.9639      2.5399     -0.0066      6.6752    127.7506     18.1531
  1296.6000      7.9639      2.5379     -0.0027      6.7949    128.1061     18.2917
  1296.7000      7.9639      2.5361      0.0015      6.9048    128.7243     18.4572
  1296.8000      7.9628      2.5345      0.0059      7.0005    129.7326     18.6622
  1296.9000      7.9628      2.5332      0.0106      7.0769    131.2291     18.9199
  1297.0000      7.9542      2.5324      0.0156      7.1285    133.2680     19.2427
  1297.1000      7.9542      2.5320      0.0211      7.1502    135.8562     19.6412
  1297.2000      7.9542      2.5322      0.0272      7.1372    138.9453     20.1226
  1297.3000      7.9425      2.5331      0.0339      7.0862    142.4380     20.6897
  1297.4000      7.9425      2.5346      0.0410      6.9952    146.1950     21.3390
  1297.5000      7.9400      2.5367      0.0485      6.8642    150.0543     22.0615
  1297.6000      7.9400      2.5395      0.0558      6.6955    153.8514     22.8419
  1297.7000      7.9400      2.5429      0.0628      6.4933    157.4406     23.6604
  1297.8000      7.9459      2.5466      0.0688      6.2637    160.7148     24.4944
  1297.9000      7.9459      2.5508      0.0736      6.0144    163.6166     25.3200
  1298.0000      7.9589      2.5551      0.0769      5.7542    166.1318     26.1147
  1298.1000      7.9589      2.5594      0.0786      5.4917    168.2896     26.8582
  1298.2000      7.9589      2.5636      0.0789      5.2355    170.1363     27.5338
  1298.3000      7.9802      2.5676      0.0778      4.9931    171.7256     28.1289
  1298.4000      7.9802      2.5713      0.0759      4.7706    173.0968     28.6356
  1298.5000      8.0008      2.5746      0.0735      4.5724    174.2730     29.0506
  1298.6000      8.0008      2.5774      0.0710      4.4012    175.2579     29.3752
  1298.7000      8.0008      2.5797      0.0690      4.2577    176.0411     29.6148
  1298.8000      8.0127      2.5817      0.0676      4.1417    176.6039     29.7790
  1298.9000      8.0127      2.5832      0.0671      4.0515    176.9316     29.8794
  1299.0000      8.0127      2.5843      0.0676      3.9845    177.0233     29.9294
