~Version Information
VERS.                      2.0: CWLS Log ASCII Standard - VERSION 2.0
WRAP.                       NO: One line per depth step
~Well Information Block
STRT.FT                -6.5000: 
STOP.FT              2698.5000: 
STEP.FT                 0.2500: 
NULL.                -999.2500: 
COMP.          Pioneer Natural Resources: COMPANY
WELL.              Cluck 21-25: WELL
FLD.           Purgatorie River: FIELD
LOC.           91' FNL & 1834' FWL--: LOCATION
PROV.                       CO: PROVINCE
CNTY.               Las Animas: COUNTRY
SRVC.          Patterson Wireline: SERVICE COMPANY
DATE.          Mon Jun 13 14:54:35 2005: LOG DATE
UWI.           05 071 08397 00: UNIQUE WELL ID
~Curve Information Block
DEPT.FT            0 000 00 00: Depth
CCL.                          : Casing Collar Locator
TT3.usec                      : CBL 3' Travel Time
AMP3.mV                       : CBL 3' Amplitude
GR.GAPI                       : Gamma Ray
~Parameter Information Block
~A  Depth       CCL         TT3         AMP3         GR     
# ...
  1601.5000      0.0000    791.4634      3.7305    124.9389
  1601.7500      0.0000    784.9390      3.5441    123.8181
  1602.0000      0.0000    784.8303      3.4407    122.0171
  1602.2500      0.0000    788.5306      3.4667    121.0767
  1602.5000      0.0000    792.8660      3.5991    121.8940
  1602.7500      0.0000    795.6058      3.7686    124.3849
  1603.0000      0.0000    795.2736      3.9077    127.7916
  1603.2500      0.0000    791.7966      3.9799    131.0902
  1603.5000      0.0000    787.8537      3.9900    133.3785
  1603.7500      0.0000    787.3356      3.9897    134.3036
  1604.0000      0.0000    791.3587      4.0450    134.2010
  1604.2500      0.0000    797.1015      4.1620    133.7902
  1604.5000      0.0000    801.2016      4.2641    133.6167
  1604.7500      0.0000    803.0319      4.2775    133.5623
  1605.0000      0.0000    804.1337      4.2213    132.7845
  1605.2500      0.0000    805.6776      4.1794    130.3862
  1605.5000      0.0000    807.4460      4.2008    126.3907
  1605.7500      0.0000    808.5159      4.2633    122.0429
  1606.0000      0.0000    807.7156      4.3189    118.9988
  1606.2500      0.0000    803.5107      4.3385    118.1777
  1606.5000      0.0000    794.6138      4.3136    119.2464
  1606.7500      0.0000    781.1032      4.2474    120.7613
  1607.0000      0.0000    764.7352      4.1430    120.4605
  1607.2500      0.0000    748.5412      3.9933    115.8859
  1607.5000      0.0000    736.2702      3.7963    105.8636
  1607.7500      0.0000    731.0854      3.5871     91.9516
  1608.0000      0.0000    733.8694      3.4235     77.9124
  1608.2500      0.0000    742.6404      3.3258     67.1141
  1608.5000      0.0000    753.3046      3.2643     60.4481
  1608.7500      0.0000    760.8613      3.2269     56.7761
  1609.0000      0.0000    761.4479      3.2585     54.8840
  1609.2500      0.0000    755.4183      3.4027     54.6032
  1609.5000      0.0000    748.3685      3.6336     56.2177
  1609.7500      0.0000    747.4066      3.8745     59.2916
  1610.0000      0.0000    755.7195      4.0594     62.4980
  1610.2500      0.0000    770.6667      4.1535     64.6546
  1610.5000      0.0000    786.2392      4.1415     65.5970
  1610.7500      0.0000    796.8046      4.0317     65.8914
  1611.0000      0.0000    799.6151      3.8728     66.0868
  1611.2500      0.0000    795.9893      3.7404     66.4910
  1611.5000      0.0000    791.3995      3.6936     67.2954
  1611.7500      0.0000    793.4662      3.7450     68.5219
  1612.0000      0.0000    807.2303      3.8566     69.9408
  1612.2500      0.0000    830.7820      3.9557     71.2655
  1612.5000      0.0000    855.9997      3.9741     72.5645
  1612.7500      0.0000    873.8013      3.8897     74.6033
  1613.0000      0.0000    877.9014      3.7231     78.6975
  1613.2500      0.0000    865.2174      3.5009     85.8422
  1613.5000      0.0000    837.4707      3.2554     95.7629
  1613.7500      0.0000    803.8296      3.0650    107.0011
  1614.0000      0.0000    777.7798      3.0419    117.9978
  1614.2500      0.0000    768.2749      3.2380    127.7310
  1614.5000      0.0000    774.2186      3.5785    135.2102
  1614.7500      0.0000    787.1260      3.9175    139.0415
  1615.0000      0.0000    797.2670      4.1509    138.2686
  1615.2500      0.0000    797.5828      4.2611    133.7497
  1615.5000      0.0000    785.0026      4.2800    128.2221
  1615.7500      0.0000    761.2467      4.2448    124.5666
  1616.0000      0.0000    732.8903      4.1935    123.9510
  1616.2500      0.0000    709.5169      4.1867    125.5198
  1616.5000      0.0000    699.8434      4.2985    127.3960
  1616.7500      0.0000    706.9529      4.5529    127.7885
  1617.0000      0.0000    725.4783      4.8740    125.7904
  1617.2500      0.0000    744.7555      5.1371    121.9662
  1617.5000      0.0000    757.0596      5.2791    118.0335
  1617.7500      0.0000    762.6422      5.3459    115.2493
  1618.0000      0.0000    766.5645      5.4305    113.0835
  1618.2500      0.0000    772.6302      5.5825    109.8992
  1618.5000      0.0000    781.0767      5.7790    104.8671
  1618.7500      0.0000    790.1553      5.9651     98.8640
  1619.0000      0.0000    798.3087      6.1018     93.4821
  1619.2500      0.0000    804.9316      6.1755     89.6351
  1619.5000      0.0000    809.8544      6.1829     87.5501
  1619.7500      0.0000    813.0572      6.1197     87.8408
  1620.0000      0.0000    815.2776      5.9777     91.7421
  1620.2500      0.0000    818.0921      5.7494     99.7014
  1620.5000      0.0000    822.3275      5.4428    110.0217
  1620.7500      0.0000    826.5153      5.0939    119.4845
  1621.0000      0.0000    827.7613      4.7520    125.5944
  1621.2500      0.0000    824.4364      4.4463    128.3783
  1621.5000      0.0000    817.7549      4.1773    130.1934
  1621.7500      0.0000    810.6596      3.9389    133.6620
  1622.0000      0.0000    805.5062      3.7428    139.2127
  1622.2500      0.0000    802.8783      3.6210    144.1865
  1622.5000      0.0000    802.0520      3.5984    144.5670
  1622.7500      0.0000    802.0381      3.6648    138.2962
  1623.0000      0.0000    802.2140      3.7914    127.3419
  1623.2500      0.0000    802.3861      3.9708    116.5610
  1623.5000      0.0000    802.4967      4.2040    110.4381
  1623.7500      0.0000    802.3190      4.4560    110.7115
  1624.0000      0.0000    801.3613      4.6644    116.2884
  1624.2500      0.0000    799.0531      4.7939    124.5296
  1624.5000      0.0000    795.1092      4.8624    132.7062
  1624.7500      0.0000    789.8434      4.9104    139.1438
  1625.0000      0.0000    784.1212      4.9587    143.5956
  1625.2500      0.0000    779.0771      4.9899    146.4277
  1625.5000      0.0000    776.0297      4.9615    147.4805
  1625.7500      0.0000    776.2963      4.8390    146.3574
  1626.0000      0.0000    780.3013      4.6287    143.9799
  1626.2500      0.0000    786.7303      4.3760    142.8129
  1626.5000      0.0000    793.1354      4.1230    144.5740
  1626.7500      0.0000    797.6037      3.8728    147.9265
  1627.0000      0.0000    799.6325      3.6121    149.2231
  1627.2500      0.0000    799.4885      3.3581    145.9171
  1627.5000      0.0000    797.1492      3.1597    139.0752
  1627.7500      0.0000    792.1862      3.0520    132.2094
  1628.0000      0.0000    784.6968      3.0314    127.8081
  1628.2500      0.0000    776.2560      3.0692    125.6777
  1628.5000      0.0000    769.7863      3.1323    124.5869
  1628.7500      0.0000    768.2239      3.2017    124.4158
  1629.0000      0.0000    772.7091      3.2942    126.0210
  1629.2500      0.0000    781.5687      3.4531    129.6104
  1629.5000      0.0000    791.3258      3.6946    133.9037
  1629.7500      0.0000    799.2762      3.9809    136.7084
  1630.0000      0.0000    805.1135      4.2634    136.2170
  1630.2500      0.0000    810.0079      4.5297    132.2192
  1630.5000      0.0000    814.6660      4.7798    126.3251
  1630.7500      0.0000    818.7751      4.9791    120.7553
  1631.0000      0.0000    822.0239      5.0746    116.7594
  1631.2500      0.0000    824.7917      5.0576    114.2161
  1631.5000      0.0000    827.6015      4.9798    112.4602
  1631.7500      0.0000    830.4477      4.8965    111.0350
  1632.0000      0.0000    832.7836      4.8175    109.8268
  1632.2500      0.0000    833.6438      4.7315    109.0019
  1632.5000      0.0000    831.7861      4.6559    108.9903
  1632.7500      0.0000    826.6428      4.6284    110.3132
  1633.0000      0.0000    819.4436      4.6565    113.2127
  1633.2500      0.0000    812.4260      4.7041    117.4459
  1633.5000      0.0000    806.2107      4.7316    122.5288
  1633.7500      0.0000    798.7353      4.7309    127.9965
  1634.0000      0.0000    787.6396      4.7156    133.2160
  1634.2500      0.0000    773.4808      4.6874    137.2044
  1634.5000      0.0000    760.5518      4.6320    139.1195
  1634.7500      0.0000    754.9136      4.5533    139.0465
