~Version Information
VERS.                      2.0: CWLS Log ASCII Standard - VERSION 2.0
WRAP.                       NO: One line per depth step
~Well Information Block
STRT.FT                -9.7500: 
STOP.FT              2158.2500: 
STEP.FT                 0.2500: 
NULL.                -999.2500: 
COMP.          Petrogulf Corporation: COMPANY
WELL.             State 16-41V: WELL
FLD.           Purgatoire River: FIELD
LOC.           335' FNL & 823' FEL--: LOCATION
PROV.                 Colorado: PROVINCE
CNTY.               Las Animas: COUNTRY
SRVC.                Patterson: SERVICE COMPANY
DATE.          Wed Aug 17 12:15:10 2005: LOG DATE
UWI.           05 071 08344 00: UNIQUE WELL ID
~Curve Information Block
DEPT.FT            0 000 00 00: Depth
CCL.                          : Casing Collar Locator
TT3.usec                      : CBL 3' Travel Time
AMP3.mV                       : CBL 3' Amplitude
GR.GAPI                       : Gamma Ray
~Parameter Information Block
~A  Depth       CCL         TT3         AMP3         GR     
# ...
  2000.2500      0.0000    732.3134      2.9407     60.9774
  2000.5000      0.0000    734.4377      2.9534     63.4995
  2000.7500      0.0000    735.8458      2.9350     64.8898
  2001.0000      0.0000    736.4218      2.8964     64.1944
  2001.2500      0.0000    736.8992      2.8457     61.6157
  2001.5000      0.0000    737.8146      2.7858     58.2552
  2001.7500      0.0000    737.9877      2.7179     55.1985
  2002.0000      0.0000    735.5390      2.6488     52.8687
  2002.2500      0.0000    730.6881      2.5944     51.1355
  2002.5000      0.0000    727.0072      2.5752     49.9036
  2002.7500      0.0000    730.0256      2.6104     49.5513
  2003.0000      0.0000    744.5367      2.7152     50.7561
  2003.2500      0.0000    771.1882      2.9057     53.8526
  2003.5000      0.0000    803.0611      3.2080     58.3825
  2003.7500      0.0000    826.3833      3.6652     63.3384
  2004.0000      0.0000    828.8921      4.3363     67.8754
  2004.2500      0.0000    809.7980      5.2832     71.7598
  2004.5000      0.0000    780.0482      6.5451     75.1722
  2004.7500      0.0000    752.1967      8.1088     78.2741
  2005.0000      0.0000    730.8650      9.8921     81.0677
  2005.2500      0.0000    712.2687     11.7542     83.3868
  2005.5000      0.0000    690.9039     13.5342     84.8982
  2005.7500      0.0000    665.2715     15.1012     85.4604
  2006.0000      0.0000    636.5657     16.3913     85.6034
  2006.2500      0.0000    603.9700     17.4071     86.3461
  2006.5000      0.0000    567.2452     18.1700     88.4566
  2006.7500      0.0000    535.6813     18.6522     91.9554
  2007.0000      0.0000    527.0565     18.7470     96.0154
  2007.2500      0.0000    551.4458     18.3281     99.1176
  2007.5000      0.0000    598.8846     17.3713     99.7212
  2007.7500      0.0000    647.1499     16.0331     97.3853
  2008.0000      0.0000    679.9748     14.5862     93.3893
  2008.2500      0.0000    695.7316     13.2448     90.1509
  2008.5000      0.0000    702.1949     12.0504     89.8113
  2008.7500      0.0000    707.2875     10.9512     92.8741
  2009.0000      0.0000    713.5894      9.9783     97.7214
  2009.2500      0.0000    718.2763      9.2785    101.5601
  2009.5000      0.0000    717.6227      8.9637    102.3525
  2009.7500      0.0000    712.3072      8.9877    100.0836
  2010.0000      2.0000    707.6996      9.1981     96.2188
  2010.2500      0.0000    708.1836      9.4705     92.2337
  2010.5000     -2.0000    712.7014      9.7891     88.9417
  2010.7500      0.0000    717.0701     10.2352     86.8412
  2011.0000      0.0000    719.0024     10.8921     86.2367
  2011.2500      0.0000    719.0239     11.7188     86.7733
  2011.5000      0.0000    717.9651     12.5313     87.4890
  2011.7500      0.0000    715.8668     13.1538     87.6915
  2012.0000      0.0000    712.9729     13.5447     87.4752
  2012.2500      0.0000    710.3448     13.7311     87.2707
  2012.5000      0.0000    709.5971     13.7090     87.2556
  2012.7500      0.0000    713.1647     13.4934     87.3006
  2013.0000      0.0000    724.8145     13.1981     87.1027
  2013.2500      0.0000    748.7918     12.9746     86.1730
  2013.5000      0.0000    786.7496     12.8767     83.9279
  2013.7500      0.0000    833.7141     12.8085     80.0486
  2014.0000      0.0000    876.6792     12.5911     74.8313
  2014.2500      0.0000    899.6442     12.0669     69.1771
  2014.5000      0.0000    893.5773     11.1753     64.0798
  2014.7500      0.0000    862.4745      9.9700     59.9451
  2015.0000      0.0000    819.5626      8.5857     56.4727
  2015.2500      0.0000    778.6147      7.1801     53.3705
  2015.5000      0.0000    748.0679      5.8878     51.0403
  2015.7500      0.0000    729.9044      4.8051     50.2774
  2016.0000      0.0000    722.0955      3.9946     51.4102
  2016.2500      0.0000    722.3135      3.4901     53.9919
  2016.5000      0.0000    729.1379      3.3026     57.2257
  2016.7500      0.0000    739.9716      3.4279     60.5209
  2017.0000      0.0000    749.5723      3.8592     63.9512
  2017.2500      0.0000    752.2054      4.6020     68.5184
  2017.5000      0.0000    744.6498      5.6947     75.6640
  2017.7500      0.0000    726.5831      7.2304     85.9279
  2018.0000      0.0000    698.3008      9.3695     97.9584
  2018.2500      0.0000    658.5109     12.3131    109.1706
  2018.5000      0.0000    605.1031     16.1970    117.5601
  2018.7500      0.0000    539.3320     20.9137    122.8119
  2019.0000      0.0000    469.3846     25.9924    125.7199
  2019.2500      0.0000    407.7243     30.7128    126.9312
  2019.5000      0.0000    363.2633     34.4367    126.5189
  2019.7500      0.0000    336.7589     36.8790    124.5581
  2020.0000      0.0000    323.6352     38.1119    121.6186
  2020.2500      0.0000    319.0914     38.4015    118.4296
  2020.5000      0.0000    319.9012     38.0758    115.2236
  2020.7500      0.0000    323.5367     37.4496    111.7327
  2021.0000      0.0000    327.6732     36.7591    107.9599
  2021.2500      0.0000    330.7739     36.1291    104.6654
  2021.5000      0.0000    332.4550     35.6084    102.7383
  2021.7500      0.0000    333.1231     35.2251    102.1701
  2022.0000      0.0000    333.3156     34.9938    101.9762
  2022.2500      0.0000    333.3356     34.8837    101.1043
  2022.5000      0.0000    333.1760     34.8212     99.3341
  2022.7500      0.0000    332.5414     34.7677     97.7740
  2023.0000      0.0000    330.9612     34.8057     98.8706
  2023.2500      0.0000    328.1989     35.1085    105.3603
  2023.5000      0.0000    324.8488     35.7704    118.0734
  2023.7500      0.0000    322.3984     36.6486    134.2933
  2024.0000      0.0000    322.2225     37.3947    148.7515
  2024.2500      0.0000    324.3496     37.6678    157.0645
  2024.5000      0.0000    327.4561     37.3558    158.6683
  2024.7500      0.0000    330.0861     36.6411    156.4757
  2025.0000      0.0000    331.6410     35.8805    153.7589
  2025.2500      0.0000    332.3192     35.3975    151.5877
  2025.5000      0.0000    332.5429     35.3195    149.0881
  2025.7500      0.0000    332.5968     35.5305    145.4006
  2026.0000      0.0000    332.5910     35.7405    140.8448
  2026.2500      0.0000    332.5392     35.6371    136.4677
  2026.5000      0.0000    332.4495     35.0491    133.1025
  2026.7500      0.0000    332.4199     34.0127    131.0541
  2027.0000      0.0000    332.9637     32.6783    130.2944
  2027.2500      0.0000    335.8428     31.1296    130.6302
  2027.5000      0.0000    345.3871     29.2750    131.7120
  2027.7500      0.0000    368.9176     26.9319    132.9674
  2028.0000      0.0000    413.6551     24.0461    133.5146
  2028.2500      0.0000    480.1487     20.8212    132.2823
  2028.5000      0.0000    558.1133     17.6054    128.4963
  2028.7500      0.0000    630.7247     14.6705    122.2293
  2029.0000      0.0000    684.2385     12.1271    114.5580
  2029.2500      0.0000    714.4182     10.0006    107.2493
  2029.5000      0.0000    726.5860      8.3022    102.0888
  2029.7500      0.0000    731.7336      7.0149    100.0104
  2030.0000      0.0000    740.3668      6.0645    100.5729
  2030.2500      0.0000    756.0214      5.3428    102.3643
  2030.5000      0.0000    773.4442      4.7612    104.0143
  2030.7500      0.0000    784.7312      4.2836    104.9380
  2031.0000      0.0000    788.3632      3.9184    105.4466
  2031.2500      0.0000    790.6298      3.6828    106.4358
  2031.5000      0.0000    797.5682      3.5727    108.7999
  2031.7500      0.0000    807.8220      3.5596    112.6416
  2032.0000      0.0000    814.3372      3.6057    116.7764
  2032.2500      0.0000    811.5536      3.6784    119.3076
  2032.5000      0.0000    800.3822      3.7494    119.0989
  2032.7500      0.0000    786.7969      3.7892    116.6248
  2033.0000      0.0000    775.7807      3.7732    113.3491
  2033.2500      0.0000    767.1517      3.6992    110.6219
  2033.5000      0.0000    757.4555      3.5956    109.2410
