~Version Information
VERS.                      2.0: CWLS Log ASCII Standard - VERSION 2.0
WRAP.                       NO: One line per depth step
~Well Information Block
STRT.FT                -4.2500: 
STOP.FT              2218.5000: 
STEP.FT                 0.2500: 
NULL.                -999.2500: 
COMP.          Pioneer Natural Resources: COMPANY
WELL.             Warrior 32-1: WELL
FLD.           Purgatorie River: FIELD
LOC.           2624' FNL & 2392' FEL--: LOCATION
PROV.                       CO: PROVINCE
CNTY.               Las Animas: COUNTRY
SRVC.                         : SERVICE COMPANY
DATE.          Tue Oct 12 10:54:12 2004: LOG DATE
UWI.           005 071 08176 : UNIQUE WELL ID
~Curve Information Block
DEPT.FT            0 000 00 00: Depth
GR.GAPI                       : Gamma Ray
CCL.                          : Casing Collar Locator
TT3.usec                      : CBL 3' Travel Time
AMP3.mV                       : CBL 3' Amplitude
~Parameter Information Block
~A  Depth        GR         CCL         TT3         AMP3    
# ...
   565.2500    132.5537      0.0000    844.2538      5.8473
   565.5000    134.3971      0.0000    846.6132      5.8771
   565.7500    136.2566      0.0000    855.1311      5.9231
   566.0000    137.6589      0.0000    865.4427      6.0250
   566.2500    138.0938      0.0000    869.5195      6.2492
   566.5000    137.3633      0.0000    860.5276      6.5834
   566.7500    135.9185      0.0000    838.6500      6.8835
   567.0000    134.4380      0.0000    811.6502      6.9926
   567.2500    133.2293      0.0000    788.8906      6.9016
   567.5000    132.2092      0.0000    774.9813      6.7414
   567.7500    131.2103      0.0000    768.8074      6.6391
   568.0000    130.1675      0.0000    766.9082      6.6240
   568.2500    129.3609      0.0000    766.5775      6.6480
   568.5000    129.5848      0.0000    766.6048      6.6492
   568.7500    131.4444      0.0000    766.6577      6.6004
   569.0000    134.3332      0.0000    766.6949      6.5228
   569.2500    136.7195      0.0000    766.7068      6.4659
   569.5000    137.4076      0.0000    766.6428      6.4684
   569.7500    135.9045      0.0000    766.4408      6.5324
   570.0000    131.9499      0.0000    766.1018      6.6289
   570.2500    125.6043      0.0000    765.7458      6.7269
   570.5000    117.8100      0.0000    765.5741      6.8187
   570.7500    110.2988      0.0000    765.7861      6.9163
   571.0000    104.7471      0.0000    766.5812      7.0292
   571.2500    101.8789      0.0000    768.1833      7.1481
   571.5000    101.0948      0.0000    770.6645      7.2506
   571.7500    101.0618      0.0000    773.6894      7.3231
   572.0000    101.1069      0.0000    776.7014      7.3754
   572.2500    102.0018      0.0000    779.4061      7.4285
   572.5000    105.0714      0.0000    781.6190      7.4865
   572.7500    110.7036      0.0000    782.5936      7.5274
   573.0000    117.9065      0.0000    781.3015      7.5244
   573.2500    124.7424      0.0000    777.7304      7.4718
   573.5000    128.9223      0.0000    773.2758      7.3899
   573.7500    128.9756      0.0000    769.5381      7.3078
   574.0000    125.6847      0.0000    767.1180      7.2406
   574.2500    121.9948      0.0000    765.5794      7.1803
   574.5000    121.0508      0.0000    763.9889      7.1092
   574.7500    124.1393      0.0000    761.2939      7.0201
   575.0000    129.9226      0.0000    756.7701      6.9234
   575.2500    135.2123      0.0000    750.8229      6.8362
   575.5000    137.0877      0.0000    745.4311      6.7674
   575.7500    134.9921      0.0000    743.1904      6.7190
   576.0000    130.8524      0.0000    745.3474      6.7016
   576.2500    127.1126      0.0000    750.7281      6.7366
   576.5000    124.5887      0.0000    756.7303      6.8329
   576.7500    121.9898      0.0000    761.2706      6.9651
   577.0000    117.4520      0.0000    763.7856      7.0927
   577.2500    110.4878      0.0000    764.8235      7.2019
   577.5000    102.5443      0.0000    765.1824      7.3156
   577.7500     96.1121      0.0000    765.4188      7.4546
   578.0000     93.4030      0.0000    765.7638      7.6030
   578.2500     95.3236      0.0000    766.2053      7.7242
   578.5000    101.1947      0.0000    766.6096      7.8042
   578.7500    109.2989      0.0000    766.8414      7.8668
   579.0000    117.6237      0.0000    766.8321      7.9460
   579.2500    124.2821      0.0000    766.5992      8.0423
   579.5000    128.0902      0.0000    766.2336      8.1094
   579.7500    129.5106      0.0000    765.8583      8.0899
   580.0000    130.8445      0.0000    765.5579      7.9663
   580.2500    134.7359      0.0000    765.3320      7.7780
   580.5000    141.8273      0.0000    765.1316      7.5935
   580.7500    149.8770      0.0000    764.9333      7.4651
   581.0000    155.5584      0.0000    764.7564      7.4036
   581.2500    157.1236      0.0000    764.6197      7.3865
   581.5000    155.3353      0.0000    764.5182      7.3869
   581.7500    152.2808      0.0000    764.4402      7.3962
   582.0000    149.5529      0.0000    764.3901      7.4181
   582.2500    147.0897      0.0000    764.3902      7.4483
   582.5000    143.5271      0.0000    764.4661      7.4694
   582.7500    138.0748      0.0000    764.6216      7.4660
   583.0000    131.8833      0.0000    764.8251      7.4415
   583.2500    127.0393      0.0000    765.0257      7.4149
   583.5000    124.8242      0.0000    765.1836      7.4032
   583.7500    125.4534      0.0000    765.2814      7.4068
   584.0000    128.4886      0.0000    765.3170      7.4100
   584.2500    132.7338      0.0000    765.3005      7.3918
   584.5000    136.4751      0.0000    765.2531      7.3383
   584.7500    138.5089      0.0000    765.1922      7.2465
   585.0000    138.9269      0.0000    765.1179      7.1229
   585.2500    139.0420      0.0000    765.0209      6.9817
   585.5000    140.4880      0.0000    764.8992      6.8456
   585.7500    143.5795      0.0000    764.7614      6.7425
   586.0000    146.4127      0.0000    764.6163      6.6919
   586.2500    146.4503      0.0000    764.4290      6.6928
   586.5000    143.1397      0.0000    764.0209      6.7266
   586.7500    138.3842      0.0000    762.9277      6.7713
   587.0000    134.6302      0.0000    760.3726      6.8115
   587.2500    133.1187      0.0000    755.6262      6.8386
   587.5000    133.7771      0.0000    748.7433      6.8490
   587.7500    135.8756      0.0000    741.0203      6.8412
   588.0000    138.3596      0.0000    734.4896      6.8147
   588.2500    140.0648      0.0000    730.8571      6.7715
   588.5000    140.4533      0.0000    730.9398      6.7197
   588.7500    140.3417      0.0000    734.7433      6.6708
   589.0000    141.4756      0.0000    741.4603      6.6322
   589.2500    144.9910      0.0000    749.3806      6.6011
   589.5000    150.2746      0.0000    756.4403      6.5665
   589.7500    155.2409      0.0000    761.2995      6.5170
   590.0000    157.7182      0.0000    763.8788      6.4482
   590.2500    156.7955      0.0000    764.9117      6.3658
   590.5000    152.8935      0.0000    765.1939      6.2865
   590.7500    146.5049      0.0000    765.2100      6.2352
   591.0000    137.2810      0.0000    765.1566      6.2323
   591.2500    124.8555      0.0000    765.0726      6.2803
   591.5000    110.3257      0.0000    764.9371      6.3643
   591.7500     96.1996      0.0000    764.7411      6.4659
   592.0000     84.9129      0.0000    764.5261      6.5718
   592.2500     77.8957      0.0000    764.3630      6.6678
   592.5000     75.7110      0.0000    764.2883      6.7323
   592.7500     78.1499      0.0000    764.2681      6.7446
   593.0000     84.1748      0.0000    764.1981      6.6989
   593.2500     92.3873      0.0000    763.8644      6.6148
   593.5000    101.6346      0.0000    762.8206      6.5322
   593.7500    110.9369      0.0000    760.3599      6.4916
   594.0000    119.1580      0.0000    755.8980      6.5144
   594.2500    125.2637      0.0000    749.7421      6.5982
   594.5000    128.9599      0.0000    743.4250      6.7235
   594.7500    130.9057      0.0000    738.7529      6.8596
   595.0000    132.2504      0.0000    736.2342      6.9706
   595.2500    133.7471      0.0000    734.7848      7.0271
   595.5000    135.2385      0.0000    733.2287      7.0181
   595.7500    136.1384      0.0000    731.7697      6.9498
   596.0000    136.3709      0.0000    731.7682      6.8332
   596.2500    136.5809      0.0000    734.2906      6.6830
   596.5000    137.3548      0.0000    739.0021      6.5284
   596.7500    138.2476      0.0000    744.3947      6.4177
   597.0000    137.5471      0.0000    749.1209      6.3967
   597.2500    133.3224      0.0000    753.0042      6.4764
   597.5000    125.2106      0.0000    756.5739      6.6187
   597.7500    115.1842      0.0000    759.9693      6.7577
   598.0000    106.3044      0.0000    762.7322      6.8397
   598.2500    100.8484      0.0000    764.4357      6.8443
   598.5000     99.6266      0.0000    765.0524      6.7752
