~Version Information
 VERS.                                  2.0 : CWLS LAS VERSION
 WRAP.                                   NO : WRAPING MODE
 SWARE .                 MController 2.5.0I : SOFTWARE VERSION
~Well Information
 WELL.                       Montoya 13-41v : WELL
 COMP.                        Pertogulf Corp: COMPANY
 FLD.                      Pergatorie River : FIELD
 LOC.                NE/NE Sec 13 T33S R68W : LOCATION
 DATE.                           8/16-17/04 : DATE(S) LOGGED
 SRVC.       Blanco Geological Services LLC : SERVICE COMPANY
 STAT.                                   CO : STATE
 CNTY.                           Las Animas : COUNTY
 CTRY.                                  USA : COUNTRY
 API.                       05-071-08021-00 : API NUMBER
 STRT.FT                             767.00 : START DEPTH
 STOP.FT                            2499.00 : STOP DEPTH
 STEP.FT                               1.00 : DEPTH INCREMENT
 NULL.                                -9999 : NULL VALUE
~Curve information
 DEPTH.FT                                   :
 ROP.MIN/FT                                 :
 GAS.UNITS                                  :
~ASCII Log data
# ...
      1567.0          0.4          6.7 
      1568.0          0.4          6.1 
      1569.0          0.3          6.1 
      1570.0          0.3          6.0 
      1571.0          0.4          6.1 
      1572.0          0.3          5.9 
      1573.0          0.3          5.9 
      1574.0          0.4          5.9 
      1575.0          0.3          5.9 
      1576.0          0.3          6.0 
      1577.0          0.3          5.8 
      1578.0          0.4          6.1 
      1579.0          0.3          6.0 
      1580.0          0.3          6.2 
      1581.0          0.3          6.5 
      1582.0          0.3          6.2 
      1583.0          0.3          6.1 
      1584.0          0.3          6.0 
      1585.0          0.3          5.9 
      1586.0          0.3          6.2 
      1587.0          0.3          5.8 
      1588.0          0.5         12.9 
      1589.0          0.3         15.0 
      1590.0          4.8         42.3 
      1591.0          0.3          5.1 
      1592.0          0.3          4.6 
      1593.0          0.4          3.9 
      1594.0          0.5          3.9 
      1595.0          0.8          6.2 
      1596.0          0.7          7.4 
      1597.0          0.5          7.4 
      1598.0          0.5          6.6 
      1599.0          0.3          6.5 
      1600.0          0.3          6.3 
      1601.0          0.5          6.2 
      1602.0          0.4          6.0 
      1603.0          0.5          6.2 
      1604.0          0.4          6.6 
      1605.0          0.4          6.7 
      1606.0          0.4          6.6 
      1607.0          0.3          6.3 
      1608.0          0.3          6.2 
      1609.0          0.2          6.3 
      1610.0          0.2          6.0 
      1611.0          0.3          6.1 
      1612.0          0.4          5.9 
      1613.0          0.3          6.0 
      1614.0          0.3          5.5 
      1615.0          0.7          5.8 
      1616.0          0.9          6.0 
      1617.0          0.7          6.0 
      1618.0          0.7          6.5 
      1619.0          0.9          7.4 
      1620.0          6.0         35.8 
      1621.0          2.5          7.1 
      1622.0          1.3         10.1 
      1623.0          0.7          6.6 
      1624.0          0.8          3.7 
      1625.0          0.8          4.5 
      1626.0          0.8          5.2 
      1627.0          0.9          5.5 
      1628.0          0.7          5.5 
      1629.0          1.1          6.1 
      1630.0          1.5          6.6 
      1631.0          2.1          5.8 
      1632.0          1.0          5.3 
      1633.0          1.5          6.1 
      1634.0          1.0          6.1 
      1635.0          1.5          6.6 
      1636.0          1.2          7.1 
      1637.0          0.6          6.9 
      1638.0          0.6          6.6 
      1639.0          0.8          6.6 
      1640.0          0.5          6.6 
      1641.0          0.8          6.7 
      1642.0          0.5          6.3 
      1643.0          0.4          6.5 
      1644.0          0.5          6.3 
      1645.0          0.5          6.3 
      1646.0          0.4          6.1 
      1647.0          0.4          6.0 
      1648.0          0.4          6.1 
      1649.0          0.7         14.0 
      1650.0          3.8         26.6 
      1651.0          0.8         20.2 
      1652.0          0.9          7.1 
      1653.0          0.7          7.2 
      1654.0          0.5          7.5 
      1655.0          0.5          7.0 
      1656.0          0.6          6.4 
      1657.0          0.5          6.1 
      1658.0          0.4          6.1 
      1659.0          0.5          6.2 
      1660.0          0.5          6.3 
      1661.0          0.4          6.4 
      1662.0          0.3          6.5 
      1663.0          0.3          6.6 
      1664.0          0.3          6.6 
      1665.0          0.3          6.6 
      1666.0          0.2          6.6 
      1667.0          0.3          6.5 
      1668.0          0.3          6.3 
      1669.0          0.3          6.3 
      1670.0          0.4          6.1 
      1671.0          0.4          6.1 
      1672.0          0.4          6.6 
      1673.0          0.4          7.3 
      1674.0          0.3          9.8 
      1675.0          0.4         12.6 
      1676.0          0.4         15.2 
      1677.0          0.4         16.9 
      1678.0          0.4         53.0 
      1679.0          0.2         62.0 
      1680.0          3.8        119.4 
      1681.0          1.0        110.6 
      1682.0          0.8         43.2 
      1683.0          0.8         35.8 
      1684.0          0.5         35.8 
      1685.0          0.6         32.0 
      1686.0          0.5         26.4 
      1687.0          0.5         22.8 
      1688.0          0.5         21.1 
      1689.0          0.5         20.6 
      1690.0          0.4         19.7 
      1691.0          0.5         19.8 
      1692.0          0.4         19.5 
      1693.0          0.4         19.6 
      1694.0          0.4         19.1 
      1695.0          0.3         18.5 
      1696.0          0.4         17.0 
      1697.0          0.4         16.7 
      1698.0          0.4         16.5 
      1699.0          0.4         15.8 
      1700.0          0.4         15.6 
      1701.0          0.4         15.3 
      1702.0          0.4         15.3 
      1703.0          0.3         15.1 
      1704.0          0.3         15.1 
      1705.0          0.3         14.8 
      1706.0          0.3         15.1 
      1707.0          0.3         16.2 
      1708.0          0.3         35.2 
      1709.0          0.3         36.0 
      1710.0          4.2         76.6 
      1711.0          0.9         57.0 
      1712.0          0.6         13.2 
      1713.0          0.6         11.8 
      1714.0          0.6         15.8 
      1715.0          0.6         16.2 
      1716.0          0.6         15.1 
      1717.0          0.4         11.5 
      1718.0          0.5         11.4 
      1719.0          0.6         10.6 
      1720.0          0.5         10.7 
      1721.0          0.5         10.9 
      1722.0          0.4         11.2 
      1723.0          0.4         11.0 
      1724.0          0.3         10.8 
      1725.0          0.4         10.4 
      1726.0          0.4         10.3 
      1727.0          0.4         10.6 
      1728.0          0.3         10.6 
      1729.0          0.4         10.5 
      1730.0          0.4         10.6 
      1731.0          0.4         10.6 
      1732.0          0.3         10.4 
      1733.0          0.3         10.6 
      1734.0          0.3         10.8 
      1735.0          0.3         10.5 
      1736.0          0.2         10.2 
      1737.0          0.3         10.7 
      1738.0          0.3         16.2 
      1739.0          0.3         26.5 
      1740.0          4.2         54.7 
      1741.0          0.5         39.6 
      1742.0          0.7         17.1 
      1743.0          0.8         10.4 
      1744.0          0.5         13.3 
      1745.0          0.5         13.3 
      1746.0          0.5         12.3 
      1747.0          0.5         10.7 
      1748.0          0.5         10.0 
      1749.0          0.4          9.7 
      1750.0          0.4          9.7 
      1751.0          0.4          9.3 
      1752.0          0.4          9.8 
      1753.0          0.4          9.3 
      1754.0          0.5          9.3 
      1755.0          0.3          8.5 
      1756.0          0.3          7.8 
      1757.0          0.2          7.8 
      1758.0          0.3          7.7 
      1759.0          0.3          7.6 
      1760.0          0.4          7.7 
      1761.0          0.4          7.5 
      1762.0          0.4          7.4 
      1763.0          0.4          7.4 
      1764.0          0.4          7.7 
      1765.0          0.8          7.7 
      1766.0          1.0          8.2 
