~Version Information
VERS.                      2.0: CWLS Log ASCII Standard - VERSION 2.0
WRAP.                       NO: One line per depth step
~Well Information Block
STRT.FT               250.0000: 
STOP.FT              1573.7500: 
STEP.FT                 0.2500: 
NULL.                -999.2500: 
COMP.          Pioneer Natural Resources: COMPANY
WELL.          Big Cat Federal 44-1: WELL
FLD.           Purgatoire River: FIELD
LOC.           197' FSL & 973' FEL--: LOCATION
CNTY.               Las Animas: COUNTY
SRVC.                Patterson: SERVICE COMPANY
DATE.          Sun Apr 23 14:54:11 2006: LOG DATE
UWI.           05 071 08042 00: UNIQUE WELL ID
STAT.                 Colorado: STATE
~Curve Information Block
DEPT.FT            0 000 00 00: Depth
DIR.Ohm-m                     : IEL Induction Resistivity
GR.GAPI                       : Gamma Ray
~Parameter Information Block
~A  Depth       DIR          GR     
# ...
  1253.5000     21.5297     98.1630
  1253.7500     21.6772     98.2362
  1254.0000     21.8171     96.7094
  1254.2500     21.8828     95.4310
  1254.5000     21.7798     94.5092
  1254.7500     21.4106     94.6991
  1255.0000     20.7242     95.3942
  1255.2500     19.7561     95.7386
  1255.5000     18.6181     96.4707
  1255.7500     17.4442     97.7873
  1256.0000     16.3377    101.9399
  1256.2500     15.3517    106.1934
  1256.5000     14.4966    114.0855
  1256.7500     13.7588    119.8067
  1257.0000     13.1181    128.3008
  1257.2500     12.5599    133.5025
  1257.5000     12.0804    139.9454
  1257.7500     11.6861    143.0626
  1258.0000     11.3882    145.8990
  1258.2500     11.1967    146.7558
  1258.5000     11.1154    147.1192
  1258.7500     11.1388    147.2318
  1259.0000     11.2512    147.9634
  1259.2500     11.4274    148.9829
  1259.5000     11.6356    150.8767
  1259.7500     11.8444    151.9311
  1260.0000     12.0294    152.7753
  1260.2500     12.1772    152.9255
  1260.5000     12.2869    152.6815
  1260.7500     12.3671    151.9597
  1261.0000     12.4323    149.3691
  1261.2500     12.4957    146.7092
  1261.5000     12.5643    142.6460
  1261.7500     12.6378    140.8232
  1262.0000     12.7123    140.0711
  1262.2500     12.7876    140.6513
  1262.5000     12.8707    142.5186
  1262.7500     12.9744    144.2613
  1263.0000     13.1127    147.3114
  1263.2500     13.2979    149.0645
  1263.5000     13.5405    149.7368
  1263.7500     13.8504    148.2006
  1264.0000     14.2350    142.9539
  1264.2500     14.6946    138.1210
  1264.5000     15.2192    130.2136
  1264.7500     15.7888    125.2434
  1265.0000     16.3787    119.5164
  1265.2500     16.9682    117.4180
  1265.5000     17.5490    116.7051
  1265.7500     18.1259    117.1118
  1266.0000     18.7096    117.8429
  1266.2500     19.3036    118.2651
  1266.5000     19.8927    119.0619
  1266.7500     20.4371    119.6017
  1267.0000     20.8780    119.7054
  1267.2500     21.1532    119.0147
  1267.5000     21.2251    117.1875
  1267.7500     21.1034    116.0292
  1268.0000     20.8489    115.4966
  1268.2500     20.5463    116.4557
  1268.5000     20.2644    120.1633
  1268.7500     20.0265    123.7767
  1269.0000     19.8046    129.4056
  1269.2500     19.5325    132.3467
  1269.5000     19.1319    134.6985
  1269.7500     18.5420    135.0189
  1270.0000     17.7487    134.6831
  1270.2500     16.8013    134.8568
  1270.5000     15.8001    137.2284
  1270.7500     14.8594    140.4453
  1271.0000     14.0704    146.3349
  1271.2500     13.4846    149.5736
  1271.5000     13.1164    151.8925
  1271.7500     12.9538    151.9517
  1272.0000     12.9685    151.0042
  1272.2500     13.1248    149.8156
  1272.5000     13.3892    145.8037
  1272.7500     13.7388    140.6071
  1273.0000     14.1658    128.9131
  1273.2500     14.6778    119.8617
  1273.5000     15.2944    107.9092
  1273.7500     16.0410    102.6269
  1274.0000     16.9364     99.5228
  1274.2500     17.9721    100.0611
  1274.5000     19.0869    102.6154
  1274.7500     20.1507    104.0465
  1275.0000     20.9862    104.2191
  1275.2500     21.4371    103.0870
  1275.5000     21.4502    100.9130
  1275.7500     21.1030    100.0507
  1276.0000     20.5570    100.7156
  1276.2500     19.9795    102.9211
  1276.5000     19.4894    109.2222
  1276.7500     19.1370    114.9803
  1277.0000     18.9102    124.0296
  1277.2500     18.7541    129.1468
  1277.5000     18.6011    134.5191
  1277.7500     18.3994    136.7319
  1278.0000     18.1329    138.6680
  1278.2500     17.8216    139.2237
  1278.5000     17.5097    138.8123
  1278.7500     17.2477    137.6277
  1279.0000     17.0780    134.9078
  1279.2500     17.0242    132.9936
  1279.5000     17.0874    130.8099
  1279.7500     17.2495    130.1091
  1280.0000     17.4808    130.4670
  1280.2500     17.7507    131.4644
  1280.5000     18.0321    132.4965
  1280.7500     18.2997    131.3525
  1281.0000     18.5273    124.9773
  1281.2500     18.6919    117.7805
  1281.5000     18.7861    105.1712
  1281.7500     18.8261     97.7728
  1282.0000     18.8469     91.4878
  1282.2500     18.8848     91.4334
  1282.5000     18.9622     97.0308
  1282.7500     19.0837    103.2052
  1283.0000     19.2412    112.8468
  1283.2500     19.4242    117.6840
  1283.5000     19.6270    120.6925
  1283.7500     19.8543    119.7604
  1284.0000     20.1228    115.1055
  1284.2500     20.4584    111.0327
  1284.5000     20.8914    105.7262
  1284.7500     21.4482    103.5114
  1285.0000     22.1410    101.7922
  1285.2500     22.9563    100.7877
  1285.5000     23.8510     98.1498
  1285.7500     24.7607     95.4975
  1286.0000     25.6173     90.8748
  1286.2500     26.3622     87.9989
  1286.5000     26.9512     85.0161
  1286.7500     27.3574     84.2053
  1287.0000     27.5834     84.3658
  1287.2500     27.6691     84.8474
  1287.5000     27.6811     85.4096
  1287.7500     27.6852     85.5592
  1288.0000     27.7205     85.6571
  1288.2500     27.7899     85.8543
  1288.5000     27.8717     86.4884
  1288.7500     27.9437     86.9747
  1289.0000     28.0041     87.5408
  1289.2500     28.0743     87.8855
  1289.5000     28.1849     88.4610
  1289.7500     28.3561     88.6501
  1290.0000     28.5872     88.1860
  1290.2500     28.8575     87.5357
  1290.5000     29.1378     86.9505
  1290.7500     29.4035     87.2550
  1291.0000     29.6383     88.9592
  1291.2500     29.8201     90.8319
  1291.5000     29.8958     94.1360
  1291.7500     29.7764     96.0047
  1292.0000     29.3687     97.3216
  1292.2500     28.6334     97.1974
  1292.5000     27.6210     96.3622
  1292.7500     26.4595     95.9757
  1293.0000     25.3086     96.6198
  1293.2500     24.3137     98.4840
  1293.5000     23.5791    104.0350
  1293.7500     23.1560    109.0411
  1294.0000     23.0418    115.8472
  1294.2500     23.1888    118.0936
  1294.5000     23.5186    116.3763
  1294.7500     23.9386    112.3293
  1295.0000     24.3553    104.7495
  1295.2500     24.6765    100.5407
  1295.5000     24.8079     97.1563
  1295.7500     24.6592     96.7381
  1296.0000     24.1682     97.9980
  1296.2500     23.3326     99.9553
  1296.5000     22.2191    105.2163
  1296.7500     20.9403    110.6114
  1297.0000     19.6172    120.8280
  1297.2500     18.3526    127.9203
  1297.5000     17.2208    137.2862
  1297.7500     16.2691    142.5475
  1298.0000     15.5233    149.9327
  1298.2500     14.9929    155.1208
  1298.5000     14.6744    163.8230
  1298.7500     14.5530    170.2932
  1299.0000     14.6051    180.1635
  1299.2500     14.7996    185.3277
  1299.5000     15.0987    187.2018
  1299.7500     15.4575    183.1685
  1300.0000     15.8230    170.5836
  1300.2500     16.1369    160.5535
  1300.5000     16.3423    147.9716
  1300.7500     16.3936    142.6686
  1301.0000     16.2679    138.7319
  1301.2500     15.9740    137.4876
  1301.5000     15.5528    135.7799
  1301.7500     15.0668    134.2467
  1302.0000     14.5802    131.4326
  1302.2500     14.1420    129.6416
  1302.5000     13.7776    128.0068
  1302.7500     13.4922    127.8395
  1303.0000     13.2780    128.3735
  1303.2500     13.1214    128.6275
  1303.5000     13.0056    128.3018
  1303.7500     12.9102    127.7676
  1304.0000     12.8112    127.0612
  1304.2500     12.6855    126.8849
  1304.5000     12.5182    127.3800
  1304.7500     12.3083    128.4630
  1305.0000     12.0693    131.3654
  1305.2500     11.8225    133.7739
  1305.5000     11.5893    136.9435
  1305.7500     11.3863    138.2985
  1306.0000     11.2250    139.1449
  1306.2500     11.1128    139.1384
  1306.5000     11.0541    138.6377
  1306.7500     11.0510    137.9988
  1307.0000     11.1040    136.1859
  1307.2500     11.2115    134.2087
  1307.5000     11.3713    130.5130
  1307.7500     11.5814    128.1729
  1308.0000     11.8401    125.7072
  1308.2500     12.1455    124.9029
  1308.5000     12.4915    124.6914
  1308.7500     12.8641    124.8617
  1309.0000     13.2403    124.8580
