~Version Information
VERS.                      2.0: CWLS Log ASCII Standard - VERSION 2.0
WRAP.                       NO: One line per depth step
~Well Information Block
STRT.FT               250.0000: 
STOP.FT              2600.7500: 
STEP.FT                 0.2500: 
NULL.                -999.2500: 
COMP.          Pioneer Natural Resources: COMPANY
WELL.              Quack 22-24: WELL
FLD.           Purgatoire River: FIELD
LOC.           2492' FNL & 2459' FWL--: LOCATION
PROV.                 Colorado: PROVINCE
CNTY.               Las Animas: COUNTRY
SRVC.                Patterson: SERVICE COMPANY
DATE.          Sun Jun 12 09:02:01 2005: LOG DATE
UWI.            05 071 0840200: UNIQUE WELL ID
~Curve Information Block
DEPT.FT            0 000 00 00: Depth
SN.Ohm-m                      : IEL Short Normal
SP.mV                         : IEL Spontaneous Potential
DIR.Ohm-m                     : IEL Induction Resistivity
GR.GAPI                       : Gamma Ray
~Parameter Information Block
~A  Depth        SN          SP         DIR          GR     
# ...
  1791.0000     10.7328    -71.9309      9.9568    136.9547
  1791.2500     10.6767    -72.4684     10.0002    136.1586
  1791.5000     10.5917    -73.1884     10.0187    137.6442
  1791.7500     10.4685    -74.0630     10.0233    140.0548
  1792.0000     10.3005    -75.0314     10.0250    144.1370
  1792.2500     10.0804    -76.0134     10.0292    146.2117
  1792.5000      9.7956    -76.9255     10.0312    147.4662
  1792.7500      9.4331    -77.6951     10.0169    147.1096
  1793.0000      8.9943    -78.2707      9.9692    145.6681
  1793.2500      8.5165    -78.6261      9.8769    144.7653
  1793.5000      8.0870    -78.7616      9.7429    144.3498
  1793.7500      7.8258    -78.6995      9.5838    144.9384
  1794.0000      7.8295    -78.4788      9.4220    146.9668
  1794.2500      8.1051    -78.1477      9.2741    148.6134
  1794.5000      8.5480    -77.7561      9.1439    150.5303
  1794.7500      8.9874    -77.3492      9.0223    151.1640
  1795.0000      9.2720    -76.9619      8.8929    151.3761
  1795.2500      9.3386    -76.6179      8.7400    151.3159
  1795.5000      9.2255    -76.3298      8.5556    151.2103
  1795.7500      9.0313    -76.1004      8.3426    151.0582
  1796.0000      8.8518    -75.9264      8.1128    150.4117
  1796.2500      8.7357    -75.8003      7.8820    149.7511
  1796.5000      8.6771    -75.7123      7.6645    149.1261
  1796.7500      8.6368    -75.6515      7.4701    149.4060
  1797.0000      8.5744    -75.6066      7.3034    150.9122
  1797.2500      8.4713    -75.5669      7.1659    152.2016
  1797.5000      8.3363    -75.5248      7.0565    153.6462
  1797.7500      8.1941    -75.4770      6.9734    153.8862
  1798.0000      8.0707    -75.4267      6.9148    152.6132
  1798.2500      7.9849    -75.3824      6.8799    150.4259
  1798.5000      7.9495    -75.3562      6.8697    145.2296
  1798.7500      7.9745    -75.3603      6.8866    140.9946
  1799.0000      8.0667    -75.4032      6.9346    134.9004
  1799.2500      8.2270    -75.4879      7.0175    131.9445
  1799.5000      8.4509    -75.6122      7.1393    130.4055
  1799.7500      8.7310    -75.7714      7.3030    131.3557
  1800.0000      9.0583    -75.9624      7.5106    134.2944
  1800.2500      9.4219    -76.1883      7.7625    136.0634
  1800.5000      9.8109    -76.4613      8.0573    137.2974
  1800.7500     10.2199    -76.8032      8.3933    137.3533
  1801.0000     10.6542    -77.2442      8.7712    137.3640
  1801.2500     11.1315    -77.8180      9.1973    137.7812
  1801.5000     11.6783    -78.5571      9.6863    138.5999
  1801.7500     12.3217    -79.4861     10.2612    138.3037
  1802.0000     13.0810    -80.6156     10.9493    134.7892
  1802.2500     13.9626    -81.9367     11.7741    130.0142
  1802.5000     14.9612    -83.4167     12.7487    120.1365
  1802.7500     16.0666    -84.9978     13.8722    112.8405
  1803.0000     17.2654    -86.5988     15.1313    102.6118
  1803.2500     18.5311    -88.1202     16.4997     96.9332
  1803.5000     19.8042    -89.4542     17.9260     90.6741
  1803.7500     20.9733    -90.4966     19.3083     88.1770
  1804.0000     21.8769    -91.1606     20.4757     87.1595
  1804.2500     22.3439    -91.3883     21.2163     88.3320
  1804.5000     22.2650    -91.1592     21.3655     92.7010
  1804.7500     21.6481    -90.4940     20.9004     97.1685
  1805.0000     20.6109    -89.4524     19.9505    105.7825
  1805.2500     19.3203    -88.1250     18.7175    112.4258
  1805.5000     17.9323    -86.6221     17.3841    122.7063
  1805.7500     16.5656    -85.0592     16.0713    128.9342
  1806.0000     15.2996    -83.5429     14.8444    135.9780
  1806.2500     14.1746    -82.1595     13.7329    138.8753
  1806.5000     13.1918    -80.9675     12.7486    141.4811
  1806.7500     12.3256    -79.9953     11.8934    143.0254
  1807.0000     11.5469    -79.2445     11.1626    146.0410
  1807.2500     10.8421    -78.6962     10.5466    148.3811
  1807.5000     10.2159    -78.3205     10.0336    151.4155
  1807.7500      9.6812    -78.0853      9.6120    152.4960
  1808.0000      9.2468    -77.9643      9.2709    152.0915
  1808.2500      8.9109    -77.9413      8.9994    150.6243
  1808.5000      8.6611    -78.0113      8.7849    147.6742
  1808.7500      8.4799    -78.1767      8.6124    145.8523
  1809.0000      8.3515    -78.4423      8.4668    143.7904
  1809.2500      8.2640    -78.8088      8.3356    142.8878
  1809.5000      8.2077    -79.2689      8.2128    142.5883
  1809.7500      8.1723    -79.8059      8.0995    143.5000
  1810.0000      8.1469    -80.3952      8.0015    146.8598
  1810.2500      8.1225    -81.0092      7.9250    150.1067
  1810.5000      8.0932    -81.6211      7.8730    155.1441
  1810.7500      8.0556    -82.2102      7.8428    157.5819
  1811.0000      8.0089    -82.7646      7.8270    158.3309
  1811.2500      7.9561    -83.2815      7.8158    156.6435
  1811.5000      7.9047    -83.7644      7.8004    151.7951
  1811.7500      7.8633    -84.2157      7.7750    147.9214
  1812.0000      7.8386    -84.6282      7.7371    142.3619
  1812.2500      7.8305    -84.9766      7.6871    139.4309
  1812.5000      7.8274    -85.2136      7.6270    137.5441
  1812.7500      7.8050    -85.2748      7.5595    138.6217
  1813.0000      7.7344    -85.0920      7.4873    143.5418
  1813.2500      7.5946    -84.6126      7.4118    148.0081
  1813.5000      7.3782    -83.8181      7.3331    154.2962
  1813.7500      7.0889    -82.7345      7.2506    157.3396
  1814.0000      6.7410    -81.4307      7.1637    159.6896
  1814.2500      6.3654    -80.0059      7.0729    159.9225
  1814.5000      6.0125    -78.5694      6.9793    159.0067
  1814.7500      5.7457    -77.2201      6.8845    158.1163
  1815.0000      5.6211    -76.0318      6.7905    157.0789
  1815.2500      5.6611    -75.0461      6.6984    156.7774
  1815.5000      5.8364    -74.2739      6.6088    157.1437
  1815.7500      6.0737    -73.7019      6.5231    158.0375
  1816.0000      6.2881    -73.3031      6.4432    159.9856
  1816.2500      6.4211    -73.0454      6.3720    160.9895
  1816.5000      6.4582    -72.8985      6.3116    160.6836
  1816.7500      6.4199    -72.8379      6.2631    159.0347
  1817.0000      6.3395    -72.8455      6.2258    155.4644
  1817.2500      6.2450    -72.9081      6.1981    153.4195
  1817.5000      6.1555    -73.0161      6.1787    152.1104
  1817.7500      6.0832    -73.1621      6.1663    152.4409
  1818.0000      6.0332    -73.3406      6.1600    153.9621
  1818.2500      6.0014    -73.5481      6.1587    155.0749
  1818.5000      5.9776    -73.7840      6.1612    155.9975
  1818.7500      5.9548    -74.0505      6.1658    155.8462
  1819.0000      5.9352    -74.3522      6.1705    154.8873
  1819.2500      5.9270    -74.6944      6.1746    154.4213
  1819.5000      5.9352    -75.0819      6.1790    154.8274
  1819.7500      5.9588    -75.5177      6.1866    155.7369
  1820.0000      5.9955    -76.0020      6.2013    157.0988
  1820.2500      6.0460    -76.5316      6.2266    157.3580
  1820.5000      6.1117    -77.0993      6.2640    156.0029
  1820.7500      6.1879    -77.6933      6.3136    153.8466
  1821.0000      6.2638    -78.2969      6.3736    149.4583
  1821.2500      6.3299    -78.8888      6.4413    146.6394
  1821.5000      6.3822    -79.4440      6.5138    144.1959
  1821.7500      6.4180    -79.9361      6.5892    144.3354
  1822.0000      6.4290    -80.3404      6.6664    146.8689
  1822.2500      6.4028    -80.6377      6.7451    149.1068
  1822.5000      6.3314    -80.8166      6.8244    151.2036
  1822.7500      6.2178    -80.8766      6.9016    151.1676
  1823.0000      6.0790    -80.8277      6.9725    149.6107
  1823.2500      5.9434    -80.6898      7.0326    148.3888
  1823.5000      5.8460    -80.4900      7.0792    146.9762
  1823.7500      5.8184    -80.2593      7.1119    146.0463
  1824.0000      5.8786    -80.0292      7.1310    143.7608
  1824.2500      6.0235    -79.8279      7.1356    141.2908
