~Version Information
VERS.                      2.0: CWLS Log ASCII Standard - VERSION 2.0
WRAP.                       NO: One line per depth step
~Well Information Block
STRT.FT               660.8000: 
STOP.FT              2375.1000: 
STEP.FT                 0.1000: 
NULL.                -999.2500: 
COMP.          Petrogulf Corporation: COMPANY
WELL.             State 16-34V: WELL
FLD.           Purgatorie River: FIELD
LOC.           1146' FSL & 1393' FEL: LOCATION
CNTY.               Las Animas: COUNTY
SRVC.                         : SERVICE COMPANY
DATE.          Sat Jun 07 20:51:20 2003: LOG DATE
UWI.           05 071 07724 00: UNIQUE WELL ID
STAT.                 Colorado: STATE
~Curve Information Block
DEPT.FT            0 000 00 00: Depth
DCAL.in                       : Caliper from Density Tool
RHOB.g/cc                     : Bulk Density
RHOC.g/cc                     : Density Correction
DPOR.pu                       : Density Porosity
GR.GAPI                       : Gamma Ray
NPOR.pu                       : Neutron Porosity
~Parameter Information Block
~A  Depth       DCAL        RHOB        RHOC        DPOR         GR         NPOR    
# ...
  1793.6000      7.7566      2.4192      0.0699     13.9864     82.1287     16.3127
  1793.7000      7.7566      2.4192      0.0699     13.9864     81.6372     16.5019
  1793.8000      7.7597      2.4250      0.0626     13.6373     81.3857     16.7801
  1793.9000      7.7597      2.4250      0.0626     13.6373     81.4274     17.1394
  1794.0000      7.8122      2.4339      0.0622     13.0963     81.8238     17.5680
  1794.1000      7.8122      2.4339      0.0622     13.0963     82.6434     18.0519
  1794.2000      7.8122      2.4339      0.0622     13.0963     83.9578     18.5753
  1794.3000      7.8253      2.4522      0.0667     11.9884     85.8352     19.1219
  1794.4000      7.8253      2.4522      0.0667     11.9884     88.3358     19.6757
  1794.5000      7.8205      2.4645      0.0713     11.2401     91.5025     20.2223
  1794.6000      7.8205      2.4645      0.0713     11.2401     95.3541     20.7489
  1794.7000      7.8205      2.4645      0.0713     11.2401     99.8825     21.2451
  1794.8000      7.8045      2.4778      0.0770     10.4380    105.0450     21.7025
  1794.9000      7.8045      2.4778      0.0770     10.4380    110.7640     22.1155
  1795.0000      7.7915      2.4813      0.0783     10.2272    116.9253     22.4803
  1795.1000      7.7915      2.4813      0.0783     10.2272    123.3812     22.7951
  1795.2000      7.7915      2.4813      0.0783     10.2272    129.9557     23.0589
  1795.3000      7.8468      2.4786      0.0757     10.3869    136.4543     23.2713
  1795.4000      7.8468      2.4786      0.0757     10.3869    142.6757     23.4317
  1795.5000      7.8536      2.4729      0.0710     10.7305    148.4295     23.5395
  1795.6000      7.8536      2.4729      0.0710     10.7305    153.5502     23.5935
  1795.7000      7.8536      2.4729      0.0710     10.7305    157.9137     23.5933
  1795.8000      7.8099      2.4613      0.0602     11.4337    161.4474     23.5398
  1795.9000      7.8099      2.4613      0.0602     11.4337    164.1333     23.4363
  1796.0000      7.8094      2.4531      0.0512     11.9332    166.0048     23.2894
  1796.1000      7.8094      2.4531      0.0512     11.9332    167.1326     23.1090
  1796.2000      7.8094      2.4531      0.0512     11.9332    167.6094     22.9072
  1796.3000      7.8353      2.4427      0.0371     12.5654    167.5307     22.6981
  1796.4000      7.8353      2.4427      0.0371     12.5654    166.9760     22.4947
  1796.5000      7.8504      2.4386      0.0292     12.8130    165.9993     22.3082
  1796.6000      7.8504      2.4386      0.0292     12.8130    164.6268     22.1453
  1796.7000      7.8504      2.4386      0.0292     12.8130    162.8629     22.0082
  1796.8000      7.8252      2.4389      0.0230     12.7963    160.7016     21.8936
  1796.9000      7.8252      2.4389      0.0230     12.7963    158.1405     21.7937
  1797.0000      7.8342      2.4436      0.0244     12.5073    155.1936     21.6972
  1797.1000      7.8342      2.4436      0.0244     12.5073    151.8995     21.5918
  1797.2000      7.8342      2.4436      0.0244     12.5073    148.3208     21.4651
  1797.3000      7.8634      2.4559      0.0349     11.7635    144.5386     21.3073
  1797.4000      7.8634      2.4559      0.0349     11.7635    140.6431     21.1121
  1797.5000      7.8461      2.4652      0.0462     11.1985    136.7189     20.8777
  1797.6000      7.8461      2.4652      0.0462     11.1985    132.8367     20.6067
  1797.7000      7.8461      2.4652      0.0462     11.1985    129.0452     20.3057
  1797.8000      7.8299      2.4761      0.0649     10.5413    125.3702     19.9838
  1797.9000      7.8299      2.4761      0.0649     10.5413    121.8209     19.6515
  1798.0000      7.8437      2.4788      0.0755     10.3784    118.3926     19.3187
  1798.1000      7.8437      2.4788      0.0755     10.3784    115.0771     18.9935
  1798.2000      7.8437      2.4788      0.0755     10.3784    111.8689     18.6813
  1798.3000      7.8785      2.4739      0.0848     10.6702    108.7695     18.3846
  1798.4000      7.8785      2.4739      0.0848     10.6702    105.7889     18.1028
  1798.5000      7.8789      2.4653      0.0856     11.1927    102.9434     17.8332
  1798.6000      7.8789      2.4653      0.0856     11.1927    100.2556     17.5717
  1798.7000      7.8789      2.4653      0.0856     11.1927     97.7482     17.3137
  1798.8000      7.8187      2.4477      0.0797     12.2604     95.4384     17.0552
  1798.9000      7.8187      2.4477      0.0797     12.2604     93.3376     16.7932
  1799.0000      7.8131      2.4357      0.0730     12.9874     91.4485     16.5266
  1799.1000      7.8131      2.4357      0.0730     12.9874     89.7643     16.2556
  1799.2000      7.8131      2.4357      0.0730     12.9874     88.2700     15.9820
  1799.3000      7.8675      2.4219      0.0622     13.8230     86.9439     15.7092
  1799.4000      7.8675      2.4219      0.0622     13.8230     85.7625     15.4414
  1799.5000      7.8777      2.4171      0.0565     14.1159     84.7012     15.1834
  1799.6000      7.8777      2.4171      0.0565     14.1159     83.7395     14.9405
  1799.7000      7.8777      2.4171      0.0565     14.1159     82.8637     14.7173
  1799.8000      7.8586      2.4163      0.0522     14.1652     82.0667     14.5185
  1799.9000      7.8586      2.4163      0.0522     14.1652     81.3486     14.3479
  1800.0000      7.8520      2.4186      0.0522     14.0241     80.7165     14.2080
  1800.1000      7.8520      2.4186      0.0522     14.0241     80.1816     14.1005
  1800.2000      7.8520      2.4186      0.0522     14.0241     79.7581     14.0260
  1800.3000      7.8959      2.4233      0.0562     13.7370     79.4603     13.9838
  1800.4000      7.8959      2.4233      0.0562     13.7370     79.3001     13.9719
  1800.5000      7.9410      2.4261      0.0610     13.5676     79.2852     13.9871
  1800.6000      7.9410      2.4261      0.0610     13.5676     79.4157     14.0249
  1800.7000      7.9410      2.4261      0.0610     13.5676     79.6814     14.0799
  1800.8000      7.9388      2.4294      0.0700     13.3708     80.0590     14.1464
  1800.9000      7.9388      2.4294      0.0700     13.3708     80.5103     14.2190
  1801.0000      7.9341      2.4313      0.0763     13.2572     80.9838     14.2931
  1801.1000      7.9341      2.4313      0.0763     13.2572     81.4158     14.3663
  1801.2000      7.9341      2.4313      0.0763     13.2572     81.7393     14.4383
  1801.3000      7.9194      2.4343      0.0841     13.0738     81.8882     14.5113
  1801.4000      7.9194      2.4343      0.0841     13.0738     81.8082     14.5898
  1801.5000      7.9033      2.4368      0.0873     12.9212     81.4649     14.6793
  1801.6000      7.9033      2.4368      0.0873     12.9212     80.8467     14.7859
  1801.7000      7.9033      2.4368      0.0873     12.9212     79.9670     14.9149
  1801.8000      7.8978      2.4423      0.0887     12.5892     78.8619     15.0697
  1801.9000      7.8978      2.4423      0.0887     12.5892     77.5819     15.2518
  1802.0000      7.8234      2.4478      0.0879     12.2519     76.1866     15.4599
  1802.1000      7.8234      2.4478      0.0879     12.2519     74.7342     15.6910
  1802.2000      7.8234      2.4478      0.0879     12.2519     73.2769     15.9403
  1802.3000      7.7528      2.4604      0.0864     11.4918     71.8564     16.2025
  1802.4000      7.7528      2.4604      0.0864     11.4918     70.5034     16.4717
  1802.5000      7.8395      2.4722      0.0875     10.7772     69.2378     16.7422
  1802.6000      7.8395      2.4722      0.0875     10.7772     68.0722     17.0090
  1802.7000      7.8395      2.4722      0.0875     10.7772     67.0117     17.2672
  1802.8000      7.9554      2.4956      0.0961      9.3594     66.0598     17.5126
  1802.9000      7.9554      2.4956      0.0961      9.3594     65.2192     17.7417
  1803.0000      7.9762      2.5143      0.1078      8.2229     64.4957     17.9516
  1803.1000      7.9762      2.5143      0.1078      8.2229     63.8992     18.1406
