~Version Information
VERS.                      2.0: CWLS Log ASCII Standard - VERSION 2.0
WRAP.                       NO: One line per depth step
~Well Information Block
STRT.FT                -9.7500: 
STOP.FT              2566.5000: 
STEP.FT                 0.2500: 
NULL.                -999.2500: 
COMP.          Petrogulf Corporation: COMPANY
WELL.             Valejo 8-12V: WELL
FLD.           Purgatorie River: FIELD
LOC.           1510' FNL & 1460' FWL: LOCATION
CNTY.               Las Animas: COUNTY
SRVC.                         : SERVICE COMPANY
DATE.          Tue Nov 18 14:36:15 2003: LOG DATE
UWI.                          : UNIQUE WELL ID
STAT.                 Colorado: STATE
~Curve Information Block
DEPT.FT            0 000 00 00: Depth
CCL.                          : Casing Collar Locator
TT3.usec                      : CBL 3' Travel Time
AMP3.mV                       : CBL 3' Amplitude
GR.GAPI                       : Gamma Ray
~Parameter Information Block
~A  Depth       CCL         TT3         AMP3         GR     
# ...
   325.2500      0.0000    893.2398      5.0321     66.5199
   325.5000      0.0000    912.0392      4.8783     68.4454
   325.7500      0.0000    921.4586      4.8204     69.1579
   326.0000      0.0000    916.6843      4.8884     68.5552
   326.2500      0.0000    903.2708      5.0476     67.0814
   326.5000      0.0000    892.8657      5.2453     65.4505
   326.7500      0.0000    891.9138      5.4409     64.4114
   327.0000      0.0000    895.2546      5.6043     64.4368
   327.2500      0.0000    891.5867      5.7121     65.4188
   327.5000      0.0000    875.2891      5.7489     66.9208
   327.7500      0.0000    851.9977      5.7071     68.8764
   328.0000      0.0000    832.4657      5.5837     71.6111
   328.2500      0.0000    822.7346      5.3915     74.8576
   328.5000      0.0000    820.7466      5.1773     77.1497
   328.7500      0.0000    820.2874      5.0119     76.6746
   329.0000      0.0000    816.5128      4.9404     72.8218
   329.2500      0.0000    808.7268      4.9443     66.7214
   329.5000      0.0000    799.5504      4.9642     60.1836
   329.7500      0.0000    792.1027      4.9545     54.3882
   330.0000      0.0000    787.7241      4.9139     49.8321
   330.2500      0.0000    785.4133      4.8728     46.9301
   330.5000      0.0000    782.1252      4.8587     45.8766
   330.7500      0.0000    773.9188      4.8651     46.2522
   331.0000      0.0000    759.0042      4.8493     47.5417
   331.2500      0.0000    741.2059      4.7639     49.9963
   331.5000      0.0000    729.5133      4.5917     54.4652
   331.7500     -2.0000    732.2960      4.3626     61.1984
   332.0000      0.0000    750.6695      4.1463     68.9097
   332.2500      0.0000    776.8149      4.0212     75.2224
   332.5000      0.0000    798.9835      4.0236     78.3129
   332.7500     -2.0000    809.4745      4.1199     78.4111
   333.0000     -2.0000    809.0023      4.2336     77.6705
   333.2500      0.0000    804.1114      4.3080     78.1871
   333.5000      0.0000    800.9073      4.3472     80.0530
   333.7500      0.0000    801.3853      4.4015     81.7738
   334.0000      0.0000    804.7056      4.5102     82.5262
   334.2500      0.0000    810.0536      4.6549     83.1271
   334.5000      0.0000    817.5335      4.7786     84.4860
   334.7500      0.0000    827.2250      4.8434     85.8317
   335.0000      0.0000    838.0142      4.8573     85.1032
   335.2500      0.0000    847.1113      4.8587     81.0515
   335.5000      0.0000    850.9489      4.8930     74.6152
   335.7500      0.0000    847.0029      4.9895     68.0987
   336.0000      0.0000    834.7020      5.1397     63.3885
   336.2500      0.0000    814.9937      5.2957     61.1416
   336.5000      0.0000    790.3269      5.3969     60.9074
   336.7500      0.0000    765.1685      5.4143     61.4052
   337.0000      0.0000    745.0352      5.3801     61.1967
   337.2500      0.0000    734.3997      5.3724     59.7821
   337.5000      0.0000    735.9698      5.4532     57.9869
   337.7500      0.0000    750.9957      5.6182     57.0776
   338.0000      0.0000    778.1760      5.8111     57.5442
   338.2500      0.0000    812.1596      5.9767     58.7179
   338.5000      0.0000    845.3511      6.0894     59.5378
   338.7500      0.0000    871.9698      6.1469     59.6540
   339.0000      0.0000    889.4860      6.1576     59.6621
   339.2500      0.0000    897.0178      6.1336     60.3271
   339.5000      0.0000    894.8710      6.0807     61.8723
   339.7500      0.0000    885.6238      5.9944     63.8844
   340.0000      0.0000    873.4803      5.8810     65.5296
   340.2500      0.0000    862.0523      5.7834     65.9777
   340.5000      0.0000    853.5833      5.7656     64.9636
   340.7500      0.0000    849.5830      5.8555     62.8551
   341.0000      0.0000    850.9619      6.0128     60.0730
   341.2500      0.0000    857.5734      6.1612     56.7871
   341.5000      0.0000    867.7731      6.2464     53.3439
   341.7500      0.0000    878.1141      6.2629     50.5228
   342.0000      0.0000    883.9540      6.2416     48.9871
   342.2500      0.0000    881.9703      6.2203     48.6910
   342.5000      0.0000    872.9775      6.2143     49.0445
   342.7500      0.0000    861.4933      6.2081     49.4060
   343.0000      0.0000    852.1302      6.1768     49.2734
   343.2500      0.0000    846.7904      6.1187     48.3609
   343.5000      0.0000    844.9799      6.0593     46.8255
   343.7500      0.0000    845.3354      6.0141     45.3625
   344.0000      0.0000    846.1234      5.9594     44.8879
   344.2500      0.0000    845.0815      5.8583     45.9138
   344.5000      0.0000    840.0844      5.7118     48.0850
   344.7500      0.0000    830.4016      5.5709     50.5341
   345.0000      0.0000    817.2533      5.4948     52.8535
   345.2500      0.0000    803.5995      5.5026     55.4208
   345.5000      0.0000    793.1256      5.5598     58.5520
   345.7500      0.0000    787.4586      5.6047     61.6376
   346.0000      0.0000    783.6729      5.5951     63.3958
   346.2500      0.0000    776.5637      5.5425     62.8685
   346.5000      0.0000    764.2719      5.5023     60.2354
   346.7500      0.0000    750.1363      5.5272     56.9328
   347.0000      0.0000    738.8130      5.6169     54.7927
   347.2500      0.0000    732.2220      5.7074     54.6426
   347.5000      0.0000    729.4026      5.7217     55.7859
   347.7500      0.0000    728.5743      5.6465     57.0379
   348.0000      0.0000    728.6300      5.5529     58.1253
   348.2500      0.0000    729.4684      5.5251     59.9823
   348.5000      0.0000    731.8735      5.5764     63.8427
   348.7500      0.0000    736.9921      5.6526     70.1812
   349.0000      0.0000    745.1354      5.7043     78.3202
   349.2500      0.0000    754.5618      5.7288     86.7433
   349.5000      0.0000    762.1423      5.7456     93.8048
   349.7500      0.0000    766.2529      5.7643     98.5870
   350.0000      0.0000    768.5945      5.7814    101.3056
   350.2500      0.0000    771.9432      5.7858    102.5069
   350.5000      0.0000    776.6378      5.7658    101.8402
   350.7500      0.0000    781.2233      5.7244     98.4256
   351.0000      0.0000    786.2521      5.6844     92.6990
   351.2500      0.0000    794.5262      5.6626     86.8818
   351.5000      0.0000    806.7727      5.6400     82.9257
   351.7500      0.0000    819.4417      5.5779     80.8087
   352.0000      0.0000    827.8395      5.4713     79.5313
   352.2500      0.0000    830.2269      5.3708     78.8184
   352.5000      0.0000    828.9030      5.3358     78.9225
   352.7500      0.0000    828.4750      5.3694     79.5381
   353.0000      0.0000    832.6699      5.4209     80.0374
   353.2500      0.0000    841.1870      5.4516     80.6556
   353.5000      0.0000    849.8067      5.4721     82.5828
   353.7500      0.0000    855.0244      5.5106     86.4849
   354.0000      0.0000    858.3914      5.5678     91.4071
   354.2500      0.0000    864.6592      5.6133     95.6265
   354.5000      0.0000    875.8478      5.6148     98.3582
   354.7500      0.0000    888.9384      5.5688    100.2615
   355.0000      0.0000    899.2787      5.5098    102.5210
   355.2500      0.0000    904.2591      5.4818    105.6520
   355.5000      0.0000    903.2744      5.4868    108.8550
   355.7500      0.0000    895.8058      5.4746    110.3269
   356.0000      0.0000    880.9547      5.3982    108.6989
   356.2500      0.0000    859.2059      5.2755    104.5874
   356.5000      0.0000    834.2206      5.1766    100.3636
   356.7500      0.0000    811.5488      5.1507     98.0211
   357.0000      0.0000    794.2783      5.1820     97.7103
   357.2500      0.0000    780.6595      5.2164     98.6131
   357.5000      0.0000    767.5464      5.2168    100.3622
   357.7500      0.0000    755.3665      5.1877    102.8784
   358.0000      0.0000    748.2894      5.1602    105.7035
   358.2500      0.0000    750.1165      5.1681    108.4892
   358.5000      0.0000    760.2464      5.2249    111.5543
