~Version Information
VERS.                      2.0: CWLS Log ASCII Standard - VERSION 2.0
WRAP.                       NO: One line per depth step
~Well Information Block
STRT.FT               387.1000: 
STOP.FT              1748.0000: 
STEP.FT                 0.1000: 
NULL.                -999.2500: 
COMP.          Evergreen Operating Corp.: COMPANY
WELL.          Pachorek 13-31 Tr: WELL
FLD.           Cottontail Pass: FIELD
LOC.           1575' FSL & 900' FWL--API# 05-071-07019-00: LOCATION
PROV.                 Colorado: PROVINCE
CNTY.               Las Animas: COUNTRY
SRVC.          Scientific Data Systems, Inc.: SERVICE COMPANY
DATE.          Tue Aug 08 15:02:37 2000: LOG DATE
UWI.                      05071070190000:UNIQUE WELL IDENTIFICATION
~Curve Information Block
DEPT.FT            0 000 00 00: Depth
DCAL.in                       : CDL Caliper
RHOB.g/cc                     : CDL Bulk Density
RHOC.g/cc                     : CDL Density Correction
DPOR.pu                       : CDL Density Porosity
GR.GAPI                       : Gamma Ray
NPOR.pu                       : Neutron Porosity
~Parameter Information Block
~A  Depth       DCAL        RHOB        RHOC        DPOR         GR         NPOR    
# ...
  1731.1000      8.0164      2.5248      0.0471      7.5862    243.9151     35.7447
  1731.2000      8.0164      2.5295      0.0494      7.3054    233.5592     38.7614
  1731.3000      8.0173      2.5340      0.0510      7.0294    222.5629     42.0908
  1731.4000      8.0173      2.5385      0.0519      6.7594    211.2932     45.5721
  1731.5000      8.0021      2.5428      0.0523      6.4954    200.0622     49.0166
  1731.6000      8.0021      2.5471      0.0522      6.2368    189.1206     52.2404
  1731.7000      8.0021      2.5513      0.0519      5.9825    178.6678     55.0979
  1731.8000      7.9925      2.5554      0.0513      5.7316    168.8634     57.5021
  1731.9000      7.9925      2.5595      0.0507      5.4834    159.8390     59.4302
  1732.0000      7.9866      2.5636      0.0499      5.2384    151.7071     60.9114
  1732.1000      7.9866      2.5675      0.0491      4.9974    144.5620     62.0074
  1732.2000      7.9866      2.5714      0.0482      4.7624    138.4614     62.7927
  1732.3000      7.9771      2.5752      0.0472      4.5359    133.4299     63.3392
  1732.4000      7.9771      2.5787      0.0461      4.3208    129.4395     63.7095
  1732.5000      7.9821      2.5820      0.0449      4.1204    126.4062     63.9536
  1732.6000      7.9821      2.5850      0.0436      3.9377    124.1966     64.1100
  1732.7000      7.9821      2.5877      0.0423      3.7755    122.6368     64.2072
  1732.8000      7.9960      2.5900      0.0410      3.6360    121.5290     64.2655
  1732.9000      7.9960      2.5919      0.0399      3.5214    120.6706     64.2994
  1733.0000      8.0033      2.5934      0.0391      3.4329    119.8818     64.3183
  1733.1000      8.0033      2.5944      0.0385      3.3719    119.0139     64.3285
  1733.2000      8.0033      2.5949      0.0383      3.3393    117.9754     64.3337
  1733.3000      8.0011      2.5950      0.0384      3.3363    116.7339     64.3364
  1733.4000      8.0011      2.5945      0.0386      3.3639    115.3143     64.3376
  1733.5000      7.9940      2.5935      0.0387      3.4232    113.7919     64.3382
  1733.6000      7.9940      2.5920      0.0386      3.5151    112.2791   -999.2500
  1733.7000      7.9940      2.5899      0.0380      3.6401    110.9001   -999.2500
  1733.8000      7.9884      2.5873      0.0368      3.7980    109.7780   -999.2500
  1733.9000      7.9884      2.5842      0.0348      3.9879    109.0157   -999.2500
  1734.0000      7.9824      2.5806      0.0321      4.2077    108.6785   -999.2500
  1734.1000      7.9824      2.5765      0.0285      4.4542    108.7926   -999.2500
  1734.2000      7.9824      2.5721      0.0244      4.7230    109.3429   -999.2500
  1734.3000      7.9732      2.5674      0.0200      5.0085    110.2803   -999.2500
  1734.4000      7.9732      2.5625      0.0155      5.3046    111.5342   -999.2500
  1734.5000      7.9630      2.5575      0.0113      5.6049    113.0172   -999.2500
  1734.6000      7.9630      2.5526      0.0079      5.9030    114.6442   -999.2500
  1734.7000      7.9630      2.5478      0.0053      6.1928    116.3317   -999.2500
  1734.8000      7.9540      2.5433      0.0037      6.4696    118.0127   -999.2500
  1734.9000      7.9540      2.5390      0.0032      6.7293    119.6312   -999.2500
  1735.0000      7.9529      2.5350      0.0036      6.9692    121.1417   -999.2500
  1735.1000      7.9529      2.5314      0.0047      7.1881    122.5038   -999.2500
  1735.2000      7.9529      2.5281      0.0063      7.3852    123.6749   -999.2500
  1735.3000      7.9703      2.5252      0.0080      7.5610    124.6005   -999.2500
  1735.4000      7.9703      2.5227      0.0097      7.7160    125.2111   -999.2500
  1735.5000      7.9972      2.5205      0.0113      7.8510    125.4126   -999.2500
  1735.6000      7.9972      2.5185      0.0127      7.9667    125.0886   -999.2500
  1735.7000      7.9972      2.5170      0.0140      8.0635    124.1021   -999.2500
  1735.8000      8.0067      2.5157      0.0153      8.1415    122.3019   -999.2500
  1735.9000      8.0067      2.5147      0.0168      8.2006    119.5350   -999.2500
  1736.0000      8.0042      2.5140      0.0188      8.2410    115.6623   -999.2500
  1736.1000      8.0042      2.5137      0.0215      8.2631    110.5802   -999.2500
  1736.2000      8.0042      2.5136      0.0250      8.2679    104.2414   -999.2500
  1736.3000      8.0041      2.5138      0.0293      8.2574     96.6824   -999.2500
  1736.4000      8.0041      2.5141      0.0345      8.2348     88.0316   -999.2500
  1736.5000      8.0083      2.5146      0.0403      8.2044     78.5205   -999.2500
  1736.6000      8.0083      2.5152      0.0466      8.1716     68.4672   -999.2500
  1736.7000      8.0083      2.5156      0.0528      8.1431     58.2493   -999.2500
  1736.8000      8.0078      2.5159      0.0587      8.1260     48.2656   -999.2500
  1736.9000      8.0078      2.5159      0.0638      8.1280     38.8878   -999.2500
  1737.0000      7.9912      2.5154      0.0679      8.1567     30.4240   -999.2500
  1737.1000      7.9912      2.5144      0.0706      8.2194     23.0822   -999.2500
  1737.2000      7.9912      2.5127      0.0719      8.3224     16.9645   -999.2500
  1737.3000      7.9742      2.5102      0.0717      8.4710     12.0660   -999.2500
  1737.4000      7.9742      2.5070      0.0702      8.6687      8.2994   -999.2500
  1737.5000      7.9746      2.5029      0.0675      8.9173      5.5158   -999.2500
  1737.6000      7.9746      2.4979      0.0639      9.2159      3.5395   -999.2500
  1737.7000      7.9746      2.4922      0.0597      9.5614      2.1911   -999.2500
  1737.8000      7.9729      2.4859      0.0550      9.9481      1.3091   -999.2500
  1737.9000      7.9729      2.4789      0.0502     10.3675      0.7535   -999.2500
  1738.0000      7.9613      2.4717      0.0454     10.8086      0.4175   -999.2500
  1738.1000      7.9613      2.4642      0.0408     11.2581      0.2227   -999.2500
  1738.2000      7.9613      2.4569      0.0367     11.7012      0.1139   -999.2500
  1738.3000      7.9377      2.4500      0.0333     12.1223      0.0554   -999.2500
  1738.4000      7.9377      2.4437      0.0309     12.5057      0.0251   -999.2500
  1738.5000      7.9153      2.4382      0.0298     12.8366      0.0098   -999.2500
  1738.6000      7.9153      2.4338      0.0300     13.1022      0.0031   -999.2500
  1738.7000      7.9153      2.4307      0.0316     13.2927      0.0000   -999.2500
  1738.8000      7.9174      2.4289      0.0345     13.4013   -999.2500   -999.2500
  1738.9000      7.9174      2.4285      0.0383     13.4251   -999.2500   -999.2500
  1739.0000      7.9266      2.4295      0.0426     13.3651   -999.2500   -999.2500
  1739.1000      7.9266      2.4318      0.0468     13.2254   -999.2500   -999.2500
  1739.2000      7.9266      2.4353      0.0506     13.0130   -999.2500   -999.2500
  1739.3000      7.9238      2.4398      0.0535     12.7373   -999.2500   -999.2500
  1739.4000      7.9238      2.4453      0.0553     12.4083   -999.2500   -999.2500
  1739.5000      7.9162      2.4514      0.0560     12.0367   -999.2500   -999.2500
  1739.6000      7.9162      2.4581      0.0557     11.6326   -999.2500   -999.2500
  1739.7000      7.9162      2.4651      0.0547     11.2050   -999.2500   -999.2500
  1739.8000      7.9101      2.4724      0.0534     10.7617   -999.2500   -999.2500
  1739.9000      7.9101      2.4799      0.0520     10.3088   -999.2500   -999.2500
  1740.0000      7.9110      2.4874      0.0511      9.8516   -999.2500   -999.2500
  1740.1000      7.9110      2.4950      0.0509      9.3940   -999.2500   -999.2500
  1740.2000      7.9110      2.5025      0.0516      8.9398   -999.2500   -999.2500
  1740.3000      7.9279      2.5099      0.0535      8.4924   -999.2500   -999.2500
  1740.4000      7.9279      2.5171      0.0566      8.0553   -999.2500   -999.2500
  1740.5000      7.9530      2.5241      0.0607      7.6324   -999.2500   -999.2500
  1740.6000      7.9530      2.5307      0.0657      7.2275   -999.2500   -999.2500
