~Version Information
VERS.                      2.0: CWLS Log ASCII Standard - VERSION 2.0
WRAP.                       NO: One line per depth step
~Well Information Block
STRT.FT               840.0000: 
STOP.FT              2266.0000: 
STEP.FT                 0.1000: 
NULL.                -999.2500: 
COMP.          Pioneer Natural Resources: COMPANY
WELL.              Tonto 42-23: WELL
FLD.           Purgatoire River: FIELD
LOC.           2217' FNL & 423' FEL: LOCATION
PROV.                 Colorado: PROVINCE
CNTY.               Las Animas: COUNTRY
SRVC.                Patterson: SERVICE COMPANY
DATE.          Mon Apr 18 07:15:48 2005: LOG DATE
UWI.           05 071 08335 00: UNIQUE WELL ID
~Curve Information Block
DEPT.FT            0 000 00 00: Depth
DCAL.in                       : CDL Caliper
RHOB.g/cc                     : CDL Bulk Density
RHOC.g/cc                     : CDL Density Correction
DPOR.pu                       : CDL Density Porosity
GR.GAPI                       : Gamma Ray
NPOR.pu                       : Neutron Porosity
~Parameter Information Block
~A  Depth       DCAL        RHOB        RHOC        DPOR         GR         NPOR    
# ...
  1406.4000      8.1063      2.3467      0.2218     18.3795    120.0571     30.9508
  1406.5000      8.1371      2.3011      0.0985     21.1428    126.2594     31.9893
  1406.6000      8.1371      2.2544      0.0798     23.9750    126.8196     33.6523
  1406.7000      8.1371      2.2478      0.0327     24.3781    121.8049     34.4852
  1406.8000      8.1738      2.2942      0.1087     21.5621    118.7575     33.9635
  1406.9000      8.1738      2.3659      0.1674     17.2169    121.4829     32.8851
  1407.0000      8.2308      2.4275      0.1637     13.4847    123.8466     31.7783
  1407.1000      8.2308      2.4630      0.1312     11.3324    120.7498     30.8799
  1407.2000      8.2308      2.4841      0.0738     10.0568    116.5663     30.5845
  1407.3000      8.1915      2.5052      0.1374      8.7778    115.9084     30.9306
  1407.4000      8.1915      2.5231      0.0870      7.6911    118.3463     31.4539
  1407.5000      8.1630      2.5377      0.1038      6.8072    121.5380     31.5596
  1407.6000      8.1630      2.5454      0.0991      6.3406    125.7065     31.3425
  1407.7000      8.1630      2.5326      0.0796      7.1133    130.8599     31.2096
  1407.8000      8.1389      2.5048      0.0917      8.8019    135.6408     31.2975
  1407.9000      8.1389      2.4779      0.0452     10.4280    140.9892     31.4647
  1408.0000      8.1066      2.4571      0.0275     11.6932    143.8250     31.2798
  1408.1000      8.1066      2.4410      0.0344     12.6683    139.6779     30.5415
  1408.2000      8.1066      2.4235      0.0376     13.7296    132.4144     29.8774
  1408.3000      8.0942      2.3975     -0.0140     15.3044    127.2552     30.0900
  1408.4000      8.0942      2.3766     -0.0434     16.5722    126.5865     31.2043
  1408.5000      8.0815      2.3870     -0.0514     15.9386    129.9267     32.4604
  1408.6000      8.0815      2.4329      0.0204     13.1602    134.1663     33.1963
  1408.7000      8.0815      2.4935      0.0026      9.4832    135.1772     33.4738
  1408.8000      8.0929      2.5472      0.0502      6.2300    131.3593     33.5932
  1408.9000      8.0929      2.5825      0.1471      4.0885    125.9644     33.4610
  1409.0000      8.1089      2.6051      0.1406      2.7235    122.1155     32.5829
  1409.1000      8.1089      2.6269      0.1458      1.3991    118.3728     31.2289
  1409.2000      8.1089      2.6425      0.1267      0.4560    112.7085     30.6169
  1409.3000      8.1843      2.6372      0.1553      0.7786    108.2639     30.9519
  1409.4000      8.1843      2.6116      0.1005      2.3249    106.7933     31.2307
  1409.5000      8.1938      2.5762      0.1538      4.4738    107.0086     31.1351
  1409.6000      8.1938      2.5360      0.0921      6.9084    110.1504     31.1666
  1409.7000      8.1938      2.5002      0.0831      9.0764    115.6714     31.4450
  1409.8000      8.1800      2.4793      0.0770     10.3469    116.3636     31.6372
  1409.9000      8.1800      2.4688      0.0371     10.9843    109.1649     31.7232
  1410.0000      8.1836      2.4448      0.1292     12.4371    102.9443     31.6722
  1410.1000      8.1836      2.3957      0.0530     15.4151    105.6774     31.3711
  1410.2000      8.1836      2.3550      0.0659     17.8761    112.2317     31.3964
  1410.3000      8.1962      2.3605      0.0790     17.5434    114.5344     32.3715
  1410.4000      8.1962      2.4015      0.1894     15.0604    111.6810     33.7148
  1410.5000      8.1918      2.4360      0.2155     12.9702    107.8521     34.4338
  1410.6000      8.1918      2.4512      0.1790     12.0473    108.3617     34.5502
  1410.7000      8.1918      2.4626      0.1970     11.3603    113.8979     34.3961
  1410.8000      8.2185      2.4700      0.2598     10.9073    119.4308     33.8707
  1410.9000      8.2185      2.4651      0.2108     11.2048    120.0627     33.3708
  1411.0000      8.3439      2.4536      0.1534     11.9019    118.4699     33.5240
  1411.1000      8.3439      2.4425      0.1191     12.5740    120.2973     33.7377
  1411.2000      8.3439      2.4345      0.0477     13.0628    124.1407     33.1638
  1411.3000      8.2767      2.4349      0.0876     13.0385    126.3525     32.1114
  1411.4000      8.2767      2.4439      0.1197     12.4916    126.5386     31.4405
  1411.5000      8.2504      2.4583      0.0919     11.6174    123.8404     31.2415
  1411.6000      8.2504      2.4801      0.1155     10.2962    118.5208     31.4556
  1411.7000      8.2504      2.5072      0.1187      8.6552    115.7791     32.3704
  1411.8000      8.2107      2.5281      0.1786      7.3869    121.6266     33.5023
  1411.9000      8.2107      2.5310      0.1777      7.2093    132.7915     34.0520
  1412.0000      8.3051      2.5127      0.2032      8.3193    139.7408     33.9357
  1412.1000      8.3051      2.4838      0.1584     10.0712    140.0685     33.7409
  1412.2000      8.3051      2.4702      0.0949     10.8988    138.7146     33.8784
  1412.3000      8.3763      2.4802      0.1495     10.2892    137.1696     33.8597
  1412.4000      8.3763      2.4887      0.1222      9.7739    135.0211     33.2139
  1412.5000      8.2954      2.4722      0.0699     10.7778    135.9304     32.2421
  1412.6000      8.2954      2.4366      0.0441     12.9325    139.7341     31.3912
  1412.7000      8.2954      2.4121      0.0371     14.4184    139.5851     30.9423
  1412.8000      8.2249      2.4159      0.0702     14.1895    133.6772     31.0872
  1412.9000      8.2249      2.4338      0.1044     13.1010    128.8289     31.3390
  1413.0000      8.2222      2.4522      0.1213     11.9903    130.8147     31.2172
  1413.1000      8.2222      2.4768      0.1137     10.4948    136.9645     31.0053
  1413.2000      8.2222      2.5117      0.1810      8.3831    140.9485     31.0563
  1413.3000      8.1537      2.5434      0.1781      6.4576    140.6488     31.3910
  1413.4000      8.1537      2.5607      0.2046      5.4111    138.6194     31.7131
  1413.5000      8.1344      2.5666      0.1760      5.0516    138.8019     31.8540
  1413.6000      8.1344      2.5645      0.2184      5.1838    140.9060     31.9942
  1413.7000      8.1344      2.5500      0.1654      6.0595    140.9323     32.2806
  1413.8000      8.1444      2.5285      0.1017      7.3639    137.0082     32.6188
  1413.9000      8.1444      2.5077      0.1135      8.6241    133.9830     32.4822
  1414.0000      8.1372      2.4896      0.0333      9.7229    135.2781     31.8488
  1414.1000      8.1372      2.4855     -0.0143      9.9693    136.1474     31.6113
  1414.2000      8.1372      2.4965      0.0454      9.3051    135.3694     32.0215
  1414.3000      8.1655      2.4996      0.0480      9.1151    136.9307     32.4185
  1414.4000      8.1655      2.4874      0.0487      9.8537    142.1658     32.5798
  1414.5000      8.2912      2.4756      0.0659     10.5668    147.8529     32.8661
  1414.6000      8.2912      2.4713      0.0549     10.8292    147.8008     32.9726
  1414.7000      8.2912      2.4677      0.1127     11.0499    143.2978     32.5813
  1414.8000      8.2786      2.4653      0.0055     11.1966    142.0374     32.1865
  1414.9000      8.2786      2.4746      0.0589     10.6283    142.9706     32.0634
  1415.0000      8.1984      2.4908      0.0686      9.6472    140.6509     32.0838
  1415.1000      8.1984      2.5008      0.0244      9.0422    136.6483     32.1914
  1415.2000      8.1984      2.5037      0.0755      8.8653    132.8048     32.3679
  1415.3000      8.1671      2.5042      0.0936      8.8363    128.8846     32.2876
  1415.4000      8.1671      2.5110      0.0502      8.4216    126.4856     31.7542
  1415.5000      8.2020      2.5246      0.0926      7.6020    126.4944     31.4393
  1415.6000      8.2020      2.5208      0.1078      7.8322    127.5556     31.7924
  1415.7000      8.2020      2.4822      0.0849     10.1722    127.1740     31.8555
  1415.8000      8.2454      2.4280      0.0163     13.4559    126.2391     31.2946
  1415.9000      8.2454      2.3937      0.0055     15.5360    127.2860     30.9921
