~Version Information
VERS.                      2.0: CWLS Log ASCII Standard - VERSION 2.0
WRAP.                       NO: One line per depth step
~Well Information Block
STRT.FT               846.5000: 
STOP.FT              2610.0000: 
STEP.FT                 0.2500: 
NULL.                -999.2500: 
COMP.          Petrogulf Corporation: COMPANY
WELL.            Lavedure 7-44: WELL
FLD.           Purgatoire River: FIELD
LOC.           969' FSL & 501' FEL: LOCATION
PROV.                 Colorado: PROVINCE
CNTY.               Las Animas: COUNTRY
SRVC.                Patterson: SERVICE COMPANY
DATE.          Sun Dec 07 15:26:03 2003: LOG DATE
UWI.                          : UNIQUE WELL ID
~Curve Information Block
DEPT.FT            0 000 00 00: Depth
SP.mV                         : DIL Spontaneous Potential
RILD.Ohm-m                    : DIL Deep Resistivity
RILM.Ohm-m                    : DIL Medium Resistivity
RLL3.Ohm-m                    : DIL Shallow Resistivity
GR.GAPI                       : Gamma Ray
~Parameter Information Block
~A  Depth        SP         RILD        RILM        RLL3         GR     
# ...
  2246.5000   -275.5345     11.5736     13.5935     18.5001    114.7044
  2246.7500   -274.6592     11.6478     13.8743     20.0890    118.0287
  2247.0000   -273.9992     11.7802     14.1791     21.2763    122.4767
  2247.2500   -273.5291     11.9837     14.5146     22.1172    123.7672
  2247.5000   -273.1854     12.2659     14.8982     22.5745    123.0288
  2247.7500   -272.8893     12.6233     15.3423     22.6012    121.7937
  2248.0000   -272.5820     13.0356     15.8386     22.3054    120.7614
  2248.2500   -272.2630     13.4658     16.3527     21.9131    120.9908
  2248.5000   -272.0050     13.8674     16.8316     21.5841    121.8502
  2248.7500   -271.9271     14.1948     17.2200     21.3230    121.9236
  2249.0000   -272.1329     14.4131     17.4759     21.0453    120.4044
  2249.2500   -272.6519     14.5039     17.5792     20.6696    118.4093
  2249.5000   -273.4248     14.4668     17.5301     20.1494    114.7530
  2249.7500   -274.3430     14.3193     17.3426     19.4760    112.3364
  2250.0000   -275.3127     14.0952     17.0342     18.6728    109.5317
  2250.2500   -276.2975     13.8387     16.6219     17.7726    108.8936
  2250.5000   -277.3123     13.5950     16.1287     16.8125    110.8121
  2250.7500   -278.3836     13.3985     15.5927     15.8876    113.7298
  2251.0000   -279.5234     13.2651     15.0693     15.1947    118.0826
  2251.2500   -280.7357     13.1924     14.6212     14.9697    119.2479
  2251.5000   -282.0294     13.1673     14.3019     15.3356    117.3252
  2251.7500   -283.4200     13.1768     14.1434     16.1950    114.3692
  2252.0000   -284.9340     13.2140     14.1526     17.2760    109.4250
  2252.2500   -286.6170     13.2772     14.3137     18.3035    106.3387
  2252.5000   -288.5263     13.3662     14.5939     19.1678    101.8439
  2252.7500   -290.7016     13.4797     14.9509     19.9884     98.7737
  2253.0000   -293.1318     13.6170     15.3402     21.0620     94.3274
  2253.2500   -295.7350     13.7813     15.7233     22.7023     91.7635
  2253.5000   -298.3580     13.9800     16.0757     24.9634     88.6902
  2253.7500   -300.8037     14.2200     16.3904     27.3671     86.9733
  2254.0000   -302.8885     14.5023     16.6791     28.9925     84.4854
  2254.2500   -304.5108     14.8174     16.9693     29.1046     82.9756
  2254.5000   -305.6803     15.1456     17.2989     27.8284     81.9327
  2254.7500   -306.4714     15.4582     17.7043     26.0901     82.6805
  2255.0000   -306.9306     15.7188     18.2025     24.7936     85.9293
  2255.2500   -307.0262     15.8864     18.7700     24.0768     88.8214
  2255.5000   -306.6855     15.9254     19.3295     23.3827     93.1451
  2255.7500   -305.8576     15.8227     19.7580     22.1840     95.8845
  2256.0000   -304.5174     15.5992     19.9244     20.6016     99.7933
  2256.2500   -302.6310     15.3054     19.7466     19.3781    101.7754
  2256.5000   -300.1662     15.0029     19.2313     19.2853    102.0829
  2256.7500   -297.1633     14.7447     18.4680     20.4527     99.7839
  2257.0000   -293.7941     14.5635     17.5879     22.1395     93.2839
  2257.2500   -290.3482     14.4683     16.7206     23.2159     88.3741
  2257.5000   -287.1528     14.4456     15.9674     23.0156     82.7221
  2257.7500   -284.4683     14.4656     15.3930     21.7760     80.8173
  2258.0000   -282.4064     14.4919     15.0269     20.3045     80.6197
  2258.2500   -280.9093     14.4919     14.8716     19.3320     81.8812
  2258.5000   -279.8020     14.4454     14.9095     19.1592     85.2151
  2258.7500   -278.8917     14.3488     15.1076     19.6874     88.0141
  2259.0000   -278.0478     14.2141     15.4164     20.6108     92.4348
  2259.2500   -277.2192     14.0668     15.7673     21.6049     95.2181
  2259.5000   -276.4033     13.9411     16.0789     22.4314     98.5575
  2259.7500   -275.6066     13.8749     16.2813     22.9159     99.7558
  2260.0000   -274.8285     13.9053     16.3508     22.8818     99.2480
  2260.2500   -274.0803     14.0602     16.3270     22.2100     97.3454
  2260.5000   -273.4225     14.3477     16.2972     21.0029     93.2673
  2260.7500   -272.9634     14.7443     16.3594     19.6374     90.7508
  2261.0000   -272.8000     15.1900     16.5899     18.6031     88.3241
  2261.2500   -272.9528     15.6047     17.0257     18.2938     87.4160
  2261.5000   -273.3540     15.9228     17.6577     18.9331     86.0041
  2261.7500   -273.8839     16.1247     18.4295     20.5988     84.4971
  2262.0000   -274.4194     16.2382     19.2435     23.1828     81.1433
  2262.2500   -274.8724     16.3109     19.9805     26.2430     78.4083
  2262.5000   -275.2080     16.3825     20.5338     28.9416     74.6442
  2262.7500   -275.4433     16.4737     20.8504     30.3238     73.3113
  2263.0000   -275.6337     16.5900     20.9557     29.8643     74.2893
  2263.2500   -275.8579     16.7298     20.9426     27.8313     76.7908
  2263.5000   -276.2017     16.8900     20.9292     25.1260     81.6815
  2263.7500   -276.7367     17.0692     21.0124     22.7721     84.6101
  2264.0000   -277.4921     17.2686     21.2376     21.5295     87.6406
  2264.2500   -278.4332     17.4931     21.5869     21.8520     88.9035
  2264.5000   -279.4633     17.7470     21.9828     23.9752     90.1215
  2264.7500   -280.4589     18.0283     22.3133     27.7572     90.3286
  2265.0000   -281.3228     18.3275     22.4810     32.2480     88.7766
  2265.2500   -282.0217     18.6362     22.4575     35.6039     86.1808
  2265.5000   -282.5908     18.9583     22.3051     35.9884     80.9338
  2265.7500   -283.1143     19.3092     22.1501     32.9934     77.8798
  2266.0000   -283.7018     19.7006     22.1327     28.1334     76.1858
  2266.2500   -284.4593     20.1249     22.3680     23.8052     77.4941
  2266.5000   -285.4440     20.5553     22.9215     21.8161     82.1425
  2266.7500   -286.6189     20.9610     23.7930     22.7960     85.5391
  2267.0000   -287.8499     21.3246     24.9020     26.4915     87.9572
  2267.2500   -288.9652     21.6395     26.0851     32.1505     86.5003
  2267.5000   -289.8379     21.8912     27.1234     38.6162     79.8110
  2267.7500   -290.4331     22.0481     27.8082     44.3618     73.8714
  2268.0000   -290.7935     22.0798     28.0159     47.7809     66.5813
  2268.2500   -290.9899     21.9870     27.7404     47.7832     64.6207
  2268.5000   -291.0789     21.8056     27.0648     44.3825     66.7896
  2268.7500   -291.0952     21.5789     26.1055     38.7755     70.6613
  2269.0000   -291.0697     21.3258     24.9729     32.7424     77.4858
  2269.2500   -291.0512     21.0339     23.7642     27.7828     81.5803
  2269.5000   -291.1108     20.6751     22.5686     24.5697     86.2770
  2269.7500   -291.3275     20.2269     21.4653     22.9506     88.3847
  2270.0000   -291.7586     19.6878     20.5079     22.3323     90.3173
  2270.2500   -292.4067     19.0829     19.7114     22.1353     91.3230
  2270.5000   -293.1992     18.4596     19.0545     22.0406     93.5218
  2270.7500   -293.9935     17.8745     18.5002     21.9240     95.6364
  2271.0000   -294.6069     17.3724     18.0218     21.6474     99.0680
  2271.2500   -294.8651     16.9720     17.6194     21.0047    101.0639
  2271.5000   -294.6567     16.6643     17.3169     19.9200    103.6000
  2271.7500   -293.9668     16.4233     17.1463     18.6659    105.1328
  2272.0000   -292.8672     16.2198     17.1279     17.8239    106.7154
  2272.2500   -291.4732     16.0319     17.2562     17.9675    106.5478
  2272.5000   -289.8961     15.8476     17.4911     19.2902    103.3578
  2272.7500   -288.2115     15.6648     17.7614     21.4235     99.2975
  2273.0000   -286.4537     15.4882     17.9828     23.5689     91.8544
  2273.2500   -284.6330     15.3277     18.0882     24.9151     87.3994
  2273.5000   -282.7636     15.1959     18.0542     25.1150     83.3687
  2273.7500   -280.8834     15.1052     17.9049     24.4733     82.7197
  2274.0000   -279.0476     15.0644     17.6893     23.6637     83.9004
  2274.2500   -277.3119     15.0768     17.4507     23.1863     85.2182
