~Version Information
VERS.                      2.0: CWLS Log ASCII Standard - VERSION 2.0
WRAP.                       NO: One line per depth step
~Well Information Block
STRT.FT               350.0000: 
STOP.FT              1390.0000: 
STEP.FT                 0.1000: 
NULL.                -999.2500: 
COMP.          Petrogulf Corporation: COMPANY
WELL.             Leier 17-42R: WELL
FLD.           Purgatorie River: FIELD
LOC.           2398' FNL & 1109' FEL: LOCATION
PROV.                 Colorado: PROVINCE
CNTY.               Las Animas: COUNTRY
SRVC.                Patterson: SERVICE COMPANY
DATE.          Tue Oct 18 07:06:44 2005: LOG DATE
UWI.                          : UNIQUE WELL ID
~Curve Information Block
DEPT.FT            0 000 00 00: Depth
DCAL.in                       : CDL Caliper
RHOB.g/cc                     : CDL Bulk Density
RHOC.g/cc                     : CDL Density Correction
DPOR.pu                       : CDL Density Porosity
GR.GAPI                       : Gamma Ray
NPOR.pu                       : Neutron Porosity
~Parameter Information Block
~A  Depth       DCAL        RHOB        RHOC        DPOR         GR         NPOR    
# ...
   551.6000      7.9727      2.5577      0.0633      5.5956    150.9304     26.5638
   551.7000      7.9727      2.5703      0.0587      4.8274    154.4132     25.4032
   551.8000      7.9857      2.5589      0.0341      5.5217    153.5937     24.4476
   551.9000      7.9857      2.5420      0.0373      6.5449    151.0945     24.0328
   552.0000      7.9956      2.5345      0.0359      6.9979    151.8609     23.9927
   552.1000      7.9956      2.5283      0.0670      7.3774    154.7084     24.2353
   552.2000      7.9956      2.5212      0.0035      7.8088    154.8279     24.9509
   552.3000      7.9927      2.5290     -0.0368      7.3326    153.9011     25.9591
   552.4000      7.9927      2.5406      0.0778      6.6331    154.7542     26.7146
   552.5000      7.9775      2.5273      0.0276      7.4371    153.9070     27.0307
   552.6000      7.9775      2.5057     -0.0303      8.7425    148.9702     27.0467
   552.7000      7.9775      2.5112      0.0086      8.4151    142.0132     26.8868
   552.8000      7.9695      2.5384      0.0237      6.7657    137.1268     26.7283
   552.9000      7.9695      2.5636     -0.0051      5.2385    137.0747     26.6538
   553.0000      7.9452      2.5857      0.0136      3.8954    141.1285     26.5339
   553.1000      7.9452      2.6121      0.0437      2.2978    143.9386     26.4040
   553.2000      7.9452      2.6316      0.0971      1.1147    140.5442     26.3329
   553.3000      7.9264      2.6328      0.0473      1.0442    134.2134     26.2558
   553.4000      7.9264      2.6274      0.0173      1.3669    129.9333     26.1967
   553.5000      7.9219      2.6338      0.0415      0.9824    127.5536     26.0314
   553.6000      7.9219      2.6516      0.0603     -0.0972    126.1552     25.6963
   553.7000      7.9219      2.6659      0.0626     -0.9659    124.1728     25.2894
   553.8000      7.9273      2.6618      0.0357     -0.7162    120.6721     24.7982
   553.9000      7.9273      2.6337     -0.0060      0.9873    116.6777     24.1412
   554.0000      7.9343      2.5943     -0.0442      3.3764    115.1507     23.2824
   554.1000      7.9343      2.5615     -0.0597      5.3634    117.7129     22.2924
   554.2000      7.9343      2.5401     -0.0342      6.6599    119.8731     21.2964
   554.3000      7.9430      2.5296     -0.0599      7.3000    117.0097     20.4101
   554.4000      7.9430      2.5264     -0.0061      7.4889    110.3213     19.7577
   554.5000      7.9401      2.5247     -0.0019      7.5963    104.3719     19.4828
   554.6000      7.9401      2.5333     -0.0150      7.0737    102.8919     19.5197
   554.7000      7.9401      2.5659      0.0175      5.0986    106.4965     19.5916
   554.8000      7.9235      2.6179      0.0807      1.9477    110.9625     19.7247
   554.9000      7.9235      2.6730      0.1023     -1.3922    110.8777     20.1815
   555.0000      7.9064      2.7141      0.1024     -3.8849    104.2344     20.8715
   555.1000      7.9064      2.7361      0.1257     -5.2192     94.4667     21.4316
   555.2000      7.9064      2.7510      0.0941     -6.1240     88.4917     21.6953
   555.3000      7.8934      2.7569      0.1320     -6.4795     87.4878     21.7158
   555.4000      7.8934      2.7384      0.0664     -5.3583     87.6483     21.6521
   555.5000      7.8982      2.7033      0.0529     -3.2301     87.2373     21.6372
   555.6000      7.8982      2.6717     -0.0218     -1.3154     88.4956     21.6934
   555.7000      7.8982      2.6528     -0.0076     -0.1718     94.1038     21.9061
   555.8000      7.8753      2.6471     -0.0153      0.1766    102.3038     22.2587
   555.9000      7.8753      2.6495      0.0556      0.0305    110.0599     22.4402
   556.0000      7.8468      2.6524      0.0641     -0.1449    115.5078     22.3126
   556.1000      7.8468      2.6576      0.0861     -0.4599    118.3461     22.2209
   556.2000      7.8468      2.6657      0.1506     -0.9487    119.6307     22.4501
   556.3000      7.8469      2.6682      0.1403     -1.1003    119.7428     22.9423
   556.4000      7.8469      2.6641      0.1087     -0.8522    119.6108     23.5227
   556.5000      7.8709      2.6563      0.1095     -0.3847    120.7506     24.0629
   556.6000      7.8709      2.6447      0.0445      0.3216    123.4361     24.4903
   556.7000      7.8709      2.6266      0.0708      1.4170    128.4803     24.7109
   556.8000      7.9121      2.5959      0.0550      3.2760    135.5522     24.6796
   556.9000      7.9121      2.5538     -0.0042      5.8294    140.2551     24.5227
   557.0000      7.9131      2.5127     -0.0158      8.3202    140.9029     24.5466
   557.1000      7.9131      2.4863     -0.0251      9.9241    140.0316     24.9011
   557.2000      7.9131      2.4764      0.0273     10.5199    140.1933     25.2947
   557.3000      7.9183      2.4753      0.0301     10.5869    141.9873     25.3944
   557.4000      7.9183      2.4837      0.0075     10.0801    141.2039     25.2546
   557.5000      7.9166      2.5018      0.0870      8.9824    135.7571     25.2375
   557.6000      7.9166      2.5175      0.1134      8.0307    130.7803     25.6454
   557.7000      7.9166      2.5248      0.0902      7.5853    130.9055     26.3519
   557.8000      7.9143      2.5318      0.0757      7.1630    133.7332     26.8289
   557.9000      7.9143      2.5472      0.0694      6.2276    135.0513     26.9890
   558.0000      7.9230      2.5655      0.1018      5.1219    134.4870     27.0160
   558.1000      7.9230      2.5732      0.0855      4.6517    133.1337     26.8589
   558.2000      7.9230      2.5755      0.0140      4.5163    131.4441     26.6130
   558.3000      7.9361      2.5844      0.0247      3.9751    128.6285     26.5028
   558.4000      7.9361      2.5881      0.0611      3.7493    125.0626     26.3687
   558.5000      7.9202      2.5731      0.0448      4.6614    124.5820     26.0283
   558.6000      7.9202      2.5550      0.0312      5.7586    129.6716     25.6788
   558.7000      7.9202      2.5522      0.0728      5.9266    135.2994     25.3530
   558.8000      7.9181      2.5561      0.1064      5.6882    136.7507     24.8913
   558.9000      7.9181      2.5563      0.0511      5.6808    137.2668     24.4292
   559.0000      7.9370      2.5613      0.0826      5.3769    139.2819     24.0361
   559.1000      7.9370      2.5724      0.0785      4.7041    140.3334     23.7799
   559.2000      7.9370      2.5696      0.1021      4.8757    142.1558     24.0291
   559.3000      7.9507      2.5468      0.0492      6.2558    148.8788     24.5654
   559.4000      7.9507      2.5349      0.0365      6.9776    155.7785     24.8661
   559.5000      7.9524      2.5587      0.0467      5.5317    157.6057     25.1144
   559.6000      7.9524      2.5980      0.1245      3.1512    155.5672     25.4554
   559.7000      7.9524      2.6206      0.1265      1.7842    151.4569     25.6265
   559.8000      7.9535      2.6296      0.1070      1.2357    147.5613     25.6802
   559.9000      7.9535      2.6381      0.0907      0.7226    144.7700     25.8053
   560.0000      7.9536      2.6398      0.0864      0.6190    142.7139     25.9827
   560.1000      7.9536      2.6310      0.0902      1.1526    141.9884     26.2393
   560.2000      7.9536      2.6191      0.0631      1.8709    141.9480     26.6579
   560.3000      7.9532      2.6148      0.0314      2.1330    141.7706     27.1238
   560.4000      7.9532      2.6233      0.0482      1.6168    143.1137     27.3448
   560.5000      7.9502      2.6334      0.0983      1.0038    147.2428     27.2355
   560.6000      7.9502      2.6282      0.0859      1.3195    150.6901     27.0382
   560.7000      7.9502      2.6058      0.0890      2.6797    149.5192     27.1095
   560.8000      7.9515      2.5758      0.0574      4.4967    145.0245     27.6696
   560.9000      7.9515      2.5469      0.0520      6.2486    140.8790     28.4878
   561.0000      7.9590      2.5121      0.0760      8.3601    138.4475     28.9630
   561.1000      7.9590      2.4484      0.0593     12.2197    135.8669     28.8885
