~Version Information
VERS.                      2.0: CWLS Log ASCII Standard - VERSION 2.0
WRAP.                       NO: One line per depth step
~Well Information Block
STRT.FT               704.0000: 
STOP.FT              2530.0000: 
STEP.FT                 0.2500: 
NULL.                -999.2500: 
COMP.          Pioneer Natural Resources: COMPANY
WELL.          Aztec Federal 41-15: WELL
FLD.           Purgatorie River: FIELD
LOC.           706' FNL & 1253' FEL: LOCATION
CNTY.               Las Animas: COUNTY
SRVC.          Superior Well Services: SERVICE COMPANY
DATE.          Tue Mar 18 09-04-19 2008: LOG DATE
UWI.           05-071-08342-00: UNIQUE WELL ID
STAT.                       CO: STATE
~Curve Information Block
DEPT.FT            0 000 00 00: Depth
DIR.Ohm-m                     : IEL Induction Resistivity
SN.Ohm-m                      : IEL Short Normal
SP.mV                         : IEL Spontaneous Potential
GR.GAPI                       : Gamma Ray
~Parameter Information Block
~A  Depth       DIR          SN          SP          GR     
# ...
   871.5000     46.9418   2000.0000   2000.0000     87.0298
   871.7500     47.6348   2000.0000   2000.0000     89.9008
   872.0000     47.9365   2000.0000   2000.0000     90.8549
   872.2500     47.8540   2000.0000   2000.0000     89.0969
   872.5000     47.3056   2000.0000   2000.0000     85.7972
   872.7500     45.7096   2000.0000   2000.0000     79.6695
   873.0000     44.2545   2000.0000   2000.0000     76.4590
   873.2500     41.8560   2000.0000   2000.0000     75.1362
   873.5000     40.3366   2000.0000   2000.0000     77.0933
   873.7500     38.4483   2000.0000   2000.0000     83.8694
   874.0000     37.5185   2000.0000   2000.0000     90.1634
   874.2500     36.5952   2000.0000   2000.0000    100.5913
   874.5000     36.2248   2000.0000   2000.0000    107.2676
   874.7500     35.8783   2000.0000   2000.0000    115.4212
   875.0000     35.6970   2000.0000   2000.0000    118.8472
   875.2500     35.3778   2000.0000   2000.0000    119.9278
   875.5000     35.0845   2000.0000   2000.0000    117.6616
   875.7500     34.4808   2000.0000   2000.0000    110.3766
   876.0000     33.9766   2000.0000   2000.0000    104.1552
   876.2500     33.1494   2000.0000   2000.0000     96.0120
   876.5000     32.6314   2000.0000   2000.0000     93.0930
   876.7500     32.0584   2000.0000   2000.0000     93.5213
   877.0000     31.8853   2000.0000   2000.0000     96.3728
   877.2500     31.9998   2000.0000   2000.0000    102.3721
   877.5000     32.3119   2000.0000   2000.0000    106.3359
   877.7500     33.0129   2000.0000   2000.0000    110.7765
   878.0000     33.5125   2000.0000   2000.0000    112.2513
   878.2500     34.0652   2000.0000   2000.0000    112.2110
   878.5000     34.1918   2000.0000   2000.0000    111.1840
   878.7500     33.9644   2000.0000   2000.0000    109.4385
   879.0000     33.5816   2000.0000   2000.0000    108.7261
   879.2500     32.7996   2000.0000   2000.0000    108.7224
   879.5000     32.2103   2000.0000   2000.0000    109.4917
   879.7500     31.2976   2000.0000   2000.0000    112.0264
   880.0000     30.6933   2000.0000   2000.0000    114.6735
   880.2500     29.8251   2000.0000   2000.0000    119.3514
   880.5000     29.2924   2000.0000   2000.0000    122.1558
   880.7500     28.6049   2000.0000   2000.0000    125.0400
   881.0000     28.2488   2000.0000   2000.0000    126.2436
   881.2500     27.9150   2000.0000   2000.0000    127.8371
   881.5000     27.8442   2000.0000   2000.0000    129.0951
   881.7500     27.9662   2000.0000   2000.0000    131.0918
   882.0000     28.1799   2000.0000   2000.0000    131.9064
   882.2500     28.6485   2000.0000   2000.0000    130.8471
   882.5000     29.0344   2000.0000   2000.0000    127.9977
   882.7500     29.7096   2000.0000   2000.0000    120.8537
   883.0000     30.2342   2000.0000   2000.0000    115.1123
   883.2500     31.1632   2000.0000   2000.0000    106.6598
   883.5000     31.8881   2000.0000   2000.0000    101.6038
   883.7500     33.1235   2000.0000   2000.0000     95.0442
   884.0000     34.0234   2000.0000   2000.0000     91.3517
   884.2500     35.4293   2000.0000   2000.0000     86.7777
   884.5000     36.3579   2000.0000   2000.0000     84.2674
   884.7500     37.6272   2000.0000   2000.0000     81.2728
   885.0000     38.3114   2000.0000   2000.0000     80.0407
   885.2500     38.9760   2000.0000   2000.0000     80.1663
   885.5000     39.1489   2000.0000   2000.0000     81.9599
   885.7500     39.0369   2000.0000   2000.0000     87.0800
   886.0000     38.7628   2000.0000   2000.0000     91.5425
   886.2500     38.1377   2000.0000   2000.0000     98.7271
   886.5000     37.6205   2000.0000   2000.0000    103.4547
   886.7500     36.7581   2000.0000   2000.0000    109.9153
   887.0000     36.1550   2000.0000   2000.0000    113.3514
   887.2500     35.2247   2000.0000   2000.0000    116.5819
   887.5000     34.5690   2000.0000   2000.0000    117.4937
   887.7500     33.4667   2000.0000   2000.0000    117.6457
   888.0000     32.6186   2000.0000   2000.0000    117.3576
   888.2500     31.1714   2000.0000   2000.0000    116.8193
   888.5000     30.1260   2000.0000   2000.0000    116.4854
   888.7500     28.5444   2000.0000   2000.0000    115.9242
   889.0000     27.5462   2000.0000   2000.0000    115.4551
   889.2500     26.2127   2000.0000   2000.0000    114.8048
   889.5000     25.4486   2000.0000   2000.0000    114.6637
   889.7500     24.4649   2000.0000   2000.0000    115.3009
   890.0000     23.8833   2000.0000   2000.0000    116.4281
   890.2500     23.0672   2000.0000   2000.0000    119.1110
   890.5000     22.5462   2000.0000   2000.0000    121.2622
   890.7500     21.8045   2000.0000   2000.0000    124.1252
   891.0000     21.3429   2000.0000   2000.0000    125.2900
   891.2500     20.6917   2000.0000   2000.0000    125.6974
   891.5000     20.2695   2000.0000   2000.0000    125.3835
   891.7500     19.6330   2000.0000   2000.0000    124.8299
   892.0000     19.2098   2000.0000   2000.0000    124.7295
   892.2500     18.6139   2000.0000   2000.0000    125.2429
   892.5000     18.2742   2000.0000   2000.0000    126.1130
   892.7500     17.8991   2000.0000   2000.0000    128.1202
   893.0000     17.7543   2000.0000   2000.0000    129.5770
   893.2500     17.6971   2000.0000   2000.0000    131.0625
   893.5000     17.7593   2000.0000   2000.0000    131.3099
   893.7500     17.9950   2000.0000   2000.0000    130.8922
   894.0000     18.2505   2000.0000   2000.0000    130.5147
   894.2500     18.8007   2000.0000   2000.0000    130.2618
   894.5000     19.2928   2000.0000   2000.0000    130.2808
   894.7500     20.2372   2000.0000   2000.0000    130.1951
   895.0000     21.0083   2000.0000   2000.0000    129.6660
   895.2500     22.3683   2000.0000   2000.0000    127.2674
   895.5000     23.3966   2000.0000   2000.0000    124.1538
   895.7500     25.0897   2000.0000   2000.0000    117.0155
   896.0000     26.3040   2000.0000   2000.0000    110.7798
   896.2500     28.2550   2000.0000   2000.0000     99.6571
   896.5000     29.6652   2000.0000   2000.0000     91.4950
   896.7500     32.0191   2000.0000   2000.0000     79.4455
   897.0000     33.8011   2000.0000   2000.0000     72.4002
   897.2500     36.8725   2000.0000   2000.0000     64.0352
   897.5000     39.2045   2000.0000   2000.0000     59.7958
   897.7500     43.0728   2000.0000   2000.0000     54.9427
   898.0000     45.7925   2000.0000   2000.0000     52.5840
   898.2500     49.7686   2000.0000   2000.0000     50.2725
   898.5000     52.1185   2000.0000   2000.0000     49.3380
   898.7500     54.7988   2000.0000   2000.0000     48.2603
   899.0000     55.8320   2000.0000   2000.0000     47.5317
   899.2500     56.0073   2000.0000   2000.0000     46.3873
   899.5000     55.1259   2000.0000   2000.0000     45.6154
   899.7500     52.3314   2000.0000   2000.0000     44.4336
   900.0000     49.6294   2000.0000   2000.0000     43.7657
   900.2500     44.7708   2000.0000   2000.0000     43.7529
   900.5000     41.3252   2000.0000   2000.0000     45.1955
   900.7500     36.3735   2000.0000   2000.0000     51.0117
   901.0000     33.4311   2000.0000   2000.0000     57.8874
   901.2500     29.7214   2000.0000   2000.0000     72.4536
   901.5000     27.7183   2000.0000   2000.0000     83.9738
   901.7500     25.3277   2000.0000   2000.0000    101.1885
   902.0000     24.0713   2000.0000   2000.0000    111.0814
   902.2500     22.5792   2000.0000   2000.0000    122.2050
   902.5000     21.7951   2000.0000   2000.0000    127.2307
   902.7500     20.8706   2000.0000   2000.0000    132.2308
   903.0000     20.3912   2000.0000   2000.0000    134.5540
   903.2500     19.8241   2000.0000   2000.0000    136.8629
   903.5000     19.5150   2000.0000   2000.0000    136.9416
   903.7500     19.1048   2000.0000   2000.0000    132.7145
   904.0000     18.8468   2000.0000   2000.0000    126.1227
   904.2500     18.4711   2000.0000   2000.0000    111.1945
   904.5000     18.2349   2000.0000   2000.0000     99.4149
   904.7500     17.9336   2000.0000   2000.0000     82.4371
