~Version Information
VERS.                      2.0: CWLS Log ASCII Standard - VERSION 2.0
WRAP.                       NO: One line per depth step
~Well Information Block
STRT.FT                -8.5000: 
STOP.FT              1597.7500: 
STEP.FT                 0.2500: 
NULL.                -999.2500: 
COMP.          Pioneer Natural Resources: COMPANY
WELL.          Dude Canyon 22-32 Tr: WELL
FLD.           Purgatorie River: FIELD
LOC.           1741' FnL & 2331' FWL--: LOCATION
PROV.                       CO: PROVINCE
CNTY.               Las Animas: COUNTRY
SRVC.          Patterson Wireline: SERVICE COMPANY
DATE.          Fri Jul 15 14:44:37 2005: LOG DATE
UWI.           05 071 08421 00: UNIQUE WELL ID
~Curve Information Block
DEPT.FT            0 000 00 00: Depth
CCL.                          : Casing Collar Locator
TT3.usec                      : CBL 3' Travel Time
AMP3.mV                       : CBL 3' Amplitude
GR.GAPI                       : Gamma Ray
~Parameter Information Block
~A  Depth       CCL         TT3         AMP3         GR     
# ...
  1566.0000      0.0000    548.2123     10.4279    155.6844
  1566.2500      0.0000    521.1471     10.5437    154.6196
  1566.5000      0.0000    513.6147     10.5829    152.7686
  1566.7500      0.0000    522.5881     10.5210    151.4695
  1567.0000      0.0000    536.6983     10.3596    151.9490
  1567.2500      0.0000    544.1071     10.1277    153.8523
  1567.5000      0.0000    540.2838      9.8511    155.7045
  1567.7500      0.0000    529.2507      9.5335    156.6868
  1568.0000      0.0000    519.5427      9.1739    157.3920
  1568.2500      0.0000    518.0432      8.7866    158.7889
  1568.5000      0.0000    525.7397      8.3836    160.6605
  1568.7500      0.0000    538.9030      7.9527    161.3138
  1569.0000      0.0000    553.7091      7.4740    158.9790
  1569.2500      0.0000    567.7531      6.9556    153.3236
  1569.5000      0.0000    578.2833      6.4417    145.2845
  1569.7500      0.0000    582.6113      5.9857    135.5652
  1570.0000      0.0000    580.1996      5.6117    123.7764
  1570.2500      0.0000    572.2906      5.2932    109.2634
  1570.5000      0.0000    560.7437      4.9728     92.6126
  1570.7500      0.0000    548.7601      4.6118     76.1624
  1571.0000      0.0000    539.6595      4.2152     62.9272
  1571.2500      0.0000    532.6833      3.8139     54.8110
  1571.5000      0.0000    522.4484      3.4420     51.5803
  1571.7500      0.0000    504.8476      3.1358     51.4264
  1572.0000      0.0000    483.1106      2.9291     52.5504
  1572.2500      0.0000    467.3157      2.8354     54.0542
  1572.5000      0.0000    467.9921      2.8399     55.3379
  1572.7500      0.0000    489.5142      2.9080     55.3063
  1573.0000      0.0000    527.6295      2.9984     52.9243
  1573.2500      0.0000    571.5258      3.0755     48.4905
  1573.5000      0.0000    609.5356      3.1224     43.6778
  1573.7500      0.0000    635.3862      3.1486     39.9746
  1574.0000      0.0000    650.0081      3.1844     37.3482
  1574.2500      0.0000    657.9694      3.2565     34.7084
  1574.5000      0.0000    663.1051      3.3669     31.4420
  1574.7500      0.0000    667.2388      3.4968     28.1329
  1575.0000      0.0000    670.9247      3.6319     25.8472
  1575.2500      0.0000    674.0433      3.7765     25.1049
  1575.5000      0.0000    676.2296      3.9423     25.5973
  1575.7500      0.0000    677.7303      4.1335     26.6029
  1576.0000      0.0000    679.8961      4.3489     27.5388
  1576.2500      0.0000    684.5977      4.5930     28.2292
  1576.5000      0.0000    693.2791      4.8782     28.7458
  1576.7500      0.0000    706.2574      5.2176     29.1235
  1577.0000      0.0000    721.6857      5.6224     29.4586
  1577.2500      0.0000    734.8466      6.1035     30.3201
  1577.5000      0.0000    740.1741      6.6662     32.9007
  1577.7500      0.0000    735.6521      7.2993     38.7242
  1578.0000      0.0000    724.8889      7.9704     49.2442
  1578.2500      0.0000    713.2713      8.6357     65.2851
  1578.5000      0.0000    702.4559      9.2561     86.1262
  1578.7500      0.0000    691.1547      9.8078    108.8564
  1579.0000      0.0000    681.6989     10.2857    129.0398
  1579.2500      0.0000    681.0716     10.7025    142.6764
  1579.5000      0.0000    691.4880     11.0805    148.1662
  1579.7500      0.0000    702.6102     11.4317    147.0081
  1580.0000      0.0000    697.4451     11.7390    142.8063
  1580.2500      0.0000    666.5999     11.9638    139.2201
  1580.5000      0.0000    618.3988     12.0781    138.1342
  1580.7500      0.0000    577.6359     12.0814    138.9947
  1581.0000      0.0000    570.9399     11.9869    139.6771
  1581.2500      0.0000    606.8092     11.8070    138.4911
  1581.5000      0.0000    668.4913     11.5623    135.7192
  1581.7500      0.0000    727.6245     11.2880    133.1606
  1582.0000      0.0000    764.2996     11.0229    132.2405
  1582.2500      0.0000    775.2553     10.7965    132.7903
  1582.5000      0.0000    768.5995     10.6276    133.7202
  1582.7500      0.0000    754.9061     10.5241    134.3962
  1583.0000      0.0000    741.6878     10.4788    134.6517
  1583.2500      0.0000    732.0786     10.4724    133.1433
  1583.5000      0.0000    726.3504     10.4842    126.3826
  1583.7500      0.0000    724.0447     10.5014    110.7047
  1584.0000      0.0000    724.5486     10.5214     86.0196
  1584.2500      0.0000    726.1348     10.5445     57.3730
  1584.5000      0.0000    726.1367     10.5607     32.0274
  1584.7500      0.0000    723.3737     10.5477     14.6832
  1585.0000      0.0000    719.6734     10.4888      5.4514
  1585.2500      0.0000    717.6204     10.3897      1.6220
  1585.5000      0.0000    717.2714     10.2739      0.3831
  1585.7500      0.0000    716.6886     10.1633      0.0706
  1586.0000      0.0000    715.5512     10.0657      0.0094
  1586.2500      0.0000    716.2100      9.9827      0.0000
  1586.5000      0.0000    720.3721      9.9296   -999.2500
  1586.7500      0.0000    726.6145      9.9355   -999.2500
  1587.0000      0.0000    732.8427     10.0183   -999.2500
  1587.2500      0.0000    739.7845     10.1690   -999.2500
  1587.5000      0.0000    749.1412     10.3655   -999.2500
  1587.7500      0.0000    757.9271     10.5908   -999.2500
  1588.0000      0.0000    756.2237     10.8366   -999.2500
  1588.2500      0.0000    730.9099     11.0943   -999.2500
  1588.5000      0.0000    672.2484     11.3271   -999.2500
  1588.7500      0.0000    579.9714     11.4024   -999.2500
  1589.0000      0.0000    465.0878     11.0449   -999.2500
  1589.2500      0.0000    344.5365      9.9511   -999.2500
  1589.5000      0.0000    233.3023      8.0715   -999.2500
  1589.7500      0.0000    141.3984      5.7851   -999.2500
  1590.0000      0.0000     74.4782      3.7015   -999.2500
  1590.2500      0.0000     33.0846      2.2486   -999.2500
  1590.5000      0.0000     12.0915      1.4661   -999.2500
  1590.7500      0.0000      3.5693      1.1391   -999.2500
  1591.0000      0.0000      0.8377      1.0329   -999.2500
  1591.2500      0.0000      0.1550      1.0061   -999.2500
  1591.5000      0.0000      0.0206      1.0008   -999.2500
  1591.7500      0.0000   -999.2500   -999.2500   -999.2500
  1592.0000      0.0000   -999.2500   -999.2500   -999.2500
  1592.2500      0.0000   -999.2500   -999.2500   -999.2500
  1592.5000      0.0000   -999.2500   -999.2500   -999.2500
  1592.7500      0.0000   -999.2500   -999.2500   -999.2500
  1593.0000      0.0000   -999.2500   -999.2500   -999.2500
  1593.2500      0.0000   -999.2500   -999.2500   -999.2500
  1593.5000      0.0000   -999.2500   -999.2500   -999.2500
  1593.7500      0.0000   -999.2500   -999.2500   -999.2500
  1594.0000      0.0000   -999.2500   -999.2500   -999.2500
  1594.2500      0.0000   -999.2500   -999.2500   -999.2500
  1594.5000      0.0000   -999.2500   -999.2500   -999.2500
  1594.7500      0.0000   -999.2500   -999.2500   -999.2500
  1595.0000      0.0000   -999.2500   -999.2500   -999.2500
  1595.2500      0.0000   -999.2500   -999.2500   -999.2500
  1595.5000      0.0000   -999.2500   -999.2500   -999.2500
  1595.7500      0.0000   -999.2500   -999.2500   -999.2500
  1596.0000      0.0000   -999.2500   -999.2500   -999.2500
  1596.2500      0.0000   -999.2500   -999.2500   -999.2500
  1596.5000      0.0000   -999.2500   -999.2500   -999.2500
  1596.7500      0.0000   -999.2500   -999.2500   -999.2500
  1597.0000      0.0000   -999.2500   -999.2500   -999.2500
  1597.2500   -999.2500   -999.2500   -999.2500   -999.2500
  1597.5000   -999.2500   -999.2500   -999.2500   -999.2500
  1597.7500   -999.2500   -999.2500   -999.2500   -999.2500
