~Version Information
VERS.                      2.0: CWLS Log ASCII Standard - VERSION 2.0
WRAP.                       NO: One line per depth step
~Well Information Block
STRT.FT               553.0000: 
STOP.FT              1576.5000: 
STEP.FT                 0.2500: 
NULL.                -999.2500: 
COMP.          Pioneer Natural Resources: COMPANY
WELL.           Telna 24-22 Tr: WELL
FLD.           Purgatoire River: FIELD
LOC.           748' FSL & 1931' FWL: LOCATION
PROV.                 Colorado: PROVINCE
CNTY.               Las Animas: COUNTRY
SRVC.                Patterson: SERVICE COMPANY
DATE.          Mon May 02 07:15:29 2005: LOG DATE
UWI.           05 071 08304 00: UNIQUE WELL ID
~Curve Information Block
DEPT.FT            0 000 00 00: Depth
DCAL.in                       : CDL Caliper
RHOB.g/cc                     : CDL Bulk Density
RHOC.g/cc                     : CDL Density Correction
DPOR.pu                       : CDL Density Porosity
GR.GAPI                       : Gamma Ray
NPOR.pu                       : Neutron Porosity
~Parameter Information Block
~A  Depth       DCAL        RHOB        RHOC        DPOR         GR         NPOR    
# ...
   889.0000      7.8678      2.5172     -0.0057      8.0515    130.8882     18.9028
   889.2500      7.8679      2.5291      0.0618      7.3271    127.8686     18.9447
   889.5000      7.8676      2.4739      0.0220     10.6726    114.2857     19.4390
   889.7500      7.8679      2.4961      0.0312      9.3280    107.3628     18.8511
   890.0000      7.8682      2.5123      0.0227      8.3474    116.3425     16.4320
   890.2500      7.8677      2.5073      0.0419      8.6478    113.0669     16.0981
   890.5000      7.8671      2.5174      0.0737      8.0345    112.6266     16.6222
   890.7500      7.8668      2.5289      0.0284      7.3373    112.1404     16.5116
   891.0000      7.8664      2.5762      0.0730      4.4711    126.7058     17.8994
   891.2500      7.8661      2.5169      0.0300      8.0686    128.5906     17.8117
   891.5000      7.8664      2.4666     -0.0037     11.1163    116.0383     17.0636
   891.7500      7.8675      2.5053      0.0524      8.7722    108.5779     18.6127
   892.0000      7.8683      2.4994      0.0466      9.1265    112.6530     17.3284
   892.2500      7.8665      2.4566     -0.0263     11.7203    115.3021     18.9755
   892.5000      7.8645      2.4320      0.0171     13.2106    104.7539     18.3239
   892.7500      7.8656      2.4675      0.0538     11.0617    111.3615     19.4743
   893.0000      7.8673      2.4788      0.0580     10.3772    125.9254     19.5441
   893.2500      7.8681      2.5106      0.1133      8.4505    112.0448     18.2100
   893.5000      7.8686      2.4980      0.0737      9.2096    117.0694     17.5368
   893.7500      7.8687      2.5093      0.0420      8.5264    105.1964     20.0929
   894.0000      7.8674      2.5282      0.0693      7.3821    110.7649     19.2323
   894.2500      7.8663      2.5791      0.0790      4.2995    109.4904     20.0988
   894.5000      7.8661      2.6967      0.1113     -2.8282    104.5468     19.9183
   894.7500      7.8663      2.7051      0.0892     -3.3385    101.8793     20.2689
   895.0000      7.8694      2.6433      0.0284      0.4087    110.3906     20.3735
   895.2500      7.8762      2.5511     -0.0440      5.9931    118.4737     19.1600
   895.5000      7.8822      2.4823     -0.0089     10.1630    125.6959     19.2311
   895.7500      7.8846      2.4930      0.0384      9.5173    129.0048     21.3179
   896.0000      7.8851      2.4607     -0.0024     11.4720    123.9197     23.1636
   896.2500      7.8852      2.4930      0.0698      9.5172    125.5111     21.4873
   896.5000      7.8849      2.4337     -0.0322     13.1087    123.7268     21.7452
   896.7500      7.8845      2.4815     -0.0089     10.2098    121.1742     23.2842
   897.0000      7.8840      2.5231      0.0259      7.6930    129.5613     21.9707
   897.2500      7.8837      2.4928      0.0415      9.5270    123.6945     21.3701
   897.5000      7.8836      2.4615      0.0147     11.4249    130.0043     20.8864
   897.7500      7.8832      2.4780      0.0494     10.4232    128.9854     22.9124
   898.0000      7.8832      2.3801     -0.0076     16.3605    126.4832     22.0992
   898.2500      7.8843      2.3103     -0.0292     20.5859    114.7132     21.3188
   898.5000      7.8845      2.3737      0.0615     16.7434    101.2441     22.0136
   898.7500      7.8823      2.4986      0.1370      9.1764    104.0127     21.6238
   899.0000      7.8800      2.5810      0.0955      4.1841     82.0604     21.0635
   899.2500      7.8812      2.5498      0.0782      6.0744     90.4251     20.4856
   899.5000      7.8857      2.4768      0.0181     10.4994    107.0766     19.7025
   899.7500      7.8882      2.4409     -0.0250     12.6716    112.0498     18.7476
   900.0000      7.8875      2.4642      0.0929     11.2595    120.3745     22.0396
   900.2500      7.8860      2.4360      0.0695     12.9679    133.6848     24.4461
   900.5000      7.8863      2.4041      0.0655     14.9044    136.6430     23.9525
   900.7500      7.8943      2.4553      0.1246     11.7995    137.0767     24.9439
   901.0000      7.9098      2.4554      0.0558     11.7955    139.4111     26.4768
   901.2500      7.9224      2.4818      0.0778     10.1956    124.7891     26.6428
   901.5000      7.9273      2.4425      0.0679     12.5756    131.7816     26.8662
   901.7500      7.9279      2.3651      0.0132     17.2665    142.2548     27.7333
   902.0000      7.9297      2.1832     -0.0274     28.2914    124.3151     29.9886
   902.2500      7.9364      1.9776     -0.0877     40.7525    109.6141     30.0933
   902.5000      7.9481      1.8523     -0.0775     48.3448     97.3732     32.1346
   902.7500      7.9585      1.8898     -0.0010     46.0719     92.9260     32.6960
   903.0000      7.9619      2.1461      0.2565     30.5402    106.6069     30.6031
   903.2500      7.9587      2.2651      0.2237     23.3282    120.5471     30.7919
   903.5000      7.9609      2.1746      0.1618     28.8095    118.8928     30.6384
   903.7500      7.9723      1.9994      0.0017     39.4305    116.6410     29.8334
   904.0000      7.9809      1.8895     -0.0258     46.0913    112.1121     32.9393
   904.2500      7.9836      1.9228     -0.0072     44.0727    100.7275     33.1936
   904.5000      7.9837      2.0501      0.1436     36.3560    110.9119     33.3672
   904.7500      7.9825      2.0960      0.0566     33.5756    112.6254     34.2324
   905.0000      7.9804      2.1525      0.0330     30.1504    107.9385     35.0682
   905.2500      7.9791      2.1997      0.0198     27.2913    114.6046     34.5852
   905.5000      7.9807      2.2624      0.0577     23.4924    128.0288     31.3046
   905.7500      7.9835      2.2284      0.0420     25.5516    123.0532     32.0408
   906.0000      7.9872      1.9807     -0.0661     40.5667    111.9607     28.2328
   906.2500      7.9912      1.7168     -0.1178     56.5556     95.0225     28.2393
   906.5000      7.9961      1.3917     -0.1461     76.2576     76.9811     32.0944
   906.7500      8.0024      1.4229     -0.0088     74.3667     67.2360     33.6310
   907.0000      8.0080      1.8125      0.1821     50.7591     63.7802     32.1498
   907.2500      8.0047      2.0495      0.2032     36.3967     78.3118     31.5879
   907.5000      7.9592      2.4098      0.2196     14.5577     96.4350     29.7360
   907.7500      7.8712      2.4842      0.0307     10.0472     91.7841     26.5001
   908.0000      7.8152      2.5529      0.1332      5.8860     91.7326     24.7118
   908.2500      7.8023      2.5541      0.1008      5.8126     85.3954     23.3635
   908.5000      7.8002      2.5341      0.0831      7.0266     91.4302     20.2273
   908.7500      7.7988      2.5264      0.0407      7.4896     90.1059     18.4988
   909.0000      7.8459      2.5864      0.0918      3.8570     80.2977     19.5993
   909.2500      7.8462      2.5712      0.1019      4.7763     82.5905     21.5857
   909.5000      7.8473      2.4217     -0.0274     13.8392    107.1402     24.3167
   909.7500      7.8490      2.3501     -0.0147     18.1753    132.1106     24.8024
   910.0000      7.8497      2.3258      0.0105     19.6477    140.1097     30.1143
   910.2500      7.8483      2.3330      0.1079     19.2121    143.6986     31.6986
   910.5000      7.8469      2.3806      0.0751     16.3287    140.7995     31.4979
   910.7500      7.8469      2.3872      0.0935     15.9259    132.9705     32.8121
   911.0000      7.8471      2.4567      0.1207     11.7161    145.7383     29.7341
   911.2500      7.8465      2.5004      0.0495      9.0651    142.4827     29.3752
   911.5000      7.8458      2.5198      0.1024      7.8906    122.1573     25.1457
   911.7500      7.8455      2.4958      0.0771      9.3451    109.4510     20.6428
   912.0000      7.8454      2.5092      0.0182      8.5363     92.6130     17.1695
   912.2500      7.8448      2.5711      0.1371      4.7812     85.4277     16.7700
   912.5000      7.8423      2.6139      0.1493      2.1882     89.3380     18.9755
   912.7500      7.8403      2.6116      0.1158      2.3243     89.4942     18.2505
