~Version Information
VERS.                      2.0: CWLS Log ASCII Standard - VERSION 2.0
WRAP.                       NO: One line per depth step
~Well Information Block
STRT.FT               360.0000: 
STOP.FT              1622.7500: 
STEP.FT                 0.2500: 
NULL.                -999.2500: 
COMP.          Pioneer Natural Resources: COMPANY
WELL.                Eric 42-9: WELL
FLD.           Purgatoire River: FIELD
LOC.           2050' FNL & 850' FEL: LOCATION
PROV.                 Colorado: PROVINCE
CNTY.               Las Animas: COUNTRY
SRVC.                Patterson: SERVICE COMPANY
DATE.          Sun Oct 31 17:26:46 2004: LOG DATE
UWI.           05 071 07999 00: UNIQUE WELL ID
~Curve Information Block
DEPT.FT            0 000 00 00: Depth
SN.Ohm-m                      : IEL Short Normal
SP.mV                         : IEL Spontaneous Potential
DIR.Ohm-m                     : IEL Induction Resistivity
GR.GAPI                       : Gamma Ray
~Parameter Information Block
~A  Depth        SN          SP         DIR          GR     
# ...
   594.5000   2000.0000   2100.0000     11.9949    111.0329
   594.7500   2000.0000   2100.0000     11.9286    113.4277
   595.0000   2000.0000   2100.0000     11.9083    117.0900
   595.2500   2000.0000   2100.0000     11.9027    118.7988
   595.5000   2000.0000   2100.0000     11.8888    119.2818
   595.7500   2000.0000   2100.0000     11.8641    118.2210
   596.0000   2000.0000   2100.0000     11.8441    115.5914
   596.2500   2000.0000   2100.0000     11.8515    113.9339
   596.5000   2000.0000   2100.0000     11.9074    112.4283
   596.7500   2000.0000   2100.0000     12.0268    112.1827
   597.0000   2000.0000   2100.0000     12.2169    112.8335
   597.2500   2000.0000   2100.0000     12.4764    113.8307
   597.5000   2000.0000   2100.0000     12.7965    115.8557
   597.7500   2000.0000   2100.0000     13.1640    117.3108
   598.0000   2000.0000   2100.0000     13.5652    119.1523
   598.2500   2000.0000   2100.0000     13.9857    119.7819
   598.5000   2000.0000   2100.0000     14.4106    119.2583
   598.7500   2000.0000   2100.0000     14.8274    117.9134
   599.0000   2000.0000   2100.0000     15.2338    115.1000
   599.2500   2000.0000   2100.0000     15.6408    113.2551
   599.5000   2000.0000   2100.0000     16.0684    110.9850
   599.7500   2000.0000   2100.0000     16.5357    109.5439
   600.0000   2000.0000   2100.0000     17.0508    106.6008
   600.2500   2000.0000   2100.0000     17.6060    103.9362
   600.5000   2000.0000   2100.0000     18.1791     99.7924
   600.7500   2000.0000   2100.0000     18.7427     97.8302
   601.0000   2000.0000   2100.0000     19.2754     97.0351
   601.2500   2000.0000   2100.0000     19.7678     97.8373
   601.5000   2000.0000   2100.0000     20.2217    100.1730
   601.7500   2000.0000   2100.0000     20.6446    101.9781
   602.0000   2000.0000   2100.0000     21.0471    104.4520
   602.2500   2000.0000   2100.0000     21.4418    105.5712
   602.5000   2000.0000   2100.0000     21.8439    105.5453
   602.7500   2000.0000   2100.0000     22.2721    103.9585
   603.0000   2000.0000   2100.0000     22.7492     99.3822
   603.2500   2000.0000   2100.0000     23.3005     95.4893
   603.5000   2000.0000   2100.0000     23.9468     89.5632
   603.7500   2000.0000   2100.0000     24.6930     85.9620
   604.0000   2000.0000   2100.0000     25.5146     81.4219
   604.2500   2000.0000   2100.0000     26.3495     79.1609
   604.5000   2000.0000   2100.0000     27.1111     77.2319
   604.7500   2000.0000   2100.0000     27.7307     76.9037
   605.0000   2000.0000   2100.0000     28.2014     77.2030
   605.2500   2000.0000   2100.0000     28.5796     77.3171
   605.5000   2000.0000   2100.0000     28.9348     76.6243
   605.7500   2000.0000   2100.0000     29.2973     75.6628
   606.0000   2000.0000   2100.0000     29.6475     74.2024
   606.2500   2000.0000   2100.0000     29.9458     73.5142
   606.5000   2000.0000   2100.0000     30.1664     72.7542
   606.7500   2000.0000   2100.0000     30.3049     72.2014
   607.0000   2000.0000   2100.0000     30.3594     71.3767
   607.2500   2000.0000   2100.0000     30.3098     71.1240
   607.5000   2000.0000   2100.0000     30.1183     71.3922
   607.7500   2000.0000   2100.0000     29.7535     71.7247
   608.0000   2000.0000   2100.0000     29.2187     71.8482
   608.2500   2000.0000   2100.0000     28.5570     71.6534
   608.5000   2000.0000   2100.0000     27.8275     71.3857
   608.7500   2000.0000   2100.0000     27.0761     71.4405
   609.0000   2000.0000   2100.0000     26.3232     72.0188
   609.2500   2000.0000   2100.0000     25.5715     72.9043
   609.5000   2000.0000   2100.0000     24.8235     75.6139
   609.7500   2000.0000   2100.0000     24.0910     78.6850
   610.0000   2000.0000   2100.0000     23.3926     85.1718
   610.2500   2000.0000   2100.0000     22.7413     90.3115
   610.5000   2000.0000   2100.0000     22.1380     98.0151
   610.7500   2000.0000   2100.0000     21.5738    102.3721
   611.0000   2000.0000   2100.0000     21.0373    106.9141
   611.2500   2000.0000   2100.0000     20.5149    108.7313
   611.5000   2000.0000   2100.0000     19.9876    110.6064
   611.7500   2000.0000   2100.0000     19.4338    111.6724
   612.0000   2000.0000   2100.0000     18.8415    112.6299
   612.2500   2000.0000   2100.0000     18.2211    112.3705
   612.5000   2000.0000   2100.0000     17.6069    110.5660
   612.7500   2000.0000   2100.0000     17.0462    109.0102
   613.0000   2000.0000   2100.0000     16.5847    107.4643
   613.2500   2000.0000   2100.0000     16.2554    107.3066
   613.5000   2000.0000   2100.0000     16.0724    107.7751
   613.7500   2000.0000   2100.0000     16.0254    107.6693
   614.0000   2000.0000   2100.0000     16.0774    105.0995
   614.2500   2000.0000   2100.0000     16.1686    100.9652
   614.5000   2000.0000   2100.0000     16.2310     90.8165
   614.7500   2000.0000   2100.0000     16.2057     82.1090
   615.0000   2000.0000   2100.0000     16.0515     68.6909
   615.2500   2000.0000   2100.0000     15.7412     61.3446
   615.5000   2000.0000   2100.0000     15.2582     55.1646
   615.7500   2000.0000   2100.0000     14.6012     54.7574
   616.0000   2000.0000   2100.0000     13.7940     59.1222
   616.2500   2000.0000   2100.0000     12.8877     64.6844
   616.5000   2000.0000   2100.0000     11.9475     75.8283
   616.7500   2000.0000   2100.0000     11.0332     84.2384
   617.0000   2000.0000   2100.0000     10.1852     96.3456
   617.2500   2000.0000   2100.0000      9.4232    103.1210
   617.5000   2000.0000   2100.0000      8.7534    111.0785
   617.7500   2000.0000   2100.0000      8.1775    115.4411
   618.0000   2000.0000   2100.0000      7.6966    121.1758
   618.2500   2000.0000   2100.0000      7.3099    124.1548
   618.5000   2000.0000   2100.0000      7.0128    126.5456
   618.7500   2000.0000   2100.0000      6.7964    126.8473
   619.0000   2000.0000   2100.0000      6.6484    126.5868
   619.2500   2000.0000   2100.0000      6.5557    126.6750
   619.5000   2000.0000   2100.0000      6.5061    127.5866
   619.7500   2000.0000   2100.0000      6.4912    128.4851
   620.0000   2000.0000   2100.0000      6.5062    129.6708
   620.2500   2000.0000   2100.0000      6.5494    130.0250
   620.5000   2000.0000   2100.0000      6.6186    129.4516
   620.7500   2000.0000   2100.0000      6.7078    128.2904
   621.0000   2000.0000   2100.0000      6.8062    125.7444
   621.2500   2000.0000   2100.0000      6.9024    123.7484
   621.5000   2000.0000   2100.0000      6.9898    120.6391
   621.7500   2000.0000   2100.0000      7.0726    118.8689
   622.0000   2000.0000   2100.0000      7.1642    117.6814
   622.2500   2000.0000   2100.0000      7.2835    118.2916
   622.5000   2000.0000   2100.0000      7.4490    121.0117
   622.7500   2000.0000   2100.0000      7.6761    123.2221
   623.0000   2000.0000   2100.0000      7.9734    125.3357
   623.2500   2000.0000   2100.0000      8.3406    125.2303
   623.5000   2000.0000   2100.0000      8.7671    122.9407
   623.7500   2000.0000   2100.0000      9.2325    120.7304
   624.0000   2000.0000   2100.0000      9.7113    117.6311
   624.2500   2000.0000   2100.0000     10.1749    115.9481
   624.5000   2000.0000   2100.0000     10.5951    113.8912
   624.7500   2000.0000   2100.0000     10.9475    112.9542
   625.0000   2000.0000   2100.0000     11.2175    112.9544
   625.2500   2000.0000   2100.0000     11.4037    114.2907
   625.5000   2000.0000   2100.0000     11.5142    118.1213
   625.7500   2000.0000   2100.0000     11.5590    121.2071
   626.0000   2000.0000   2100.0000     11.5435    125.0486
   626.2500   2000.0000   2100.0000     11.4683    126.3579
   626.5000   2000.0000   2100.0000     11.3341    126.0815
   626.7500   2000.0000   2100.0000     11.1472    124.7636
   627.0000   2000.0000   2100.0000     10.9236    122.2574
   627.2500   2000.0000   2100.0000     10.6878    120.7926
   627.5000   2000.0000   2100.0000     10.4669    119.1333
   627.7500   2000.0000   2100.0000     10.2826    118.2357
