~Version Information
VERS.                      2.0: CWLS Log ASCII Standard - VERSION 2.0
WRAP.                       NO: One line per depth step
~Well Information Block
STRT.FT                -7.5000: 
STOP.FT              1129.7500: 
STEP.FT                 0.2500: 
NULL.                -999.2500: 
COMP.          Pioneer Natural Resources: COMPANY
WELL.          Drewmeister 34-34: WELL
FLD.           Purgatorie River: FIELD
LOC.           958' FSL & 1857' FEL: LOCATION
STAT.                       CO: State
CNTY.               Las Animas: COUNTRY
CTRY. USA : Country
SECT. 34 : Section
TOWN. 32S : Township
RANG. 65W : Range
SRVC.          Patterson Wireline: SERVICE COMPANY
DATE.          Fri Oct 14 14:02:00 2005: LOG DATE
API.           05 071 08131 00: UNIQUE WELL ID
~Curve Information Block
DEPT.FT            0 000 00 00: Depth
CCL.                          : Casing Collar Locator
TT3.usec                      : CBL 3' Travel Time
AMP3.mV                       : CBL 3' Amplitude
GR.GAPI                       : Gamma Ray
~Parameter Information Block
~A  Depth       CCL         TT3         AMP3         GR     
# ...
   796.5000     -2.0000    920.1678      4.5470     59.5946
   796.7500      0.0000    922.4900      4.4980     65.2240
   797.0000      0.0000    933.0612      4.4695     73.8741
   797.2500      0.0000    944.1094      4.5264     83.5511
   797.5000      0.0000    939.9485      4.7024     91.1720
   797.7500      0.0000    912.5074      4.9638     94.5164
   798.0000      0.0000    868.3998      5.2231     93.6866
   798.2500      0.0000    822.4822      5.4169     90.7753
   798.5000      0.0000    787.0342      5.5643     88.0016
   798.7500      0.0000    766.1664      5.7221     86.2759
   799.0000      0.0000    757.3212      5.9080     85.5847
   799.2500      0.0000    756.0281      6.0892     86.0204
   799.5000      0.0000    758.9918      6.2281     87.6640
   799.7500      0.0000    763.7261      6.3142     89.8669
   800.0000      0.0000    767.7805      6.3645     91.5350
   800.2500      0.0000    770.3720      6.4072     92.0923
   800.5000      0.0000    773.6953      6.4644     91.7390
   800.7500      0.0000    780.4058      6.5383     90.9351
   801.0000      0.0000    789.7234      6.6095     89.8406
   801.2500      0.0000    797.1979      6.6522     88.1791
   801.5000      0.0000    798.1088      6.6546     85.7811
   801.7500      0.0000    790.3817      6.6219     83.4373
   802.0000      0.0000    774.8857      6.5597     82.8337
   802.2500      0.0000    754.5197      6.4655     84.9613
   802.5000      0.0000    733.4419      6.3454     88.6188
   802.7500      0.0000    715.8117      6.2283     91.1349
   803.0000      0.0000    703.9862      6.1473     90.6652
   803.2500      0.0000    697.8160      6.1065     87.4490
   803.5000      0.0000    695.7972      6.0768     83.1864
   803.7500      0.0000    696.6403      6.0266     79.7911
   804.0000      0.0000    699.7134      5.9461     78.4377
   804.2500      0.0000    704.4725      5.8425     79.1019
   804.5000      0.0000    710.0591      5.7225     80.8046
   804.7500      0.0000    715.7197      5.5880     82.3221
   805.0000      0.0000    721.8453      5.4450     82.8137
   805.2500      0.0000    730.6177      5.3155     82.2590
   805.5000      0.0000    744.7894      5.2369     81.5730
   805.7500      0.0000    764.6274      5.2387     81.8294
   806.0000      0.0000    786.4750      5.3119     83.0311
   806.2500      0.0000    805.6542      5.4084     84.0427
   806.5000      0.0000    820.3762      5.4777     83.9969
   806.7500      0.0000    831.5633      5.4981     83.4569
   807.0000      0.0000    839.4806      5.4731     83.8712
   807.2500      0.0000    842.0455      5.4106     85.8201
   807.5000      0.0000    836.5853      5.3140     88.0166
   807.7500      0.0000    822.2728      5.1874     88.2934
   808.0000      0.0000    800.5859      5.0427     85.6684
   808.2500      0.0000    774.8919      4.8988     81.3928
   808.5000      0.0000    750.8138      4.7721     77.9279
   808.7500      0.0000    735.3573      4.6660     76.8313
   809.0000      0.0000    732.8002      4.5708     77.6203
   809.2500      0.0000    740.3828      4.4722     78.4944
   809.5000      0.0000    749.4902      4.3488     77.8810
   809.7500      0.0000    753.3568      4.1662     75.3052
   810.0000      0.0000    753.9449      3.9033     71.3207
   810.2500      0.0000    759.5541      3.6041     67.0062
   810.5000      0.0000    775.5190      3.3894     63.4021
   810.7500      0.0000    798.8083      3.3844     61.0458
   811.0000      0.0000    821.4214      3.6213     59.7755
   811.2500      0.0000    837.2995      4.0154     59.0333
   811.5000      0.0000    846.4464      4.4301     58.6212
   811.7500     -2.0000    853.4088      4.7585     59.1525
   812.0000      0.0000    861.6578      4.9612     61.4913
   812.2500      0.0000    869.7681      5.0666     65.6492
   812.5000      0.0000    874.1254      5.1607     70.4310
   812.7500      0.0000    875.0646      5.3695     74.2160
   813.0000      0.0000    877.8886      5.8086     76.0030
   813.2500      0.0000    886.5104      6.5038     75.8063
   813.5000      0.0000    898.1196      7.3534     74.2891
   813.7500      0.0000    906.0533      8.1873     72.2021
   814.0000      0.0000    906.8033      8.8703     70.2421
   814.2500      0.0000    903.1614      9.3574     69.0877
   814.5000      0.0000    901.1014      9.6822     68.9124
   814.7500      0.0000    904.2073      9.9144     68.8836
   815.0000      0.0000    911.1599     10.1137     67.8938
   815.2500      0.0000    917.7930     10.3028     65.9206
   815.5000      0.0000    920.3184     10.4724     64.0807
   815.7500      0.0000    917.0521     10.6075     63.3929
   816.0000      0.0000    909.7126     10.7019     64.1507
   816.2500      0.0000    903.4853     10.7542     66.3058
   816.5000      0.0000    903.2870     10.7697     69.5364
   816.7500      0.0000    908.8100     10.7726     72.9502
   817.0000      0.0000    914.7974     10.8030     75.5171
   817.2500      0.0000    916.6674     10.8886     76.8734
   817.5000      0.0000    914.1974     11.0165     77.2002
   817.7500      0.0000    909.4343     11.1377     76.6332
   818.0000      0.0000    903.0524     11.2014     75.3809
   818.2500      0.0000    894.3407     11.1868     74.0638
   818.5000      0.0000    883.7868     11.1088     73.2657
   818.7500      0.0000    873.8959     10.9971     72.9138
   819.0000      0.0000    867.3594     10.8702     72.4715
   819.2500      0.0000    865.5090     10.7279     71.5132
   819.5000      0.0000    868.5529     10.5629     69.8849
   819.7500      0.0000    876.1516     10.3774     67.5832
   820.0000      0.0000    887.2740     10.1856     64.8153
   820.2500      0.0000    900.2104     10.0049     62.0907
   820.5000      0.0000    913.6428      9.8460     60.1507
   820.7500      0.0000    927.8599      9.7098     59.8847
   821.0000      0.0000    944.5648      9.5924     62.0424
   821.2500      0.0000    964.5509      9.4881     66.4449
   821.5000      0.0000    985.0087      9.3903     71.4534
   821.7500      0.0000   1000.5449      9.2904     74.8337
   822.0000      0.0000   1008.4464      9.1830     75.4617
   822.2500      0.0000   1011.8827      9.0713     74.0962
   822.5000      0.0000   1016.2563      8.9677     72.4699
   822.7500      0.0000   1023.4042      8.8821     71.7681
   823.0000      0.0000   1030.9510      8.8104     72.0146
   823.2500      0.0000   1036.1650      8.7374     72.6201
   823.5000      0.0000   1038.1901      8.6525     73.0066
   823.7500      0.0000   1036.7742      8.5606     72.6351
   824.0000      0.0000   1030.9171      8.4727     71.0942
   824.2500      0.0000   1019.2380      8.3912     68.6198
   824.5000      0.0000   1001.2659      8.3089     66.2703
   824.7500      0.0000    979.4987      8.2209     65.2494
   825.0000      0.0000    960.9924      8.1334     66.0770
   825.2500      0.0000    954.2571      8.0611     68.4576
   825.5000      0.0000    961.7173      8.0171     71.8016
   825.7500      0.0000    976.1853      8.0019     75.5845
   826.0000      0.0000    986.7158      8.0006     79.1238
   826.2500      0.0000    987.4868      7.9917     81.4543
   826.5000      0.0000    980.3537      7.9623     82.0003
   826.7500      0.0000    970.3280      7.9137     81.3178
   827.0000      0.0000    960.0389      7.8537     80.7670
   827.2500      0.0000    948.1140      7.7868     81.3201
   827.5000      0.0000    931.9401      7.7140     82.7062
   827.7500      0.0000    911.8775      7.6410     83.6200
   828.0000      0.0000    892.9641      7.5822     82.7648
   828.2500      0.0000    881.9787      7.5577     79.8099
   828.5000      0.0000    882.3183      7.5849     75.4752
   828.7500      0.0000    891.1718      7.6678     70.8445
   829.0000      0.0000    900.9042      7.7930     66.6743
   829.2500      0.0000    903.3169      7.9383     63.2541
   829.5000      0.0000    894.0753      8.0890     60.7003
   829.7500      0.0000    874.4855      8.2463     59.1352
