~Version Information
VERS.                      2.0: CWLS Log ASCII Standard - VERSION 2.0
WRAP.                       NO: One line per depth step
~Well Information Block
STRT.FT               752.0000: 
STOP.FT              2474.2000: 
STEP.FT                 0.1000: 
NULL.                -999.2500: 
COMP.          Petrogulf Corporation: COMPANY
WELL.            Montoya 7-14V: WELL
FLD.           Purgatorie River: FIELD
LOC.           535' FSL & 491' FWL: LOCATION
CNTY.               Las Animas: COUNTY
SRVC.                         : SERVICE COMPANY
DATE.          Mon Aug 23 10:41:01 2004: LOG DATE
UWI.           05 071 08019 00: UNIQUE WELL ID
STAT.                 Colorado: STATE
~Curve Information Block
DEPT.FT            0 000 00 00: Depth
DCAL.in                       : CDL Caliper
RHOB.g/cc                     : CDL Bulk Density
RHOC.g/cc                     : CDL Density Correction
DPOR.pu                       : CDL Density Porosity
GR.GAPI                       : Gamma Ray
NPOR.pu                       : Neutron Porosity
~Parameter Information Block
~A  Depth       DCAL        RHOB        RHOC        DPOR         GR         NPOR    
# ...
  2460.8000      7.4048      2.5217      0.0620      7.7728    169.0305     19.6091
  2460.9000      7.4048      2.5034      0.0774      8.8847    150.4130     21.9468
  2461.0000      7.4235      2.4766      0.0294     10.5114    142.5335     29.9315
  2461.1000      7.4235      2.4585      0.0407     11.6085    137.6707     41.8852
  2461.2000      7.4235      2.4597      0.0462     11.5353    131.2993     50.1722
  2461.3000      7.4277      2.4709      0.0520     10.8562    126.1057     53.0724
  2461.4000      7.4277      2.4765      0.0348     10.5128    121.1293     53.6337
  2461.5000      7.4419      2.4706      0.0411     10.8738    114.4818     53.6931
  2461.6000      7.4419      2.4591      0.0086     11.5701    109.7393     53.6964
  2461.7000      7.4419      2.4455      0.0521     12.3943    109.8214   -999.2500
  2461.8000      7.4599      2.4302      0.0300     13.3197    110.7081   -999.2500
  2461.9000      7.4599      2.4192      0.0128     13.9905    110.4410   -999.2500
  2462.0000      7.4500      2.4118      0.0265     14.4363    109.9228   -999.2500
  2462.1000      7.4500      2.4017      0.0137     15.0469    107.3755   -999.2500
  2462.2000      7.4500      2.3926      0.0105     15.6029    102.0053   -999.2500
  2462.3000      7.4489      2.3931      0.0263     15.5723     96.5333   -999.2500
  2462.4000      7.4489      2.4051      0.0198     14.8428     93.7105   -999.2500
  2462.5000      7.4425      2.4181      0.0597     14.0576     92.9810   -999.2500
  2462.6000      7.4425      2.4166      0.0190     14.1465     92.8735   -999.2500
  2462.7000      7.4425      2.4027      0.0184     14.9893     94.5190   -999.2500
  2462.8000      7.4420      2.3923      0.0296     15.6156     96.7557   -999.2500
  2462.9000      7.4420      2.3926      0.0457     15.6018     96.7896   -999.2500
  2463.0000      7.4428      2.3984      0.0205     15.2469     94.0979   -999.2500
  2463.1000      7.4428      2.4016      0.0490     15.0575     89.1841   -999.2500
  2463.2000      7.4428      2.3953      0.0263     15.4343     83.2273   -999.2500
  2463.3000      7.4450      2.3872     -0.0209     15.9270     78.7150   -999.2500
  2463.4000      7.4450      2.3933     -0.0196     15.5602     78.7181   -999.2500
  2463.5000      7.4425      2.4130     -0.0085     14.3666     83.7500   -999.2500
  2463.6000      7.4425      2.4249      0.0559     13.6425     90.5697   -999.2500
  2463.7000      7.4425      2.4227     -0.0064     13.7753     95.2277   -999.2500
  2463.8000      7.4426      2.4274      0.0254     13.4898     94.7966   -999.2500
  2463.9000      7.4426      2.4439      0.0662     12.4896     89.8205   -999.2500
  2464.0000      7.4435      2.4548      0.0659     11.8282     86.0557   -999.2500
  2464.1000      7.4435      2.4494      0.0519     12.1552     88.2699   -999.2500
  2464.2000      7.4435      2.4335      0.0437     13.1209     92.2285   -999.2500
  2464.3000      7.4416      2.4243      0.0204     13.6809     91.4711   -999.2500
  2464.4000      7.4416      2.4295      0.0349     13.3611     88.4340   -999.2500
  2464.5000      7.4386      2.4359      0.0357     12.9740     87.5630   -999.2500
  2464.6000      7.4386      2.4314      0.0259     13.2501     89.2183   -999.2500
  2464.7000      7.4386      2.4243     -0.0177     13.6762     93.3739   -999.2500
  2464.8000      7.4266      2.4283      0.0427     13.4339     97.5813   -999.2500
  2464.9000      7.4266      2.4430      0.0379     12.5429     98.3423   -999.2500
  2465.0000      7.4269      2.4639      0.0650     11.2768     96.9328   -999.2500
  2465.1000      7.4269      2.4828      0.0793     10.1314     96.5201   -999.2500
  2465.2000      7.4269      2.4876      0.0730      9.8426     98.3794   -999.2500
  2465.3000      7.4254      2.4774      0.0403     10.4626    101.1974   -999.2500
  2465.4000      7.4254      2.4628      0.0445     11.3477    100.8024   -999.2500
  2465.5000      7.4239      2.4523      0.0192     11.9795     96.0175   -999.2500
  2465.6000      7.4239      2.4479      0.0544     12.2487     91.6267   -999.2500
  2465.7000      7.4239      2.4455      0.0770     12.3969     90.6468   -999.2500
  2465.8000      7.4158      2.4386      0.0596     12.8134     90.2025   -999.2500
  2465.9000      7.4158      2.4232      0.0496     13.7454     89.1531   -999.2500
  2466.0000      7.4252      2.4085     -0.0098     14.6353     90.4873   -999.2500
  2466.1000      7.4252      2.4172      0.0097     14.1072     93.4486   -999.2500
  2466.2000      7.4252      2.4573      0.0583     11.6783     94.4422   -999.2500
  2466.3000      7.4386      2.5066      0.1242      8.6936     93.3427   -999.2500
  2466.4000      7.4386      2.5353      0.1347      6.9545     86.1523   -999.2500
  2466.5000      7.4090      2.5352      0.1194      6.9582     64.6539   -999.2500
  2466.6000      7.4090      2.5204      0.1110      7.8529     33.6833   -999.2500
  2466.7000      7.4090      2.5097      0.1089      8.5009     10.8144   -999.2500
  2466.8000      7.3854      2.5115      0.1002      8.3968      1.9903   -999.2500
  2466.9000      7.3854      2.5207      0.1118      7.8341      0.2016   -999.2500
  2467.0000      7.3847      2.5290      0.1158      7.3335      0.0107   -999.2500
  2467.1000      7.3847      2.5356      0.0755      6.9322      0.0000   -999.2500
  2467.2000      7.3847      2.5466      0.0838      6.2664   -999.2500   -999.2500
  2467.3000      7.3841      2.5604      0.0751      5.4302   -999.2500   -999.2500
  2467.4000      7.3841      2.5663      0.1189      5.0753   -999.2500   -999.2500
  2467.5000      7.3698      2.5567      0.1099      5.6572   -999.2500   -999.2500
  2467.6000      7.3698      2.5352      0.1080      6.9550   -999.2500   -999.2500
  2467.7000      7.3698      2.5098      0.0868      8.4990   -999.2500   -999.2500
  2467.8000      7.3745      2.4869      0.0573      9.8845   -999.2500   -999.2500
  2467.9000      7.3745      2.4709      0.0363     10.8567   -999.2500   -999.2500
  2468.0000      7.4275      2.4637      0.0186     11.2900   -999.2500   -999.2500
  2468.1000      7.4275      2.4690      0.0044     10.9713   -999.2500   -999.2500
  2468.2000      7.4275      2.4829      0.0569     10.1256   -999.2500   -999.2500
  2468.3000      7.4466      2.4935      0.0663      9.4843   -999.2500   -999.2500
  2468.4000      7.4466      2.5012      0.0639      9.0208   -999.2500   -999.2500
  2468.5000      7.4525      2.5149      0.0788      8.1864   -999.2500   -999.2500
  2468.6000      7.4525      2.5327      0.1202      7.1117   -999.2500   -999.2500
  2468.7000      7.4525      2.5488      0.1241      6.1342   -999.2500   -999.2500
  2468.8000      7.4110      2.5667      0.1366      5.0462   -999.2500   -999.2500
  2468.9000      7.4110      2.5867      0.1934      3.8359   -999.2500   -999.2500
  2469.0000      7.4082      2.5948      0.1872      3.3463   -999.2500   -999.2500
  2469.1000      7.4082      2.5792      0.1530      4.2893   -999.2500   -999.2500
  2469.2000      7.4082      2.5477      0.1314      6.1997   -999.2500   -999.2500
  2469.3000      7.3959      2.5138      0.1138      8.2548   -999.2500   -999.2500
  2469.4000      7.3959      2.4829      0.0532     10.1300   -999.2500   -999.2500
  2469.5000      7.3916      2.4595      0.0416     11.5480   -999.2500   -999.2500
  2469.6000      7.3916      2.4427      0.0698     12.5634   -999.2500   -999.2500
  2469.7000      7.3916      2.4281      0.0213     13.4497   -999.2500   -999.2500
  2469.8000      7.3978      2.4237      0.0051     13.7162   -999.2500   -999.2500
  2469.9000      7.3978      2.4371      0.0486     12.9039   -999.2500   -999.2500
  2470.0000      7.4012      2.4664      0.0345     11.1265   -999.2500   -999.2500
  2470.1000      7.4012      2.5053      0.1055      8.7702   -999.2500   -999.2500
  2470.2000      7.4012      2.5379      0.1243      6.7944   -999.2500   -999.2500
  2470.3000      7.3838      2.5458      0.1396      6.3146   -999.2500   -999.2500
