~Version Information
VERS.                      2.0: CWLS Log ASCII Standard - VERSION 2.0
WRAP.                       NO: One line per depth step
~Well Information Block
STRT.FT               700.0000: 
STOP.FT              1869.5000: 
STEP.FT                 0.1000: 
NULL.                -999.2500: 
COMP.          Petrogulf Corporation: COMPANY
WELL.             State 16-24R: WELL
FLD.           Purgatorie River: FIELD
LOC.           541' FSL & 2371' FWL: LOCATION
PROV.                 Colorado: PROVINCE
CNTY.               Las Animas: COUNTRY
SRVC.                Patterson: SERVICE COMPANY
DATE.          Fri Aug 12 09:07:22 2005: LOG DATE
UWI.                071-08312 : UNIQUE WELL ID
~Curve Information Block
DEPT.FT            0 000 00 00: Depth
DCAL.in                       : CDL Caliper
RHOB.g/cc                     : CDL Bulk Density
RHOC.g/cc                     : CDL Density Correction
DPOR.pu                       : CDL Density Porosity
GR.GAPI                       : Gamma Ray
NPOR.pu                       : Neutron Porosity
~Parameter Information Block
~A  Depth       DCAL        RHOB        RHOC        DPOR         GR         NPOR    
# ...
  1458.4000      7.8949      2.5906      0.0749      3.5973    127.0334     23.2227
  1458.5000      7.9007      2.5794      0.0726      4.2813    129.7727     23.5158
  1458.6000      7.9007      2.5683      0.0052      4.9486    131.9986     23.6800
  1458.7000      7.9007      2.5626      0.0235      5.2956    131.5357     23.7139
  1458.8000      7.9301      2.5684      0.0199      4.9476    131.2376     23.7638
  1458.9000      7.9301      2.5846      0.0458      3.9635    133.9804     23.7374
  1459.0000      7.9505      2.5943      0.0783      3.3779    135.6898     23.8063
  1459.1000      7.9505      2.5816      0.0706      4.1481    133.3963     24.1331
  1459.2000      7.9505      2.5544      0.0187      5.7931    130.9984     24.4683
  1459.3000      7.9621      2.5342     -0.0144      7.0178    132.2105     24.9488
  1459.4000      7.9621      2.5295      0.0321      7.3048    135.3688     25.7836
  1459.5000      7.9932      2.5292      0.0544      7.3195    138.6541     26.5854
  1459.6000      7.9932      2.5222      0.0254      7.7466    142.3136     27.0647
  1459.7000      7.9932      2.5101     -0.0109      8.4773    143.9733     27.3248
  1459.8000      7.9925      2.5055     -0.0297      8.7563    142.5010     27.6161
  1459.9000      7.9925      2.5157      0.0203      8.1390    140.4511     27.8988
  1460.0000      8.0119      2.5299      0.0384      7.2774    140.3079     27.8873
  1460.1000      8.0119      2.5304      0.0673      7.2509    141.8173     27.4327
  1460.2000      8.0119      2.5092      0.0550      8.5355    144.1830     26.8096
  1460.3000      8.0106      2.4783      0.0283     10.4087    146.9549     26.6878
  1460.4000      8.0106      2.4598      0.0075     11.5251    146.9998     27.1389
  1460.5000      8.0078      2.4555      0.0312     11.7904    141.8757     27.6041
  1460.6000      8.0078      2.4373      0.0419     12.8919    134.5606     27.8857
  1460.7000      8.0078      2.3698      0.0743     16.9814    130.0175     28.0931
  1460.8000      7.9896      2.2430      0.0458     24.6697    129.9638     28.1558
  1460.9000      7.9896      2.0984     -0.0599     33.4282    132.5619     28.1193
  1461.0000      7.9036      1.9969     -0.0968     39.5798    133.4118     28.2017
  1461.1000      7.9036      1.9599     -0.0522     41.8260    127.6543     28.6390
  1461.2000      7.9036      1.9732     -0.0176     41.0166    114.6709     29.3785
  1461.3000      7.8986      2.0229      0.0255     38.0078    100.7749     30.1156
  1461.4000      7.8986      2.0929      0.1330     33.7632     92.7814     30.7989
  1461.5000      7.9422      2.1590      0.2324     29.7600     91.8728     31.2328
  1461.6000      7.9422      2.2091      0.2287     26.7203     94.9226     31.2119
  1461.7000      7.9422      2.2542      0.2498     23.9897     96.7107     31.1316
  1461.8000      7.9813      2.3126      0.1877     20.4494     95.4465     30.9623
  1461.9000      7.9813      2.3940      0.0502     15.5143     94.1119     29.9889
  1462.0000      7.9379      2.4838      0.0602     10.0713     96.0594     28.4593
  1462.1000      7.9379      2.5553      0.0498      5.7412     99.0167     27.3335
  1462.2000      7.9379      2.5981      0.0869      3.1469     98.2677     26.5443
  1462.3000      7.9361      2.6152      0.0984      2.1102     95.8860     25.3914
  1462.4000      7.9361      2.6207      0.0291      1.7744     94.3638     23.8353
  1462.5000      7.9202      2.6313      0.0777      1.1345     91.1297     22.2443
  1462.6000      7.9202      2.6413      0.0983      0.5302     87.0536     20.9021
  1462.7000      7.9202      2.6401      0.0382      0.6030     86.5158     19.9484
  1462.8000      7.8856      2.6271      0.0819      1.3868     89.0783     19.4040
  1462.9000      7.8856      2.6048      0.0295      2.7384     90.6858     19.2904
  1463.0000      7.9009      2.5886      0.0194      3.7231     91.6794     19.5035
  1463.1000      7.9009      2.5928      0.0309      3.4647     94.5060     20.0370
  1463.2000      7.9009      2.6076      0.0720      2.5716     98.3521     20.9460
  1463.3000      7.8551      2.6090      0.0978      2.4848    101.8643     21.8722
  1463.4000      7.8551      2.5889      0.0796      3.7050    106.8857     22.5937
  1463.5000      7.8857      2.5654      0.0502      5.1303    112.5862     23.0213
  1463.6000      7.8857      2.5567      0.0630      5.6561    114.5378     22.8908
  1463.7000      7.8857      2.5589      0.0542      5.5229    114.2738     22.2272
  1463.8000      7.9391      2.5662      0.0133      5.0813    114.5934     21.6939
  1463.9000      7.9391      2.5752      0.0626      4.5333    112.8771     22.1171
  1464.0000      7.9530      2.5723      0.0744      4.7073    108.6511     23.2351
  1464.1000      7.9530      2.5579      0.0156      5.5801    105.9765     23.8904
  1464.2000      7.9530      2.5506      0.0037      6.0223    106.9750     23.8390
  1464.3000      7.9072      2.5587      0.0019      5.5321    110.5331     23.8449
  1464.4000      7.9072      2.5748      0.0715      4.5568    115.0786     24.1135
  1464.5000      7.9252      2.5854      0.0723      3.9137    118.1412     24.0863
  1464.6000      7.9252      2.5867      0.0649      3.8337    118.1876     23.8987
  1464.7000      7.9252      2.5859      0.0658      3.8879    116.5277     24.0944
  1464.8000      7.9282      2.5867      0.0994      3.8372    113.7283     24.4567
  1464.9000      7.9282      2.5901      0.0744      3.6331    108.5317     24.6070
  1465.0000      7.9236      2.5989      0.1023      3.0972    101.8534     24.4178
  1465.1000      7.9236      2.6116      0.0972      2.3272     96.9357     23.8958
  1465.2000      7.9236      2.6161      0.1155      2.0522     95.2037     23.1847
  1465.3000      7.9009      2.6073      0.0639      2.5874     94.8102     22.2796
  1465.4000      7.9009      2.5991      0.0388      3.0838     93.1991     21.3555
  1465.5000      7.8450      2.5982      0.0535      3.1374     89.4503     20.8739
  1465.6000      7.8450      2.5932      0.0445      3.4415     84.7759     20.7553
  1465.7000      7.8450      2.5798      0.0445      4.2524     81.7121     20.4595
  1465.8000      7.8754      2.5718      0.0091      4.7423     81.9818     19.7028
  1465.9000      7.8754      2.5767      0.0580      4.4429     84.1847     18.7023
  1466.0000      7.8757      2.5789      0.0616      4.3118     84.8304     17.9008
  1466.1000      7.8757      2.5711      0.0301      4.7843     84.6281     17.6026
  1466.2000      7.8757      2.5700      0.0286      4.8512     86.6295     17.8227
  1466.3000      7.8208      2.5830      0.0520      4.0581     88.3805     18.1953
  1466.4000      7.8208      2.6027      0.0547      2.8665     86.3971     18.3306
  1466.5000      7.8088      2.6245      0.0646      1.5445     80.1445     18.1954
  1466.6000      7.8088      2.6414      0.1117      0.5203     72.1369     18.2102
  1466.7000      7.8088      2.6473      0.1100      0.1622     67.0331     18.6576
  1466.8000      7.7796      2.6481      0.1041      0.1171     65.4300     19.1357
  1466.9000      7.7796      2.6443      0.1044      0.3473     64.1569     19.0641
  1467.0000      7.7416      2.6324      0.0722      1.0677     62.1752     18.5250
  1467.1000      7.7416      2.6194      0.0647      1.8572     62.3490     18.0008
  1467.2000      7.7416      2.6095      0.0579      2.4575     64.7352     17.6006
  1467.3000      7.7966      2.5985      0.0535      3.1201     65.2512     17.0500
  1467.4000      7.7966      2.5881      0.0319      3.7541     63.4555     16.0938
  1467.5000      7.9252      2.5875      0.0067      3.7904     62.6650     15.0529
  1467.6000      7.9252      2.5992      0.0480      3.0779     63.9791     14.4847
  1467.7000      7.9252      2.6131      0.0349      2.2390     66.1186     14.2944
  1467.8000      7.9082      2.6227      0.0433      1.6547     69.0552     14.4816
  1467.9000      7.9082      2.6331      0.0390      1.0257     72.4856     15.1955
