~Version Information
VERS.                      2.0: CWLS Log ASCII Standard - VERSION 2.0
WRAP.                       NO: One line per depth step
~Well Information Block
STRT.FT                -7.2500: 
STOP.FT              2827.7500: 
STEP.FT                 0.2500: 
NULL.                -999.2500: 
COMP.          Pioneer Natural Resources: COMPANY
WELL.           Ei-ei-oh 31-24: WELL
FLD.           Purgatorie River: FIELD
LOC.           235' FNL & 2001' FEL--: LOCATION
PROV.                       CO: PROVINCE
CNTY.               Las Animas: COUNTRY
SRVC.          Patterson Wireline: SERVICE COMPANY
DATE.          Tue Aug 23 12:06:00 2005: LOG DATE
UWI.           05 071 08403 00: UNIQUE WELL ID
~Curve Information Block
DEPT.FT            0 000 00 00: Depth
CCL.                          : Casing Collar Locator
TT3.usec                      : CBL 3' Travel Time
AMP3.mV                       : CBL 3' Amplitude
GR.GAPI                       : Gamma Ray
~Parameter Information Block
~A  Depth       CCL         TT3         AMP3         GR     
# ...
  2069.7500      0.0000    679.2429      9.5355    151.9121
  2070.0000      0.0000    683.8315      9.1064    150.4473
  2070.2500      0.0000    687.2435      8.7501    147.6961
  2070.5000      0.0000    687.2582      8.4684    143.1724
  2070.7500      0.0000    683.5880      8.2429    138.6717
  2071.0000      0.0000    678.2578      8.0340    136.4691
  2071.2500      0.0000    674.3542      7.7982    137.0874
  2071.5000      0.0000    674.4584      7.5225    139.2300
  2071.7500      0.0000    679.2601      7.2440    141.4767
  2072.0000      0.0000    686.7853      7.0167    143.2159
  2072.2500      0.0000    693.6489      6.8528    144.0316
  2072.5000      0.0000    697.8853      6.7206    143.1924
  2072.7500      0.0000    700.1805      6.5984    140.3077
  2073.0000      0.0000    702.3389      6.4950    136.0940
  2073.2500     -2.0000    705.5120      6.4189    131.9879
  2073.5000      0.0000    709.8074      6.3609    128.9650
  2073.7500     -2.0000    714.2903      6.3121    126.8894
  2074.0000      0.0000    717.0728      6.2838    125.0755
  2074.2500      0.0000    716.4031      6.3065    123.3049
  2074.5000      0.0000    712.1528      6.3979    122.0331
  2074.7500      0.0000    705.7221      6.5203    121.5340
  2075.0000      0.0000    698.5389      6.5910    120.8968
  2075.2500      0.0000    691.4832      6.5652    117.9536
  2075.5000      0.0000    685.7840      6.4903    110.7038
  2075.7500      0.0000    683.2179      6.4476     99.4814
  2076.0000      0.0000    684.5516      6.4630     87.6557
  2076.2500      0.0000    688.4041      6.5013     79.5879
  2076.5000      0.0000    692.3873      6.5209     77.7568
  2076.7500      0.0000    695.0201      6.5025     81.8345
  2077.0000      0.0000    696.1578      6.4432     89.7783
  2077.2500      0.0000    696.0938      6.3495     99.1319
  2077.5000      0.0000    694.9346      6.2439    107.8939
  2077.7500      0.0000    692.9281      6.1594    115.1451
  2078.0000      0.0000    691.0010      6.1201    121.0195
  2078.2500      0.0000    690.4550      6.1240    125.8186
  2078.5000      0.0000    691.8921      6.1494    129.2130
  2078.7500      0.0000    694.6481      6.1775    130.4514
  2079.0000      0.0000    697.4756      6.2050    129.5154
  2079.2500      0.0000    699.5854      6.2381    127.9294
  2079.5000      0.0000    700.9854      6.2777    127.7375
  2079.7500      0.0000    702.2279      6.3141    129.4103
  2080.0000      0.0000    704.0068      6.3338    131.3431
  2080.2500      0.0000    706.5895      6.3283    131.7764
  2080.5000      0.0000    709.2816      6.2970    130.7722
  2080.7500      0.0000    710.6981      6.2446    130.0287
  2081.0000      0.0000    709.9492      6.1773    131.1833
  2081.2500      0.0000    707.4439      6.1020    134.5620
  2081.5000      0.0000    704.3706      6.0294    139.0450
  2081.7500      0.0000    701.6658      5.9748    142.4845
  2082.0000      0.0000    699.6553      5.9553    142.4320
  2082.2500      0.0000    698.3216      5.9823    137.3110
  2082.5000      0.0000    697.5564      6.0506    127.5490
  2082.7500      0.0000    697.2183      6.1352    115.6033
  2083.0000      0.0000    697.1500      6.2029    104.5975
  2083.2500      0.0000    697.2180      6.2324     96.7508
  2083.5000      0.0000    697.3342      6.2221     93.0265
  2083.7500      0.0000    697.4623      6.1822     93.7716
  2084.0000      0.0000    697.6046      6.1254     98.9909
  2084.2500      0.0000    697.7761      6.0668    107.8255
  2084.5000      0.0000    697.9915      6.0222    118.1481
  2084.7500      0.0000    698.2775      6.0025    127.2116
  2085.0000      0.0000    698.6697      6.0103    132.9298
  2085.2500      0.0000    699.1608      6.0432    134.4459
  2085.5000      0.0000    699.6581      6.0964    131.5845
  2085.7500      0.0000    700.0192      6.1614    124.4579
  2086.0000      0.0000    700.1451      6.2269    114.0213
  2086.2500      0.0000    700.0389      6.2804    102.5822
  2086.5000      0.0000    699.7755      6.3117     93.1673
  2086.7500      0.0000    699.4180      6.3157     88.1300
  2087.0000      0.0000    698.9530      6.2947     88.0526
  2087.2500      0.0000    698.3104      6.2566     91.7093
  2087.5000      0.0000    697.4547      6.2125     97.1887
  2087.7500      0.0000    696.4566      6.1746    103.2858
  2088.0000      0.0000    695.4361      6.1501    109.7520
  2088.2500      0.0000    694.3967      6.1329    116.2825
  2088.5000      0.0000    693.0880      6.1049    121.8464
  2088.7500      0.0000    691.1238      6.0506    125.3869
  2089.0000      0.0000    688.4670      5.9698    126.8460
  2089.2500      0.0000    685.9000      5.8752    127.0319
  2089.5000      0.0000    684.7051      5.7818    126.5889
  2089.7500      0.0000    685.5305      5.7012    125.4250
  2090.0000      0.0000    687.7116      5.6412    123.1204
  2090.2500      0.0000    689.9326      5.6035    119.6866
  2090.5000      0.0000    691.3524      5.5828    115.7335
  2090.7500      0.0000    691.9441      5.5693    111.9393
  2091.0000      0.0000    692.0717      5.5523    108.6587
  2091.2500      0.0000    692.0432      5.5241    106.1264
  2091.5000      0.0000    691.9781      5.4821    104.5313
  2091.7500      0.0000    691.8766      5.4317    103.5055
  2092.0000      0.0000    691.7211      5.3839    101.9598
  2092.2500      0.0000    691.5328      5.3517     99.0099
  2092.5000      0.0000    691.3624      5.3445     94.9477
  2092.7500      0.0000    691.2635      5.3633     90.8896
  2093.0000      0.0000    691.2673      5.4005     87.4910
  2093.2500      0.0000    691.3541      5.4439     84.2753
  2093.5000      0.0000    691.4459      5.4832     80.4777
  2093.7500      0.0000    691.4589      5.5129     76.3247
  2094.0000      0.0000    691.3809      5.5336     72.8683
  2094.2500      0.0000    691.2842      5.5507     70.4598
  2094.5000      0.0000    691.2568      5.5707     68.1240
  2094.7500      0.0000    691.3351      5.5952     64.8782
  2095.0000      0.0000    691.4903      5.6208     61.0706
  2095.2500      0.0000    691.6548      5.6407     57.9021
  2095.5000      0.0000    691.7668      5.6464     56.0998
  2095.7500      0.0000    691.8379      5.6304     55.6853
  2096.0000      0.0000    692.0129      5.5932     56.7085
  2096.2500      0.0000    692.5354      5.5463     59.4717
  2096.5000      0.0000    693.6131      5.5069     63.9313
  2096.7500      0.0000    695.3414      5.4917     69.3025
  2097.0000      0.0000    697.8929      5.5184     74.6118
  2097.2500      0.0000    701.7695      5.6088     79.5933
  2097.5000      0.0000    707.5236      5.7834     84.5966
  2097.7500      0.0000    714.6138      6.0478     89.5323
  2098.0000      0.0000    720.3193      6.3876     93.6055
  2098.2500      0.0000    720.5190      6.7728     96.3237
  2098.5000      0.0000    712.7864      7.1634     98.0312
  2098.7500      0.0000    699.2578      7.5164     99.2422
  2099.0000      0.0000    686.0515      7.8002    100.1912
  2099.2500      0.0000    679.4736      8.0129    101.1756
  2099.5000      0.0000    682.2264      8.1835    102.7048
  2099.7500      0.0000    691.9664      8.3437    105.2642
  2100.0000      0.0000    702.7990      8.4889    109.1649
  2100.2500      0.0000    709.3289      8.5619    114.2951
  2100.5000      0.0000    710.4530      8.4800    119.7375
  2100.7500      0.0000    709.0217      8.1932    123.9486
  2101.0000      0.0000    708.1734      7.7342    125.8574
  2101.2500      0.0000    709.4053      7.2130    125.9262
  2101.5000      0.0000    714.2728      6.7514    125.8684
  2101.7500      0.0000    725.7794      6.4126    127.1238
  2102.0000      0.0000    745.8538      6.1864    129.6052
  2102.2500      0.0000    770.7969      6.0271    131.9481
  2102.5000      0.0000    790.1581      5.8963    132.7727
  2102.7500      0.0000    791.9792      5.7805    131.5725
  2103.0000      0.0000    771.1625      5.6823    128.7865
