~Version Information
 VERS.                                  2.0 : CWLS LAS VERSION
 WRAP.                                   NO : WRAPING MODE
 SWARE .                 MController 2.5.0H : SOFTWARE VERSION
~Well Information
 WELL.                        TAMI J. 23-18 : WELL
 COMP.            PIONEER NATURAL RESOURCES : COMPANY
 FLD.                      PURGATOIRE RIVER : FIELD
 LOC.                 NE/SW Sec18 T33S R65W : LOCATION
 DATE.                             12/12/04 : DATE(S) LOGGED
 SRVC.        BLANCO GEOLOGICAL SEVICES LLC : SERVICE COMPANY
 STAT.                                   CO : STATE
 CNTY.                           LAS ANIMAS : COUNTY
 CTRY.                                  USA : COUNTRY
 API.                          05-071-08073 : API NUMBER
 STRT.FT                             263.00 : START DEPTH
 STOP.FT                            1765.00 : STOP DEPTH
 STEP.FT                               1.00 : DEPTH INCREMENT
 NULL.                                -9999 : NULL VALUE
~Curve information
 DEPTH.FT                                   :
 ROP.MIN/FT                                 :
 GAS.UNITS                                  :
~ASCII Log data
# ...
      663.00        0.233          5.8 
      664.00        0.167          5.9 
      665.00        0.233          6.1 
      666.00        0.233          5.6 
      667.00        0.183          5.8 
      668.00        0.167          5.8 
      669.00        0.267          6.0 
      670.00        0.167          5.9 
      671.00        0.167          5.6 
      672.00        0.167          6.2 
      673.00        0.233          5.6 
      674.00        0.200          5.7 
      675.00        0.167          6.0 
      676.00        0.133          6.1 
      677.00        0.200          5.6 
      678.00        0.433          5.6 
      679.00        0.400          5.6 
      680.00        0.233          6.2 
      681.00        0.233          5.7 
      682.00        0.183          6.2 
      683.00        0.200          6.2 
      684.00        0.133          5.9 
      685.00        0.200          5.7 
      686.00        2.100          6.5 
      687.00        0.200          5.9 
      688.00        0.233          5.9 
      689.00        0.250          5.8 
      690.00        0.300          5.8 
      691.00        0.267          5.8 
      692.00        0.267          6.3 
      693.00        0.267          6.0 
      694.00        0.233          5.7 
      695.00        0.233          6.4 
      696.00        0.200          5.8 
      697.00        0.233          6.0 
      698.00        0.167          6.0 
      699.00        0.233          6.0 
      700.00        0.300          6.1 
      701.00        0.233          6.1 
      702.00        0.200          5.6 
      703.00        0.217          6.0 
      704.00        0.200          5.9 
      705.00        0.200          5.8 
      706.00        0.200          6.3 
      707.00        0.200          6.3 
      708.00        0.167          6.0 
      709.00        0.200          6.3 
      710.00        0.200          6.7 
      711.00        0.200          6.2 
      712.00        0.200          5.9 
      713.00        0.200          5.8 
      714.00        0.200          6.2 
      715.00        0.167          6.2 
      716.00        4.017          6.7 
      717.00        0.350          6.1 
      718.00        0.267          6.5 
      719.00        0.233          6.1 
      720.00        0.200          6.5 
      721.00        0.233          6.3 
      722.00        0.200          5.8 
      723.00        0.333          6.0 
      724.00        0.167          6.0 
      725.00        0.167          6.2 
      726.00        0.300          6.1 
      727.00        0.333          6.6 
      728.00        0.267          6.0 
      729.00        0.267          5.9 
      730.00        0.350          6.5 
      731.00        0.333          6.1 
      732.00        0.233          6.5 
      733.00        0.233          5.9 
      734.00        0.200          5.9 
      735.00        0.267          6.1 
      736.00        0.233          6.0 
      737.00        0.233          6.0 
      738.00        0.233          6.1 
      739.00        0.233          5.7 
      740.00        0.200          6.2 
      741.00        0.233          5.9 
      742.00        0.200          6.0 
      743.00        0.200          6.0 
      744.00        0.167          5.7 
      745.00        0.183          6.2 
      746.00        2.633          6.6 
      747.00        0.500          6.5 
      748.00        0.450          6.1 
      749.00        0.367          6.2 
      750.00        0.100          6.0 
      751.00        0.100          6.0 
      752.00        0.167          5.9 
      753.00        0.267          6.3 
      754.00        0.267          6.0 
      755.00        0.200          5.9 
      756.00        0.300          6.0 
      757.00        0.300          6.6 
      758.00        0.233          6.3 
      759.00        0.200          5.9 
      760.00        0.167          5.9 
      761.00        0.133          6.4 
      762.00        0.100          6.0 
      763.00        0.183          6.2 
      764.00        0.133          6.2 
      765.00        0.167          6.1 
      766.00        0.167          6.1 
      767.00        0.233          6.1 
      768.00        0.200          6.1 
      769.00        0.200          6.2 
      770.00        0.200          6.0 
      771.00        0.167          6.0 
      772.00        0.100          6.3 
      773.00        0.133          6.3 
      774.00        0.133          6.3 
      775.00        0.533          6.2 
      776.00        1.350          6.7 
      777.00        0.300          6.6 
      778.00        0.233          6.7 
      779.00        0.333          6.3 
      780.00        0.333          6.4 
      781.00        0.200          6.9 
      782.00        0.133          6.4 
      783.00        0.167          6.4 
      784.00        0.200          6.6 
      785.00        0.167          6.2 
      786.00        0.200          6.2 
      787.00        0.200          6.3 
      788.00        0.233          6.3 
      789.00        0.317          6.3 
      790.00        0.300          6.3 
      791.00        0.200          6.1 
      792.00        0.267          6.7 
      793.00        0.167          6.7 
      794.00        0.133          6.8 
      795.00        0.133          6.8 
      796.00        0.167          6.4 
      797.00        0.233          6.2 
      798.00        0.167          6.4 
      799.00        0.200          6.4 
      800.00        0.133          6.8 
      801.00        0.133          6.8 
      802.00        0.133          6.9 
      803.00        0.133          6.9 
      804.00        0.133          5.9 
      805.00        0.533          6.3 
      806.00        2.983          6.9 
      807.00        0.200          6.5 
      808.00        0.217          6.4 
      809.00        0.200          6.3 
      810.00        0.200          6.3 
      811.00        0.167          6.5 
      812.00        0.067          6.5 
      813.00        0.167          7.1 
      814.00        0.300          7.0 
      815.00        0.167          6.9 
      816.00        0.200          6.6 
      817.00        0.200          6.5 
      818.00        0.200          7.1 
      819.00        0.200          7.1 
      820.00        0.233          6.1 
      821.00        0.233          6.6 
      822.00        0.233          7.0 
      823.00        0.200          6.6 
      824.00        0.383          6.8 
      825.00        0.233          6.6 
      826.00        0.233          6.3 
      827.00        0.267          6.5 
      828.00        0.267          6.5 
      829.00        0.200          6.3 
      830.00        0.133          6.3 
      831.00        0.133          6.4 
      832.00        0.100          6.4 
      833.00        0.133          6.3 
      834.00        0.100          6.3 
      835.00        0.433          6.6 
      836.00        1.850          7.1 
      837.00        0.333          6.5 
      838.00        0.333          6.4 
      839.00        0.167          6.4 
      840.00        0.267          6.9 
      841.00        0.267          6.3 
      842.00        0.400          6.7 
      843.00        0.367          6.3 
      844.00        0.267          6.2 
      845.00        0.167          6.7 
      846.00        0.283          6.5 
      847.00        0.133          6.5 
      848.00        0.100          6.5 
      849.00        0.233          7.2 
      850.00        0.100          6.6 
      851.00        0.133          6.6 
      852.00        0.167          6.2 
      853.00        0.200          6.2 
      854.00        0.200          6.4 
      855.00        0.233          6.5 
      856.00        0.233          6.8 
      857.00        0.200          7.1 
      858.00        0.267          6.4 
      859.00        0.233          6.3 
      860.00        0.267          6.5 
      861.00        0.267          6.6 
      862.00        0.283          6.4 
