~Version Information
VERS.                      2.0: CWLS Log ASCII Standard - VERSION 2.0
WRAP.                       NO: One line per depth step
~Well Information Block
STRT.FT               898.0000: 
STOP.FT              2360.0000: 
STEP.FT                 0.2500: 
NULL.                -999.2500: 
COMP.          Pioneer Natural Resources: COMPANY
WELL.             Trimax 44-23: WELL
FLD.           Purgatoire River: FIELD
LOC.           527' FSL & 1064' FEL: LOCATION
PROV.                 Colorado: PROVINCE
CNTY.               Las Animas: COUNTRY
SRVC.                Patterson: SERVICE COMPANY
DATE.          Sun Mar 13 04:57:04 2005: LOG DATE
UWI.           05 071 08326 00: UNIQUE WELL ID
~Curve Information Block
DEPT.FT            0 000 00 00: Depth
SN.Ohm-m                      : IEL Short Normal
SP.mV                         : IEL Spontaneous Potential
DIR.Ohm-m                     : IEL Induction Resistivity
GR.GAPI                       : Gamma Ray
~Parameter Information Block
~A  Depth        SN          SP         DIR          GR     
# ...
  1199.5000   2000.0000   2000.0000 100000.0000     89.5558
  1199.7500   2000.0000   2000.0000 100000.0000     88.1100
  1200.0000   2000.0000   2000.0000 100000.0000     85.8956
  1200.2500   2000.0000   2000.0000 100000.0000     84.6918
  1200.5000   2000.0000   2000.0000 100000.0000     83.9682
  1200.7500   2000.0000   2000.0000 100000.0000     84.5010
  1201.0000   2000.0000   2000.0000 100000.0000     86.5058
  1201.2500   2000.0000   2000.0000 100000.0000     87.9423
  1201.5000   2000.0000   2000.0000 100000.0000     89.0643
  1201.7500   2000.0000   2000.0000 100000.0000     89.0302
  1202.0000   2000.0000   2000.0000 100000.0000     88.6396
  1202.2500   2000.0000   2000.0000 100000.0000     88.6497
  1202.5000   2000.0000   2000.0000 100000.0000     89.1168
  1202.7500   2000.0000   2000.0000 100000.0000     89.4498
  1203.0000   2000.0000   2000.0000 100000.0000     89.8781
  1203.2500   2000.0000   2000.0000 100000.0000     90.3999
  1203.5000   2000.0000   2000.0000 100000.0000     91.8290
  1203.7500   2000.0000   2000.0000    499.6546     92.9299
  1204.0000   2000.0000   2000.0000     20.4564     94.0696
  1204.2500   2000.0000   2000.0000     10.8265     94.4572
  1204.5000   2000.0000   2000.0000      7.7600     95.3742
  1204.7500   2000.0000   2000.0000      6.3768     96.9090
  1205.0000   2000.0000   2000.0000      5.6430    101.0985
  1205.2500   2000.0000   2000.0000      5.1835    104.7519
  1205.5000   2000.0000   2000.0000      4.8256    110.0441
  1205.7500   2000.0000   2000.0000      4.4937    112.6486
  1206.0000   2000.0000   2000.0000      4.1713    114.6536
  1206.2500   2000.0000   2000.0000      3.8737    114.9339
  1206.5000   2000.0000   2000.0000      3.6283    114.5984
  1206.7500   2000.0000   2000.0000      3.4645    114.3914
  1207.0000   2000.0000   2000.0000      3.4098    114.6524
  1207.2500   2000.0000   2000.0000      3.4911    115.0802
  1207.5000   2000.0000   2000.0000      3.7385    114.9928
  1207.7500   2000.0000   2000.0000      4.1906    113.6147
  1208.0000   2000.0000   2000.0000      4.9016    108.6753
  1208.2500   2000.0000   2000.0000      5.9480    103.3950
  1208.5000   2000.0000   2000.0000      7.4376     92.8809
  1208.7500   2000.0000   2000.0000      9.5139     84.6231
  1209.0000   2000.0000   2000.0000     12.3360     71.7981
  1209.2500   2000.0000   2000.0000     15.9867     64.0731
  1209.5000   2000.0000   2000.0000     20.2631     55.4954
  1209.7500   2000.0000   2000.0000     24.4645     52.3155
  1210.0000   2000.0000   2000.0000     27.6009     50.9668
  1210.2500   2000.0000   2000.0000     29.1332     51.5048
  1210.5000   2000.0000   2000.0000     29.3469     52.9057
  1210.7500   2000.0000   2000.0000     28.8897     53.7845
  1211.0000   2000.0000   2000.0000     28.2420     55.2450
  1211.2500   2000.0000   2000.0000     27.5984     56.7590
  1211.5000   2000.0000   2000.0000     26.9756     60.5690
  1211.7500   2000.0000   2000.0000     26.3296     64.3671
  1212.0000   2000.0000   2000.0000     25.6277     71.9168
  1212.2500   2000.0000   2000.0000     24.8745     77.9601
  1212.5000   2000.0000   2000.0000     24.1032     88.0427
  1212.7500   2000.0000   2000.0000     23.3445     95.2596
  1213.0000   2000.0000   2000.0000     22.5991    106.8377
  1213.2500   2000.0000   2000.0000     21.8362    115.0096
  1213.5000   2000.0000   2000.0000     21.0231    127.0459
  1213.7500   2000.0000   2000.0000     20.1598    133.9447
  1214.0000   2000.0000   2000.0000     19.2856    141.2018
  1214.2500   2000.0000   2000.0000     18.4516    143.7867
  1214.5000   2000.0000   2000.0000     17.6885    144.8107
  1214.7500   2000.0000   2000.0000     16.9967    143.8996
  1215.0000   2000.0000   2000.0000     16.3607    140.0490
  1215.2500   2000.0000   2000.0000     15.7682    135.5977
  1215.5000   2000.0000   2000.0000     15.2169    126.5548
  1215.7500   2000.0000   2000.0000     14.7102    120.0259
  1216.0000   2000.0000   2000.0000     14.2524    111.7715
  1216.2500   2000.0000   2000.0000     13.8504    108.0689
  1216.5000   2000.0000   2000.0000     13.5164    105.1274
  1216.7500   2000.0000   2000.0000     13.2631    104.5505
  1217.0000   2000.0000   2000.0000     13.0899    105.9018
  1217.2500   2000.0000   2000.0000     12.9732    108.9814
  1217.5000   2000.0000   2000.0000     12.8696    117.9673
  1217.7500   2000.0000   2000.0000     12.7332    126.5507
  1218.0000   2000.0000   2000.0000     12.5352    140.7949
  1218.2500   2000.0000   2000.0000     12.2721    149.3433
  1218.5000   2000.0000   2000.0000     11.9600    158.5645
  1218.7500   2000.0000   2000.0000     11.6233    162.0524
  1219.0000   2000.0000   2000.0000     11.2859    164.3974
  1219.2500   2000.0000   2000.0000     10.9677    165.0327
  1219.5000   2000.0000   2000.0000     10.6838    165.5897
  1219.7500   2000.0000   2000.0000     10.4437    165.5836
  1220.0000   2000.0000   2000.0000     10.2514    164.2713
  1220.2500   2000.0000   2000.0000     10.1055    162.2002
  1220.5000   2000.0000   2000.0000     10.0004    157.1509
  1220.7500   2000.0000   2000.0000      9.9287    152.7043
  1221.0000   2000.0000   2000.0000      9.8843    145.4950
  1221.2500   2000.0000   2000.0000      9.8638    141.2711
  1221.5000   2000.0000   2000.0000      9.8656    137.1878
  1221.7500   2000.0000   2000.0000      9.8873    136.2203
  1222.0000   2000.0000   2000.0000      9.9242    136.9352
  1222.2500   2000.0000   2000.0000      9.9700    138.4445
  1222.5000   2000.0000   2000.0000     10.0188    141.7652
  1222.7500   2000.0000   2000.0000     10.0667    144.4017
  1223.0000   2000.0000   2000.0000     10.1094    148.2781
  1223.2500   2000.0000   2000.0000     10.1405    150.4377
  1223.5000   2000.0000   2000.0000     10.1525    152.7856
  1223.7500   2000.0000   2000.0000     10.1407    153.6580
  1224.0000   2000.0000   2000.0000     10.1086    153.4678
  1224.2500   2000.0000   2000.0000     10.0674    152.1253
  1224.5000   2000.0000   2000.0000     10.0304    148.6383
  1224.7500   2000.0000   2000.0000     10.0060    145.9229
  1225.0000   2000.0000   2000.0000      9.9932    142.2746
  1225.2500   2000.0000   2000.0000      9.9835    140.4620
  1225.5000   2000.0000   2000.0000      9.9650    138.7906
  1225.7500   2000.0000   2000.0000      9.9289    138.3044
  1226.0000   2000.0000   2000.0000      9.8729    138.4175
  1226.2500   2000.0000   2000.0000      9.8006    139.0703
  1226.5000   2000.0000   2000.0000      9.7191    140.8494
  1226.7500   2000.0000   2000.0000      9.6363    142.3020
  1227.0000   2000.0000   2000.0000      9.5583    144.1270
  1227.2500   2000.0000   2000.0000      9.4867    144.8060
  1227.5000   2000.0000   2000.0000      9.4194    145.1074
  1227.7500   2000.0000   2000.0000      9.3516    145.0867
  1228.0000   2000.0000   2000.0000      9.2800    145.0520
  1228.2500   2000.0000   2000.0000      9.2043    145.1499
  1228.5000   2000.0000   2000.0000      9.1262    145.7468
  1228.7500   2000.0000   2000.0000      9.0467    146.4968
  1229.0000   2000.0000   2000.0000      8.9650    147.6762
  1229.2500   2000.0000   2000.0000      8.8808    147.9791
  1229.5000   2000.0000   2000.0000      8.7976    147.1010
  1229.7500   2000.0000   2000.0000      8.7242    145.6868
  1230.0000   2000.0000   2000.0000      8.6712    143.0598
  1230.2500   2000.0000   2000.0000      8.6459    141.5852
  1230.5000   2000.0000   2000.0000      8.6507    140.7030
  1230.7500   2000.0000   2000.0000      8.6844    141.1171
  1231.0000   2000.0000   2000.0000      8.7447    142.4885
  1231.2500   2000.0000   2000.0000      8.8305    143.3093
  1231.5000   2000.0000   2000.0000      8.9426    144.1983
  1231.7500   2000.0000   2000.0000      9.0843    144.9185
  1232.0000   2000.0000   2000.0000      9.2593    146.3875
  1232.2500   2000.0000   2000.0000      9.4711    147.0990
  1232.5000   2000.0000   2000.0000      9.7239    146.5804
  1232.7500   2000.0000   2000.0000     10.0245    144.8948
