~Version Information
 VERS.                                  2.0 : CWLS LAS VERSION
 WRAP.                                   NO : WRAPING MODE
 SWARE .                 MController 2.5.0E : SOFTWARE VERSION
~Well Information
 WELL.                      Latiluppe 8-13R : WELL
 COMP.                Petrogulf Corporation : COMPANY
 FLD.                      Purgatorie River : FIELD
 LOC.                 NW/SW Sec 8 T33S R67W : LOCATION
 DATE.                              4/20/04 : DATE(S) LOGGED
 SRVC.       Blanco Geological Services LLC : SERVICE COMPANY
 STAT.                                   CO : STATE
 CNTY.                           Las Animas : COUNTY
 CTRY.                                  USA : COUNTRY
 API.                       05-071-08035-00 : API NUMBER
 STRT.FT                            1036.00 : START DEPTH
 STOP.FT                            2246.00 : STOP DEPTH
 STEP.FT                               1.00 : DEPTH INCREMENT
 NULL.                                -9999 : NULL VALUE
~Curve information
 DEPTH.FT                                   :
 ROP.MIN/FT                                 :
 GAS.UNITS                                  :
~ASCII Log data
# ...
     1236.00        0.200          6.7 
     1237.00        0.200          6.7 
     1238.00        0.200          6.7 
     1239.00        0.200          6.4 
     1240.00        0.200          6.5 
     1241.00        0.200          6.5 
     1242.00        0.233          6.2 
     1243.00        0.133          6.0 
     1244.00        0.133          6.0 
     1245.00        0.133          6.4 
     1246.00        0.200          6.4 
     1247.00        0.200          6.4 
     1248.00        0.300          6.1 
     1249.00        0.167          6.4 
     1250.00        0.233          6.7 
     1251.00        0.217          6.3 
     1252.00        0.200          6.3 
     1253.00        1.700          9.5 
     1254.00        0.267         11.9 
     1255.00        0.267         15.3 
     1256.00        0.267         12.7 
     1257.00        0.267         11.4 
     1258.00        0.267         11.6 
     1259.00        0.283         10.5 
     1260.00        0.267          9.7 
     1261.00        0.267          8.9 
     1262.00        0.267          8.0 
     1263.00        0.333          7.4 
     1264.00        0.367          6.6 
     1265.00        0.200          6.6 
     1266.00        0.200          6.5 
     1267.00        0.233          6.6 
     1268.00        0.200          6.5 
     1269.00        0.233          6.7 
     1270.00        0.267          6.5 
     1271.00        0.267          6.7 
     1272.00        0.217          6.8 
     1273.00        0.200          6.8 
     1274.00        0.200          6.1 
     1275.00        0.200          6.4 
     1276.00        0.167          6.3 
     1277.00        0.167          6.3 
     1278.00        0.200          7.0 
     1279.00        0.200          6.8 
     1280.00        0.167          6.8 
     1281.00        0.200          7.1 
     1282.00        0.167          9.0 
     1283.00        2.983         14.5 
     1284.00        0.600          6.8 
     1285.00        0.233          6.8 
     1286.00        0.267          6.8 
     1287.00        0.200          6.8 
     1288.00        0.233          6.8 
     1289.00        0.217          6.7 
     1290.00        0.267          7.0 
     1291.00        0.200          6.9 
     1292.00        0.167          6.4 
     1293.00        0.167          6.3 
     1294.00        0.167          6.2 
     1295.00        0.233          6.0 
     1296.00        0.167          5.8 
     1297.00        0.200          6.2 
     1298.00        0.167          6.0 
     1299.00        0.167          6.0 
     1300.00        0.167          5.9 
     1301.00        0.200          6.2 
     1302.00        0.200          6.2 
     1303.00        0.200          6.1 
     1304.00        0.200          6.3 
     1305.00        0.233          6.2 
     1306.00        0.217          6.6 
     1307.00        0.200          6.6 
     1308.00        0.300          6.9 
     1309.00        0.267          7.0 
     1310.00        0.167          7.6 
     1311.00        0.200          7.8 
     1312.00        0.233          8.5 
     1313.00        1.600          7.9 
     1314.00        0.267          6.4 
     1315.00        0.283          6.6 
     1316.00        0.267          7.0 
     1317.00        0.267          6.6 
     1318.00        0.367          7.1 
     1319.00        0.267          6.9 
     1320.00        0.267          6.8 
     1321.00        0.267          6.7 
     1322.00        0.267          6.9 
     1323.00        0.267          6.5 
     1324.00        0.267         11.7 
     1325.00        0.333         13.5 
     1326.00        0.267         11.9 
     1327.00        0.283         10.0 
     1328.00        0.267          8.5 
     1329.00        0.267          6.5 
     1330.00        0.267          6.4 
     1331.00        0.267          6.1 
     1332.00        0.267          6.4 
     1333.00        0.267          6.2 
     1334.00        0.267          6.3 
     1335.00        0.233          6.3 
     1336.00        0.267          6.4 
     1337.00        0.400          7.7 
     1338.00        0.200          8.0 
     1339.00        0.183          8.6 
     1340.00        0.167          9.4 
     1341.00        0.200          9.4 
     1342.00        0.267          9.9 
     1343.00        2.167          7.5 
     1344.00        0.367          6.7 
     1345.00        0.217          6.3 
     1346.00        0.233          6.7 
     1347.00        0.267          6.8 
     1348.00        0.233          6.8 
     1349.00        0.233          6.8 
     1350.00        0.200          6.8 
     1351.00        0.233          6.5 
     1352.00        0.233          6.8 
     1353.00        0.233          6.4 
     1354.00        0.233          6.8 
     1355.00        0.200          6.9 
     1356.00        0.167          6.8 
     1357.00        0.233          6.8 
     1358.00        0.233          6.7 
     1359.00        0.417          6.7 
     1360.00        0.267          6.9 
     1361.00        0.233          6.9 
     1362.00        0.200          6.9 
     1363.00        0.233          6.9 
     1364.00        0.200          6.6 
     1365.00        0.200          6.8 
     1366.00        0.233          6.7 
     1367.00        0.233          7.1 
     1368.00        0.200          7.1 
     1369.00        0.233          7.5 
     1370.00        0.200          8.5 
     1371.00        0.233          8.7 
     1372.00        0.200          9.3 
     1373.00        2.850         36.9 
     1374.00        0.367         40.2 
     1375.00        0.267         28.9 
     1376.00        0.283         26.5 
     1377.00        0.133         15.6 
     1378.00        0.100         15.6 
     1379.00        0.133         14.0 
     1380.00        0.133         12.8 
     1381.00        0.167         10.4 
     1382.00        0.100         10.4 
     1383.00        0.133         10.7 
     1384.00        0.100          9.6 
     1385.00        0.100          9.6 
     1386.00        0.133          8.9 
     1387.00        0.100          8.9 
     1388.00        0.167          8.4 
     1389.00        0.300          8.2 
     1390.00        0.300          8.1 
     1391.00        0.300          7.8 
     1392.00        0.367          9.8 
     1393.00        0.333         10.6 
     1394.00        0.217          8.9 
     1395.00        0.300          7.7 
     1396.00        0.300          7.6 
     1397.00        0.233          7.6 
     1398.00        0.267          8.8 
     1399.00        0.233         11.2 
     1400.00        0.200         13.0 
     1401.00        0.167         15.2 
     1402.00        0.400         24.7 
     1403.00        2.383         24.9 
     1404.00        0.333          7.5 
     1405.00        0.233          7.6 
     1406.00        0.200          8.2 
     1407.00        0.267          8.1 
     1408.00        0.300          7.6 
     1409.00        0.300          7.4 
     1410.00        0.300          7.7 
     1411.00        0.317          7.3 
     1412.00        0.400          8.1 
     1413.00        0.267         11.4 
     1414.00        0.233         11.5 
     1415.00        0.267          9.4 
     1416.00        0.267          8.5 
     1417.00        0.233          7.5 
     1418.00        0.233          7.5 
     1419.00        0.267          6.9 
     1420.00        0.233          7.0 
     1421.00        0.233          7.1 
     1422.00        0.133          6.9 
     1423.00        0.233          7.2 
     1424.00        0.283          6.8 
     1425.00        0.267          6.8 
     1426.00        0.267          8.5 
     1427.00        0.233          9.1 
     1428.00        0.267          7.7 
     1429.00        0.300          7.1 
     1430.00        0.300          7.1 
     1431.00        0.267          8.1 
     1432.00        0.267          8.6 
     1433.00        3.250         13.3 
     1434.00        0.433          6.7 
     1435.00        0.400          7.0 
