~Version Information
VERS.                      2.0: CWLS Log ASCII Standard - VERSION 2.0
WRAP.                       NO: One line per depth step
~Well Information Block
STRT.FT                -7.7500: 
STOP.FT               973.7500: 
STEP.FT                 0.2500: 
NULL.                -999.2500: 
COMP.          Pioneer Natural Resources: COMPANY
WELL.              Dylan 42-25: WELL
FLD.           Purgatorie River: FIELD
LOC.           2160' FNL & 855' FEL: LOCATION
PROV.                 Colorado: PROVINCE
CNTY.               Las Animas: COUNTRY
SRVC.          Patterson Wireline: SERVICE COMPANY
DATE.          Fri Apr 29 16:36:17 2005: LOG DATE
UWI.           05-071-08229-00: UNIQUE WELL ID
~Curve Information Block
DEPT.FT            0 000 00 00: Depth
CCL.                          : Casing Collar Locator
TT3.usec                      : CBL 3' Travel Time
AMP3.mV                       : CBL 3' Amplitude
GR.GAPI                       : Gamma Ray
~Parameter Information Block
~A  Depth       CCL         TT3         AMP3         GR     
# ...
   427.7500      0.0000    393.6982      6.1266    101.6897
   428.0000      0.0000    407.1452      6.2071    107.4731
   428.2500      0.0000    427.2018      6.2894    110.3346
   428.5000      0.0000    446.9308      6.3455    109.4402
   428.7500      0.0000    455.6672      6.3599    105.2219
   429.0000      0.0000    448.0704      6.3335     98.8124
   429.2500      0.0000    429.4557      6.2738     91.7457
   429.5000      0.0000    410.4127      6.1860     85.6210
   429.7500      0.0000    397.7525      6.0758     81.4160
   430.0000      0.0000    391.7970      5.9570     79.0722
   430.2500      0.0000    389.7684      5.8526     77.9567
   430.5000      0.0000    389.2516      5.7844     77.6688
   430.7500      0.0000    389.0962      5.7616     78.2045
   431.0000      0.0000    388.8802      5.7791     79.5135
   431.2500      0.0000    388.3015      5.8326     81.2675
   431.5000      0.0000    386.8119      5.9302     83.1477
   431.7500      0.0000    383.6534      6.0838     85.1327
   432.0000      0.0000    378.3497      6.2827     87.3296
   432.2500      0.0000    371.5660      6.4785     89.4842
   432.5000      0.0000    365.4730      6.6082     90.7508
   432.7500      0.0000    362.7545      6.6390     90.1441
   433.0000      0.0000    364.7628      6.5859     87.4380
   433.2500      0.0000    370.6360      6.4759     83.4852
   433.5000      0.0000    378.2361      6.3040     79.3371
   433.7500      0.0000    385.6471      6.0358     75.2291
   434.0000      0.0000    391.6666      5.6643     70.9416
   434.2500      0.0000    395.4967      5.2616     66.9841
   434.5000      0.0000    396.7221      4.9611     64.5953
   434.7500      0.0000    395.7883      4.8689     64.4241
   435.0000      0.0000    394.5065      4.9897     65.8932
   435.2500      5.0000    396.3746      5.2462     68.1057
   435.5000      5.0000    406.2197      5.5639     70.8907
   435.7500      0.0000    428.3139      5.9255     74.6031
   436.0000      0.0000    462.5815      6.3526     79.1220
   436.2500      0.0000    501.9366      6.8538     83.4542
   436.5000      0.0000    534.7778      7.3944     86.5361
   436.7500      0.0000    551.0235      7.9215     88.1457
   437.0000      0.0000    545.3826      8.4278     88.7017
   437.2500      0.0000    517.4542      8.9708     88.4917
   437.5000      0.0000    473.2440      9.6012     87.6639
   437.7500      0.0000    425.5168     10.2825     86.7705
   438.0000      0.0000    387.4102     10.9053     86.6353
   438.2500      0.0000    364.4504     11.3734     87.6125
   438.5000      0.0000    353.8916     11.6617     89.3906
   438.7500      0.0000    350.1244     11.8025     91.5391
   439.0000      0.0000    349.0335     11.8401     93.8250
   439.2500      0.0000    348.7354     11.8039     96.0252
   439.5000      0.0000    348.6109     11.7097     97.9723
   439.7500      0.0000    348.4981     11.5730     99.8115
   440.0000      0.0000    348.3082     11.4148    101.6522
   440.2500      0.0000    347.9977     11.2547    102.9735
   440.5000      0.0000    347.5663     11.0987    102.9970
   440.7500      0.0000    347.0625     10.9348    101.7280
   441.0000      0.0000    346.5570     10.7467    100.1147
   441.2500      0.0000    346.1064     10.5317     99.0893
   441.5000      0.0000    345.7337     10.3042     98.8699
   441.7500      0.0000    345.4335     10.0836     99.2837
   442.0000      0.0000    345.1928      9.8791    100.3105
   442.2500      0.0000    345.0042      9.6856    102.0165
   442.5000      0.0000    344.8794      9.4911    104.2243
   442.7500      0.0000    344.8999      9.2904    106.5804
   443.0000      0.0000    345.4514      9.0909    108.7210
   443.2500      0.0000    347.6591      8.9032    110.1479
   443.5000      0.0000    353.7051      8.7237    110.2991
   443.7500      0.0000    366.1879      8.5331    109.0785
   444.0000      0.0000    386.1809      8.3175    107.0297
   444.2500      0.0000    412.0491      8.0854    104.8715
   444.5000      0.0000    441.7700      7.8586    103.2784
   444.7500      0.0000    476.3081      7.6510    102.9652
   445.0000      0.0000    517.6944      7.4603    104.1498
   445.2500      0.0000    562.9756      7.2755    105.8082
   445.5000      0.0000    603.7493      7.0886    106.1279
   445.7500      0.0000    633.4036      6.9017    103.9405
   446.0000      0.0000    652.1950      6.7258     99.5530
   446.2500      0.0000    664.5099      6.5733     94.4204
   446.5000      0.0000    673.9921      6.4508     90.2650
   446.7500      0.0000    682.1899      6.3575     88.1853
   447.0000      0.0000    689.5911      6.2868     88.1415
   447.2500      0.0000    696.2894      6.2307     89.1853
   447.5000      0.0000    702.0488      6.1873     90.2156
   447.7500      0.0000    706.4010      6.1614     90.6197
   448.0000      0.0000    709.0443      6.1538     90.3996
   448.2500      0.0000    710.3892      6.1535     89.8925
   448.5000      0.0000    711.4650      6.1440     89.3439
   448.7500      0.0000    712.9016      6.1149     88.6780
   449.0000      0.0000    714.4729      6.0685     87.7016
   449.2500      0.0000    715.8112      6.0175     86.3866
   449.5000      0.0000    716.7190      5.9779     84.8209
   449.7500      0.0000    717.3366      5.9600     83.0859
   450.0000      0.0000    720.5540      5.9610     81.4192
   450.2500      0.0000    733.3475      5.9696     80.2115
   450.5000      0.0000    760.2156      5.9765     79.5118
   450.7500      0.0000    793.9965      5.9806     78.7971
   451.0000      0.0000    818.5830      5.9853     77.4989
   451.2500      0.0000    823.2300      5.9903     75.5356
   451.5000      0.0000    811.4679      5.9892     73.2329
   451.7500      0.0000    795.6061      5.9753     71.0685
   452.0000      0.0000    785.7282      5.9486     69.4925
   452.2500      0.0000    784.5755      5.9139     68.5763
   452.5000      0.0000    789.3501      5.8736     67.8107
   452.7500      0.0000    795.1743      5.8264     66.6903
   453.0000      0.0000    797.6845      5.7744     65.4478
   453.2500      0.0000    795.1342      5.7273     64.6943
   453.5000      0.0000    789.1293      5.6957     64.4144
   453.7500      0.0000    782.7585      5.6807     63.9210
   454.0000      0.0000    777.8156      5.6737     62.8937
   454.2500      0.0000    773.7941      5.6634     61.8645
   454.5000      0.0000    768.8990      5.6426     61.4864
   454.7500      0.0000    761.9086      5.6076     61.7341
   455.0000      0.0000    753.8613      5.5568     62.0526
   455.2500      0.0000    748.0802      5.4943     62.0631
   455.5000      0.0000    747.5852      5.4373     61.8327
   455.7500      0.0000    752.0269      5.4084     61.4819
   456.0000      0.0000    757.8751      5.4140     60.8829
   456.2500      0.0000    761.9811      5.4346     59.9938
   456.5000      0.0000    764.2836      5.4417     59.2501
   456.7500      0.0000    766.3913      5.4244     59.3671
   457.0000      0.0000    768.4038      5.3943     60.8592
   457.2500      0.0000    768.8089      5.3656     63.7725
   457.5000      0.0000    767.4063      5.3382     67.5418
   457.7500      0.0000    766.1836      5.3030     71.0270
   458.0000      0.0000    767.0487      5.2583     73.1624
   458.2500      0.0000    770.6443      5.2145     73.7974
   458.5000      0.0000    777.1338      5.1858     73.6394
   458.7500      0.0000    785.9625      5.1779     73.3086
   459.0000      0.0000    794.9955      5.1870     72.8115
   459.2500      0.0000    801.6409      5.2093     72.0165
   459.5000      0.0000    805.0687      5.2493     71.0670
   459.7500      0.0000    806.3846      5.3117     70.0566
   460.0000      0.0000    806.6644      5.3860     68.8641
   460.2500      0.0000    805.9106      5.4479     67.7862
   460.5000      0.0000    804.2980      5.4788     67.9351
   460.7500      0.0000    803.2778      5.4803     70.4174
   461.0000      0.0000    804.1724      5.4704     75.0224
