~Version Information
VERS.                      2.0: CWLS Log ASCII Standard - VERSION 2.0
WRAP.                       NO: One line per depth step
~Well Information Block
STRT.FT               -12.5000: 
STOP.FT              2487.7500: 
STEP.FT                 0.2500: 
NULL.                -999.2500: 
COMP.          Petrogulf Corporation: COMPANY
WELL.             Royal 8-33 V: WELL
FLD.           Purgatorie River: FIELD
LOC.           2365' FSL & 2336' FEL--: LOCATION
CNTY.               Las Animas: COUNTY
SRVC.                         : SERVICE COMPANY
DATE.          Sat Jan 17 11:43:49 2004: LOG DATE
UWI.           05 071 07934 00: UNIQUE WELL ID
STAT.                       CO: STATE
~Curve Information Block
DEPT.FT            0 000 00 00: Depth
CCL.                          : Casing Collar Locator
TT3.usec                      : CBL 3' Travel Time
AMP3.mV                       : CBL 3' Amplitude
GR.GAPI                       : Gamma Ray
~Parameter Information Block
~A  Depth       CCL         TT3         AMP3         GR     
# ...
   490.0000      0.0000    519.2145     15.4072     79.9226
   490.2500      0.0000    548.4622     14.9807     82.6957
   490.5000      0.0000    577.8018     14.6968     85.1482
   490.7500      0.0000    588.1115     14.5522     87.2091
   491.0000      0.0000    576.8677     14.5235     89.0884
   491.2500      0.0000    556.2995     14.5742     91.2508
   491.5000      0.0000    533.5775     14.6453     93.8743
   491.7500      0.0000    504.6237     14.6801     96.0961
   492.0000      0.0000    466.6491     14.6846     96.4014
   492.2500      0.0000    425.8039     14.7545     94.1107
   492.5000      0.0000    390.2360     15.0142     90.1110
   492.7500      0.0000    362.4550     15.5165     85.8514
   493.0000      0.0000    340.7134     16.1997     81.9605
   493.2500      0.0000    323.6491     16.9445     78.1275
   493.5000      0.0000    311.3866     17.6801     73.9834
   493.7500      0.0000    303.8884     18.4555     69.5125
   494.0000      0.0000    300.0665     19.4066     64.7996
   494.2500      0.0000    298.3896     20.6400     60.1039
   494.5000      0.0000    297.7121     22.1402     56.2150
   494.7500      0.0000    297.4584     23.7805     54.0252
   495.0000      0.0000    297.3784     25.3999     53.5793
   495.2500      0.0000    297.3255     26.8560     54.0294
   495.5000      0.0000    297.2045     28.0232     54.6174
   495.7500      0.0000    297.0142     28.7756     55.3562
   496.0000      0.0000    296.8483     29.0115     56.6950
   496.2500      0.0000    296.8145     28.7140     58.7839
   496.5000      0.0000    296.9423     27.9976     61.2096
   496.7500      0.0000    297.1577     27.0929     63.3885
   497.0000      0.0000    297.3335     26.2604     65.1571
   497.2500      0.0000    297.3662     25.6720     66.9854
   497.5000      0.0000    297.2392     25.3322     69.6489
   497.7500      0.0000    297.0338     25.0988     73.6038
   498.0000      0.0000    296.9121     24.7793     78.4340
   498.2500      0.0000    297.1616     24.2212     82.8417
   498.5000      0.0000    298.3896     23.3524     85.4686
   498.7500      0.0000    301.8962     22.1972     85.8237
   499.0000      0.0000    310.1787     20.8832     84.3472
   499.2500      0.0000    327.2307     19.6150     81.9993
   499.5000      0.0000    357.5709     18.5868     80.1801
   499.7500      0.0000    402.2314     17.8739     80.3870
   500.0000      0.0000    452.8729     17.3842     83.1396
   500.2500      0.0000    491.6321     16.9271     87.4396
   500.5000      0.0000    502.7761     16.3602     91.6352
   500.7500      0.0000    487.4632     15.6861     94.4288
   501.0000      0.0000    463.7738     15.0091     94.9458
   501.2500      0.0000    449.5718     14.4121     92.7364
   501.5000      0.0000    446.8762     13.8909     88.4625
   501.7500      0.0000    444.0106     13.4017     84.1687
   502.0000      0.0000    430.5165     12.9508     82.0531
   502.2500      0.0000    407.1212     12.6194     82.6164
   502.5000      0.0000    382.3946     12.4978     84.1378
   502.7500      0.0000    363.9907     12.5921     84.2197
   503.0000      0.0000    354.4786     12.8046     82.0590
   503.2500      0.0000    352.4596     13.0166     79.3101
   503.5000      0.0000    354.9722     13.1828     78.5469
   503.7500      0.0000    359.0388     13.3326     80.6174
   504.0000      0.0000    362.2459     13.4964     83.6107
   504.2500      0.0000    363.0274     13.6597     84.6110
   504.5000      0.0000    361.1888     13.7909     82.2955
   504.7500      0.0000    358.1328     13.8877     77.7983
   505.0000      0.0000    355.9024     13.9711     73.6276
   505.2500      0.0000    355.8910     14.0381     72.0167
   505.5000      0.0000    358.5621     14.0590     73.7328
   505.7500      0.0000    364.3343     14.0422     77.8052
   506.0000      0.0000    375.0132     14.0484     82.2992
   506.2500      0.0000    394.3115     14.1030     85.5089
   506.5000      0.0000    424.7162     14.1472     86.6583
   506.7500     -4.0000    461.0614     14.1185     86.0132
   507.0000      0.0000    488.3479     14.0488     84.6881
   507.2500      0.0000    490.7381     14.0705     84.0677
   507.5000      0.0000    465.0820     14.3549     84.9157
   507.7500      0.0000    423.5180     15.0112     86.8088
   508.0000      0.0000    382.4088     15.9516     88.4728
   508.2500      0.0000    351.4122     16.8415     88.9617
   508.5000      0.0000    332.3098     17.2929     88.6233
   508.7500      0.0000    323.4635     17.1592     88.6276
   509.0000      0.0000    323.1140     16.6019     89.4593
   509.2500      0.0000    329.7928     15.8966     90.3057
   509.5000      0.0000    341.1742     15.2491     90.1100
   509.7500      0.0000    353.5030     14.7614     88.5771
   510.0000      0.0000    362.9587     14.4700     85.8366
   510.2500      0.0000    367.8520     14.3707     81.9664
   510.5000      0.0000    369.3123     14.4297     77.4470
   510.7500      0.0000    369.8358     14.5960     73.5783
   511.0000      0.0000    371.1438     14.8139     71.8562
   511.2500      0.0000    373.2524     15.0358     72.8910
   511.5000      0.0000    375.2530     15.2313     75.9330
   511.7500      0.0000    376.5273     15.3931     79.3906
   512.0000      0.0000    377.1112     15.5375     81.8862
   512.2500      0.0000    377.3148     15.6921     82.9626
   512.5000      0.0000    377.3670     15.8739     82.8775
   512.7500      0.0000    377.3777     16.0755     81.9928
   513.0000      0.0000    377.4077     16.2706     80.6108
   513.2500      0.0000    377.4669     16.4223     79.2425
   513.5000      0.0000    377.4933     16.4836     78.5720
   513.7500      0.0000    377.4075     16.4038     78.9173
   514.0000      0.0000    377.2273     16.1548     79.9701
   514.2500      0.0000    377.1021     15.7621     81.2963
   514.5000      0.0000    377.1917     15.2971     82.8038
   514.7500      0.0000    377.4892     14.8229     84.3610
   515.0000      0.0000    377.7857     14.3426     85.3388
   515.2500      0.0000    377.8563     13.8126     85.2548
   515.5000      0.0000    377.6806     13.2189     84.8034
   515.7500      0.0000    377.4370     12.6355     85.4180
   516.0000      0.0000    377.2818     12.1928     87.5690
   516.2500      0.0000    377.2172     11.9751     90.0723
   516.5000      0.0000    377.2235     11.9447     91.3407
   516.7500      0.0000    377.7491     11.9679     91.0031
   517.0000      0.0000    380.5907     11.9163     89.9800
   517.2500      0.0000    390.1727     11.7396     89.0623
   517.5000      0.0000    414.0546     11.4542     87.8539
   517.7500      0.0000    460.2478     11.0906     85.2833
   518.0000      0.0000    530.8999     10.6689     80.8076
   518.2500      0.0000    617.3042     10.2137     75.0304
   518.5000      0.0000    702.4642      9.7658     69.5349
   518.7500      0.0000    769.9618      9.3553     66.0930
   519.0000      0.0000    811.3613      8.9670     65.5911
   519.2500      0.0000    827.6428      8.5591     67.5739
   519.5000      0.0000    826.3287      8.1269     70.9059
   519.7500      0.0000    816.9324      7.7212     74.6091
   520.0000      0.0000    806.2763      7.3945     77.9638
   520.2500      0.0000    796.1874      7.1531     80.3206
   520.5000      0.0000    785.6357      6.9737     81.2640
   520.7500      0.0000    775.1307      6.8415     80.7644
   521.0000      0.0000    768.1835      6.7530     79.0063
   521.2500      0.0000    768.0025      6.6966     76.3476
   521.5000      0.0000    773.3815      6.6469     73.5324
   521.7500      0.0000    779.1298      6.5780     71.5062
   522.0000      0.0000    780.8876      6.4780     70.6745
   522.2500      0.0000    778.8166      6.3615     70.4158
   522.5000      0.0000    776.3155      6.2681     69.5270
   522.7500      0.0000    776.0352      6.2361     67.2409
   523.0000      0.0000    778.1270      6.2682     63.8779
   523.2500      0.0000    781.8716      6.3341     60.6532
