~Version Information
VERS.                      2.0: CWLS Log ASCII Standard - VERSION 2.0
WRAP.                       NO: One line per depth step
~Well Information Block
STRT.FT               -13.5000: 
STOP.FT              2092.5000: 
STEP.FT                 0.2500: 
NULL.                -999.2500: 
COMP.          Petrogulf Corporation: COMPANY
WELL.          Robinson 15-11V: WELL
FLD.           Purgatorie River: FIELD
LOC.           226' FNL & 592' FWL--: LOCATION
CNTY.               Las Animas: COUNTY
SRVC.                         : SERVICE COMPANY
DATE.          Tue Aug 17 13:05:46 2004: LOG DATE
UWI.                          : UNIQUE WELL ID
STAT.                       CO: STATE
~Curve Information Block
DEPT.FT            0 000 00 00: Depth
CCL.                          : Casing Collar Locator
TT3.usec                      : CBL 3' Travel Time
AMP3.mV                       : CBL 3' Amplitude
GR.GAPI                       : Gamma Ray
~Parameter Information Block
~A  Depth       CCL         TT3         AMP3         GR     
# ...
   254.5000      0.0000    312.4398     11.5044     85.9048
   254.7500      0.0000    312.3529     11.2778     89.1342
   255.0000      0.0000    312.2916     11.1489     91.5462
   255.2500      0.0000    312.3113     11.0960     93.5675
   255.5000      0.0000    312.4079     11.0907     95.4850
   255.7500      0.0000    312.5252     11.1176     97.1330
   256.0000      0.0000    312.6096     11.1581     97.7156
   256.2500      0.0000    312.6457     11.1885     96.4617
   256.5000      0.0000    312.6400     11.2087     93.8582
   256.7500      0.0000    312.5840     11.2413     91.6731
   257.0000      0.0000    312.4597     11.2771     91.2070
   257.2500      0.0000    312.2845     11.2473     91.9192
   257.5000      0.0000    312.1279     11.0836     92.0902
   257.7500      0.0000    312.0596     10.8014     90.4662
   258.0000      0.0000    312.0865     10.5035     86.8976
   258.2500      0.0000    312.1602     10.3058     81.8223
   258.5000      0.0000    312.2430     10.2646     75.8929
   258.7500      0.0000    312.3463     10.3511     70.1861
   259.0000      0.0000    312.5006     10.4677     66.1079
   259.2500      0.0000    312.7169     10.4970     64.5401
   259.5000      0.0000    313.0252     10.3763     64.9284
   259.7500      0.0000    313.5977     10.1473     65.3763
   260.0000      0.0000    314.8922      9.9262     64.0840
   260.2500      0.0000    317.6667      9.8057     61.0152
   260.5000      0.0000    322.6362      9.7792     58.1691
   260.7500      0.0000    329.7636      9.7652     58.0239
   261.0000      0.0000    337.8124      9.7034     61.4925
   261.2500      0.0000    344.8885      9.6049     67.2146
   261.5000      0.0000    349.6404      9.5054     72.6902
   261.7500      0.0000    351.9037      9.3997     76.0818
   262.0000      0.0000    352.2719      9.2548     77.0739
   262.2500      0.0000    351.2179      9.0660     76.4112
   262.5000      0.0000    348.6380      8.8757     74.9392
   262.7500      0.0000    344.2363      8.7428     72.9852
   263.0000      0.0000    338.5272      8.6995     70.5348
   263.2500      0.0000    333.4381      8.7177     68.0686
   263.5000      0.0000    331.4468      8.7210     66.9166
   263.7500      0.0000    333.6460      8.6554     68.2737
   264.0000      0.0000    338.6329      8.5474     71.9104
   264.2500      0.0000    343.3820      8.4774     76.3716
   264.5000      0.0000    345.1751      8.5087     80.3300
   264.7500      0.0000    342.9705      8.6609     83.1135
   265.0000      0.0000    337.7016      8.9179     84.1553
   265.2500      0.0000    331.6588      9.2214     83.0696
   265.5000      0.0000    327.0360      9.4797     80.5707
   265.7500      0.0000    324.4141      9.6342     78.3774
   266.0000      0.0000    322.6874      9.7129     77.6123
   266.2500      0.0000    320.6006      9.7815     77.7342
   266.5000      0.0000    318.0454      9.8694     77.4505
   266.7500      0.0000    315.7343      9.9889     76.4146
   267.0000      0.0000    314.1342     10.1854     75.6029
   267.2500      0.0000    313.1064     10.4999     75.9722
   267.5000      0.0000    312.3173     10.8907     77.1413
   267.7500      0.0000    311.6197     11.2544     77.6758
   268.0000      0.0000    311.0524     11.5236     76.4128
   268.2500      0.0000    310.6672     11.7159     73.2719
   268.5000      0.0000    310.4452     11.8917     69.0976
   268.7500      0.0000    310.3318     12.0990     65.2823
   269.0000      0.0000    310.2951     12.3573     63.4287
   269.2500      0.0000    310.3200     12.6505     64.5805
   269.5000      0.0000    310.3731     12.9084     68.1915
   269.7500      0.0000    310.4077     13.0217     72.0189
   270.0000      0.0000    310.4014     12.9212     73.6377
   270.2500      0.0000    310.3712     12.6542     72.3767
   270.5000      0.0000    310.3517     12.3676     69.8230
   270.7500      0.0000    310.3745     12.1929     68.5754
   271.0000      0.0000    310.4693     12.1448     70.3942
   271.2500      0.0000    310.6707     12.1258     74.9087
   271.5000      0.0000    311.0034     12.0162     79.6226
   271.7500      0.0000    311.4693     11.7597     81.5123
   272.0000      0.0000    312.1211     11.3938     79.3556
   272.2500      0.0000    313.2381     11.0220     74.6851
   272.5000      0.0000    315.6472     10.7419     70.4602
   272.7500      0.0000    321.0147     10.5733     69.0374
   273.0000      0.0000    332.0971     10.4299     71.0662
   273.2500      0.0000    352.0963     10.1490     75.2744
   273.5000      0.0000    381.5848      9.5873     78.9868
   273.7500      0.0000    414.8217      8.7615     79.7746
   274.0000      0.0000    442.4217      7.8959     77.3227
   274.2500      0.0000    462.0861      7.2680     73.4756
   274.5000      0.0000    484.6753      6.9868     70.4170
   274.7500      0.0000    523.7675      6.9572     69.3106
   275.0000      0.0000    577.9650      7.0332     70.4784
   275.2500      2.0000    626.3314      7.1448     73.6846
   275.5000     -2.0000    642.7474      7.3032     77.7573
   275.7500      0.0000    615.4843      7.5560     81.0084
   276.0000      0.0000    554.9802      7.9442     82.9454
   276.2500      0.0000    484.9052      8.4616     85.0055
   276.5000      0.0000    425.9041      9.0409     88.8707
   276.7500      0.0000    385.8776      9.5881     94.3335
   277.0000      0.0000    362.1610     10.0280     99.1433
   277.2500      0.0000    349.0497     10.3291    100.6736
   277.5000      0.0000    342.4697     10.5023     97.8492
   277.7500      0.0000    340.2641     10.5728     91.9912
   278.0000      0.0000    340.8716     10.5614     85.9168
   278.2500      0.0000    342.4687     10.5014     82.0067
   278.5000      0.0000    343.1054     10.4447     80.9450
   278.7500      0.0000    341.5702     10.4198     81.9338
   279.0000      0.0000    337.9489     10.4050     83.7112
   279.2500      0.0000    333.2947     10.3787     85.4087
   279.5000      0.0000    328.9784     10.3752     86.6232
   279.7500      0.0000    326.1193     10.4472     87.0320
   280.0000      0.0000    324.9910     10.5822     86.6332
   280.2500      0.0000    324.9102     10.6937     86.3987
   280.5000      0.0000    324.9510     10.7100     87.8423
   280.7500      0.0000    324.6307     10.6535     91.5203
   281.0000      0.0000    323.9706     10.6154     96.2775
   281.2500      0.0000    323.4766     10.6451    100.1260
   281.5000      0.0000    324.0831     10.6837    101.7153
   281.7500      0.0000    326.5762     10.6267    101.0056
   282.0000      0.0000    331.0266     10.4442     98.7980
   282.2500      0.0000    337.2561     10.2127     95.8731
   282.5000      0.0000    346.1160     10.0378     92.7708
   282.7500      0.0000    360.9534      9.9670     90.1855
   283.0000      0.0000    388.1286      9.9635     88.9763
   283.2500      0.0000    434.1674      9.9424     89.5680
   283.5000      0.0000    499.0908      9.8379     91.7620
   283.7500      0.0000    571.8499      9.6561     95.2170
   284.0000      0.0000    635.0623      9.4660     99.5256
   284.2500      0.0000    676.4760      9.3356    103.7557
   284.5000      0.0000    696.0848      9.2758    106.8350
   284.7500      0.0000    702.9553      9.2445    108.7324
   285.0000      0.0000    706.8616      9.1957    110.4281
   285.2500      0.0000    712.6658      9.1293    112.2106
   285.5000      0.0000    720.1367      9.1064    112.6891
   285.7500      0.0000    726.6021      9.2163    110.2380
   286.0000      0.0000    729.2156      9.5061    105.1591
   286.2500      0.0000    725.0002      9.9311     99.9266
   286.5000      0.0000    709.7474     10.3725     97.3272
   286.7500      0.0000    679.1237     10.7110     98.6658
   287.0000      0.0000    632.4865     10.8986    103.6223
   287.2500      0.0000    574.6776     10.9811    110.9165
   287.5000      0.0000    513.1464     11.0561    118.3381
   287.7500      0.0000    454.6609     11.2140    122.6519
