~Version Information
VERS.                      2.0: CWLS Log ASCII Standard - VERSION 2.0
WRAP.                       NO: One line per depth step
~Well Information Block
STRT.FT               970.5000: 
STOP.FT              2720.0000: 
STEP.FT                 0.1000: 
NULL.                -999.2500: 
COMP.          Petrogulf Corporation: COMPANY
WELL.             Burson 8-31V: WELL
FLD.           Purgatorie River: FIELD
LOC.           1113' FNL & 2152' FEL: LOCATION
CNTY.               Las Animas: COUNTY
SRVC.                         : SERVICE COMPANY
DATE.          Wed Nov 12 14:59:14 2003: LOG DATE
UWI.                          : UNIQUE WELL ID
STAT.                 Colorado: STATE
~Curve Information Block
DEPT.FT            0 000 00 00: Depth
DCAL.in                       : CDL Caliper
DPOR.pu                       : CDL Density Porosity
NEU.NAPI                      : Neutron
NPOR.pu                       : Neutron Porosity
RHOB.g/cc                     : CDL Bulk Density
RHOC.g/cc                     : CDL Density Correction
GR.GAPI                       : Gamma Ray
~Parameter Information Block
~A  Depth       DCAL        DPOR        NEU         NPOR        RHOB        RHOC         GR     
# ...
  2709.3000      7.7895      3.6553   -999.2500   -999.2500      2.5897      0.1376   -999.2500
  2709.4000      7.7895      4.8039   -999.2500   -999.2500      2.5707      0.0882   -999.2500
  2709.5000      7.7816      5.5073   -999.2500   -999.2500      2.5591      0.0931   -999.2500
  2709.6000      7.7816      4.9195   -999.2500   -999.2500      2.5688      0.1250   -999.2500
  2709.7000      7.7816      4.1975   -999.2500   -999.2500      2.5807      0.1474   -999.2500
  2709.8000      7.7836      4.4280   -999.2500   -999.2500      2.5769      0.1670   -999.2500
  2709.9000      7.7836      5.7493   -999.2500   -999.2500      2.5551      0.1624   -999.2500
  2710.0000      7.7872      7.7760   -999.2500   -999.2500      2.5217      0.1298   -999.2500
  2710.1000      7.7872      9.0391   -999.2500   -999.2500      2.5009      0.0689   -999.2500
  2710.2000      7.7872      7.9843   -999.2500   -999.2500      2.5183      0.1069   -999.2500
  2710.3000      7.8512      5.3222   -999.2500   -999.2500      2.5622      0.1396   -999.2500
  2710.4000      7.8512      3.1478   -999.2500   -999.2500      2.5981      0.1856   -999.2500
  2710.5000      7.8674      2.2879   -999.2500   -999.2500      2.6122      0.1403   -999.2500
  2710.6000      7.8674      1.8449   -999.2500   -999.2500      2.6196      0.1017   -999.2500
  2710.7000      7.8674      1.2987   -999.2500   -999.2500      2.6286      0.2051   -999.2500
  2710.8000      7.8595      1.1322   -999.2500   -999.2500      2.6313      0.1540   -999.2500
  2710.9000      7.8595      1.7727   -999.2500   -999.2500      2.6208      0.1584   -999.2500
  2711.0000      7.8728      3.2925   -999.2500   -999.2500      2.5957      0.0974   -999.2500
  2711.1000      7.8728      4.8646   -999.2500   -999.2500      2.5697      0.0535   -999.2500
  2711.2000      7.8728      5.6821   -999.2500   -999.2500      2.5562      0.0006   -999.2500
  2711.3000      7.8228      5.6260   -999.2500   -999.2500      2.5572      0.0080   -999.2500
  2711.4000      7.8228      4.9149   -999.2500   -999.2500      2.5689      0.0447   -999.2500
  2711.5000      7.7657      4.3585   -999.2500   -999.2500      2.5781      0.0757   -999.2500
  2711.6000      7.7657      4.7482   -999.2500   -999.2500      2.5717      0.0293   -999.2500
  2711.7000      7.7657      5.8341   -999.2500   -999.2500      2.5537      0.0651   -999.2500
  2711.8000      7.7562      6.7772   -999.2500   -999.2500      2.5382      0.0352   -999.2500
  2711.9000      7.7562      6.8394   -999.2500   -999.2500      2.5371      0.0314   -999.2500
  2712.0000      7.7511      5.5907   -999.2500   -999.2500      2.5578      0.0178   -999.2500
  2712.1000      7.7511      3.7403   -999.2500   -999.2500      2.5883      0.0635   -999.2500
  2712.2000      7.7511      2.9385   -999.2500   -999.2500      2.6015      0.1060   -999.2500
  2712.3000      7.7544      3.6505   -999.2500   -999.2500      2.5898      0.0933   -999.2500
  2712.4000      7.7544      5.1882   -999.2500   -999.2500      2.5644      0.1246   -999.2500
  2712.5000      7.7506      6.9258   -999.2500   -999.2500      2.5357      0.0217   -999.2500
  2712.6000      7.7506      8.2041   -999.2500   -999.2500      2.5146      0.0249   -999.2500
  2712.7000      7.7506      8.9542   -999.2500   -999.2500      2.5023      0.0275   -999.2500
  2712.8000      7.7443      9.4395   -999.2500   -999.2500      2.4942      0.0273   -999.2500
  2712.9000      7.7443      9.6593   -999.2500   -999.2500      2.4906      0.0261   -999.2500
  2713.0000      7.7411      9.9120   -999.2500   -999.2500      2.4865      0.0461   -999.2500
  2713.1000      7.7411     10.4599   -999.2500   -999.2500      2.4774      0.0314   -999.2500
  2713.2000      7.7411     10.6709   -999.2500   -999.2500      2.4739     -0.0306   -999.2500
  2713.3000      7.7355      9.6637   -999.2500   -999.2500      2.4905      0.0306   -999.2500
  2713.4000      7.7355      7.4983   -999.2500   -999.2500      2.5263      0.0289   -999.2500
  2713.5000      7.7321      5.1504   -999.2500   -999.2500      2.5650      0.1329   -999.2500
  2713.6000      7.7321      3.4190   -999.2500   -999.2500      2.5936      0.1719   -999.2500
  2713.7000      7.7321      2.0241   -999.2500   -999.2500      2.6166      0.1417   -999.2500
  2713.8000      7.7454      0.5843   -999.2500   -999.2500      2.6404      0.1293   -999.2500
  2713.9000      7.7454     -0.1102   -999.2500   -999.2500      2.6518      0.1791   -999.2500
  2714.0000      7.6970      0.8757   -999.2500   -999.2500      2.6356      0.1690   -999.2500
  2714.1000      7.6970      2.7084   -999.2500   -999.2500      2.6053      0.0707   -999.2500
  2714.2000      7.6970      3.9079   -999.2500   -999.2500      2.5855      0.1121   -999.2500
  2714.3000      7.6611      4.2858   -999.2500   -999.2500      2.5793      0.0653   -999.2500
  2714.4000      7.6611      3.9935   -999.2500   -999.2500      2.5841      0.1030   -999.2500
  2714.5000      7.7172      3.2706   -999.2500   -999.2500      2.5960      0.1203   -999.2500
  2714.6000      7.7172      2.6544   -999.2500   -999.2500      2.6062      0.0905   -999.2500
  2714.7000      7.7172      2.8500   -999.2500   -999.2500      2.6030      0.1167   -999.2500
  2714.8000      7.7328      4.2163   -999.2500   -999.2500      2.5804      0.1032   -999.2500
  2714.9000      7.7328      5.4736   -999.2500   -999.2500      2.5597      0.0631   -999.2500
  2715.0000      7.7206      5.1038   -999.2500   -999.2500      2.5658      0.1065   -999.2500
  2715.1000      7.7206      3.6607   -999.2500   -999.2500      2.5896      0.1488   -999.2500
  2715.2000      7.7206      2.4402   -999.2500   -999.2500      2.6097      0.1420   -999.2500
  2715.3000      7.7567      1.3758   -999.2500   -999.2500      2.6273      0.0801   -999.2500
  2715.4000      7.7567      0.0317   -999.2500   -999.2500      2.6495      0.1524   -999.2500
  2715.5000      7.7348     -0.6810   -999.2500   -999.2500      2.6612      0.1893   -999.2500
  2715.6000      7.7348      0.0217   -999.2500   -999.2500      2.6496      0.1356   -999.2500
  2715.7000      7.7348      0.8779   -999.2500   -999.2500      2.6355      0.1507   -999.2500
  2715.8000      7.7268      0.7005   -999.2500   -999.2500      2.6384      0.1356   -999.2500
  2715.9000      7.7268      0.3374   -999.2500   -999.2500      2.6444      0.1835   -999.2500
  2716.0000      7.7141      0.9925   -999.2500   -999.2500      2.6336      0.1229   -999.2500
  2716.1000      7.7141      2.0619   -999.2500   -999.2500      2.6160      0.0717   -999.2500
  2716.2000      7.7141      2.5612   -999.2500   -999.2500      2.6077      0.0510   -999.2500
  2716.3000      7.4735      3.0308   -999.2500   -999.2500      2.6000      0.0817   -999.2500
  2716.4000      7.4735      4.0388   -999.2500   -999.2500      2.5834      0.0498   -999.2500
  2716.5000      7.5520      5.0590   -999.2500   -999.2500      2.5665      0.0424   -999.2500
  2716.6000      7.5520      5.6603   -999.2500   -999.2500      2.5566     -0.0061   -999.2500
  2716.7000      7.5520      6.1838   -999.2500   -999.2500      2.5480      0.0316   -999.2500
  2716.8000      7.6882      6.8120   -999.2500   -999.2500      2.5376      0.0575   -999.2500
  2716.9000      7.6882      6.4911   -999.2500   -999.2500      2.5429      0.0006   -999.2500
  2717.0000      7.7119      4.4116   -999.2500   -999.2500      2.5772      0.0696   -999.2500
  2717.1000      7.7119      2.4688   -999.2500   -999.2500      2.6093      0.1915   -999.2500
  2717.2000      7.7119      3.0935   -999.2500   -999.2500      2.5990      0.0887   -999.2500
  2717.3000      7.7252      4.8313   -999.2500   -999.2500      2.5703      0.0138   -999.2500
  2717.4000      7.7252      4.3336   -999.2500   -999.2500      2.5785      0.0131   -999.2500
  2717.5000      7.7295      1.7282   -999.2500   -999.2500      2.6215      0.0772   -999.2500
  2717.6000      7.7295      0.2304   -999.2500   -999.2500      2.6462      0.1239   -999.2500
