~Version Information
VERS.                      2.0: CWLS Log ASCII Standard - VERSION 2.0
WRAP.                       NO: One line per depth step
~Well Information Block
STRT.FT               -14.0000: 
STOP.FT              2565.5000: 
STEP.FT                 0.5000: 
NULL.                -999.2500: 
COMP.          Pioneer Natural Resources: COMPANY
WELL.             Carbon 34-21: WELL
FLD.           Purgatorie River: FIELD
LOC.           56' FSL & 2304' FEL: LOCATION
PROV.                 Colorado: PROVINCE
CNTY.               Las Animas: COUNTRY
SRVC.          Patterson Wireline: SERVICE COMPANY
DATE.          Mon Nov 08 08:55:10 2004: LOG DATE
UWI.           05-071-08117-00: UNIQUE WELL ID
~Curve Information Block
DEPT.FT            0 000 00 00: Depth
TT3.usec                      : CBL 3' Travel Time
AMP3.mV                       : CBL 3' Amplitude
GR.GAPI                       : Gamma Ray
CCL.                          : Casing Collar Locator
~Parameter Information Block
~A  Depth       TT3         AMP3         GR         CCL     
# ...
  2331.0000    696.9423      1.4554    117.7747      0.0000
  2331.5000    695.8098      1.4596    116.0304      0.0000
  2332.0000    686.7096      1.4569    113.4337      0.0000
  2332.5000    685.7922      1.4989    113.5182      0.0000
  2333.0000    690.8351      1.5973    114.4625      0.0000
  2333.5000    690.9615      1.6671    109.5860      0.0000
  2334.0000    700.4470      1.7244    104.8440      0.0000
  2334.5000    719.3224      1.7794    107.4687      0.0000
  2335.0000    733.3434      1.7982    106.8919      0.0000
  2335.5000    740.9438      1.8142    102.4013      0.0000
  2336.0000    740.2398      1.8898    100.4119      0.0000
  2336.5000    717.9266      1.9694     96.7552      0.0000
  2337.0000    688.0876      2.0319     96.5845      0.0000
  2337.5000    681.1960      2.1708    104.1991      0.0000
  2338.0000    688.0192      2.3141    109.0660      0.0000
  2338.5000    681.0234      2.3472    105.9648      0.0000
  2339.0000    663.8636      2.3037    104.1204      0.0000
  2339.5000    648.4986      2.2453    102.6828      0.0000
  2340.0000    639.6703      2.1505     99.6723      0.0000
  2340.5000    640.5159      2.0534     95.5862      0.0000
  2341.0000    637.4680      2.0690     85.1701      0.0000
  2341.5000    625.9805      2.2809     69.7444      0.0000
  2342.0000    598.4644      2.5115     59.7654      0.0000
  2342.5000    591.6950      2.4435     64.4403      0.0000
  2343.0000    637.3461      2.2018     80.3374      0.0000
  2343.5000    673.6476      2.1305     94.3717      0.0000
  2344.0000    683.4790      2.2368    104.3193      0.0000
  2344.5000    676.7383      2.3141    111.0790      0.0000
  2345.0000    667.8615      2.3505    114.1998      0.0000
  2345.5000    666.5193      2.4331    114.8939      0.0000
  2346.0000    672.1771      2.4808    112.4853      0.0000
  2346.5000    680.6264      2.4730    108.9679      0.0000
  2347.0000    682.0805      2.4504    110.2719      0.0000
  2347.5000    677.6225      2.4301    112.7134      0.0000
  2348.0000    676.3882      2.4365    109.2182      0.0000
  2348.5000    677.3714      2.4946    107.2160      0.0000
  2349.0000    675.3522      2.5224    106.7875      0.0000
  2349.5000    669.9895      2.5027    102.8791      0.0000
  2350.0000    667.0750      2.5104     98.1712      0.0000
  2350.5000    672.5497      2.4984     94.4330      0.0000
  2351.0000    684.5731      2.4805     95.0412      0.0000
  2351.5000    690.3857      2.5130     95.3735      0.0000
  2352.0000    685.1955      2.5400     87.9549      0.0000
  2352.5000    676.9257      2.5898     80.4685      0.0000
  2353.0000    673.1042      2.6457     79.2965      0.0000
  2353.5000    660.5276      2.6620     78.6761      0.0000
  2354.0000    604.0665      2.6525     73.9520      0.0000
  2354.5000    558.7392      2.6083     71.7524      0.0000
  2355.0000    603.8914      2.5806     78.7318      0.0000
  2355.5000    664.4001      2.6457     86.2952      0.0000
  2356.0000    680.1227      2.6820     88.1677      0.0000
  2356.5000    674.3806      2.6569     85.5961      0.0000
  2357.0000    671.0190      2.6310     82.1225      0.0000
  2357.5000    676.7664      2.5634     83.2020      0.0000
  2358.0000    689.0406      2.4796     87.6964      0.0000
  2358.5000    696.1278      2.4481     91.5609      0.0000
  2359.0000    696.6516      2.4505     98.0650      0.0000
  2359.5000    698.6841      2.4490    103.5628      0.0000
  2360.0000    697.6594      2.4568    106.2625      0.0000
  2360.5000    690.1666      2.5071    105.5816      0.0000
  2361.0000    679.6176      2.4561    106.3744      0.0000
  2361.5000    669.3152      2.2593    109.4584      0.0000
  2362.0000    662.4041      2.0251    108.2958      0.0000
  2362.5000    661.1954      1.7608    101.0552      0.0000
  2363.0000    668.1469      1.5481     88.6009      0.0000
  2363.5000    677.6249      1.4267     77.0885      0.0000
  2364.0000    681.7850      1.3712     75.7362      0.0000
  2364.5000    685.0275      1.3800     84.0115      0.0000
  2365.0000    688.4230      1.4650     92.9970      0.0000
  2365.5000    685.6216      1.6472     95.3913      0.0000
  2366.0000    683.6907      1.8680     91.2609      0.0000
  2366.5000    684.9166      1.9669     91.4751      0.0000
  2367.0000    686.5281      1.9040    100.6937      0.0000
  2367.5000    691.9902      1.8073    109.5756      0.0000
  2368.0000    699.9858      1.7991    109.2108      0.0000
  2368.5000    696.8793      1.8427    104.7391      0.0000
  2369.0000    679.3254      1.8958    100.5461      0.0000
  2369.5000    664.0173      1.9410     95.8331      0.0000
  2370.0000    662.9000      1.9099     92.8243      0.0000
  2370.5000    669.2261      1.8591     94.7280      0.0000
  2371.0000    671.6180      1.8331    101.0843      0.0000
  2371.5000    675.2486      1.7581    111.2326      0.0000
  2372.0000    680.7267      1.6659    118.0729      0.0000
  2372.5000    682.2953      1.6423    117.3033      0.0000
  2373.0000    683.2266      1.7011    115.6770      0.0000
  2373.5000    688.1990      1.7714    111.7606      0.0000
  2374.0000    693.9719      1.8477    104.9530      0.0000
  2374.5000    686.1992      1.9683     95.3719      0.0000
  2375.0000    668.0399      2.1962     87.6586      0.0000
  2375.5000    660.3721      2.5283     89.8711      0.0000
  2376.0000    669.4717      2.6301     95.8633      0.0000
  2376.5000    683.1823      2.5458     92.6810      0.0000
  2377.0000    678.3405      2.6480     80.7015      2.7832
  2377.5000    650.4485      2.7963     75.2567      0.0000
  2378.0000    634.9359      2.8451     80.6202      0.0000
  2378.5000    653.5062      2.8107     84.5561      0.0000
  2379.0000    672.6057      2.6992     82.7722      0.0000
  2379.5000    685.3373      2.6765     78.7229      0.0000
  2380.0000    690.2626      2.6299     79.2350      0.0000
  2380.5000    689.6099      2.5345     83.9018      0.0000
  2381.0000    689.0526      2.4391     86.5534      0.0000
  2381.5000    688.7031      2.2949     87.8247      0.0000
  2382.0000    687.3710      2.2326     86.5807      0.0000
  2382.5000    677.8512      2.2864     83.6311      0.0000
  2383.0000    632.2025      2.3108     84.4852      0.0000
  2383.5000    540.6607      2.3281     86.3586      0.0000
  2384.0000    469.9623      2.3823     82.8351      0.0000
  2384.5000    468.4804      2.3167     78.4752      0.0000
  2385.0000    535.6693      2.2129     82.3127      0.0000
  2385.5000    619.6632      2.1707     90.5195      0.0000
  2386.0000    648.9645      2.1457     93.3075      0.0000
  2386.5000    645.8447      2.1325     91.4685      0.0000
  2387.0000    653.0345      2.1379     88.5297      0.0000
  2387.5000    664.2367      2.1027     85.6187      0.0000
  2388.0000    669.3762      2.0266     89.1209      0.0000
  2388.5000    668.4828      1.9572     97.5052      0.0000
  2389.0000    675.8373      1.9476    102.3904      0.0000
  2389.5000    689.6516      2.0053    101.6790      0.0000
  2390.0000    695.6657      2.1201     98.9654      0.0000
  2390.5000    700.4178      2.3886     96.5928      0.0000
  2391.0000    716.6190      2.8007     94.0215      0.0000
  2391.5000    736.4992      3.2828     91.6529      0.0000
  2392.0000    740.1879      3.8595     86.8946      0.0000
  2392.5000    734.5743      4.5346     81.3719      0.0000
  2393.0000    731.7748      5.2790     79.9552      0.0000
  2393.5000    712.3203      5.9585     77.8181      0.0000
  2394.0000    652.6308      6.2051     73.8570      0.0000
  2394.5000    541.2328      5.9709     70.2793      0.0000
  2395.0000    442.0915      5.6763     66.3815      0.0000
  2395.5000    400.1179      5.4419     64.6097      0.0000
  2396.0000    389.3069      5.2671     67.2144      0.0000
  2396.5000    386.0696      5.1056     72.8591      0.0000
  2397.0000    385.2338      4.8376     73.3978      0.0000
  2397.5000    385.5676      4.5126     66.0774      0.0000
