~Version Information
VERS.                      2.0: CWLS Log ASCII Standard - VERSION 2.0
WRAP.                       NO: One line per depth step
~Well Information Block
STRT.FT                -8.2500: 
STOP.FT              2725.7500: 
STEP.FT                 0.2500: 
NULL.                -999.2500: 
COMP.          Pioneer Natural Resources: COMPANY
WELL.          Rabbit Bush Federal 44-19: WELL
FLD.           Purgatoire River: FIELD
LOC.           826' FSL & 1127' FEL: LOCATION
CNTY.               Las Animas: COUNTY
SRVC.                Patterson: SERVICE COMPANY
DATE.          Thu Sep 14 10:51:19 2006: LOG DATE
UWI.           05 071 08149 00: UNIQUE WELL ID
STAT.                       CO: STATE
~Curve Information Block
DEPT.FT            0 000 00 00: Depth
GR.GAPI                       : Gamma Ray
CCL.                          : Casing Collar Locator
TT3.usec                      : CBL 3' Travel Time
AMP3.mV                       : CBL 3' Amplitude
~Parameter Information Block
~A  Depth        GR         CCL         TT3         AMP3    
# ...
   896.2500    103.5889      0.0000    736.4388     13.9615
   896.5000    100.8385      0.0000    742.8281     13.9118
   896.7500     99.6381      0.0000    744.6029     13.9240
   897.0000     98.8904      0.0000    741.1617     14.0659
   897.2500     98.1034      0.0000    734.6339     14.3526
   897.5000     97.5097      0.0000    728.1539     14.7400
   897.7500     97.2973      0.0000    724.0384     15.1536
   898.0000     97.1077      0.0000    722.8467     15.5176
   898.2500     95.9780      0.0000    723.5131     15.7685
   898.5000     92.9164      0.0000    724.3514     15.8714
   898.7500     88.0721      0.0000    724.0162     15.8341
   899.0000     82.9450      0.0000    721.7205     15.6941
   899.2500     78.8789      0.0000    717.1822     15.4866
   899.5000     75.8278      0.0000    711.0576     15.2255
   899.7500     72.9376      0.0000    705.3610     14.9131
   900.0000     69.5656      0.0000    702.7074     14.5584
   900.2500     65.3682      0.0000    704.5684     14.1833
   900.5000     60.3570      0.0000    710.3297     13.8231
   900.7500     55.4692      0.0000    718.1522     13.5213
   901.0000     52.3595      0.0000    726.3220     13.3098
   901.2500     52.1844      0.0000    733.4159     13.1819
   901.5000     55.2588      0.0000    737.8609     13.0923
   901.7500     61.9977      0.0000    738.5519     12.9884
   902.0000     72.9322      0.0000    736.1785     12.8422
   902.2500     87.0294      0.0000    733.2707     12.6562
   902.5000    100.9265      0.0000    732.5094     12.4557
   902.7500    110.9535      0.0000    734.9549     12.2761
   903.0000    115.8790      0.0000    739.6692     12.1432
   903.2500    117.3165      0.0000    744.9146     12.0625
   903.5000    117.7428      0.0000    750.0169     12.0295
   903.7500    118.6286      0.0000    755.9739     12.0425
   904.0000    120.2446      0.0000    763.6572     12.0994
   904.2500    122.2879      0.0000    771.6644     12.1807
   904.5000    124.2245      0.0000    777.0115     12.2424
   904.7500    125.5601      0.0000    778.0533     12.2316
   905.0000    126.2646      0.0000    775.8493     12.1168
   905.2500    126.9269      0.0000    772.6638     11.9129
   905.5000    128.4224      0.0000    770.0114     11.6787
   905.7500    131.1690      0.0000    768.2514     11.4856
   906.0000    134.2859      0.0000    767.2208     11.3807
   906.2500    135.6088      0.0000    766.7300     11.3680
   906.5000    133.2943      0.0000    766.6945     11.4096
   906.7500    127.9142      0.0000    767.1831     11.4496
   907.0000    122.7040      0.0000    768.7189     11.4526
   907.2500    121.1968      0.0000    772.7950     11.4234
   907.5000    124.4908      0.0000    782.1891     11.3766
   907.7500    130.7212      0.0000    799.4290     11.2869
   908.0000    136.5823      0.0000    822.4901     11.0868
   908.2500    138.9509      0.0000    841.6655     10.7378
   908.5000    135.9535      0.0000    844.6487     10.3074
   908.7500    127.9073      0.0000    828.0641      9.9552
   909.0000    117.4831      0.0000    801.8690      9.8197
   909.2500    108.3239      0.0000    780.0220      9.9139
   909.5000    103.0215      0.0000    769.0996     10.1316
   909.7500    101.9066     -2.0000    767.1407     10.3407
   910.0000    103.2679      0.0000    769.5478     10.4628
   910.2500    104.7573      0.0000    773.0303     10.4813
   910.5000    104.9585      0.0000    775.3804     10.4257
   910.7500    104.0386      0.0000    774.1992     10.3717
   911.0000    103.3883      0.0000    767.4432     10.4157
   911.2500    104.7011      0.0000    755.5972     10.5839
   911.5000    108.7317      0.0000    742.4089     10.7762
   911.7500    114.4454      0.0000    732.2123     10.8535
   912.0000    119.8510      0.0000    726.7274     10.7713
   912.2500    124.1094      0.0000    724.7977     10.5926
   912.5000    128.5065      0.0000    724.4633     10.4033
   912.7500    134.7586      0.0000    724.5677     10.2539
   913.0000    142.2655      0.0000    724.9084     10.1600
   913.2500    147.4331      0.0000    725.7701     10.1155
   913.5000    146.3036      0.0000    727.4622     10.0997
   913.7500    138.1867      0.0000    729.8630     10.0884
   914.0000    126.4408      0.0000    732.0957     10.0712
   914.2500    115.6831      0.0000    732.9122     10.0593
   914.5000    108.9497      0.0000    731.7499     10.0774
   914.7500    107.4998      0.0000    729.3141     10.1459
   915.0000    111.6903      0.0000    726.8991     10.2715
   915.2500    120.6808      0.0000    725.3062     10.4477
   915.5000    131.5809      0.0000    724.5471     10.6585
   915.7500    139.9583      0.0000    724.3250     10.8786
   916.0000    142.0938      0.0000    724.5804     11.0707
   916.2500    137.3285      0.0000    725.7362     11.1958
   916.5000    128.4729      0.0000    728.5776     11.2359
   916.7500    119.8241      0.0000    733.6644     11.2070
   917.0000    114.3801      0.0000    740.3833     11.1444
   917.2500    112.3258      0.0000    746.5152     11.0791
   917.5000    111.7720      0.0000    749.2946     11.0268
   917.7500    111.1119      0.0000    747.4526     10.9872
   918.0000    110.9302      0.0000    742.2206     10.9463
   918.2500    113.3535      0.0000    736.1931     10.8816
   918.5000    119.2503      0.0000    731.3638     10.7700
   918.7500    126.4210      0.0000    728.2786     10.5923
   919.0000    131.0111      0.0000    726.5975     10.3415
   919.2500    130.7883      0.0000    725.9846     10.0405
   919.5000    126.7819      0.0000    726.5302      9.7482
   919.7500    121.6483      0.0000    728.6627      9.5343
   920.0000    117.0749      0.0000    732.6227      9.4420
   920.2500    113.2539      0.0000    737.7562      9.4742
   920.5000    110.2193      0.0000    742.3677      9.6060
   920.7500    108.6944      0.0000    744.6426      9.7996
   921.0000    109.6049      0.0000    743.8647     10.0146
   921.2500    113.4701      0.0000    740.7691     10.2232
   921.5000    120.2353      0.0000    737.0186     10.4230
   921.7500    128.8496      0.0000    734.3712     10.6277
   922.0000    136.7834      0.0000    733.7054     10.8404
   922.2500    140.9895      0.0000    734.3711     11.0403
   922.5000    140.2050      0.0000    734.7474     11.2020
   922.7500    136.1423      0.0000    733.8027     11.3222
   923.0000    132.1418      0.0000    732.1113     11.4173
   923.2500    130.9006      0.0000    731.4276     11.4910
   923.5000    133.4170      0.0000    733.6099     11.5139
   923.7500    138.9228      0.0000    739.7698     11.4387
   924.0000    145.0853      0.0000    749.4238     11.2341
   924.2500    149.0742      0.0000    759.8827     10.9046
   924.5000    149.4278      0.0000    767.2484     10.4850
   924.7500    147.2854      0.0000    769.1588     10.0222
   925.0000    145.9442      0.0000    766.5579      9.5578
   925.2500    148.6805      0.0000    762.3280      9.1219
   925.5000    155.9569      0.0000    758.6910      8.7345
   925.7500    164.5610      0.0000    756.4588      8.4088
   926.0000    170.0688      0.0000    755.8502      8.1552
   926.2500    170.5100      0.0000    756.7364      7.9839
   926.5000    167.7549      0.0000    758.2371      7.9022
   926.7500    165.4870      0.0000    759.0517      7.9084
   927.0000    165.7048      0.0000    758.5109      7.9865
   927.2500    166.9555      0.0000    757.1137      8.1055
   927.5000    165.9567      0.0000    755.6810      8.2246
   927.7500    160.6403      0.0000    753.7787      8.3088
   928.0000    151.4290      0.0000    749.0265      8.3442
   928.2500    140.1466      0.0000    738.6654      8.3433
   928.5000    128.6354      0.0000    722.8508      8.3364
   928.7500    118.5138      0.0000    706.8864      8.3546
   929.0000    111.3759      0.0000    698.9916      8.4128
   929.2500    108.4555      0.0000    704.0050      8.5011
   929.5000    109.9210      0.0000    719.2939      8.5954
