~Version Information
VERS.                      2.0: CWLS Log ASCII Standard - VERSION 2.0
WRAP.                       NO: One line per depth step
~Well Information Block
STRT.FT               -12.5000: 
STOP.FT              2200.2500: 
STEP.FT                 0.2500: 
NULL.                -999.2500: 
COMP.          Pioneer Natural Resources: COMPANY
WELL.           Ogallela 44-12: WELL
FLD.           Purgatorie River: FIELD
LOC.           610' FSL & 671' FEL------: LOCATION
PROV.                       CO: PROVINCE
CNTY.               Las Animas: COUNTRY
SRVC.          Patterson Wireline: SERVICE COMPANY
DATE.          Tue Mar 22 17:18:22 2005: LOG DATE
UWI.           05 071 08283 00: UNIQUE WELL ID
~Curve Information Block
DEPT.FT            0 000 00 00: Depth
CCL.                          : Casing Collar Locator
TT3.usec                      : CBL 3' Travel Time
AMP3.mV                       : CBL 3' Amplitude
GR.GAPI                       : Gamma Ray
~Parameter Information Block
~A  Depth       CCL         TT3         AMP3         GR     
# ...
  1863.5000      0.0000    765.3090      9.8750    129.6602
  1863.7500      0.0000    755.3812      9.8273    124.0106
  1864.0000      0.0000    746.5816     10.0206    121.0591
  1864.2500      0.0000    741.0806     10.4331    122.5548
  1864.5000      0.0000    740.0872     10.9833    127.2788
  1864.7500      0.0000    742.7487     11.5587    132.4852
  1865.0000      0.0000    745.9669     12.0555    136.4111
  1865.2500      0.0000    745.9932     12.4080    139.2146
  1865.5000      0.0000    740.9913     12.5993    141.7119
  1865.7500      0.0000    732.5905     12.6490    143.8189
  1866.0000      0.0000    725.2584     12.5885    144.3809
  1866.2500      0.0000    723.9048     12.4378    142.1173
  1866.5000      0.0000    730.7722     12.2084    136.4514
  1866.7500      0.0000    743.3197     11.9215    127.5948
  1867.0000      0.0000    755.1314     11.6068    116.2198
  1867.2500      0.0000    759.8789     11.2765    103.2499
  1867.5000      0.0000    755.3972     10.9184     89.8858
  1867.7500      0.0000    744.9155     10.5271     77.5533
  1868.0000      0.0000    735.0575     10.1330     67.6049
  1868.2500      0.0000    731.7997      9.7915     61.0342
  1868.5000      0.0000    736.7266      9.5496     58.3699
  1868.7500      0.0000    746.3778      9.4244     59.6047
  1869.0000      0.0000    755.1620      9.4051     64.0778
  1869.2500      0.0000    758.9406      9.4660     70.4241
  1869.5000      0.0000    756.5324      9.5837     76.7559
  1869.7500      0.0000    749.2676      9.7525     81.0598
  1870.0000      0.0000    739.9009      9.9872     81.7373
  1870.2500      0.0000    731.3334     10.3079     78.2643
  1870.5000      0.0000    725.4777     10.7147     71.5431
  1870.7500      0.0000    722.9611     11.1795     63.4307
  1871.0000      0.0000    723.7083     11.6650     55.7459
  1871.2500      0.0000    727.7277     12.1518     49.6297
  1871.5000      0.0000    735.3903     12.6403     45.5079
  1871.7500      0.0000    746.7068     13.1261     43.2661
  1872.0000      0.0000    760.0054     13.5835     42.5018
  1872.2500      0.0000    771.5721     13.9889     42.9586
  1872.5000      0.0000    777.6136     14.3512     44.8067
  1872.7500      0.0000    777.1968     14.7038     48.3749
  1873.0000      0.0000    773.1094     15.0704     53.5610
  1873.2500      0.0000    769.2646     15.4500     59.4012
  1873.5000      0.0000    766.4631     15.8375     64.0930
  1873.7500      0.0000    759.1887     16.2573     65.7439
  1874.0000      0.0000    735.8232     16.7796     63.7365
  1874.2500      0.0000    684.5792     17.5028     59.4865
  1874.5000      0.0000    603.9926     18.5143     55.4101
  1874.7500      0.0000    508.9755     19.8585     53.0014
  1875.0000      0.0000    423.2207     21.5215     52.0797
  1875.2500      0.0000    363.3670     23.4261     51.7588
  1875.5000      0.0000    330.8142     25.4229     51.7653
  1875.7500      0.0000    316.8548     27.2937     52.8654
  1876.0000      0.0000    311.9943     28.7886     56.4826
  1876.2500      0.0000    310.5162     29.6851     63.9212
  1876.5000      0.0000    310.1131     29.8362     75.1619
  1876.7500      0.0000    310.1746     29.2130     87.7768
  1877.0000      0.0000    310.8814     27.9435     97.4359
  1877.2500      0.0000    313.2065     26.2823    100.3733
  1877.5000      0.0000    319.4998     24.4786     95.7691
  1877.7500      0.0000    333.5944     22.6869     85.7986
  1878.0000      0.0000    359.5968     21.0335     73.6714
  1878.2500      0.0000    400.0806     19.6828     61.7828
  1878.5000      0.0000    455.5421     18.7082     51.3334
  1878.7500      0.0000    524.3448     17.9509     42.9979
  1879.0000      0.0000    600.7317     17.1724     37.3363
  1879.2500      0.0000    673.3557     16.3306     34.4282
  1879.5000      0.0000    729.5425     15.5794     33.5517
  1879.7500     -2.0000    763.1108     15.0348     33.7957
  1880.0000     -2.0000    777.1031     14.6844     35.0077
  1880.2500     -2.0000    778.1362     14.5284     37.7449
  1880.5000      0.0000    767.9177     14.7382     42.1663
  1880.7500      0.0000    739.9175     15.6313     47.3502
  1881.0000      0.0000    685.0085     17.4338     51.9003
  1881.2500      0.0000    602.6354     20.0003     54.9002
  1881.5000      0.0000    507.3430     22.8280     55.9664
  1881.7500      0.0000    421.8988     25.4759     54.7284
  1882.0000      0.0000    362.3328     27.9147     50.9375
  1882.2500      0.0000    329.9540     30.3533     45.1993
  1882.5000      0.0000    316.1572     32.8080     39.1810
  1882.7500      0.0000    311.4980     34.9706     34.7654
  1883.0000      0.0000    310.2483     36.4482     32.9049
  1883.2500      0.0000    310.0313     37.0392     33.2592
  1883.5000      0.0000    310.1003     36.8108     34.8423
  1883.7500      0.0000    310.2539     36.0113     36.9159
  1884.0000      0.0000    310.4267     34.9484     39.3810
  1884.2500      0.0000    310.6015     33.9007     42.7237
  1884.5000      0.0000    310.7562     33.0742     47.8444
  1884.7500      0.0000    310.8607     32.5794     55.8151
  1885.0000      0.0000    310.8958     32.4183     67.3763
  1885.2500      0.0000    310.8694     32.4862     82.3435
  1885.5000      0.0000    310.8102     32.6187     99.3752
  1885.7500      0.0000    310.7449     32.6850    116.3628
  1886.0000      0.0000    310.6805     32.6570    131.1881
  1886.2500      0.0000    310.6065     32.5877    142.2134
  1886.5000      0.0000    310.5124     32.5301    148.3082
  1886.7500      0.0000    310.3980     32.4958    148.9928
  1887.0000      0.0000    310.2723     32.4850    144.9862
  1887.2500      0.0000    310.1477     32.5216    138.4718
  1887.5000      0.0000    310.0405     32.6265    132.3461
  1887.7500      0.0000    309.9665     32.7705    128.6945
  1888.0000      0.0000    309.9331     32.8811    127.6480
  1888.2500      0.0000    309.9361     32.9039    127.7279
  1888.5000      0.0000    309.9663     32.8441    127.4724
  1888.7500      0.0000    310.0110     32.7443    126.7194
  1889.0000      0.0000    310.0475     32.6410    126.2863
  1889.2500      0.0000    310.0464     32.5613    126.7604
  1889.5000      0.0000    309.9914     32.5513    127.9298
  1889.7500      0.0000    309.8970     32.6732    129.1189
  1890.0000      0.0000    309.7992     32.9557    129.6178
  1890.2500      0.0000    309.7307     33.3535    128.8113
  1890.5000      0.0000    309.7052     33.7595    126.2257
  1890.7500      0.0000    309.7212     34.0575    121.5737
  1891.0000      0.0000    309.7696     34.1748    114.8830
  1891.2500      0.0000    309.8391     34.1064    106.7159
  1891.5000      0.0000    309.9215     33.9056     98.2158
  1891.7500      0.0000    310.0163     33.6476     90.7893
  1892.0000      0.0000    310.1310     33.3897     85.4884
  1892.2500      0.0000    310.2734     33.1545     82.3368
  1892.5000      0.0000    310.4381     32.9464     80.1712
  1892.7500      0.0000    310.6033     32.7799     77.4563
  1893.0000      0.0000    310.7427     32.6846     73.4110
  1893.2500      0.0000    310.8464     32.6705     68.3122
  1893.5000      0.0000    310.9288     32.6845     62.8970
  1893.7500      0.0000    311.0155     32.6200     57.6897
  1894.0000      0.0000    311.1209     32.3977     52.7818
  1894.2500      0.0000    311.2389     32.0441     48.1126
  1894.5000      0.0000    311.3554     31.6773     44.0053
  1894.7500      0.0000    311.4656     31.4101     41.3619
  1895.0000      0.0000    311.5735     31.2694     41.2339
  1895.2500      0.0000    311.6784     31.2065     44.2609
  1895.5000      0.0000    311.7704     31.1737     50.3216
  1895.7500      0.0000    311.8434     31.1751     58.0550
  1896.0000      0.0000    311.9072     31.2369     64.6552
  1896.2500      0.0000    311.9814     31.3451     67.0952
  1896.5000      0.0000    312.0737     31.4399     64.3697
  1896.7500      0.0000    312.1651     31.4820     58.4176
