~Version Information
VERS.                      2.0: CWLS Log ASCII Standard - VERSION 2.0
WRAP.                       NO: One line per depth step
~Well Information Block
STRT.FT               -12.3000: 
STOP.FT              1768.7000: 
STEP.FT                 0.1000: 
NULL.                -999.2500: 
COMP.          Petrogulf Corporation: COMPANY
WELL.          Alexander 9-43R: WELL
FLD.           Purgatorie River: FIELD
LOC.           1652' FSL & 1049' FEL--: LOCATION
CNTY.               Las Animas: COUNTY
SRVC.                         : SERVICE COMPANY
DATE.          Tue Sep 28 14:27:54 2004: LOG DATE
UWI.                          : UNIQUE WELL ID
STAT.                       CO: STATE
~Curve Information Block
DEPT.FT            0 000 00 00: Depth
GR.GAPI                       : Gamma Ray
CCL.                          : Casing Collar Locator
TT3.usec                      : CBL 3' Travel Time
AMP3.mV                       : CBL 3' Amplitude
~Parameter Information Block
~A  Depth        GR         CCL         TT3         AMP3    
# ...
   684.5000    126.3367      0.0000    728.9961     12.9905
   684.6000    126.3367      0.0000    728.9961     12.9905
   684.7000    126.3367      0.0000    728.9961     12.9905
   684.8000    135.0229      0.0000    747.8290     12.9005
   684.9000    135.0229      0.0000    747.8290     12.9005
   685.0000    142.9538      0.0000    750.6666     12.7366
   685.1000    142.9538      0.0000    750.6666     12.7366
   685.2000    142.9538      0.0000    750.6666     12.7366
   685.3000    148.3825      0.0000    740.7715     12.5508
   685.4000    148.3825      0.0000    740.7715     12.5508
   685.5000    150.6868      0.0000    728.4221     12.3614
   685.6000    150.6868      0.0000    728.4221     12.3614
   685.7000    150.6868      0.0000    728.4221     12.3614
   685.8000    150.2693      0.0000    721.7780     12.1470
   685.9000    150.2693      0.0000    721.7780     12.1470
   686.0000    147.7901      0.0000    722.3550     11.8738
   686.1000    147.7901      0.0000    722.3550     11.8738
   686.2000    147.7901      0.0000    722.3550     11.8738
   686.3000    143.8875      0.0000    727.2949     11.5019
   686.4000    143.8875      0.0000    727.2949     11.5019
   686.5000    139.3587      0.0000    733.3836     10.9977
   686.6000    139.3587      0.0000    733.3836     10.9977
   686.7000    139.3587      0.0000    733.3836     10.9977
   686.8000    135.0419      0.0000    738.4506     10.3838
   686.9000    135.0419      0.0000    738.4506     10.3838
   687.0000    131.5576      0.0000    741.2239      9.7651
   687.1000    131.5576      0.0000    741.2239      9.7651
   687.2000    131.5576      0.0000    741.2239      9.7651
   687.3000    129.4721      0.0000    741.5783      9.2813
   687.4000    129.4721      0.0000    741.5783      9.2813
   687.5000    129.5012      0.0000    740.6007      9.0237
   687.6000    129.5012      0.0000    740.6007      9.0237
   687.7000    129.5012      0.0000    740.6007      9.0237
   687.8000    131.9742      0.0000    739.7755      8.9913
   687.9000    131.9742      0.0000    739.7755      8.9913
   688.0000    135.9751      0.0000    739.8085      9.1139
   688.1000    135.9751      0.0000    739.8085      9.1139
   688.2000    135.9751      0.0000    739.8085      9.1139
   688.3000    139.3659      0.0000    740.2509      9.3075
   688.4000    139.3659      0.0000    740.2509      9.3075
   688.5000    140.1331      0.0000    740.4439      9.5181
   688.6000    140.1331      0.0000    740.4439      9.5181
   688.7000    140.1331      0.0000    740.4439      9.5181
   688.8000    138.2415      0.0000    740.6882      9.7287
   688.9000    138.2415      0.0000    740.6882      9.7287
   689.0000    136.2339      0.0000    741.7419      9.9399
   689.1000    136.2339      0.0000    741.7419      9.9399
   689.2000    136.2339      0.0000    741.7419      9.9399
   689.3000    137.0965      0.0000    743.1624     10.1409
   689.4000    137.0965      0.0000    743.1624     10.1409
   689.5000    140.8905      0.0000    743.0919     10.3012
   689.6000    140.8905      0.0000    743.0919     10.3012
   689.7000    140.8905      0.0000    743.0919     10.3012
   689.8000    144.2664      0.0000    740.1726     10.3932
   689.9000    144.2664      0.0000    740.1726     10.3932
   690.0000    144.0662      0.0000    735.2150     10.4300
   690.1000    144.0662      0.0000    735.2150     10.4300
   690.2000    144.0662      0.0000    735.2150     10.4300
   690.3000    140.5227      0.0000    730.7145     10.4756
   690.4000    140.5227      0.0000    730.7145     10.4756
   690.5000    136.3376      0.0000    729.0893     10.6159
   690.6000    136.3376      0.0000    729.0893     10.6159
   690.7000    136.3376      0.0000    729.0893     10.6159
   690.8000    133.8826      0.0000    731.3778     10.9104
   690.9000    133.8826      0.0000    731.3778     10.9104
   691.0000    133.9854      0.0000    736.8745     11.3629
   691.1000    133.9854      0.0000    736.8745     11.3629
   691.2000    133.9854      0.0000    736.8745     11.3629
   691.3000    136.2499      0.0000    743.4059     11.9284
   691.4000    136.2499      0.0000    743.4059     11.9284
   691.5000    139.4938      0.0000    748.3222     12.5473
   691.6000    139.4938      0.0000    748.3222     12.5473
   691.7000    139.4938      0.0000    748.3222     12.5473
   691.8000    142.2357      0.0000    749.9752     13.1785
   691.9000    142.2357      0.0000    749.9752     13.1785
   692.0000    143.4750      0.0000    748.6299     13.8083
   692.1000    143.4750      0.0000    748.6299     13.8083
   692.2000    143.4750      0.0000    748.6299     13.8083
   692.3000    143.3415      0.0000    746.0253     14.4298
   692.4000    143.3415      0.0000    746.0253     14.4298
   692.5000    143.1287      0.0000    743.9659     15.0211
   692.6000    143.1287      0.0000    743.9659     15.0211
   692.7000    143.1287      0.0000    743.9659     15.0211
   692.8000    144.4748      0.0000    743.1068     15.5485
   692.9000    144.4748      0.0000    743.1068     15.5485
   693.0000    147.9133      0.0000    742.7611     15.9895
   693.1000    147.9133      0.0000    742.7611     15.9895
   693.2000    147.9133      0.0000    742.7611     15.9895
   693.3000    152.1260      0.0000    741.7021     16.3463
   693.4000    152.1260      0.0000    741.7021     16.3463
   693.5000    155.1222      0.0000    739.1658     16.6338
   693.6000    155.1222      0.0000    739.1658     16.6338
   693.7000    155.1222      0.0000    739.1658     16.6338
   693.8000    156.3027      0.0000    735.2723     16.8606
   693.9000    156.3027      0.0000    735.2723     16.8606
   694.0000    156.9164      0.0000    730.8185     17.0253
   694.1000    156.9164      0.0000    730.8185     17.0253
   694.2000    156.9164      0.0000    730.8185     17.0253
   694.3000    158.1607      0.0000    726.8597     17.1303
   694.4000    158.1607      0.0000    726.8597     17.1303
   694.5000    159.3083      0.0000    724.3082     17.1922
   694.6000    159.3083      0.0000    724.3082     17.1922
   694.7000    159.3083      0.0000    724.3082     17.1922
   694.8000    158.4926      0.0000    723.7459     17.2302
   694.9000    158.4926      0.0000    723.7459     17.2302
   695.0000    155.1373      0.0000    725.5455     17.2435
   695.1000    155.1373      0.0000    725.5455     17.2435
   695.2000    155.1373      0.0000    725.5455     17.2435
   695.3000    150.8269      0.0000    729.9025     17.2069
   695.4000    150.8269      0.0000    729.9025     17.2069
   695.5000    147.7831      0.0000    736.4459     17.0919
   695.6000    147.7831      0.0000    736.4459     17.0919
   695.7000    147.7831      0.0000    736.4459     17.0919
   695.8000    147.2039      0.0000    743.8865     16.8825
   695.9000    147.2039      0.0000    743.8865     16.8825
   696.0000    149.0141      0.0000    750.4726     16.5603
   696.1000    149.0141      0.0000    750.4726     16.5603
   696.2000    149.0141      0.0000    750.4726     16.5603
   696.3000    152.3164      0.0000    755.0138     16.0787
   696.4000    152.3164      0.0000    755.0138     16.0787
   696.5000    155.5550      0.0000    757.4054     15.3736
   696.6000    155.5550      0.0000    757.4054     15.3736
   696.7000    155.5550      0.0000    757.4054     15.3736
   696.8000    156.7439      0.0000    758.2810     14.4186
   696.9000    156.7439      0.0000    758.2810     14.4186
   697.0000    154.2078      0.0000    758.4294     13.2706
   697.1000    154.2078      0.0000    758.4294     13.2706
   697.2000    154.2078      0.0000    758.4294     13.2706
   697.3000    147.2905      0.0000    758.6185     12.0472
   697.4000    147.2905      0.0000    758.6185     12.0472
   697.5000    136.5403      0.0000    759.6752     10.8542
   697.6000    136.5403      0.0000    759.6752     10.8542
   697.7000    136.5403      0.0000    759.6752     10.8542
   697.8000    123.7269      0.0000    762.3143      9.7376
