~Version Information
VERS.                      2.0: CWLS Log ASCII Standard - VERSION 2.0
WRAP.                       NO: One line per depth step
~Well Information Block
STRT.FT               450.0000: 
STOP.FT              1739.2000: 
STEP.FT                 0.1000: 
NULL.                -999.2500: 
COMP.          Pioneer Natural Resources: COMPANY
WELL.            Harlee L 34-9: WELL
FLD.           Purgatoire River: FIELD
LOC.           600' FSL & 2125' FEL: LOCATION
PROV.                 Colorado: PROVINCE
CNTY.               Las Animas: COUNTRY
SRVC.                Patterson: SERVICE COMPANY
DATE.          Wed Jan 26 13:57:24 2005: LOG DATE
UWI.           05 071 08009 00: UNIQUE WELL ID
~Curve Information Block
DEPT.FT            0 000 00 00: Depth
DCAL.in                       : CDL Caliper
RHOB.g/cc                     : CDL Bulk Density
RHOC.g/cc                     : CDL Density Correction
DPOR.pu                       : CDL Density Porosity
NPOR.pu                       : Neutron Porosity
GR.GAPI                       : Gamma Ray
~Parameter Information Block
~A  Depth       DCAL        RHOB        RHOC        DPOR        NPOR         GR     
# ...
  1544.4000      8.8824      2.4173     -0.0409     14.1009     28.1201     66.1022
  1544.5000      8.8972      2.4061      0.0212     14.7797     28.6653     65.9072
  1544.6000      8.8972      2.3832     -0.0178     16.1699     29.1855     66.3712
  1544.7000      8.8972      2.3498     -0.0521     18.1949     29.9268     72.7461
  1544.8000      8.9092      2.3135     -0.0222     20.3936     31.0045     84.9699
  1544.9000      8.9092      2.2606      0.0048     23.6009     32.0481     95.4478
  1545.0000      8.8998      2.1802     -0.0461     28.4753     32.9224     97.5975
  1545.1000      8.8998      2.0843     -0.0525     34.2829     34.0558     94.6873
  1545.2000      8.8998      1.9848     -0.0689     40.3137     35.3967     91.8738
  1545.3000      8.8858      1.8790     -0.0656     46.7285     36.0679     86.9175
  1545.4000      8.8858      1.7649     -0.1185     53.6433     35.4344     80.5706
  1545.5000      8.8798      1.6502     -0.1570     60.5932     34.0673     74.6159
  1545.6000      8.8798      1.5475     -0.1522     66.8152     33.1751     65.8813
  1545.7000      8.8798      1.4732     -0.1281     71.3216     33.2035     58.2856
  1545.8000      8.8798      1.4449     -0.1433     73.0337     33.6961     59.7581
  1545.9000      8.8798      1.4633     -0.0061     71.9217     33.9862     67.3159
  1546.0000      8.8965      1.5030      0.0573     69.5124     33.9557     70.0592
  1546.1000      8.8965      1.5376      0.1311     67.4179     33.7105     65.4686
  1546.2000      8.8965      1.5550      0.1190     66.3640     32.9908     60.8246
  1546.3000      8.9239      1.5571      0.0879     66.2343     32.0085     59.0182
  1546.4000      8.9239      1.5524      0.0995     66.5208     31.6048     59.4057
  1546.5000      8.9350      1.5468      0.0571     66.8635     32.0240     62.8876
  1546.6000      8.9350      1.5361      0.0574     67.5104     32.6279     64.6742
  1546.7000      8.9350      1.5103     -0.0023     69.0717     32.8111     59.4825
  1546.8000      8.9338      1.4663     -0.0275     71.7366     32.9143     49.6861
  1546.9000      8.9338      1.4148     -0.0780     74.8604     33.4676     42.2786
  1547.0000      8.9366      1.3784     -0.0646     77.0643     34.1391     43.2350
  1547.1000      8.9366      1.3687      0.0045     77.6561     34.4190     50.3740
  1547.2000      8.9366      1.3734      0.0406     77.3720     34.1471     57.1820
  1547.3000      8.9410      1.3758      0.0715     77.2229     33.9710     60.3896
  1547.4000      8.9410      1.3718      0.0402     77.4673     34.6938     60.3616
  1547.5000      8.9416      1.3667      0.0486     77.7777     36.1533     58.8886
  1547.6000      8.9416      1.3626      0.0321     78.0240     37.2714     55.1494
  1547.7000      8.9416      1.3560      0.0313     78.4217     37.4184     49.6607
  1547.8000      8.9518      1.3436      0.0308     79.1762     37.0698     45.3792
  1547.9000      8.9518      1.3288      0.0110     80.0746     36.9865     42.7589
  1548.0000      8.9786      1.3184      0.0601     80.7033     37.4932     40.3495
  1548.1000      8.9786      1.3127      0.0358     81.0481     37.9931     36.7776
  1548.2000      8.9786      1.3091      0.0527     81.2638     37.7523     33.5593
  1548.3000      9.0168      1.3068      0.0496     81.4079     36.6264     33.8305
  1548.4000      9.0168      1.3086      0.0407     81.2946     35.1261     38.0233
  1548.5000      9.0611      1.3229      0.0387     80.4323     34.2066     44.5121
  1548.6000      9.0611      1.3612      0.0333     78.1105     34.1986     49.1772
  1548.7000      9.0611      1.4344      0.0626     73.6698     34.4082     49.6761
  1548.8000      9.0960      1.5385      0.1162     67.3617     34.1005     49.9946
  1548.9000      9.0960      1.6501      0.1816     60.5980     33.1654     53.2470
  1549.0000      9.1085      1.7494      0.2090     54.5794     32.0032     57.7368
  1549.1000      9.1085      1.8385      0.2396     49.1821     31.0835     62.4332
  1549.2000      9.1085      1.9270      0.2436     43.8207     30.5775     65.5245
  1549.3000      9.0830      2.0084      0.2604     38.8853     30.2605     66.3454
  1549.4000      9.0830      2.0641      0.2550     35.5068     30.3930     69.1721
  1549.5000      8.9842      2.0930      0.1640     33.7549     31.4099     75.5757
  1549.6000      8.9842      2.1060      0.1292     32.9677     32.4156     83.0636
  1549.7000      8.9842      2.0940      0.1232     33.6980     32.2281     90.0937
  1549.8000      8.8445      2.0476      0.0523     36.5084     31.3320     94.6437
  1549.9000      8.8445      1.9848      0.0058     40.3166     30.6761     94.6640
  1550.0000      8.7652      1.9322     -0.0356     43.5008     30.4676     94.1918
  1550.1000      8.7652      1.9046     -0.0234     45.1776     30.4419    101.8072
  1550.2000      8.7652      1.9039     -0.0144     45.2161     30.5557    117.3648
  1550.3000      8.7480      1.9291      0.0139     43.6938     31.0588    129.6034
  1550.4000      8.7480      1.9742      0.0430     40.9567     31.7582    130.0018
  1550.5000      8.7467      2.0303      0.0711     37.5567     31.8596    118.8538
  1550.6000      8.7467      2.0961      0.1100     33.5719     30.9738    102.3246
  1550.7000      8.7467      2.1776      0.1652     28.6293     29.8102     90.4514
  1550.8000      8.7468      2.2739      0.2035     22.7935     29.2210     88.4246
  1550.9000      8.7468      2.3650      0.2497     17.2747     29.2218     93.0526
  1551.0000      8.7457      2.4225      0.2203     13.7856     29.3998    101.2897
  1551.1000      8.7457      2.4406      0.1469     12.6916     29.5399    110.5949
  1551.2000      8.7457      2.4445      0.1211     12.4547     29.5927    116.1744
  1551.3000      8.7435      2.4596      0.0960     11.5385     29.8342    119.4686
  1551.4000      8.7435      2.4826      0.1104     10.1470     30.0853    124.5653
  1551.5000      8.7445      2.4964      0.0704      9.3068     29.7150    129.7564
  1551.6000      8.7445      2.4987      0.0652      9.1684     28.9997    133.0153
  1551.7000      8.7445      2.5001      0.0523      9.0831     28.2657    133.2592
  1551.8000      8.7480      2.5033      0.0776      8.8885     27.3357    130.2881
  1551.9000      8.7480      2.4990      0.0602      9.1508     26.9655    128.4146
  1552.0000      8.7491      2.4801      0.0884     10.2946     27.6820    129.2740
  1552.1000      8.7491      2.4505      0.0380     12.0932     28.2535    127.3773
  1552.2000      8.7491      2.4329      0.0055     13.1606     28.0996    119.8111
  1552.3000      8.7481      2.4469      0.0286     12.3112     27.8803    114.9263
  1552.4000      8.7481      2.4815      0.0248     10.2109     27.8573    122.3509
  1552.5000      8.7482      2.5110      0.0836      8.4267     27.8470    136.0161
  1552.6000      8.7482      2.5182      0.0950      7.9907     27.6080    143.7136
  1552.7000      8.7482      2.5023      0.0583      8.9543     27.1731    142.2583
  1552.8000      8.7489      2.4788      0.0260     10.3764     27.0829    133.2486
  1552.9000      8.7489      2.4638      0.0205     11.2872     27.8185    123.2642
  1553.0000      8.7442      2.4553      0.0243     11.7988     28.6629    118.4277
  1553.1000      8.7442      2.4479      0.0234     12.2470     28.6567    115.4507
  1553.2000      8.7442      2.4463      0.0233     12.3425     27.8465    113.5175
  1553.3000      8.7343      2.4524      0.0296     11.9768     26.8869    116.1725
  1553.4000      8.7343      2.4596      0.0422     11.5423     26.3264    122.0124
  1553.5000      8.7299      2.4669      0.0410     11.0951     26.1572    126.2760
  1553.6000      8.7299      2.4782      0.0377     10.4109     26.3040    127.0361
  1553.7000      8.7299      2.4839      0.0840     10.0694     26.6353    126.5502
  1553.8000      8.7303      2.4766      0.0521     10.5093     26.9535    125.3697
  1553.9000      8.7303      2.4711      0.0021     10.8432     27.1227    123.4491
