~Version Information
VERS.                      2.0: CWLS Log ASCII Standard - VERSION 2.0
WRAP.                       NO: One line per depth step
~Well Information Block
STRT.FT               494.2500: 
STOP.FT              1992.0000: 
STEP.FT                 0.2500: 
NULL.                -999.2500: 
COMP.          Petrogulf Corporation: COMPANY
WELL.               Furu 6-23R: WELL
FLD.           Purgatoire River: FIELD
LOC.           2211' FSL & 1780' FWL--: LOCATION
CNTY.               Las Animas: COUNTY
SRVC.                Patterson: SERVICE COMPANY
DATE.          Wed Jun 21 14:57:59 2006: LOG DATE
UWI.           05 071 08266 00: UNIQUE WELL ID
STAT.                 Colorado: STATE
~Curve Information Block
DEPT.FT            0 000 00 00: Depth
GR.GAPI                       : Gamma Ray
RILD.Ohm-m                    : DIL Deep Resistivity
RILM.Ohm-m                    : DIL Medium Resistivity
RLL3.Ohm-m                    : DIL Shallow Resistivity
SP.mV                         : DIL Spontaneous Potential
~Parameter Information Block
~A  Depth        GR         RILD        RILM        RLL3         SP     
# ...
  1502.2500    109.0393     14.7969     16.3434     20.3714     74.1813
  1502.5000    108.3750     14.3573     15.7305     20.0354     72.9753
  1502.7500    108.9278     13.9418     15.0662     19.1145     71.9616
  1503.0000    111.8342     13.5477     14.3918     17.8082     71.4783
  1503.2500    115.0977     13.1660     13.7478     16.4656     71.7202
  1503.5000    120.8473     12.7862     13.1630     15.3714     72.6059
  1503.7500    124.1663     12.3993     12.6498     14.6327     73.8546
  1504.0000    127.0145     12.0018     12.2045     14.2038     75.2043
  1504.2500    127.4522     11.5967     11.8135     13.9706     76.5364
  1504.5000    126.5250     11.1942     11.4600     13.8215     77.7860
  1504.7500    124.9647     10.8083     11.1295     13.6783     78.8004
  1505.0000    121.0570     10.4527     10.8134     13.4953     79.3622
  1505.2500    117.7618     10.1360     10.5096     13.2480     79.3653
  1505.5000    113.5709      9.8603     10.2214     12.9319     78.9229
  1505.7500    112.3443      9.6237      9.9555     12.5663     78.2893
  1506.0000    113.3283      9.4232      9.7182     12.1992     77.6950
  1506.2500    115.3360      9.2570      9.5137     11.9066     77.2472
  1506.5000    119.0385      9.1245      9.3424     11.7652     76.9441
  1506.7500    121.3413      9.0255      9.2020     11.7943     76.7463
  1507.0000    123.9821      8.9603      9.0885     11.9204     76.6305
  1507.2500    125.1700      8.9298      8.9989     12.0226     76.5954
  1507.5000    126.4195      8.9365      8.9327     12.0225     76.6396
  1507.7500    127.1310      8.9841      8.8929     11.9258     76.7486
  1508.0000    128.1585      9.0770      8.8853     11.7921     76.9001
  1508.2500    128.7689      9.2200      8.9176     11.6904     77.0735
  1508.5000    129.5713      9.4180      8.9994     11.6762     77.2534
  1508.7500    130.1053      9.6753      9.1421     11.7813     77.4300
  1509.0000    130.7122      9.9948      9.3600     12.0174     77.5963
  1509.2500    130.5644     10.3772      9.6713     12.4185     77.7447
  1509.5000    128.7266     10.8223     10.0985     13.1230     77.8691
  1509.7500    126.2420     11.3306     10.6681     14.4610     77.9714
  1510.0000    120.7432     11.9044     11.4091     16.9830     78.0643
  1510.2500    116.0114     12.5485     12.3516     21.3555     78.1633
  1510.5000    107.6222     13.2703     13.5237     28.1402     78.2700
  1510.7500    101.6275     14.0777     14.9497     37.6721     78.3604
  1511.0000     93.2569     14.9772     16.6470     50.2633     78.3904
  1511.2500     88.6789     15.9685     18.6232     66.5657     78.3224
  1511.5000     83.5847     17.0416     20.8704     87.4476     78.1581
  1511.7500     81.2939     18.1731     23.3557    112.8717     77.9507
  1512.0000     79.6931     19.3240     26.0096    140.0998     77.7856
  1512.2500     80.1349     20.4344     28.7138    162.7787     77.7409
  1512.5000     83.2000     21.4220     31.2897    172.8925     77.8510
  1512.7500     86.4905     22.1897     33.4895    165.5392     78.0974
  1513.0000     92.2363     22.6451     35.0142    142.8638     78.4284
  1513.2500     96.0417     22.7272     35.5890    113.0295     78.7924
  1513.5000    101.1380     22.4251     35.0822     84.9383     79.1618
  1513.7500    104.0136     21.7820     33.5799     63.6911     79.5339
  1514.0000    107.5793     20.8830     31.3459     49.9299     79.9154
  1514.2500    109.5416     19.8308     28.7060     41.7213     80.3074
  1514.5000    112.0719     18.7224     25.9498     36.4903     80.7013
  1514.7500    113.6864     17.6338     23.2906     32.2189     81.0842
  1515.0000    116.4317     16.6155     20.8654     28.0101     81.4447
  1515.2500    118.5622     15.6958     18.7475     23.9334     81.7762
  1515.5000    121.8146     14.8848     16.9604     20.3588     82.0799
  1515.7500    123.8204     14.1806     15.4936     17.4624     82.3667
  1516.0000    127.1592     13.5736     14.3167     15.2292     82.6535
  1516.2500    130.2702     13.0520     13.3913     13.6345     82.9515
  1516.5000    136.4408     12.6049     12.6776     12.6570     83.2569
  1516.7500    140.6527     12.2234     12.1383     12.1860     83.5483
  1517.0000    144.8585     11.9003     11.7409     12.0241     83.7920
  1517.2500    145.4873     11.6280     11.4597     11.9940     83.9572
  1517.5000    143.4847     11.3990     11.2752     12.0192     84.0386
  1517.7500    140.8887     11.2065     11.1728     12.1186     84.0730
  1518.0000    136.0770     11.0454     11.1382     12.3563     84.1331
  1518.2500    132.4686     10.9119     11.1534     12.7959     84.2907
  1518.5000    126.5936     10.8018     11.1956     13.4513     84.5711
  1518.7500    122.6800     10.7095     11.2384     14.2214     84.9290
  1519.0000    117.9780     10.6276     11.2581     14.8608     85.2712
  1519.2500    116.3122     10.5494     11.2388     15.0830     85.5128
  1519.5000    116.2058     10.4705     11.1757     14.7684     85.6270
  1519.7500    117.2125     10.3892     11.0741     14.0746     85.6530
  1520.0000    119.3529     10.3058     10.9446     13.3071     85.6548
  1520.2500    120.9531     10.2211     10.7991     12.6768     85.6682
  1520.5000    123.5013     10.1333     10.6470     12.1903     85.6805
  1520.7500    125.1667     10.0376     10.4956     11.7466     85.6557
  1521.0000    127.3483      9.9267     10.3504     11.3072     85.5733
  1521.2500    128.5344      9.7955     10.2141     10.9700     85.4401
  1521.5000    129.8970      9.6449     10.0860     10.8921     85.2738
  1521.7500    130.5090      9.4825      9.9606     11.1349     85.0796
  1522.0000    131.0753      9.3203      9.8295     11.5652     84.8518
  1522.2500    131.4625      9.1694      9.6858     11.9020     84.5981
  1522.5000    132.7110      9.0369      9.5285     11.8958     84.3532
  1522.7500    134.3123      8.9257      9.3650     11.5045     84.1593
  1523.0000    138.0368      8.8362      9.2085     10.9148     84.0292
  1523.2500    141.2382      8.7683      9.0732     10.3905     83.9246
  1523.5000    146.2197      8.7208      8.9693     10.0940     83.7728
  1523.7500    148.7126      8.6907      8.9006     10.0299     83.5170
  1524.0000    149.6283      8.6730      8.8644     10.1133     83.1614
  1524.2500    148.1244      8.6624      8.8536     10.2609     82.7689
  1524.5000    143.5151      8.6567      8.8591     10.4252     82.4135
  1524.7500    139.4030      8.6576      8.8725     10.5772     82.1335
  1525.0000    132.0429      8.6697      8.8889     10.6839     81.9188
  1525.2500    126.6265      8.6977      8.9081     10.7100     81.7294
  1525.5000    118.9557      8.7441      8.9351     10.6372     81.5239
  1525.7500    115.0567      8.8091      8.9788     10.4792     81.2791
  1526.0000    111.8945      8.8902      9.0486     10.2790     80.9932
  1526.2500    111.2820      8.9841      9.1527     10.0974     80.6760
  1526.5000    111.0268      9.0856      9.2964     10.0152     80.3400
  1526.7500    110.2676      9.1882      9.4819     10.1766     80.0009
  1527.0000    106.9736      9.2845      9.7072     10.8773     79.6801
  1527.2500    103.0400      9.3678      9.9632     12.6291     79.3989
  1527.5000     95.1222      9.4350     10.2297     16.0188     79.1646
  1527.7500     89.5922      9.4877     10.4741     21.2074     78.9625
  1528.0000     83.4409      9.5307     10.6582     27.2884     78.7656
  1528.2500     81.9664      9.5694     10.7522     32.2128     78.5565
  1528.5000     84.3988      9.6074     10.7489     33.8032     78.3476
  1528.7500     88.7025      9.6455     10.6672     31.2726     78.1843
  1529.0000     97.5859      9.6831     10.5425     25.8481     78.1176
  1529.2500    103.9929      9.7172     10.4103     19.8508     78.1564
  1529.5000    112.4501      9.7432     10.2946     15.1517     78.2408
  1529.7500    116.5135      9.7547     10.2040     12.3641     78.2706
  1530.0000    119.9764      9.7457     10.1346     11.1121     78.1726
