~Version Information
VERS.                      2.0: CWLS Log ASCII Standard - VERSION 2.0
WRAP.                       NO: One line per depth step
~Well Information Block
STRT.FT               453.5000: 
STOP.FT              1386.0000: 
STEP.FT                 0.1000: 
NULL.                -999.2500: 
COMP.          Petrogulf Corporation: COMPANY
WELL.          Great Plains 22-22R: WELL
FLD.           Purgatoire River: FIELD
LOC.           2042' FNL & 1657' FWL--: LOCATION
PROV.                 Colorado: PROVINCE
CNTY.               Las Animas: COUNTRY
SRVC.                Patterson: SERVICE COMPANY
DATE.          Fri Sep 09 14:42:42 2005: LOG DATE
UWI.           05 071 08028 00: UNIQUE WELL ID
~Curve Information Block
DEPT.FT            0 000 00 00: Depth
DCAL.in                       : CDL Caliper
RHOB.g/cc                     : CDL Bulk Density
RHOC.g/cc                     : CDL Density Correction
DPOR.pu                       : CDL Density Porosity
NPOR.pu                       : Neutron Porosity
GR.GAPI                       : Gamma Ray
~Parameter Information Block
~A  Depth       DCAL        RHOB        RHOC        DPOR        NPOR         GR     
# ...
   760.7000      8.0089      2.6132     -0.0064      2.2330     27.2857    129.3908
   760.8000      8.0148      2.6460      0.0695      0.2417     28.2139    122.5006
   760.9000      8.0148      2.6476      0.0635      0.1432     29.0603    122.5834
   761.0000      8.0168      2.6230     -0.0346      1.6386     29.2583    124.2519
   761.1000      8.0168      2.6147     -0.0364      2.1365     28.8584    123.3223
   761.2000      8.0168      2.6328     -0.0023      1.0409     28.6196    123.8401
   761.3000      8.0173      2.6447      0.0385      0.3184     28.7182    126.3644
   761.4000      8.0173      2.6349     -0.0319      0.9137     28.7890    126.9632
   761.5000      8.0176      2.6233     -0.0205      1.6187     28.6209    126.0690
   761.6000      8.0176      2.6227     -0.0258      1.6522     27.9205    125.2744
   761.7000      8.0176      2.6235      0.0048      1.6062     26.6691    126.4568
   761.8000      8.0175      2.6156      0.0067      2.0830     25.6530    128.1283
   761.9000      8.0175      2.6073      0.0169      2.5898     25.3629    128.6814
   762.0000      8.0179      2.6081      0.0331      2.5374     25.5418    130.7449
   762.1000      8.0179      2.6085      0.0478      2.5164     25.8590    134.7557
   762.2000      8.0179      2.5965      0.0162      3.2424     25.8671    136.0866
   762.3000      8.0210      2.5769      0.0104      4.4294     25.3528    131.5729
   762.4000      8.0210      2.5633      0.0151      5.2520     24.6383    124.0792
   762.5000      8.0243      2.5687     -0.0250      4.9287     24.4424    118.1895
   762.6000      8.0243      2.5966     -0.0272      3.2370     24.9285    114.5519
   762.7000      8.0243      2.6354      0.0421      0.8865     25.3237    112.9404
   762.8000      8.0241      2.6692      0.0305     -1.1658     25.3358    114.7389
   762.9000      8.0241      2.6865      0.0916     -2.2121     25.3498    120.8347
   763.0000      8.0232      2.6834      0.0389     -2.0213     25.5570    126.6384
   763.1000      8.0232      2.6735      0.0439     -1.4216     25.9894    126.1334
   763.2000      8.0232      2.6613      0.0413     -0.6828     26.3160    118.5771
   763.3000      8.0234      2.6339     -0.0065      0.9764     26.1024    106.6782
   763.4000      8.0234      2.5984     -0.0439      3.1270     25.6626     98.6443
   763.5000      8.0226      2.5790     -0.0312      4.3037     25.6664    102.7652
   763.6000      8.0226      2.5834     -0.0563      4.0369     26.3719    115.5509
   763.7000      8.0226      2.5944      0.0091      3.3711     27.4332    126.8588
   763.8000      8.0200      2.5913      0.0070      3.5588     27.9217    133.0146
   763.9000      8.0200      2.5814     -0.0206      4.1604     27.1740    136.4989
   764.0000      8.0181      2.5808      0.0029      4.1946     25.8135    135.8491
   764.1000      8.0181      2.5865      0.0068      3.8469     24.9784    129.3590
   764.2000      8.0181      2.5911     -0.0005      3.5697     24.9519    125.5742
   764.3000      8.0154      2.5876      0.0316      3.7820     25.3457    128.7466
   764.4000      8.0154      2.5694      0.0500      4.8820     25.6362    131.1347
   764.5000      8.0093      2.5497      0.0001      6.0770     25.5020    124.7995
   764.6000      8.0093      2.5519     -0.0057      5.9479     25.2243    112.0832
   764.7000      8.0093      2.5725      0.0585      4.6995     25.0861    104.9220
   764.8000      8.0007      2.5955      0.0176      3.3016     24.8933    106.7015
   764.9000      8.0007      2.6216      0.0585      1.7188     24.3841    108.1562
   765.0000      7.9951      2.6494      0.0817      0.0346     23.5192    107.5183
   765.1000      7.9951      2.6665      0.0775     -1.0011     22.5305    109.4883
   765.2000      7.9951      2.6602      0.0397     -0.6164     21.9223    109.8900
   765.3000      7.9897      2.6313      0.0278      1.1350     22.2524    107.3339
   765.4000      7.9897      2.5997     -0.0169      3.0498     23.0798    106.0874
   765.5000      7.9799      2.5860      0.0196      3.8791     23.4029    101.6578
   765.6000      7.9799      2.5982     -0.0248      3.1417     23.0088     91.3381
   765.7000      7.9799      2.6285      0.0315      1.3046     22.1697     83.7209
   765.8000      7.9699      2.6490      0.0407      0.0598     21.0886     83.4085
   765.9000      7.9699      2.6443      0.0207      0.3474     20.0946     86.8687
   766.0000      7.9565      2.6267      0.0090      1.4099     19.7394     89.8713
   766.1000      7.9565      2.6150     -0.0212      2.1241     20.2644     90.0051
   766.2000      7.9565      2.6202     -0.0053      1.8086     21.2696     90.0419
   766.3000      7.9357      2.6360      0.0385      0.8510     21.9902     91.5640
   766.4000      7.9357      2.6444      0.0520      0.3415     21.8701     90.7670
   766.5000      7.9187      2.6450      0.0272      0.3028     21.1823     89.0957
   766.6000      7.9187      2.6500      0.0642      0.0008     20.5332     90.0761
   766.7000      7.9187      2.6536      0.0961     -0.2180     20.0527     91.1135
   766.8000      7.9131      2.6449      0.0639      0.3081     19.5986     91.9875
   766.9000      7.9131      2.6286      0.0375      1.2941     19.2377     93.7745
   767.0000      7.9139      2.6171      0.0308      1.9936     19.2533     93.8498
   767.1000      7.9139      2.6192      0.0230      1.8646     19.3772     91.5278
   767.2000      7.9139      2.6303      0.0455      1.1948     19.1435     89.1660
   767.3000      7.9152      2.6386      0.0284      0.6886     18.9401     87.3797
   767.4000      7.9152      2.6435      0.0284      0.3944     19.1753     85.7681
   767.5000      7.9146      2.6467      0.0491      0.2003     19.7394     85.4253
   767.6000      7.9146      2.6434      0.0506      0.3997     20.3885     87.1270
   767.7000      7.9146      2.6339      0.0405      0.9754     20.9659     89.1675
   767.8000      7.9129      2.6359     -0.0314      0.8528     21.4557     88.1994
   767.9000      7.9129      2.6582      0.0747     -0.4943     21.6791     83.4086
   768.0000      7.9122      2.6723      0.0469     -1.3500     21.5937     77.5623
   768.1000      7.9122      2.6578      0.0524     -0.4725     21.5417     75.4791
   768.2000      7.9122      2.6293     -0.0002      1.2562     21.3790     78.7734
   768.3000      7.9124      2.6090     -0.0228      2.4854     20.7727     82.9131
   768.4000      7.9124      2.6069     -0.0181      2.6141     20.0267     83.2027
   768.5000      7.9142      2.6208     -0.0149      1.7681     19.7279     80.7253
   768.6000      7.9142      2.6411     -0.0059      0.5372     20.2173     79.8426
   768.7000      7.9142      2.6509     -0.0026     -0.0527     21.1317     82.5667
   768.8000      7.9196      2.6416     -0.0127      0.5118     21.6276     85.5097
   768.9000      7.9196      2.6254     -0.0050      1.4911     21.4639     84.9226
   769.0000      7.9234      2.6144     -0.0085      2.1578     21.3045     84.9101
   769.1000      7.9234      2.6098     -0.0149      2.4351     21.5753     86.5699
   769.2000      7.9234      2.6112      0.0042      2.3532     21.9819     85.9062
   769.3000      7.9207      2.6165      0.0010      2.0306     22.3493     86.5969
   769.4000      7.9207      2.6203      0.0322      1.7993     22.8192     92.0772
   769.5000      7.9152      2.6195      0.0320      1.8491     23.3775     98.2321
   769.6000      7.9152      2.6224      0.0601      1.6752     23.5666    101.3082
   769.7000      7.9152      2.6318      0.0807      1.1056     23.1391    102.0351
   769.8000      7.9111      2.6348      0.1032      0.9207     22.5751    103.1238
   769.9000      7.9111      2.6232      0.0595      1.6268     22.1151    103.4996
   770.0000      7.9103      2.6003      0.0525      3.0119     21.6034    101.0123
   770.1000      7.9103      2.5786     -0.0163      4.3248     21.3313     99.1798
   770.2000      7.9103      2.5743     -0.0092      4.5849     21.5886    101.0490
