~Version Information
 VERS.                                  2.0 : CWLS LAS VERSION
 WRAP.                                   NO : WRAPING MODE
 SWARE .                 MController 2.5.0N : SOFTWARE VERSION
~Well Information
 WELL.                          Bobsy 34-11 : WELL
 COMP.    Pioneer Natural Resources USA Inc : COMPANY
 FLD.                      Purgatoire River : FIELD
 LOC.                SW/SE Sec 11 T32S R66W : LOCATION
 DATE.                               4/7/05 : DATE(S) LOGGED
 SRVC.       Blanco Geological Services LLC : SERVICE COMPANY
 STAT.                                   CO : STATE
 CNTY.                           Las Animas : COUNTY
 CTRY.                                  USA : COUNTRY
 API.                       05-071-08330-00 : API NUMBER
 STRT.FT                             842.00 : START DEPTH
 STOP.FT                            2345.00 : STOP DEPTH
 STEP.FT                               1.00 : DEPTH INCREMENT
 NULL.                                -9999 : NULL VALUE
~Curve information
 DEPTH.FT                                   :
 ROP.MIN/FT                                 :
 GAS.UNITS                                  :
~ASCII Log data
# ...
      1842.0         0.20         64.9 
      1843.0         0.18         62.7 
      1844.0         0.23         61.5 
      1845.0         0.27         60.3 
      1846.0         0.23         58.9 
      1847.0         0.23         57.3 
      1848.0         0.23         56.5 
      1849.0         0.27         58.3 
      1850.0         0.20         60.6 
      1851.0         0.20         60.5 
      1852.0         0.17         59.3 
      1853.0         0.20         57.8 
      1854.0         0.17         55.3 
      1855.0         0.20         53.5 
      1856.0         6.13        462.7 
      1857.0         0.20        153.9 
      1858.0         0.23        128.0 
      1859.0         0.20        108.7 
      1860.0         0.20         97.8 
      1861.0         0.32         98.8 
      1862.0         0.33        103.1 
      1863.0         0.23        105.3 
      1864.0         0.23        106.0 
      1865.0         0.30        106.1 
      1866.0         0.30        103.9 
      1867.0         0.23        100.5 
      1868.0         0.20         95.3 
      1869.0         0.20         90.3 
      1870.0         0.17         84.2 
      1871.0         0.17         79.6 
      1872.0         0.20         74.7 
      1873.0         0.20         71.0 
      1874.0         0.27         69.6 
      1875.0         0.23         71.2 
      1876.0         0.32         74.0 
      1877.0         0.23         75.7 
      1878.0         0.23         78.0 
      1879.0         0.23         78.5 
      1880.0         0.23         80.9 
      1881.0         0.23         81.7 
      1882.0         0.27         79.9 
      1883.0         0.23         74.3 
      1884.0         0.23         70.4 
      1885.0         0.23         67.7 
      1886.0         3.55        326.2 
      1887.0         0.82        365.5 
      1888.0         0.67        324.7 
      1889.0         0.53        194.1 
      1890.0         0.30        126.3 
      1891.0         0.37        108.4 
      1892.0         0.33         99.1 
      1893.0         0.27         99.7 
      1894.0         0.30         99.3 
      1895.0         0.33         98.0 
      1896.0         0.32         95.5 
      1897.0         0.37         91.5 
      1898.0         0.27         86.9 
      1899.0         0.23         83.7 
      1900.0         0.23         81.9 
      1901.0         0.23         79.9 
      1902.0         0.23         78.4 
      1903.0         0.27         76.6 
      1904.0         0.23         75.8 
      1905.0         0.27         74.0 
      1906.0         0.23         71.6 
      1907.0         0.30         70.6 
      1908.0         0.35         69.9 
      1909.0         0.27         70.3 
      1910.0         0.27         73.0 
      1911.0         0.23         73.3 
      1912.0         0.27         72.2 
      1913.0         0.23         68.5 
      1914.0         0.27         65.5 
      1915.0         0.40         63.1 
      1916.0         1.75         74.1 
      1917.0         0.63        156.9 
      1918.0         0.47        239.3 
      1919.0         0.27        278.8 
      1920.0         0.30        301.1 
      1921.0         0.27        301.6 
      1922.0         0.37        287.3 
      1923.0         0.20        238.7 
      1924.0         0.23        212.6 
      1925.0         0.35        183.1 
      1926.0         0.37        146.0 
      1927.0         0.27        121.9 
      1928.0         0.30        112.9 
      1929.0         0.30        108.2 
      1930.0         0.27        105.2 
      1931.0         0.27        102.2 
      1932.0         0.27         98.3 
      1933.0         0.23         94.5 
      1934.0         0.30         92.5 
      1935.0         0.23         88.8 
      1936.0         0.27         86.4 
      1937.0         0.28         83.5 
      1938.0         0.23         81.2 
      1939.0         0.20         79.5 
      1940.0         0.23         77.2 
      1941.0         0.23         77.6 
      1942.0         0.23         78.7 
      1943.0         0.27         78.9 
      1944.0         0.27         77.8 
      1945.0         0.30         74.7 
      1946.0         3.52        241.6 
      1947.0         0.40        307.8 
      1948.0         0.30        328.7 
      1949.0         0.27        328.7 
      1950.0         0.28        308.9 
      1951.0         0.27        261.1 
      1952.0         0.27        218.3 
      1953.0         0.23        181.9 
      1954.0         0.33        156.4 
      1955.0         0.30        129.8 
      1956.0         0.30        114.3 
      1957.0         0.30        103.3 
      1958.0         0.27         97.3 
      1959.0         0.23         94.1 
      1960.0         0.27         92.2 
      1961.0         0.27         89.1 
      1962.0         0.25         86.5 
      1963.0         0.27         84.8 
      1964.0         0.27         81.8 
      1965.0         0.23         79.4 
      1966.0         0.23         78.5 
      1967.0         0.23         76.8 
      1968.0         0.23         75.0 
      1969.0         0.23         75.2 
      1970.0         0.23         79.5 
      1971.0         0.30         80.3 
      1972.0         0.30         80.1 
      1973.0         0.30         76.5 
      1974.0         0.27         70.7 
      1975.0         0.38         67.1 
      1976.0         3.68        296.1 
      1977.0         0.37        354.6 
      1978.0         0.33        379.1 
      1979.0         0.30        378.7 
      1980.0         0.33        357.6 
      1981.0         0.33        299.7 
      1982.0         0.33        235.9 
      1983.0         0.33        186.0 
      1984.0         0.30        148.5 
      1985.0         0.35        127.4 
      1986.0         0.27        110.3 
      1987.0         0.27        104.8 
      1988.0         0.27         99.5 
      1989.0         0.30         93.5 
      1990.0         0.30         88.3 
      1991.0         0.30         84.8 
      1992.0         0.27         81.3 
      1993.0         0.30         77.9 
      1994.0         0.37         73.5 
      1995.0         0.27         69.4 
      1996.0         0.28         67.6 
      1997.0         0.23         66.8 
      1998.0         0.23         65.9 
      1999.0         0.30         64.3 
      2000.0         0.30         69.9 
      2001.0         0.30         89.0 
      2002.0         0.37        108.0 
      2003.0         0.37        110.0 
      2004.0         0.33        108.0 
      2005.0         0.60        101.6 
      2006.0         3.02        305.3 
      2007.0         0.37        348.4 
      2008.0         0.35        357.9 
      2009.0         0.33        360.7 
      2010.0         0.30        361.2 
      2011.0         0.30        357.6 
      2012.0         0.37        339.7 
      2013.0         0.43        306.1 
      2014.0         0.37        268.4 
      2015.0         0.30        244.3 
      2016.0         0.27        232.1 
      2017.0         0.20        220.6 
      2018.0         0.33        212.1 
      2019.0         0.32        200.2 
      2020.0         0.27        188.5 
      2021.0         0.23        180.6 
      2022.0         0.17        174.1 
      2023.0         0.17        170.1 
      2024.0         0.23        166.0 
      2025.0         0.30        160.6 
      2026.0         0.30        156.4 
      2027.0         0.30        155.2 
      2028.0         0.27        156.8 
      2029.0         0.30        156.9 
      2030.0         0.27        154.8 
      2031.0         0.32        154.5 
      2032.0         0.33        157.7 
      2033.0         0.33        156.0 
      2034.0         0.30        147.1 
      2035.0         0.33        138.8 
      2036.0         2.12        151.2 
      2037.0         0.33        204.0 
      2038.0         0.50        296.7 
      2039.0         0.23        328.7 
      2040.0         0.27        347.9 
      2041.0         0.23        348.6 
