~Version Information
VERS.                      2.0: CWLS Log ASCII Standard - VERSION 2.0
WRAP.                       NO: One line per depth step
~Well Information Block
STRT.FT               510.0000: 
STOP.FT              1848.7500: 
STEP.FT                 0.2500: 
NULL.                -999.2500: 
COMP.          Pioneer Natural Resources: COMPANY
WELL.           Stampede 42-18: WELL
FLD.           Purgatoire River: FIELD
LOC.           2479' FNL & 160' FEL--: LOCATION
CNTY.               Las Animas: COUNTY
SRVC.          Superior Well Services: SERVICE COMPANY
DATE.          Sat Jun 09 02:07:27 2007: LOG DATE
UWI.           05 071 08237 00: UNIQUE WELL ID
STAT.                 Colorado: STATE
~Curve Information Block
DEPT.FT            0 000 00 00: Depth
SN.Ohm-m                      : IEL Short Normal
SP.mV                         : IEL Spontaneous Potential
DIR.Ohm-m                     : IEL Induction Resistivity
GR.GAPI                       : Gamma Ray
~Parameter Information Block
~A  Depth        SN          SP         DIR          GR     
# ...
  1213.5000     27.1309    102.8986     23.4989    127.2854
  1213.7500     27.0421    102.9584     23.4485    126.3324
  1214.0000     26.9720    103.0528     23.3682    123.0307
  1214.2500     26.9211    103.1937     23.2739    119.8106
  1214.5000     26.9004    103.3754     23.1904    114.1443
  1214.7500     26.9094    103.5755     23.1509    110.2938
  1215.0000     26.9220    103.7626     23.1876    105.2694
  1215.2500     26.9017    103.9101     23.3182    102.9883
  1215.5000     26.8387    104.0058     23.5390    102.2159
  1215.7500     26.7606    104.0533     23.8307    103.7958
  1216.0000     26.7052    104.0664     24.1687    108.6166
  1216.2500     26.7003    104.0597     24.5266    112.3637
  1216.5000     26.7626    104.0437     24.8702    116.7629
  1216.7500     26.8932    104.0251     25.1566    118.2460
  1217.0000     27.0712    104.0082     25.3478    118.5385
  1217.2500     27.2611    103.9930     25.4373    118.1064
  1217.5000     27.4369    103.9757     25.4646    117.6296
  1217.7500     27.5987    103.9553     25.5006    117.7215
  1218.0000     27.7645    103.9422     25.6086    118.5339
  1218.2500     27.9475    103.9594     25.8053    119.6251
  1218.5000     28.1394    104.0333     26.0519    122.4263
  1218.7500     28.3148    104.1827     26.2853    125.0348
  1219.0000     28.4591    104.4124     26.4672    129.2393
  1219.2500     28.5838    104.7147     26.6087    131.5830
  1219.5000     28.7126    105.0733     26.7484    133.8619
  1219.7500     28.8658    105.4676     26.9098    134.8156
  1220.0000     29.0627    105.8706     27.0818    136.4030
  1220.2500     29.3098    106.2486     27.2365    137.8503
  1220.5000     29.5733    106.5694     27.3643    139.7126
  1220.7500     29.7958    106.8127     27.4945    139.6839
  1221.0000     29.9420    106.9717     27.6831    136.6808
  1221.2500     30.0055    107.0419     27.9748    133.2778
  1221.5000     29.9984    107.0131     28.3613    128.4817
  1221.7500     29.9581    106.8767     28.7681    126.5850
  1222.0000     29.9435    106.6388     29.0871    125.6165
  1222.2500     29.9917    106.3241     29.2433    125.2906
  1222.5000     30.0734    105.9676     29.2427    123.7426
  1222.7500     30.1131    105.6048     29.1563    121.8273
  1223.0000     30.0638    105.2635     29.0585    118.6074
  1223.2500     29.9657    104.9597     28.9826    116.9660
  1223.5000     29.9238    104.6917     28.9267    115.9022
  1223.7500     30.0192    104.4351     28.8888    116.1843
  1224.0000     30.2488    104.1426     28.8844    117.9354
  1224.2500     30.5564    103.7559     28.9299    119.6629
  1224.5000     30.8968    103.2235     29.0107    122.2583
  1224.7500     31.2487    102.5138     29.0757    123.6937
  1225.0000     31.5945    101.6213     29.0710    125.3726
  1225.2500     31.9221    100.5682     28.9850    126.0975
  1225.5000     32.2261     99.4027     28.8616    126.0483
  1225.7500     32.4830     98.1914     28.7702    125.0823
  1226.0000     32.6616     97.0074     28.7661    123.0387
  1226.2500     32.7787     95.9170     28.8703    122.1774
  1226.5000     32.9173     94.9641     29.0755    122.4828
  1226.7500     33.1813     94.1568     29.3625    123.4431
  1227.0000     33.6436     93.4635     29.7162    124.8284
  1227.2500     34.3330     92.8280     30.1288    125.0514
  1227.5000     35.2692     92.1982     30.5931    123.1160
  1227.7500     36.4988     91.5508     31.0945    119.5537
  1228.0000     38.0829     90.8985     31.6148    110.5153
  1228.2500     40.0449     90.2792     32.1470    102.9832
  1228.5000     42.3458     89.7374     32.7010     92.2840
  1228.7500     44.9163     89.3079     33.2945     86.9257
  1229.0000     47.7101     89.0073     33.9431     82.3331
  1229.2500     50.7464     88.8361     34.6715     81.2316
  1229.5000     54.1114     88.7878     35.5345     81.3049
  1229.7500     57.8575     88.8563     36.6176     81.7981
  1230.0000     61.8522     89.0334     37.9956     82.5368
  1230.2500     65.7457     89.3038     39.6779     83.0550
  1230.5000     69.1117     89.6476     41.5756     84.2710
  1230.7500     71.6516     90.0461     43.5133     85.4149
  1231.0000     73.2895     90.4851     45.2761     86.8957
  1231.2500     74.1057     90.9477     46.6735     87.0856
  1231.5000     74.2241     91.4079     47.6026     85.9157
  1231.7500     73.7643     91.8336     48.0936     84.7709
  1232.0000     72.8383     92.2011     48.3098     83.8566
  1232.2500     71.5531     92.5083     48.4843     84.1070
  1232.5000     70.0052     92.7766     48.8132     85.5517
  1232.7500     68.2635     93.0397     49.3712     87.0962
  1233.0000     66.3628     93.3247     50.0987     90.5434
  1233.2500     64.3397     93.6406     50.8555     93.9725
  1233.5000     62.2710     93.9819     51.4888    101.3740
  1233.7500     60.2432     94.3424     51.8576    107.7289
  1234.0000     58.2827     94.7192     51.8303    118.0941
  1234.2500     56.3459     95.1054     51.3101    124.2709
  1234.5000     54.3777     95.4848     50.2978    130.3419
  1234.7500     52.3646     95.8409     48.9194    131.7904
  1235.0000     50.3527     96.1716     47.3841    131.2007
  1235.2500     48.4495     96.4938     45.9053    130.3414
  1235.5000     46.8039     96.8328     44.6288    130.0708
  1235.7500     45.5505     97.2037     43.5836    130.4398
  1236.0000     44.7103     97.5979     42.6781    130.0641
  1236.2500     44.1257     97.9852     41.7614    128.2166
  1236.5000     43.5432     98.3321     40.7120    122.8315
  1236.7500     42.7797     98.6246     39.4858    118.1977
  1237.0000     41.7888     98.8785     38.0956    111.2007
  1237.2500     40.6124     99.1280     36.5732    107.0933
  1237.5000     39.3185     99.4039     34.9641    102.3788
  1237.7500     37.9495     99.7174     33.3362    100.6191
  1238.0000     36.4753    100.0582     31.7659    100.8456
  1238.2500     34.8222    100.4042     30.3035    103.1327
  1238.5000     32.9840    100.7322     28.9520    109.5683
  1238.7500     31.0536    101.0253     27.6766    115.4940
  1239.0000     29.1321    101.2784     26.4360    125.8233
  1239.2500     27.2849    101.5033     25.2135    132.8651
  1239.5000     25.5895    101.7275     24.0297    142.2485
  1239.7500     24.1489    101.9807     22.9230    147.1738
  1240.0000     23.0375    102.2764     21.9149    152.1871
  1240.2500     22.2396    102.6047     20.9893    153.7740
  1240.5000     21.6293    102.9375     20.1043    153.0862
  1240.7500     21.0263    103.2419     19.2273    150.5694
  1241.0000     20.3149    103.4955     18.3610    144.7714
  1241.2500     19.5374    103.6993     17.5406    140.7513
  1241.5000     18.8556    103.8808     16.8111    136.7897
  1241.7500     18.4141    104.0798     16.2072    136.6634
  1242.0000     18.2531    104.3251     15.7477    141.2094
  1242.2500     18.3229    104.6197     15.4387    147.0352
  1242.5000     18.5188    104.9473     15.2758    157.6284
  1242.7500     18.7190    105.2881     15.2397    164.0481
  1243.0000     18.8417    105.6270     15.2922    169.8427
  1243.2500     18.8773    105.9529     15.3777    170.0267
  1243.5000     18.8810    106.2604     15.4380    164.1205
  1243.7500     18.9486    106.5539     15.4341    156.7023
  1244.0000     19.1753    106.8477     15.3602    143.3031
  1244.2500     19.5756    107.1600     15.2402    135.0038
  1244.5000     20.0311    107.5074     15.1112    126.2503
  1244.7500     20.3915    107.9044     15.0114    123.5141
  1245.0000     20.6331    108.3591     14.9767    123.8412
  1245.2500     20.8371    108.8693     15.0403    126.4506
  1245.5000     21.0606    109.4207     15.2313    132.7183
  1245.7500     21.3094    109.9887     15.5700    137.7630
  1246.0000     21.5515    110.5415     16.0603    145.5402
  1246.2500     21.6803    111.0432     16.6812    150.1313
  1246.5000     21.5415    111.4600     17.3800    154.3825
  1246.7500     21.0547    111.7693     18.0791    154.3862
