~Version Information
VERS.                      2.0: CWLS Log ASCII Standard - VERSION 2.0
WRAP.                       NO: One line per depth step
~Well Information Block
STRT.FT               425.0000: 
STOP.FT              2461.0000: 
STEP.FT                 0.2500: 
NULL.                -999.2500: 
COMP.          Evergreen Operating Corporation: COMPANY
WELL.              Nomad 32-10: WELL
FLD.           Purgatorie River: FIELD
LOC.           2281' FNL & 1585' FEL: LOCATION
PROV.                 Colorado: PROVINCE
CNTY.               Las Animas: COUNTRY
SRVC.                Patterson: SERVICE COMPANY
DATE.          Thu Aug 12 02:01:07 2004: LOG DATE
UWI.           05 071 08127 00: UNIQUE WELL ID
~Curve Information Block
DEPT.FT            0 000 00 00: Depth
SN.Ohm-m                      : IEL Short Normal
SP.mV                         : IEL Spontaneous Potential
DIR.Ohm-m                     : IEL Induction Resistivity
GR.GAPI                       : Gamma Ray
~Parameter Information Block
~A  Depth        SN          SP         DIR          GR     
# ...
  2435.0000     31.1269    128.6611     27.5854   -999.2500
  2435.2500     30.8539    128.6490     27.3380   -999.2500
  2435.5000     30.7149    128.6174     27.2189   -999.2500
  2435.7500     30.7437    128.5773     27.2373   -999.2500
  2436.0000     30.9531    128.5298     27.3802   -999.2500
  2436.2500     31.3422    128.4675     27.6245   -999.2500
  2436.5000     31.9152    128.3835     27.9456   -999.2500
  2436.7500     32.6803    128.2793     28.3222   -999.2500
  2437.0000     33.6477    128.1662     28.7449   -999.2500
  2437.2500     34.8308    128.0617     29.2280   -999.2500
  2437.5000     36.2220    127.9838     29.8120   -999.2500
  2437.7500     37.7651    127.9441     30.5456   -999.2500
  2438.0000     39.3705    127.9388     31.4508   -999.2500
  2438.2500     40.9488    127.9494     32.4888   -999.2500
  2438.5000     42.4124    127.9526     33.5471   -999.2500
  2438.7500     43.6722    127.9364     34.4672   -999.2500
  2439.0000     44.6409    127.9074     35.1077   -999.2500
  2439.2500     45.2160    127.8841     35.4063   -999.2500
  2439.5000     45.2861    127.8760     35.3936   -999.2500
  2439.7500     44.7896    127.8695     35.1542   -999.2500
  2440.0000     43.7613    127.8355     34.7754   -999.2500
  2440.2500     42.3332    127.7516     34.3190   -999.2500
  2440.5000     40.7009    127.6170     33.8234   -999.2500
  2440.7500     39.0634    127.4441     33.3209   -999.2500
  2441.0000     37.5704    127.2404     32.8430   -999.2500
  2441.2500     36.3117    126.9975     32.4030   -999.2500
  2441.5000     35.3118    126.6958     31.9735   -999.2500
  2441.7500     34.5281    126.3189     31.4920   -999.2500
  2442.0000     33.8997    125.8660     30.9032   -999.2500
  2442.2500     33.4052    125.3527     30.2085   -999.2500
  2442.5000     33.0655    124.8025     29.4777   -999.2500
  2442.7500     32.9030    124.2360     28.8137   -999.2500
  2443.0000     32.8980    123.6644     28.3045   -999.2500
  2443.2500     32.9851    123.0893     27.9914   -999.2500
  2443.5000     33.1053    122.5109     27.8594   -999.2500
  2443.7500     33.2383    121.9395     27.8405   -999.2500
  2444.0000     33.3837    121.4018     27.8289   -999.2500
  2444.2500     33.5338    120.9354     27.7091   -999.2500
  2444.5000     33.6544    120.5738     27.3945   -999.2500
  2444.7500     33.6795    120.3332     26.8571   -999.2500
  2445.0000     33.5332    120.2084     26.8349   -999.2500
  2445.2500     33.1517    120.1813     25.9395   -999.2500
  2445.5000     32.4923    120.2319     24.9924   -999.2500
  2445.7500     31.5599    120.3423     24.0580   -999.2500
  2446.0000     30.4001    120.4926     23.1893   -999.2500
  2446.2500     29.0344    120.6592     22.4321   -999.2500
  2446.5000     27.4536    120.8214     21.8223   -999.2500
  2446.7500     25.7185    120.9713     21.3777   -999.2500
  2447.0000     24.0267    121.1147     21.1017   -999.2500
  2447.2500     22.6417    121.2580     21.0076   -999.2500
  2447.5000     21.7392    121.3877     21.1688   -999.2500
  2447.7500     21.3048    121.4612     21.7907   -999.2500
  2448.0000     21.2156    121.4230     23.3123   -999.2500
  2448.2500     21.4150    121.2319     26.6257   -999.2500
  2448.5000     21.9788    120.8783     32.4744   -999.2500
  2448.7500     23.0353    120.3918     48.1755   -999.2500
  2449.0000     24.6115    119.8592     99.3457   -999.2500
  2449.2500     26.5374    119.4571   2348.0518   -999.2500
  2449.5000     28.5391    119.4475 100000.0000   -999.2500
  2449.7500     30.4367    120.0634 100000.0000   -999.2500
  2450.0000     32.2170    121.3113 100000.0000   -999.2500
  2450.2500     33.9294    122.8775 100000.0000   -999.2500
  2450.5000     35.5773    124.2972 100000.0000   -999.2500
  2450.7500     37.1451    125.2580 100000.0000   -999.2500
  2451.0000     38.6685    125.7441 100000.0000   -999.2500
  2451.2500     40.2158    125.9311 100000.0000   -999.2500
  2451.5000     41.8384    126.0066   9174.6758   -999.2500
  2451.7500     43.5499    126.0810 100000.0000   -999.2500
  2452.0000     45.3212    126.1932 100000.0000   -999.2500
  2452.2500     47.0953    126.3424 100000.0000   -999.2500
  2452.5000     48.8016    126.5112 100000.0000   -999.2500
  2452.7500     50.3477    126.6726 100000.0000   -999.2500
  2453.0000     51.6260    126.7836 100000.0000   -999.2500
  2453.2500     52.5479    126.6801 100000.0000   -999.2500
  2453.5000     53.0719    125.7752 100000.0000   -999.2500
  2453.7500     53.1892    122.5759 100000.0000   -999.2500
  2454.0000     52.8540    114.5474 100000.0000   -999.2500
  2454.2500     51.7659     99.2699 100000.0000   -999.2500
  2454.5000     48.8202     76.8538 100000.0000   -999.2500
  2454.7500     41.8609     51.3471 100000.0000   -999.2500
  2455.0000     29.6927     28.7871 100000.0000   -999.2500
  2455.2500     15.2529     13.2618 100000.0000   -999.2500
  2455.5000      3.9963      4.9450 100000.0000   -999.2500
  2455.7500     -1.6960      1.4762  35190.0508   -999.2500
  2456.0000     -3.5531      0.3496   2422.2253   -999.2500
  2456.2500     -3.9429      0.0647   1490.4946   -999.2500
  2456.5000     -3.9955      0.0086   1221.8862   -999.2500
  2456.7500   -999.2500   -999.2500   1123.3456   -999.2500
  2457.0000   -999.2500   -999.2500   1086.9940   -999.2500
  2457.2500   -999.2500   -999.2500   1074.7048   -999.2500
  2457.5000   -999.2500   -999.2500   1071.0576   -999.2500
  2457.7500   -999.2500   -999.2500   1070.1267   -999.2500
  2458.0000   -999.2500   -999.2500 100000.0000   -999.2500
  2458.2500   -999.2500   -999.2500   -999.2500   -999.2500
  2458.5000   -999.2500   -999.2500   -999.2500   -999.2500
  2458.7500   -999.2500   -999.2500   -999.2500   -999.2500
  2459.0000   -999.2500   -999.2500   -999.2500   -999.2500
  2459.2500   -999.2500   -999.2500   -999.2500   -999.2500
  2459.5000   -999.2500   -999.2500   -999.2500   -999.2500
  2459.7500   -999.2500   -999.2500   -999.2500   -999.2500
  2460.0000   -999.2500   -999.2500   -999.2500   -999.2500
  2460.2500   -999.2500   -999.2500   -999.2500   -999.2500
  2460.5000   -999.2500   -999.2500   -999.2500   -999.2500
  2460.7500   -999.2500   -999.2500   -999.2500   -999.2500
  2461.0000   -999.2500   -999.2500   -999.2500   -999.2500
