~Version Information
VERS.                      2.0: CWLS Log ASCII Standard - VERSION 2.0
WRAP.                       NO: One line per depth step
~Well Information Block
STRT.FT               483.0000: 
STOP.FT              1702.5000: 
STEP.FT                 0.2500: 
NULL.                -999.2500: 
COMP.          Pioneer Natural Resources: COMPANY
WELL.            Mad Dog 42-31: WELL
FLD.           Purgatorie River: FIELD
LOC.           2064' FNL & 479' FEL: LOCATION
PROV.                 Colorado: PROVINCE
CNTY.               Las Animas: COUNTRY
SRVC.                         : SERVICE COMPANY
DATE.          Sun Oct 10 04:26:24 2004: LOG DATE
UWI.           05 071 08195 00: UNIQUE WELL ID
~Curve Information Block
DEPT.FT            0 000 00 00: Depth
LTEN.lb                       : Surface Line Tension
SN.Ohm-m                      : IEL Short Normal
SP.mV                         : IEL Spontaneous Potential
DIR.Ohm-m                     : IEL Induction Resistivity
GR.GAPI                       : Gamma Ray
~Parameter Information Block
~A  Depth       LTEN         SN          SP         DIR          GR     
# ...
  1295.0000    741.3780     13.7276   -148.7950     11.5313     94.3061
  1295.2500    738.2449     13.8707   -149.5058     11.5645     94.9336
  1295.5000    738.9549     14.1489   -150.4008     11.5879     96.6072
  1295.7500    742.1658     14.5955   -151.3774     11.6614     98.0021
  1296.0000    745.6004     15.2412   -152.3289     11.8502    100.2154
  1296.2500    747.5651     16.0984   -153.1530     12.2182    101.5364
  1296.5000    747.5992     17.1426   -153.7639     12.8109    102.5802
  1296.7500    746.1105     18.3043   -154.0988     13.6265    102.2220
  1297.0000    743.5723     19.4838   -154.1115     14.5790    100.0042
  1297.2500    740.3843     20.5845   -153.7803     15.4793     97.9350
  1297.5000    737.4512     21.5403   -153.1052     16.0798     95.2894
  1297.7500    736.0783     22.3188   -152.1071     16.1938     94.2659
  1298.0000    736.7731     22.8962   -150.8269     15.8046     93.7262
  1298.2500    738.7025     23.2247   -149.3179     15.0599     93.8022
  1298.5000    740.8759     23.2195   -147.6426     14.1690     94.2061
  1298.7500    743.4828     22.7807   -145.8692     13.3046     94.3063
  1299.0000    747.4453     21.8444   -144.0744     12.5606     93.3905
  1299.2500    752.7164     20.4335   -142.3460     11.9552     91.8520
  1299.5000    757.6005     18.6760   -140.7852     11.4540     88.6051
  1299.7500    760.1885     16.7759   -139.5038     10.9973     86.3121
  1300.0000    760.3871     14.9486   -138.6097     10.5324     83.4032
  1300.2500    760.1188     13.3568   -138.1898     10.0364     82.2020
  1300.5000    761.3041     12.0764   -138.2892      9.5217     82.1826
  1300.7500    763.9950     11.1011   -138.8919      9.0224     83.4205
  1301.0000    766.7198     10.3747   -139.9149      8.5752     86.2102
  1301.2500    768.0716      9.8311   -141.2188      8.2073     87.9431
  1301.5000    767.4844      9.4224   -142.6301      7.9328     90.0246
  1301.7500    765.0604      9.1280   -143.9817      7.7524     91.5142
  1302.0000    761.4333      8.9434   -145.1435      7.6531     94.4983
  1302.2500    757.7222      8.8628   -146.0491      7.6101     96.6799
  1302.5000    755.1354      8.8686   -146.6983      7.5935     99.2213
  1302.7500    754.4296      8.9337   -147.1408      7.5799    100.3624
  1303.0000    755.6201      9.0312   -147.4486      7.5629    102.3244
  1303.2500    757.9380      9.1456   -147.6863      7.5557    104.3533
  1303.5000    760.1650      9.2792   -147.8907      7.5846    107.9870
  1303.7500    761.3564      9.4497   -148.0684      7.6809    109.8671
  1304.0000    761.3337      9.6788   -148.2105      7.8739    110.7028
  1304.2500    760.5789      9.9784   -148.3032      8.1863    110.1446
  1304.5000    759.7760     10.3462   -148.3500      8.6288    109.2295
  1304.7500    759.2064     10.7702   -148.3708      9.1937    109.3970
  1305.0000    758.3199     11.2401   -148.3932      9.8500    110.8220
  1305.2500    756.1277     11.7612   -148.4467     10.5437    111.7542
  1305.5000    752.4010     12.3680   -148.5388     11.2068    111.1340
  1305.7500    748.4153     13.1272   -148.6564     11.7743    108.3313
  1306.0000    746.1860     14.1143   -148.7639     12.2069     99.9330
  1306.2500    746.9176     15.3664   -148.8156     12.5082     92.1078
  1306.5000    750.3890     16.8278   -148.7661     12.7266     78.8546
  1306.7500    755.5621     18.3271   -148.5825     12.9377     69.9651
  1307.0000    761.1416     19.6062   -148.2554     13.2134     57.7364
  1307.2500    765.6038     20.4056   -147.7920     13.5903     51.0663
  1307.5000    767.6179     20.5709   -147.2186     14.0467     45.1573
  1307.7500    766.8557     20.1238   -146.5662     14.4998     45.1589
  1308.0000    764.0333     19.2495   -145.8651     14.8382     51.8674
  1308.2500    760.1960     18.2063   -145.1379     14.9847     59.8041
  1308.5000    756.3453     17.2142   -144.3965     14.9381     73.0240
  1308.7500    753.4932     16.3921   -143.6434     14.7499     80.3453
  1309.0000    752.3521     15.7643   -142.8750     14.4660     87.0016
  1309.2500    752.7453     15.3089   -142.0864     14.1022     88.7356
  1309.5000    753.5521     15.0006   -141.2785     13.6680     88.8647
  1309.7500    753.5126     14.8257   -140.4672     13.2026     88.2460
  1310.0000    752.2776     14.7747   -139.6842     12.7767     87.2827
  1310.2500    750.7479     14.8321   -138.9775     12.4613     86.8213
  1310.5000    750.3835     14.9723   -138.4014     12.2941     86.1723
  1310.7500    752.0988     15.1629   -138.0032     12.2711     85.4783
  1311.0000    755.6209     15.3667   -137.8139     12.3593     83.9536
  1311.2500    759.7494     15.5434   -137.8378     12.5190     83.0410
  1311.5000    763.1747     15.6551   -138.0590     12.7211     82.7892
  1311.7500    765.0445     15.6786   -138.4441     12.9518     83.3816
  1312.0000    765.0082     15.6183   -138.9492     13.2089     84.1674
  1312.2500    763.1711     15.5112   -139.5182     13.4940     83.8453
  1312.5000    760.1305     15.4185   -140.0822     13.8038     82.1723
  1312.7500    756.8290     15.4062   -140.5533     14.1253     81.2231
  1313.0000    754.1378     15.5192   -140.8333     14.4378     81.9353
  1313.2500    752.4393     15.7605   -140.8350     14.7236     84.2761
  1313.5000    751.4519     16.0887   -140.5077     14.9788     89.8367
  1313.7500    750.4839     16.4375   -139.8689     15.2184     94.0305
  1314.0000    748.8923     16.7476   -139.0180     15.4706     99.6252
  1314.2500    746.3212     16.9914   -138.1227     15.7572    102.2110
  1314.5000    742.9036     17.1785   -137.3857     16.0683    103.4932
  1314.7500    739.7671     17.3445   -136.9966     16.3525    102.4946
  1315.0000    738.9438     17.5311   -137.0796     16.5423     99.0143
  1315.2500    741.6534     17.7697   -137.6568     16.6132     96.1495
  1315.5000    746.5014     18.0744   -138.6459     16.6243     91.9710
  1315.7500    750.3882     18.4439   -139.8763     16.6996     89.4277
  1316.0000    751.4530     18.8692   -141.1306     16.9688     86.1248
  1316.2500    750.3889     19.3366   -142.1979     17.5099     84.4572
  1316.5000    749.1718     19.8230   -142.9142     18.3127     82.9111
  1316.7500    749.6478     20.2882   -143.1918     19.2612     82.2667
  1317.0000    753.0093     20.6767   -143.0261     20.1550     80.9965
  1317.2500    759.0491     20.9348   -142.4841     20.7924     79.5025
  1317.5000    765.4707     21.0367   -141.6735     21.0791     76.2904
  1317.7500    769.0435     21.0016   -140.7073     21.0615     74.0368
  1318.0000    768.2656     20.8858   -139.6788     20.8565     71.6509
  1318.2500    764.6650     20.7526   -138.6431     20.5691     70.9232
  1318.5000    761.1146     20.6411   -137.6232     20.2638     70.2756
  1318.7500    759.1184     20.5546   -136.6265     19.9803     69.4789
  1319.0000    758.1021     20.4717   -135.6662     19.7445     67.5256
  1319.2500    756.9385     20.3678   -134.7753     19.5612     66.1576
  1319.5000    755.4045     20.2330   -134.0151     19.4057     64.7896
  1319.7500    754.1378     20.0788   -133.4533     19.2335     64.4737
  1320.0000    753.7877     19.9322   -133.1498     19.0121     64.7778
  1320.2500    754.5566     19.8223   -133.1306     18.7507     65.3665
  1320.5000    756.3925     19.7696   -133.3781     18.4998     66.3882
  1320.7500    759.2319     19.7817   -133.8387     18.3166     66.8480
  1321.0000    762.7282     19.8569   -134.4363     18.2264     67.1828
  1321.2500    765.7900     19.9876   -135.0877     18.2115     67.5401
  1321.5000    766.8285     20.1611   -135.7195     18.2340     68.5895
  1321.7500    764.9606     20.3576   -136.2656     18.2694     69.1638
  1322.0000    760.9977     20.5531   -136.6678     18.3205     68.6416
  1322.2500    756.8214     20.7237   -136.8656     18.4019     67.2397
  1322.5000    753.8391     20.8502   -136.8059     18.5181     64.5555
  1322.7500    752.5833     20.9182   -136.4450     18.6547     63.1016
