~Version Information
VERS.                      2.0: CWLS Log ASCII Standard - VERSION 2.0
WRAP.                       NO: One line per depth step
~Well Information Block
STRT.FT               811.0000: 
STOP.FT              2507.0000: 
STEP.FT                 0.1000: 
NULL.                -999.2500: 
COMP.          Petrogulf Corporation: COMPANY
WELL.               YWAM 7-32V: WELL
FLD.           Purgatoire River: FIELD
LOC.           2423' FNL & 2412' FEL: LOCATION
PROV.                 Colorado: PROVINCE
CNTY.               Las Animas: COUNTRY
SRVC.                Patterson: SERVICE COMPANY
DATE.          Mon Dec 15 07:18:47 2003: LOG DATE
UWI.                          : UNIQUE WELL ID
~Curve Information Block
DEPT.FT            0 000 00 00: Depth
DCAL.in                       : CDL Caliper
RHOB.g/cc                     : CDL Bulk Density
RHOC.g/cc                     : CDL Density Correction
DPOR.pu                       : CDL Density Porosity
NPOR.pu                       : Neutron Porosity
GR.GAPI                       : Gamma Ray
~Parameter Information Block
~A  Depth       DCAL        RHOB        RHOC        DPOR        NPOR         GR     
# ...
  2049.4000      8.4934      2.3467      0.0720     18.3816     26.4740    154.9120
  2049.5000      8.4984      2.3573      0.0677     17.7368     25.9337    151.9918
  2049.6000      8.4984      2.3682      0.0618     17.0800     24.9379    139.6977
  2049.7000      8.4984      2.3884      0.0681     15.8560     24.5359    127.6443
  2049.8000      8.5179      2.4097      0.0746     14.5660     24.8074    128.6858
  2049.9000      8.5179      2.4083      0.0538     14.6474     25.0438    142.4084
  2050.0000      8.5244      2.3742      0.0058     16.7147     25.2083    155.5288
  2050.1000      8.5244      2.3169      0.0101     20.1893     25.5638    155.6918
  2050.2000      8.5244      2.2487     -0.0052     24.3193     25.9592    148.1787
  2050.3000      8.5191      2.1840     -0.0430     28.2441     26.5250    146.6388
  2050.4000      8.5191      2.1380     -0.0540     31.0317     27.5193    151.9710
  2050.5000      8.5385      2.1211     -0.0787     32.0545     28.4526    156.2099
  2050.6000      8.5385      2.1353      0.0036     31.1967     28.8966    156.6741
  2050.7000      8.5385      2.1755      0.0528     28.7553     28.7230    153.5948
  2050.8000      8.6091      2.2384      0.1582     24.9484     27.7866    148.0164
  2050.9000      8.6091      2.3174      0.2876     20.1553     26.5131    142.2828
  2051.0000      8.7419      2.4014      0.3486     15.0685     25.6971    136.3929
  2051.1000      8.7419      2.4759      0.3962     10.5535     25.4479    130.2914
  2051.2000      8.7419      2.5298      0.3605      7.2858     25.4464    123.1945
  2051.3000      8.7521      2.5653      0.3698      5.1311     25.4161    116.0971
  2051.4000      8.7521      2.5804      0.3799      4.2180     25.1890    113.4660
  2051.5000      8.7738      2.5698      0.2316      4.8587     24.9356    114.3704
  2051.6000      8.7738      2.5511      0.1775      5.9915     24.7383    114.9218
  2051.7000      8.7738      2.5420      0.1902      6.5457     24.2860    115.8550
  2051.8000      8.5354      2.5382      0.1564      6.7746     23.5915    121.7240
  2051.9000      8.5354      2.5312      0.1199      7.2000     23.1870    131.4845
  2052.0000      8.2556      2.5231      0.0700      7.6935     23.0538    136.7567
  2052.1000      8.2556      2.5169      0.0851      8.0692     22.7201    135.2338
  2052.2000      8.2556      2.5029      0.0610      8.9133     22.4820    132.2813
  2052.3000      8.2456      2.4775      0.0267     10.4569     22.9493    126.8439
  2052.4000      8.2456      2.4578      0.0213     11.6513     24.0195    118.6059
  2052.5000      8.2377      2.4576      0.0444     11.6612     25.0483    114.0025
  2052.6000      8.2377      2.4663      0.0566     11.1310     25.4731    115.2367
  2052.7000      8.2377      2.4712      0.0530     10.8354     25.1936    121.0631
  2052.8000      8.2393      2.4726      0.0586     10.7539     24.5896    126.0330
  2052.9000      8.2393      2.4721      0.0404     10.7846     24.2141    124.5681
  2053.0000      8.2274      2.4686      0.0513     10.9955     24.0536    117.6956
  2053.1000      8.2274      2.4656      0.0454     11.1755     23.7849    110.4151
  2053.2000      8.2274      2.4736      0.0103     10.6935     23.4298    107.6057
  2053.3000      8.2274      2.4938      0.0763      9.4692     23.1194    108.4957
  2053.4000      8.2274      2.5122      0.0554      8.3490     23.0616    109.9840
  2053.5000      8.2296      2.5196      0.0450      7.9019     23.3120    109.8877
  2053.6000      8.2296      2.5177      0.0488      8.0171     23.8008    106.1100
  2053.7000      8.2296      2.5169      0.0222      8.0693     24.4710    100.3348
  2053.8000      8.2291      2.5240      0.0614      7.6379     24.7266     99.1200
  2053.9000      8.2291      2.5276      0.0747      7.4164     23.9571    103.3092
  2054.0000      8.2284      2.5203      0.0408      7.8620     22.5053    103.6836
  2054.1000      8.2284      2.5105      0.0515      8.4538     21.2611     99.0232
  2054.2000      8.2284      2.5076      0.0483      8.6289     20.6886     97.9821
  2054.3000      8.2296      2.5164      0.0385      8.0968     20.7509     98.4232
  2054.4000      8.2296      2.5329      0.0289      7.0944     21.0643     91.1815
  2054.5000      8.2329      2.5432      0.0621      6.4722     21.2281     79.6079
  2054.6000      8.2329      2.5441      0.0247      6.4181     21.2392     73.8473
  2054.7000      8.2329      2.5482      0.0286      6.1715     21.1258     75.7479
  2054.8000      8.2246      2.5531      0.0916      5.8704     20.9097     76.1537
  2054.9000      8.2246      2.5503      0.0568      6.0410     20.8624     68.4125
  2055.0000      8.2168      2.5480      0.0628      6.1832     21.0528     58.8991
  2055.1000      8.2168      2.5487      0.0503      6.1394     21.2218     56.4416
  2055.2000      8.2168      2.5448      0.0587      6.3731     21.2447     61.8963
  2055.3000      8.2230      2.5363      0.0428      6.8904     21.2756     70.8413
  2055.4000      8.2230      2.5240      0.0558      7.6339     21.5043     78.6002
  2055.5000      8.2253      2.5076      0.0045      8.6306     21.8269     82.3825
  2055.6000      8.2253      2.4977     -0.0131      9.2307     21.9599     81.3110
  2055.7000      8.2253      2.4988      0.0296      9.1626     22.0321     76.7525
  2055.8000      8.2253      2.4997      0.0062      9.1110     22.0156     73.3174
  2055.9000      8.2253      2.4968      0.0146      9.2868     21.6904     71.9253
  2056.0000      8.2265      2.4982      0.0007      9.1984     21.4717     69.6121
  2056.1000      8.2265      2.5127      0.0354      8.3206     21.5711     69.0055
  2056.2000      8.2265      2.5375      0.0381      6.8212     21.3511     72.5378
  2056.3000      8.2431      2.5558      0.0861      5.7120     20.3150     74.7356
  2056.4000      8.2431      2.5544      0.0483      5.7956     18.7533     73.3748
  2056.5000      8.2284      2.5449      0.0339      6.3703     17.4257     72.0510
  2056.6000      8.2284      2.5419      0.0614      6.5520     16.6692     72.6170
  2056.7000      8.2284      2.5412      0.0343      6.5927     16.2462     71.1627
  2056.8000      8.2228      2.5402      0.0315      6.6526     16.2253     64.5695
  2056.9000      8.2228      2.5429      0.0592      6.4915     16.7454     58.5600
  2057.0000      8.2150      2.5502      0.0443      6.0474     17.3698     56.0005
  2057.1000      8.2150      2.5617      0.0166      5.3503     17.6147     53.1976
  2057.2000      8.2150      2.5725      0.0624      4.6993     17.4175     53.0358
  2057.3000      8.2223      2.5750      0.0496      4.5431     16.9163     56.9300
  2057.4000      8.2223      2.5706      0.0372      4.8133     15.8617     59.1386
  2057.5000      8.1960      2.5643      0.0532      5.1928     14.4488     60.8309
  2057.6000      8.1960      2.5563      0.0159      5.6780     13.6809     65.9305
  2057.7000      8.1960      2.5450      0.0155      6.3644     14.1626     68.8487
  2057.8000      8.2148      2.5339      0.0255      7.0382     15.4762     63.3354
  2057.9000      8.2148      2.5290      0.0401      7.3309     16.6011     53.6183
  2058.0000      8.2203      2.5311      0.0352      7.2090     16.8863     49.2145
  2058.1000      8.2203      2.5381      0.0318      6.7812     16.4949     51.2061
  2058.2000      8.2203      2.5500      0.0854      6.0615     16.1333     54.3602
  2058.3000      8.2187      2.5661      0.0431      5.0850     16.4015     56.3316
  2058.4000      8.2187      2.5816      0.1074      4.1452     16.9779     55.2403
  2058.5000      8.2244      2.5858      0.0685      3.8911     17.0968     53.0366
  2058.6000      8.2244      2.5799      0.0709      4.2458     16.9550     55.3517
  2058.7000      8.2244      2.5743      0.0570      4.5852     17.1315     59.7269
  2058.8000      8.2233      2.5728      0.0695      4.6801     17.2153     60.8048
  2058.9000      8.2233      2.5716      0.0533      4.7538     16.5834     61.7873
