~Version Information
VERS.                      2.0: CWLS Log ASCII Standard - VERSION 2.0
WRAP.                       NO: One line per depth step
~Well Information Block
STRT.FT               745.2500: 
STOP.FT              2003.5000: 
STEP.FT                 0.2500: 
NULL.                -999.2500: 
COMP.          Petrogulf Corporation: COMPANY
WELL.            Montoya 6-14V: WELL
FLD.           Purgatorie River: FIELD
LOC.           318' FSL & 882' FWL: LOCATION
CNTY.               Las Animas: COUNTY
SRVC.                         : SERVICE COMPANY
DATE.          Fri Aug 13 04:55:06 2004: LOG DATE
UWI.           05 071 08020 00: UNIQUE WELL ID
STAT.                 Colorado: STATE
~Curve Information Block
DEPT.FT            0 000 00 00: Depth
SP.mV                         : DIL Spontaneous Potential
RILD.Ohm-m                    : DIL Deep Resistivity
RILM.Ohm-m                    : DIL Medium Resistivity
RLL3.Ohm-m                    : DIL Shallow Resistivity
GR.GAPI                       : Gamma Ray
~Parameter Information Block
~A  Depth        SP         RILD        RILM        RLL3         GR     
# ...
  1165.2500     -2.8806     25.8142     28.5494     36.5933     95.9238
  1165.5000     -2.8264     25.8005     28.9455     38.7138     96.6809
  1165.7500     -2.7582     25.4638     29.1928     41.0913     98.0756
  1166.0000     -2.6708     24.8707     29.2216     43.0424    101.0224
  1166.2500     -2.5612     24.1259     28.9770     44.1301    103.1121
  1166.5000     -2.4294     23.3308     28.4330     44.2336    106.0976
  1166.7500     -2.2783     22.5575     27.6006     43.4423    108.1380
  1167.0000     -2.1135     21.8471     26.5271     41.9122    111.7451
  1167.2500     -1.9426     21.2164     25.2879     39.7850    114.6618
  1167.5000     -1.7739     20.6678     23.9711     37.1787    119.5983
  1167.7500     -1.6157     20.1958     22.6629     34.2150    122.8737
  1168.0000     -1.4749     19.7906     21.4366     31.0458    126.9590
  1168.2500     -1.3564     19.4408     20.3461     27.8637    128.9110
  1168.5000     -1.2618     19.1339     19.4258     24.8877    131.1238
  1168.7500     -1.1893     18.8570     18.6929     22.3260    132.6667
  1169.0000     -1.1335     18.5965     18.1513     20.3372    135.5757
  1169.2500     -1.0849     18.3398     17.7947     19.0123    137.6616
  1169.5000     -1.0306     18.0785     17.6099     18.3946    140.1796
  1169.7500     -0.9557     17.8124     17.5767     18.5354    141.1834
  1170.0000     -0.8447     17.5517     17.6686     19.5601    141.6175
  1170.2500     -0.6842     17.3140     17.8523     21.6956    140.9557
  1170.5000     -0.4646     17.1173     18.0876     25.1880    137.2523
  1170.7500     -0.1823     16.9740     18.3300     30.0712    132.1264
  1171.0000      0.1591     16.8876     18.5358     35.8714    120.5936
  1171.2500      0.5492     16.8538     18.6686     41.4704    111.9454
  1171.5000      0.9717     16.8648     18.7073     45.3616    101.7297
  1171.7500      1.4067     16.9118     18.6494     46.2819     98.6472
  1172.0000      1.8336     16.9860     18.5094     43.8679    100.2055
  1172.2500      2.2341     17.0767     18.3124     38.8833    104.3908
  1172.5000      2.5945     17.1682     18.0850     32.8492    112.9151
  1172.7500      2.9062     17.2393     17.8483     27.3411    118.7455
  1173.0000      3.1661     17.2641     17.6140     23.3977    125.8026
  1173.2500      3.3746     17.2184     17.3847     21.3085    128.5669
  1173.5000      3.5346     17.0891     17.1576     20.7456    129.3649
  1173.7500      3.6511     16.8817     16.9290     21.0532    128.2512
  1174.0000      3.7308     16.6214     16.6982     21.5434    126.4611
  1174.2500      3.7823     16.3453     16.4702     21.7225    126.6394
  1174.5000      3.8165     16.0911     16.2548     21.4056    129.4885
  1174.7500      3.8447     15.8862     16.0639     20.6922    131.8365
  1175.0000      3.8769     15.7446     15.9084     19.8355    133.0558
  1175.2500      3.9206     15.6667     15.7959     19.0868    131.6754
  1175.5000      3.9785     15.6431     15.7291     18.5970    127.8623
  1175.7500      4.0494     15.6578     15.7063     18.3945    125.7598
  1176.0000      4.1280     15.6915     15.7226     18.4174    125.0582
  1176.2500      4.2068     15.7240     15.7711     18.5657    126.0860
  1176.5000      4.2771     15.7372     15.8445     18.7504    128.0711
  1176.7500      4.3305     15.7185     15.9346     18.9263    128.6354
  1177.0000      4.3596     15.6639     16.0325     19.1030    127.8057
  1177.2500      4.3590     15.5792     16.1278     19.3330    126.4310
  1177.5000      4.3254     15.4777     16.2079     19.6831    123.6071
  1177.7500      4.2576     15.3741     16.2591     20.1981    121.1963
  1178.0000      4.1568     15.2782     16.2686     20.8678    116.5667
  1178.2500      4.0259     15.1914     16.2274     21.6079    112.8069
  1178.5000      3.8687     15.1079     16.1336     22.2646    106.7435
  1178.7500      3.6892     15.0189     15.9932     22.6502    103.2140
  1179.0000      3.4908     14.9177     15.8196     22.6050    100.4354
  1179.2500      3.2757     14.8033     15.6295     22.0666    100.9424
  1179.5000      3.0451     14.6807     15.4394     21.1089    105.0892
  1179.7500      2.7998     14.5587     15.2613     19.9252    109.4167
  1180.0000      2.5413     14.4454     15.1006     18.7591    116.8500
  1180.2500      2.2730     14.3433     14.9555     17.8243    121.6757
  1180.5000      2.0001     14.2461     14.8183     17.2519    127.3494
  1180.7500      1.7296     14.1395     14.6783     17.0738    129.3362
  1181.0000      1.4689     14.0072     14.5252     17.2266    129.1532
  1181.2500      1.2248     13.8393     14.3529     17.5611    127.3118
  1181.5000      1.0026     13.6383     14.1615     17.8713    123.2458
  1181.7500      0.8054     13.4199     13.9577     17.9551    120.4457
  1182.0000      0.6353     13.2073     13.7539     17.6949    117.4830
  1182.2500      0.4945     13.0236     13.5654     17.1087    117.1210
  1182.5000      0.3866     12.8865     13.4071     16.3338    119.6391
  1182.7500      0.3168     12.8052     13.2916     15.5556    122.8825
  1183.0000      0.2913     12.7796     13.2272     14.9350    128.1452
  1183.2500      0.3144     12.8013     13.2176     14.5785    130.9622
  1183.5000      0.3854     12.8554     13.2620     14.5475    133.9044
  1183.7500      0.4964     12.9251     13.3559     14.8765    135.2847
  1184.0000      0.6326     12.9974     13.4925     15.5727    136.2401
  1184.2500      0.7760     13.0674     13.6635     16.5958    135.5666
  1184.5000      0.9111     13.1401     13.8604     17.8354    132.2474
  1184.7500      1.0300     13.2258     14.0752     19.1138    129.1301
  1185.0000      1.1335     13.3348     14.3006     20.2259    124.9904
  1185.2500      1.2292     13.4707     14.5297     21.0056    123.4557
  1185.5000      1.3253     13.6292     14.7556     21.3806    123.1961
  1185.7500      1.4256     13.8001     14.9707     21.3885    123.7859
  1186.0000      1.5262     13.9706     15.1662     21.1466    124.5434
  1186.2500      1.6166     14.1293     15.3332     20.7970    124.6419
  1186.5000      1.6828     14.2691     15.4634     20.4504    124.2857
  1186.7500      1.7122     14.3874     15.5516     20.1518    123.7099
  1187.0000      1.6968     14.4867     15.5970     19.8752    121.9990
  1187.2500      1.6355     14.5731     15.6047     19.5506    120.3492
  1187.5000      1.5337     14.6525     15.5849     19.1097    118.4012
  1187.7500      1.4020     14.7255     15.5505     18.5314    118.6856
  1188.0000      1.2532     14.7838     15.5141     17.8677    122.8775
  1188.2500      1.1002     14.8109     15.4854     17.2385    127.6770
  1188.5000      0.9540     14.7880     15.4680     16.7972    134.6638
  1188.7500      0.8216     14.7021     15.4593     16.6815    137.1031
  1189.0000      0.7062     14.5532     15.4505     16.9647    136.3025
  1189.2500      0.6074     14.3542     15.4285     17.6255    133.9188
  1189.5000      0.5220     14.1262     15.3790     18.5407    130.5385
  1189.7500      0.4454     13.8917     15.2895     19.5048    129.4448
  1190.0000      0.3730     13.6695     15.1528     20.2774    129.4829
  1190.2500      0.3011     13.4726     14.9685     20.6535    130.0821
  1190.5000      0.2281     13.3067     14.7430     20.5319    131.1418
  1190.7500      0.1549     13.1704     14.4876     19.9449    131.7904
  1191.0000      0.0850     13.0539     14.2161     19.0313    132.5665
  1191.2500      0.0241     12.9406     13.9417     17.9714    132.9940
  1191.5000     -0.0210     12.8108     13.6747     16.9338    133.7716
  1191.7500     -0.0430     12.6470     13.4215     16.0553    134.3421
  1192.0000     -0.0364     12.4405     13.1846     15.4393    134.2456
  1192.2500      0.0021     12.1956     12.9633     15.1389    132.7675
  1192.5000      0.0727     11.9283     12.7553     15.1276    128.5992
  1192.7500      0.1722     11.6621     12.5581     15.2913    125.8714
  1193.0000      0.2948     11.4209     12.3705     15.4679    124.5074
