~Version Information
VERS.                      2.0: CWLS Log ASCII Standard - VERSION 2.0
WRAP.                       NO: One line per depth step
~Well Information Block
STRT.FT                 0.0000: 
STOP.FT              1439.5000: 
STEP.FT                 0.2500: 
NULL.                -999.2500: 
COMP.          Petrogulf Corporation: COMPANY
WELL.          Robinson 15-12R: WELL
FLD.           Purgatorie River: FIELD
LOC.           1752' FNL & 561' FWL: LOCATION
PROV.                 Colorado: PROVINCE
CNTY.               Las Animas: COUNTRY
SRVC.                Patterson: SERVICE COMPANY
DATE.          Tue Oct 04 09:17:52 2005: LOG DATE
UWI.                          : UNIQUE WELL ID
~Curve Information Block
DEPT.FT            0 000 00 00: Depth
GR.GAPI                       : Gamma Ray
CCL.                          : Casing Collar Locator
TT3.usec                      : CBL 3' Travel Time
AMP3.mV                       : CBL 3' Amplitude
~Parameter Information Block
~A  Depth        GR         CCL         TT3         AMP3    
# ...
  1306.5000    103.4218      0.0000    707.2844      2.9005
  1306.7500     97.0065      0.0000    709.1350      2.7696
  1307.0000     93.6822      0.0000    714.9238      2.6412
  1307.2500     93.4898      0.0000    731.6669      2.5518
  1307.5000     95.4744      0.0000    755.6519      2.5211
  1307.7500     98.4571      0.0000    771.8572      2.6027
  1308.0000    101.5536      0.0000    769.6887      2.8277
  1308.2500    104.2209      0.0000    754.8474      3.1673
  1308.5000    106.2700     -2.0000    741.6162      3.5538
  1308.7500    107.9556     -2.0000    735.5012      3.8893
  1309.0000    109.8082      0.0000    731.8959      4.1070
  1309.2500    112.1156      0.0000    724.7861      4.2656
  1309.5000    114.4824      0.0000    711.8358      4.5596
  1309.7500    116.0431      0.0000    699.7113      5.1405
  1310.0000    116.2733      0.0000    698.8068      5.8661
  1310.2500    115.4919      0.0000    709.4304      6.4245
  1310.5000    114.4675      0.0000    720.8219      6.6760
  1310.7500    113.7055      0.0000    724.1718      6.6680
  1311.0000    113.2298      0.0000    720.2905      6.4942
  1311.2500    112.8869      0.0000    710.7156      6.2314
  1311.5000    112.6938      0.0000    693.3917      5.9277
  1311.7500    112.8146      0.0000    673.4448      5.6428
  1312.0000    113.2329      0.0000    660.4336      5.4602
  1312.2500    113.6413      0.0000    656.4460      5.4263
  1312.5000    113.6447      0.0000    659.8738      5.4999
  1312.7500    112.8659      0.0000    672.0956      5.6024
  1313.0000    111.0050      0.0000    693.2273      5.7100
  1313.2500    108.3026      0.0000    716.1053      5.8455
  1313.5000    105.9704      0.0000    731.4728      6.0067
  1313.7500    105.5252      0.0000    733.6015      6.1699
  1314.0000    107.3089      0.0000    720.7437      6.3330
  1314.2500    109.9980      0.0000    700.3470      6.4967
  1314.5000    111.7902      0.0000    689.5424      6.6292
  1314.7500    111.8282      0.0000    697.5553      6.6935
  1315.0000    110.4232      0.0000    712.7963      6.7024
  1315.2500    108.3370      0.0000    718.9025      6.7045
  1315.5000    106.0897      0.0000    712.9936      6.6963
  1315.7500    103.7124      0.0000    700.1484      6.5967
  1316.0000    101.0105      0.0000    685.6232      6.3446
  1316.2500     98.1471      0.0000    676.7617      5.9868
  1316.5000     95.6938      0.0000    677.8321      5.6380
  1316.7500     93.7729      0.0000    685.8873      5.3778
  1317.0000     91.5509      0.0000    696.7665      5.2066
  1317.2500     88.1386      0.0000    706.2336      5.0802
  1317.5000     83.7028      0.0000    710.1514      4.9640
  1317.7500     79.1857      0.0000    709.2425      4.8527
  1318.0000     75.1973      0.0000    707.0422      4.7506
  1318.2500     71.6516      0.0000    705.2315      4.6440
  1318.5000     68.2716      0.0000    705.2351      4.5064
  1318.7500     64.9987      0.0000    708.8408      4.3285
  1319.0000     61.9370      0.0000    712.7207      4.1209
  1319.2500     59.2853      0.0000    709.3968      3.8865
  1319.5000     57.4687      0.0000    698.7917      3.6131
  1319.7500     57.2028      0.0000    689.2366      3.2817
  1320.0000     59.3004      0.0000    685.4770      2.8768
  1320.2500     64.3309      0.0000    685.9830      2.4169
  1320.5000     72.2875      0.0000    689.2502      1.9511
  1320.7500     82.1489      0.0000    696.2755      1.5261
  1321.0000     91.5117      0.0000    710.6441      1.1822
  1321.2500     97.1590      0.0000    737.2171      0.9428
  1321.5000     96.9569      0.0000    775.8829      0.7933
  1321.7500     91.7337      0.0000    811.9548      0.7068
  1322.0000     85.1221      0.0000    820.5613      0.6800
  1322.2500     81.2470      0.0000    794.9319      0.7298
  1322.5000     82.3847      0.0000    759.0267      0.8738
  1322.7500     88.2587      0.0000    739.0046      1.1147
  1323.0000     96.8411      0.0000    740.6525      1.4394
  1323.2500    105.7692      0.0000    760.2195      1.8524
  1323.5000    113.4733      0.0000    791.8442      2.3794
  1323.7500    119.4778      0.0000    819.2299      3.0120
  1324.0000    124.1977      0.0000    824.7470      3.7025
  1324.2500    128.6533      0.0000    810.0733      4.4074
  1324.5000    133.7983      0.0000    790.6340      5.0915
  1324.7500    139.5653      0.0000    776.3123      5.7809
  1325.0000    144.8031      0.0000    766.8766      6.6197
  1325.2500    148.3728      0.0000    758.8512      7.7788
  1325.5000    149.8430      0.0000    751.4540      9.3304
  1325.7500    148.9195      0.0000    744.0878     11.2558
  1326.0000    144.8875      0.0000    728.4688     13.5552
  1326.2500    137.2994      0.0000    685.4647     16.3033
  1326.5000    127.1152      0.0000    599.7062     19.5666
  1326.7500    116.6995      0.0000    486.7242     23.3112
  1327.0000    108.5759      0.0000    388.5963     27.3854
  1327.2500    104.2230      0.0000    331.7181     31.5190
  1327.5000    103.6182      0.0000    308.4058     35.3850
  1327.7500    105.3226      0.0000    298.3948     38.7156
  1328.0000    107.1708      0.0000    289.2879     41.3356
  1328.2500    107.5310      0.0000    280.1454     43.0800
  1328.5000    106.1461      0.0000    276.0496     43.7689
  1328.7500    103.7675      0.0000    279.8993     43.3694
  1329.0000    101.2602      0.0000    288.4727     42.1233
  1329.2500     99.1858      0.0000    296.0919     40.4170
  1329.5000     97.8395      0.0000    300.2187     38.5593
  1329.7500     97.3626      0.0000    302.1186     36.6709
  1330.0000     97.8910      0.0000    304.4806     34.6789
  1330.2500     99.5382      0.0000    311.7421     32.3770
  1330.5000    102.0095      0.0000    334.0793     29.5530
  1330.7500    104.3986      0.0000    389.2194     26.1181
  1331.0000    105.7690      0.0000    488.0556     22.1895
  1331.2500    105.9170      0.0000    608.6439     18.1769
  1331.5000    105.1230      0.0000    704.1557     14.6416
  1331.7500    103.1761      0.0000    749.2761     11.8643
  1332.0000     99.4396      0.0000    757.8120      9.7342
  1332.2500     94.2688      0.0000    755.7415      8.0748
  1332.5000     89.6525      0.0000    756.7974      6.8288
  1332.7500     87.8310      0.0000    761.6596      5.9753
  1333.0000     89.5505      0.0000    767.9196      5.4704
  1333.2500     93.8173      0.0000    774.0385      5.2679
  1333.5000     98.7608      0.0000    777.0425      5.3066
  1333.7500    102.5791      0.0000    775.4629      5.4873
  1334.0000    104.4559      0.0000    773.2071      5.7334
  1334.2500    104.9782      0.0000    774.0156      6.0556
  1334.5000    105.3547      0.0000    775.8303      6.5000
  1334.7500    106.1151      0.0000    776.7031      7.0510
  1335.0000    106.8528      0.0000    781.2497      7.5974
  1335.2500    107.1459      0.0000    793.9987      7.9937
  1335.5000    107.1459      0.0000    809.9458      8.1422
  1335.7500    106.9859      0.0000    818.8464      8.0129
  1336.0000    106.2261      0.0000    816.4377      7.6396
  1336.2500    104.4910      0.0000    807.3253      7.1050
  1336.5000    102.4398      0.0000    798.7513      6.5009
  1336.7500    101.5215      0.0000    794.0141      5.9112
  1337.0000    102.7019      0.0000    792.1988      5.4092
  1337.2500    105.7430      0.0000    791.5048      5.0326
  1337.5000    109.7675      0.0000    790.4429      4.7670
  1337.7500    114.2250      0.0000    786.5559      4.5694
  1338.0000    119.0776      0.0000    776.0393      4.4020
  1338.2500    124.1435      0.0000    758.2822      4.2448
  1338.5000    128.4527      0.0000    739.9901      4.1002
  1338.7500    130.2844      0.0000    727.0096      3.9978
  1339.0000    127.9964      0.0000    717.0184      3.9692
  1339.2500    121.3549      0.0000    709.4026      4.0115
  1339.5000    112.4925      0.0000    707.4256      4.0847
  1339.7500    105.2525      0.0000    705.7682      4.1436
