~Version Information
VERS.                      2.0: CWLS Log ASCII Standard - VERSION 2.0
WRAP.                       NO: One line per depth step
~Well Information Block
STRT.FT                -8.0000: 
STOP.FT              1357.5000: 
STEP.FT                 0.2500: 
NULL.                -999.2500: 
COMP.          Pioneer Natural Resources: COMPANY
WELL.          Lorencito 6-3-34-66: WELL
FLD.           Purgatorie River: FIELD
LOC.           2545' FNL & 1914' FWL: LOCATION
STAT.                       CO: State
CNTY.               Las Animas: COUNTY
CTRY. USA : Country
SECT. 3 : Section
TOWN. 34S : Township
RANG. 66W : Range
SRVC.          Patterson Wireline: SERVICE COMPANY
DATE.          Tue Sep 27 11:36:13 2005: LOG DATE
API.           05 071 08369 00: UNIQUE WELL ID
~Curve Information Block
DEPT.FT            0 000 00 00: Depth
CCL.                          : Casing Collar Locator
TT3.usec                      : CBL 3' Travel Time
AMP3.mV                       : CBL 3' Amplitude
GR.GAPI                       : Gamma Ray
~Parameter Information Block
~A  Depth       CCL         TT3         AMP3         GR     
# ...
   963.5000      0.0000    688.6877      4.5602     92.2726
   963.7500      0.0000    676.2060      4.5988     95.6082
   964.0000      0.0000    668.9462      4.6462     98.3778
   964.2500      0.0000    665.8011      4.6996    100.5427
   964.5000      0.0000    665.6573      4.7570    101.6158
   964.7500      0.0000    667.9334      4.8168    101.3978
   965.0000      0.0000    671.9590      4.8780    100.9172
   965.2500      0.0000    676.0990      4.9426    102.0053
   965.5000      0.0000    678.2263      5.0156    105.4206
   965.7500      0.0000    677.7712      5.0971    109.6256
   966.0000      0.0000    677.0464      5.1807    111.7612
   966.2500      0.0000    679.8878      5.2595    109.7912
   966.5000      0.0000    688.6909      5.3336    103.8045
   966.7500      0.0000    702.2131      5.4072     95.6126
   967.0000      0.0000    715.3906      5.4811     87.3371
   967.2500      0.0000    721.6252      5.5505     80.3505
   967.5000      0.0000    717.0427      5.6089     75.1342
   967.7500      0.0000    703.6391      5.6506     71.4117
   968.0000      0.0000    687.8032      5.6737     68.3620
   968.2500      0.0000    675.3718      5.6806     65.2593
   968.5000      0.0000    668.2917      5.6804     62.0523
   968.7500      0.0000    665.2932      5.6882     59.3200
   969.0000      0.0000    664.3458      5.7190     57.9414
   969.2500      0.0000    664.1379      5.7782     58.6889
   969.5000      0.0000    664.1215      5.8552     61.4291
   969.7500      0.0000    664.0488      5.9292     64.4948
   970.0000      0.0000    663.6704      5.9815     65.5173
   970.2500      0.0000    662.7400      6.0027     63.3743
   970.5000      0.0000    661.2516      5.9938     59.1653
   970.7500      0.0000    659.6732      5.9638     55.1535
   971.0000      0.0000    658.7833      5.9255     52.8746
   971.2500      0.0000    658.9901      5.8898     52.1571
   971.5000      0.0000    659.8136      5.8639     51.8722
   971.7500      0.0000    660.1541      5.8494     51.6776
   972.0000      0.0000    659.1077      5.8388     52.6321
   972.2500      0.0000    656.7141      5.8180     55.7496
   972.5000      0.0000    654.1972      5.7791     60.5354
   972.7500      0.0000    653.2351      5.7325     65.4518
   973.0000      0.0000    654.4709      5.7019     69.0707
   973.2500      0.0000    656.7174      5.7027     70.2605
   973.5000      0.0000    657.9331      5.7265     68.2142
   973.7500      0.0000    657.0189      5.7461     63.2152
   974.0000      0.0000    654.5999      5.7361     57.0014
   974.2500      0.0000    652.1097      5.6896     51.7885
   974.5000      0.0000    650.2133      5.6206     48.9212
   974.7500      0.0000    648.3707      5.5545     48.3486
   975.0000      0.0000    645.9377      5.5155     49.0553
   975.2500      0.0000    643.1481      5.5160     49.9440
   975.5000      0.0000    640.7258      5.5544     50.4792
   975.7500      0.0000    638.9304      5.6222     50.6907
   976.0000      0.0000    637.2586      5.7094     50.7632
   976.2500      0.0000    634.9835      5.8024     50.8612
   976.5000      0.0000    632.1178      5.8790     51.4127
   976.7500      0.0000    629.9182      5.9117     53.2256
   977.0000      0.0000    629.9064      5.8808     56.7875
   977.2500      0.0000    632.0579      5.7857     61.2970
   977.5000      0.0000    634.6431      5.6456     64.7311
   977.7500      0.0000    636.0927      5.4876     65.2875
   978.0000      0.0000    636.0971      5.3338     62.8710
   978.2500      0.0000    634.5981      5.1954     59.0959
   978.5000      0.0000    630.9542      5.0745     56.0415
   978.7500      0.0000    625.1772      4.9728     55.1632
   979.0000      0.0000    619.6116      4.8964     57.0061
   979.2500      0.0000    618.0731      4.8516     61.3283
   979.5000      0.0000    622.5687      4.8381     67.2925
   979.7500      0.0000    631.5132      4.8486     73.8157
   980.0000      0.0000    641.5324      4.8720     79.9570
   980.2500      0.0000    650.0168      4.8948     85.1952
   980.5000      0.0000    655.5622      4.9024     89.4181
   980.7500      0.0000    657.3647      4.8833     92.4670
   981.0000      0.0000    655.4081      4.8365     93.6798
   981.2500      0.0000    651.0838      4.7737     92.1874
   981.5000      0.0000    646.8821      4.7132     87.8225
   981.7500      0.0000    644.8674      4.6703     81.7011
   982.0000      0.0000    645.3777      4.6514     75.8419
   982.2500      0.0000    647.4058      4.6549     72.0014
   982.5000      0.0000    650.0630      4.6713     70.6042
   982.7500      0.0000    653.1585      4.6824     70.7170
   983.0000      0.0000    656.4164      4.6634     71.1805
   983.2500      0.0000    658.7908      4.5933     71.7443
   983.5000      0.0000    658.8667      4.4765     73.0724
   983.7500      0.0000    656.0100      4.3561     75.8608
   984.0000      0.0000    651.6234      4.2831     80.1077
   984.2500      0.0000    649.6684      4.2602     85.0389
   984.5000      0.0000    655.1197      4.2348     89.4299
   984.7500      0.0000    670.4285      4.1696     92.1165
   985.0000      0.0000    692.6685      4.0956     92.5915
   985.2500      0.0000    714.2964      4.0713     91.3021
   985.5000      0.0000    727.5839      4.1080     89.3841
   985.7500     -2.0000    729.5159      4.1591     88.2065
   986.0000      0.0000    722.7601      4.1685     89.0367
   986.2500      0.0000    711.8044      4.1205     92.6104
   986.5000      0.0000    699.2068      4.0542     98.6626
   986.7500      0.0000    686.3937      4.0283    105.9353
   987.0000      0.0000    676.0181      4.0601    112.8118
   987.2500      0.0000    670.8087      4.1067    118.1229
   987.5000      0.0000    670.4977      4.1294    121.5517
   987.7500      0.0000    671.8752      4.1558    123.2498
   988.0000      0.0000    672.0186      4.2501    123.1758
   988.2500      0.0000    670.4700      4.4297    121.1742
   988.5000      0.0000    668.4424      4.6386    117.7214
   988.7500      0.0000    667.0140      4.8006    114.0568
   989.0000      0.0000    666.4030      4.8817    111.2091
   989.2500      0.0000    666.3235      4.8997    109.0575
   989.5000      0.0000    666.4559      4.8920    106.6013
   989.7500      0.0000    666.5865      4.8824    103.1044
   990.0000      0.0000    666.5357      4.8760     98.7688
   990.2500      0.0000    665.9745      4.8745     94.3817
   990.5000      0.0000    664.0002      4.8878     90.7654
   990.7500      0.0000    658.3865      4.9272     88.7274
   991.0000      0.0000    645.1884      4.9906     88.9510
   991.2500      0.0000    620.2767      5.0608     91.3230
   991.5000      0.0000    583.1333      5.1184     94.6412
   991.7500      0.0000    539.6750      5.1533     97.4864
   992.0000      0.0000    500.1059      5.1679     99.1799
   992.2500      0.0000    473.1740      5.1710     99.5246
   992.5000      0.0000    462.8588      5.1711     98.1956
   992.7500      0.0000    469.8079      5.1721     95.1212
   993.0000      0.0000    493.2892      5.1727     91.0292
   993.2500      0.0000    530.0103      5.1692     86.7673
   993.5000      0.0000    572.1332      5.1609     82.2946
   993.7500      0.0000    608.7327      5.1524     76.9354
   994.0000      0.0000    630.1159      5.1509     70.5276
   994.2500      0.0000    631.0543      5.1591     64.1112
   994.5000      0.0000    612.3499      5.1713     59.5815
   994.7500      0.0000    582.4390      5.1770     58.4716
   995.0000      0.0000    556.2542      5.1697     60.6707
   995.2500      0.0000    547.1677      5.1532     64.3902
   995.5000      0.0000    557.2923      5.1382     67.7173
   995.7500      0.0000    577.1858      5.1355     70.2480
   996.0000      0.0000    595.3516      5.1492     73.0477
   996.2500      0.0000    606.3628      5.1776     77.0174
   996.5000      0.0000    610.8676      5.2166     81.4483
   996.7500      0.0000    611.4120      5.2636     84.3144
