~Version Information
VERS.                      2.0: CWLS Log ASCII Standard - VERSION 2.0
WRAP.                       NO: One line per depth step
~Well Information Block
STRT.FT               964.2000: 
STOP.FT              2596.7000: 
STEP.FT                 0.1000: 
NULL.                -999.2500: 
COMP.          Petrogulf Corporation: COMPANY
WELL.             Valejo 8-12V: WELL
FLD.           Purgatorie River: FIELD
LOC.           1510' FNL & 1460' FWL: LOCATION
CNTY.               Las Animas: COUNTY
SRVC.                         : SERVICE COMPANY
DATE.          Sat Nov 15 12:30:37 2003: LOG DATE
UWI.                          : UNIQUE WELL ID
STAT.                 Colorado: STATE
~Curve Information Block
DEPT.FT            0 000 00 00: Depth
DCAL.in                       : CDL Caliper
RHOB.g/cc                     : CDL Bulk Density
RHOC.g/cc                     : CDL Density Correction
DPOR.pu                       : CDL Density Porosity
GR.GAPI                       : Gamma Ray
NPOR.pu                       : Neutron Porosity
~Parameter Information Block
~A  Depth       DCAL        RHOB        RHOC        DPOR         GR         NPOR    
# ...
   983.4000   -999.2500   -999.2500   -999.2500   -999.2500     82.6603   -999.2500
   983.5000   -999.2500   -999.2500   -999.2500   -999.2500     79.9760   -999.2500
   983.6000   -999.2500   -999.2500   -999.2500   -999.2500     84.1501   -999.2500
   983.7000   -999.2500   -999.2500   -999.2500   -999.2500     89.4866   -999.2500
   983.8000   -999.2500   -999.2500   -999.2500   -999.2500     85.8678   -999.2500
   983.9000   -999.2500   -999.2500   -999.2500   -999.2500     78.0045   -999.2500
   984.0000   -999.2500   -999.2500   -999.2500   -999.2500     75.0871   -999.2500
   984.1000   -999.2500   -999.2500   -999.2500   -999.2500     80.1720   -999.2500
   984.2000   -999.2500   -999.2500   -999.2500   -999.2500     87.1709   -999.2500
   984.3000   -999.2500   -999.2500   -999.2500   -999.2500     88.6076   -999.2500
   984.4000   -999.2500   -999.2500   -999.2500   -999.2500     89.3942   -999.2500
   984.5000   -999.2500   -999.2500   -999.2500   -999.2500     94.3750   -999.2500
   984.6000   -999.2500   -999.2500   -999.2500   -999.2500     95.9956   -999.2500
   984.7000   -999.2500   -999.2500   -999.2500   -999.2500     91.5878   -999.2500
   984.8000   -999.2500   -999.2500   -999.2500   -999.2500     88.5200   -999.2500
   984.9000   -999.2500   -999.2500   -999.2500   -999.2500     90.4333   -999.2500
   985.0000   -999.2500   -999.2500   -999.2500   -999.2500     93.4119   -999.2500
   985.1000   -999.2500   -999.2500   -999.2500   -999.2500     93.1418   -999.2500
   985.2000   -999.2500   -999.2500   -999.2500   -999.2500     89.7680   -999.2500
   985.3000   -999.2500   -999.2500   -999.2500   -999.2500     85.4604   -999.2500
   985.4000   -999.2500   -999.2500     -0.2182   -999.2500     81.7188   -999.2500
   985.5000   -999.2500   -999.2500     -0.2258   -999.2500     79.2368   -999.2500
   985.6000   -999.2500   -999.2500     -0.2599   -999.2500     78.4561   -999.2500
   985.7000   -999.2500   -999.2500     -0.2706   -999.2500     80.1058   -999.2500
   985.8000   -999.2500   -999.2500     -0.2506   -999.2500     83.7098   -999.2500
   985.9000   -999.2500      2.1471     -0.3537     30.4764     86.0416   -999.2500
   986.0000   -999.2500      2.1191     -0.2467     32.1752     83.2190   -999.2500
   986.1000   -999.2500      2.0970     -0.3007     33.5141     78.1765   -999.2500
   986.2000   -999.2500      2.0821     -0.3495     34.4165     76.2810   -999.2500
   986.3000   -999.2500      2.0894     -0.3090     33.9761     75.8084   -999.2500
   986.4000   -999.2500      2.1166     -0.2802     32.3253     74.3231   -999.2500
   986.5000   -999.2500      2.1555     -0.3105     29.9669     72.8829   -999.2500
   986.6000   -999.2500      2.2063     -0.2721     26.8887     72.6988     36.9544
   986.7000   -999.2500      2.2703     -0.2825     23.0140     73.2293     37.0404
   986.8000   -999.2500      2.3354     -0.2360     19.0647     72.2486     36.9420
   986.9000   -999.2500      2.3757     -0.2213     16.6264     70.6495     37.1080
   987.0000      9.0152      2.3936     -0.3010     15.5419     71.3829     37.2510
   987.1000      9.0152      2.4246     -0.2520     13.6603     73.8783     36.7194
   987.2000      9.0152      2.4720     -0.1828     10.7885     74.7427     35.6419
   987.3000      9.0156      2.5060     -0.1926      8.7277     72.2982     34.4324
   987.4000      9.0156      2.5294     -0.2492      7.3094     69.7164     33.3243
   987.5000      9.0156      2.5651     -0.1833      5.1428     72.3208     32.2581
   987.6000      9.0156      2.5964     -0.1299      3.2494     76.1811     30.8168
   987.7000      9.0156      2.5955     -0.1466      3.3014     75.1904     29.4512
   987.8000      9.0146      2.5756     -0.2085      4.5066     71.2504     29.1078
   987.9000      9.0146      2.5663     -0.1988      5.0721     67.6979     29.9024
   988.0000      9.0127      2.5750     -0.2022      4.5471     66.6998     31.1705
   988.1000      9.0127      2.5973     -0.2326      3.1918     67.9785     31.6747
   988.2000      9.0127      2.6296     -0.1726      1.2351     68.9768     30.4821
   988.3000      9.0109      2.6625     -0.1869     -0.7572     69.3824     28.7058
   988.4000      9.0109      2.6918     -0.2036     -2.5343     71.0804     27.8769
   988.5000      9.0103      2.7182     -0.1801     -4.1323     73.1466     27.6292
   988.6000      9.0103      2.7337     -0.1547     -5.0743     71.3137     27.2908
   988.7000      9.0103      2.7273     -0.1228     -4.6850     64.8265     26.9147
   988.8000      9.0114      2.7060     -0.2098     -3.3966     57.1243     26.6656
   988.9000      9.0114      2.6964     -0.2229     -2.8123     50.9505     26.7677
   989.0000      9.0133      2.7039     -0.2265     -3.2689     49.3989     26.8727
   989.1000      9.0133      2.7088     -0.2003     -3.5620     52.0831     26.6273
   989.2000      9.0133      2.7026     -0.1520     -3.1863     52.9438     26.5548
   989.3000      9.0153      2.7047     -0.2162     -3.3137     49.3497     26.6905
   989.4000      9.0153      2.7253     -0.1579     -4.5629     46.9246     26.7850
   989.5000      9.0169      2.7370     -0.1257     -5.2750     49.9087     26.7695
   989.6000      9.0169      2.7255     -0.1784     -4.5742     55.5086     26.4332
   989.7000      9.0169      2.7077     -0.1290     -3.4950     58.7307     25.7839
   989.8000      9.0183      2.6958     -0.1857     -2.7756     57.2740     25.2710
   989.9000      9.0183      2.6931     -0.1869     -2.6105     54.5252     25.3558
   990.0000      9.0197      2.6945     -0.2042     -2.6963     54.1359     25.8857
   990.1000      9.0197      2.6942     -0.2018     -2.6809     55.0720     26.7607
   990.2000      9.0197      2.6919     -0.1595     -2.5394     55.8134     28.0819
   990.3000      9.0211      2.6795     -0.1963     -1.7901     55.6158     29.0515
   990.4000      9.0211      2.6547     -0.2056     -0.2831     55.4617     29.2367
   990.5000      9.0225      2.6357     -0.1837      0.8650     55.3209     29.2390
   990.6000      9.0225      2.6416     -0.1894      0.5097     53.1976     29.3213
   990.7000      9.0225      2.6617     -0.1080     -0.7106     52.1888     29.4580
   990.8000      9.0235      2.6662     -0.1393     -0.9843     55.3315     29.3801
   990.9000      9.0235      2.6563     -0.1842     -0.3832     57.9634     29.0866
   991.0000      9.0238      2.6487     -0.1444      0.0760     56.3709     29.3219
   991.1000      9.0238      2.6409     -0.1492      0.5540     55.5092     30.0743
   991.2000      9.0238      2.6402     -0.2295      0.5958     59.5155     30.1645
   991.3000      9.0233      2.6642     -0.1899     -0.8595     63.0041     29.5119
   991.4000      9.0233      2.6975     -0.1267     -2.8779     61.1690     29.2017
   991.5000      9.0223      2.7092     -0.1017     -3.5903     58.7208     29.2615
   991.6000      9.0223      2.7046     -0.2456     -3.3102     57.9253     28.8866
   991.7000      9.0223      2.6961     -0.1281     -2.7963     55.7563     28.3129
   991.8000      9.0211      2.6595     -0.1539     -0.5774     51.6760     28.5431
   991.9000      9.0211      2.5962     -0.2439      3.2620     48.9353     29.5702
   992.0000      9.0199      2.5474     -0.2253      6.2188     50.0066     30.0276
   992.1000      9.0199      2.5253     -0.1916      7.5579     52.2756     29.5260
   992.2000      9.0199      2.5072     -0.1550      8.6565     51.0658     29.2409
   992.3000      9.0186      2.4848     -0.2083     10.0139     48.1079     29.4684
   992.4000      9.0186      2.4782     -0.2051     10.4140     49.7931     29.9466
   992.5000      9.0177      2.4897     -0.1604      9.7142     57.7886     30.5328
   992.6000      9.0177      2.4936     -0.1280      9.4770     67.6930     30.7066
   992.7000      9.0177      2.4832     -0.1791     10.1118     75.5226     30.8014
   992.8000      9.0175      2.4740     -0.1782     10.6640     81.3222     31.3270
   992.9000      9.0175      2.4700     -0.1784     10.9084     85.2564     31.9025
