~Version Information
VERS.                      2.0: CWLS Log ASCII Standard - VERSION 2.0
WRAP.                       NO: One line per depth step
~Well Information Block
STRT.FT               840.0000: 
STOP.FT              2268.0000: 
STEP.FT                 0.2500: 
NULL.                -999.2500: 
COMP.          Pioneer Natural Resources: COMPANY
WELL.              Tonto 42-23: WELL
FLD.           Purgatoire River: FIELD
LOC.           2217' FNL & 423' FEL: LOCATION
PROV.                 Colorado: PROVINCE
CNTY.               Las Animas: COUNTRY
SRVC.                Patterson: SERVICE COMPANY
DATE.          Sun Apr 17 01:24:47 2005: LOG DATE
UWI.           05 071 08335 00: UNIQUE WELL ID
~Curve Information Block
DEPT.FT            0 000 00 00: Depth
SN.Ohm-m                      : IEL Short Normal
SP.mV                         : IEL Spontaneous Potential
DIR.Ohm-m                     : IEL Induction Resistivity
GR.GAPI                       : Gamma Ray
~Parameter Information Block
~A  Depth        SN          SP         DIR          GR     
# ...
  2046.0000     12.1342     41.7639     10.5080     82.5435
  2046.2500     13.0695     41.3373     11.0186     81.4367
  2046.5000     13.8942     40.8409     11.5525     80.0065
  2046.7500     14.4914     40.3071     12.1203     79.3845
  2047.0000     14.8885     39.7567     12.7336     78.8658
  2047.2500     15.1510     39.1943     13.4049     78.7262
  2047.5000     15.3755     38.6236     14.1467     79.0419
  2047.7500     15.6259     38.0652     14.9635     79.7726
  2048.0000     15.8563     37.5572     15.8376     81.4647
  2048.2500     16.0249     37.1326     16.7215     82.5834
  2048.5000     16.1819     36.7991     17.5474     83.5805
  2048.7500     16.3973     36.5375     18.2537     83.6875
  2049.0000     16.6715     36.3162     18.8088     83.2588
  2049.2500     16.9271     36.1083     19.2120     82.7507
  2049.5000     17.0943     35.9034     19.4773     81.7840
  2049.7500     17.1741     35.7071     19.6215     81.0233
  2050.0000     17.2227     35.5295     19.6640     79.6563
  2050.2500     17.2938     35.3722     19.6310     78.5203
  2050.5000     17.4056     35.2197     19.5544     76.5251
  2050.7500     17.5675     35.0366     19.4645     75.2416
  2051.0000     17.8097     34.7712     19.3841     74.0460
  2051.2500     18.1797     34.3702     19.3288     74.0835
  2051.5000     18.7077     33.7972     19.3084     75.6060
  2051.7500     19.3528     33.0478     19.3248     77.4287
  2052.0000     19.9980     32.1554     19.3687     80.7915
  2052.2500     20.5256     31.1838     19.4211     83.1414
  2052.5000     20.8580     30.2057     19.4611     86.5023
  2052.7500     20.9383     29.2772     19.4733     88.5573
  2053.0000     20.7639     28.4290     19.4453     91.4223
  2053.2500     20.4378     27.6806     19.3638     93.2443
  2053.5000     20.1082     27.0622     19.2195     95.5353
  2053.7500     19.8444     26.6198     19.0194     96.1894
  2054.0000     19.6046     26.3997     18.7943     94.5832
  2054.2500     19.3375     26.4308     18.5882     91.4236
  2054.5000     19.0902     26.7122     18.4404     84.4488
  2054.7500     19.0080     27.2097     18.3733     79.6379
  2055.0000     19.2211     27.8609     18.3893     74.5781
  2055.2500     19.7443     28.5897     18.4746     73.3593
  2055.5000     20.4798     29.3257     18.5996     74.3687
  2055.7500     21.2856     30.0219     18.7185     76.1022
  2056.0000     22.0284     30.6647     18.7752     78.9383
  2056.2500     22.5637     31.2726     18.7196     80.6541
  2056.5000     22.7527     31.8820     18.5300     83.0945
  2056.7500     22.5975     32.5271     18.2219     84.7153
  2057.0000     22.3021     33.2271     17.8369     86.8055
  2057.2500     22.0971     33.9851     17.4197     87.6620
  2057.5000     21.9950     34.7987     17.0020     87.9836
  2057.7500     21.8150     35.6732     16.6020     87.6982
  2058.0000     21.4258     36.6264     16.2304     86.6369
  2058.2500     20.8050     37.6783     15.8941     85.3548
  2058.5000     19.9369     38.8330     15.5932     82.3062
  2058.7500     18.8226     40.0681     15.3190     79.6401
  2059.0000     17.5332     41.3402     15.0587     75.4207
  2059.2500     16.2006     42.6001     14.8062     73.0851
  2059.5000     15.0463     43.8085     14.5683     71.3429
  2059.7500     14.3626     44.9481     14.3607     71.6347
  2060.0000     14.2965     46.0251     14.2005     73.6802
  2060.2500     14.7054     47.0602     14.1003     75.3460
  2060.5000     15.3113     48.0723     14.0671     77.2764
  2060.7500     15.9141     49.0668     14.0998     78.1408
  2061.0000     16.4169     50.0355     14.1877     79.3058
  2061.2500     16.7987     50.9653     14.3102     80.1725
  2061.5000     17.1248     51.8473     14.4420     81.4524
  2061.7500     17.4567     52.6778     14.5611     82.1365
  2062.0000     17.7928     53.4525     14.6565     82.8970
  2062.2500     18.1277     54.1603     14.7303     83.3690
  2062.5000     18.4333     54.7848     14.7915     84.2340
  2062.7500     18.6479     55.3127     14.8449     84.8658
  2063.0000     18.7609     55.7483     14.8850     85.6066
  2063.2500     18.8260     56.1193     14.9021     85.8936
  2063.5000     18.8582     56.4705     14.8952     86.3054
  2063.7500     18.7916     56.8446     14.8782     86.7986
  2064.0000     18.6024     57.2618     14.8699     87.8953
  2064.2500     18.3858     57.7078     14.8794     88.6990
  2064.5000     18.2430     58.1420     14.8978     89.8320
  2064.7500     18.1450     58.5239     14.9020     90.4704
  2065.0000     17.9582     58.8393     14.8694     90.7293
  2065.2500     17.5998     59.1089     14.7926     89.9460
  2065.5000     17.1163     59.3729     14.6844     87.0409
  2065.7500     16.5607     59.6650     14.5699     84.3877
  2066.0000     15.8938     59.9951     14.4729     80.6036
  2066.2500     15.1006     60.3492     14.4087     78.7694
  2066.5000     14.3154     60.7003     14.3869     77.4173
  2066.7500     13.7855     61.0201     14.4172     77.4461
  2067.0000     13.7378     61.2862     14.5126     78.6640
  2067.2500     14.2698     61.4864     14.6856     80.0482
  2067.5000     15.3106     61.6218     14.9403     82.6283
  2067.7500     16.5980     61.7064     15.2647     84.4762
  2068.0000     17.7636     61.7596     15.6259     86.8423
  2068.2500     18.5589     61.7938     15.9743     87.6798
  2068.5000     18.9591     61.8080     16.2576     87.3321
  2068.7500     19.0627     61.7888     16.4422     86.1422
  2069.0000     19.0106     61.7178     16.5272     83.6326
  2069.2500     18.9815     61.5783     16.5434     81.9745
  2069.5000     19.0988     61.3620     16.5369     80.2776
  2069.7500     19.3150     61.0714     16.5504     79.9654
  2070.0000     19.4828     60.7193     16.6098     80.6845
  2070.2500     19.5088     60.3283     16.7181     81.5958
  2070.5000     19.3848     59.9291     16.8548     82.7413
  2070.7500     19.1641     59.5556     16.9821     82.9319
  2071.0000     18.9730     59.2338     17.0573     82.0499
  2071.2500     18.9294     58.9757     17.0458     80.8229
  2071.5000     19.0219     58.7779     16.9301     78.7574
  2071.7500     19.1180     58.6247     16.7104     77.7521
  2072.0000     19.0818     58.4883     16.4041     77.4001
  2072.2500     18.8913     58.3308     16.0463     78.0114
  2072.5000     18.6417     58.1109     15.6894     79.8876
  2072.7500     18.4273     57.7934     15.3953     81.3721
  2073.0000     18.2514     57.3586     15.2193     83.1525
  2073.2500     18.0878     56.8090     15.1937     83.8287
  2073.5000     17.9486     56.1723     15.3181     84.4146
  2073.7500     17.7797     55.4952     15.5592     84.8773
  2074.0000     17.4416     54.8288     15.8633     85.8615
  2074.2500     16.9272     54.2112     16.1743     86.3847
  2074.5000     16.4536     53.6603     16.4499     85.9098
  2074.7500     16.2803     53.1802     16.6711     84.2157
  2075.0000     16.5215     52.7794     16.8453     79.5840
  2075.2500     17.1526     52.4844     17.0017     75.7178
  2075.5000     18.1168     52.3333     17.1785     70.2441
  2075.7500     19.2980     52.3546     17.4051     67.4285
  2076.0000     20.4466     52.5523     17.6909     64.6712
  2076.2500     21.3022     52.9102     18.0282     63.6317
  2076.5000     21.7611     53.4040     18.4045     63.0422
  2076.7500     21.8552     54.0063     18.8093     63.3588
  2077.0000     21.6734     54.6850     19.2311     65.2007
  2077.2500     21.3669     55.4021     19.6446     67.4726
  2077.5000     21.0883     56.1162     20.0013     72.2829
  2077.7500     20.8451     56.7865     20.2347     75.9829
  2078.0000     20.5052     57.3785     20.2843     81.0386
  2078.2500     19.9604     57.8743     20.1281     83.4135
  2078.5000     19.2717     58.2813     19.8001     85.0953
  2078.7500     18.6665     58.6290     19.3752     85.2712
  2079.0000     18.3473     58.9543     18.9323     85.1625
  2079.2500     18.3301     59.2806     18.5249     85.3593
