~Version Information
VERS.                      2.0: CWLS Log ASCII Standard - VERSION 2.0
WRAP.                       NO: One line per depth step
~Well Information Block
STRT.FT                -9.7500: 
STOP.FT              2374.2500: 
STEP.FT                 0.2500: 
NULL.                -999.2500: 
COMP.          Pioneer Natural Resources: COMPANY
WELL.            Chevron 13-13: WELL
FLD.           Purgatorie River: FIELD
LOC.           1560' FSL & 711' FWL--: LOCATION
CNTY.               Las Animas: COUNTY
SRVC.          Superior Well Services: SERVICE COMPANY
DATE.          Wed Apr 11 08:47:55 2007: LOG DATE
UWI.           05 071 08319 00: UNIQUE WELL ID
STAT.                       CO: STATE
~Curve Information Block
DEPT.FT            0 000 00 00: Depth
CCL.                          : Casing Collar Locator
TT3.usec                      : CBL 3' Travel Time
AMP3.mV                       : CBL 3' Amplitude
GR.GAPI                       : Gamma Ray
~Parameter Information Block
~A  Depth       CCL         TT3         AMP3         GR     
# ...
  1564.7500      0.0000    571.7307      3.3781    102.5521
  1565.0000      0.0000    594.3428      3.4342     96.2913
  1565.2500      0.0000    622.9020      3.4834     89.5603
  1565.5000      0.0000    646.3275      3.5352     84.7131
  1565.7500      0.0000    660.5681      3.5887     82.9966
  1566.0000      0.0000    668.7856      3.6360     84.2941
  1566.2500      0.0000    674.7133      3.6697     87.9433
  1566.5000      0.0000    677.4813      3.6887     93.5316
  1566.7500      0.0000    673.8210      3.6973    101.0287
  1567.0000      0.0000    663.8327      3.7028    110.5720
  1567.2500      0.0000    652.2193      3.7136    122.0707
  1567.5000      0.0000    642.5958      3.7368    134.5291
  1567.7500      0.0000    631.4827      3.7748    145.9564
  1568.0000      0.0000    610.0988      3.8242    154.6479
  1568.2500      0.0000    573.4636      3.8790    160.3615
  1568.5000      0.0000    527.1596      3.9350    163.6122
  1568.7500      0.0000    484.1332      3.9903    164.1990
  1569.0000      0.0000    455.5740      4.0427    161.2016
  1569.2500      0.0000    446.1538      4.0902    154.3003
  1569.5000      0.0000    456.0184      4.1350    144.5204
  1569.7500      0.0000    482.8786      4.1856    133.5459
  1570.0000      0.0000    520.2442      4.2503    122.6488
  1570.2500      0.0000    556.3155      4.3267    112.5414
  1570.5000      0.0000    578.6661      4.3996    103.8979
  1570.7500      0.0000    581.6422      4.4540     97.5684
  1571.0000      0.0000    569.0521      4.4895     94.4164
  1571.2500      0.0000    550.1804      4.5207     94.9934
  1571.5000      0.0000    534.2208      4.5649     98.8984
  1571.7500      0.0000    527.5867      4.6317    104.2968
  1572.0000      0.0000    532.5186      4.7230    108.5110
  1572.2500      0.0000    544.9987      4.8356    109.4817
  1572.5000      0.0000    555.7079      4.9618    106.9255
  1572.7500      0.0000    557.2392      5.0936    102.4172
  1573.0000      0.0000    550.6535      5.2257     98.4312
  1573.2500      0.0000    542.3380      5.3509     96.8204
  1573.5000      0.0000    535.1797      5.4557     97.7236
  1573.7500      0.0000    526.4996      5.5274     99.8697
  1574.0000      0.0000    514.3655      5.5689    101.9366
  1574.2500      0.0000    501.9376      5.6009    103.2990
  1574.5000      0.0000    494.4024      5.6457    103.5728
  1574.7500      0.0000    494.0877      5.7109    102.3549
  1575.0000      0.0000    499.8267      5.7870    100.0149
  1575.2500      0.0000    509.0835      5.8577     98.1405
  1575.5000      0.0000    518.3917      5.9099     98.3599
  1575.7500      0.0000    522.1591      5.9363    100.8794
  1576.0000      0.0000    514.3932      5.9315    104.7733
  1576.2500      0.0000    494.2546      5.8874    109.3980
  1576.5000      0.0000    468.8620      5.7960    114.5566
  1576.7500      0.0000    448.7078      5.6555    119.3604
  1577.0000      0.0000    440.6420      5.4727    122.1284
  1577.2500      0.0000    445.3573      5.2646    121.7764
  1577.5000      0.0000    459.4253      5.0603    118.5544
  1577.7500      0.0000    477.9501      4.8965    113.2935
  1578.0000      0.0000    495.7960      4.8009    106.6417
  1578.2500      0.0000    508.7758      4.7725     99.2985
  1578.5000      0.0000    516.7479      4.7789     92.5719
  1578.7500      0.0000    526.0206      4.7735     88.1978
  1579.0000      0.0000    545.2307      4.7232     87.3868
  1579.2500      0.0000    576.5811      4.6239     90.1828
  1579.5000      0.0000    612.9634      4.4895     95.9059
  1579.7500      0.0000    644.3371      4.3299    104.0047
  1580.0000      0.0000    665.1492      4.1473    114.1248
  1580.2500      0.0000    676.1251      3.9517    125.4035
  1580.5000      0.0000    681.4639      3.7695    136.0296
  1580.7500      0.0000    685.0602      3.6311    143.9436
  1581.0000      0.0000    688.4650      3.5497    148.2790
  1581.2500      0.0000    691.3670      3.5135    149.9193
  1581.5000      0.0000    693.1594      3.4918    150.2414
  1581.7500      0.0000    693.7031      3.4514    149.5961
  1582.0000      0.0000    693.1771      3.3732    147.5867
  1582.2500      0.0000    691.9051      3.2600    144.5833
  1582.5000      0.0000    690.3700      3.1329    142.1588
  1582.7500      0.0000    689.1345      3.0195    141.8365
  1583.0000      0.0000    688.5695      2.9384    143.6076
  1583.2500      0.0000    688.7300      2.8902    145.5662
  1583.5000      0.0000    689.5698      2.8619    145.2482
  1583.7500      0.0000    691.1363      2.8396    142.0750
  1584.0000      0.0000    693.2529      2.8180    138.4179
  1584.2500      0.0000    695.0075      2.7999    137.5582
  1584.5000      0.0000    694.9761      2.7948    140.6014
  1584.7500      0.0000    692.3860      2.8207    145.7647
  1585.0000      0.0000    688.0808      2.9004    150.1299
  1585.2500      0.0000    684.1938      3.0482    151.5636
  1585.5000      0.0000    682.7197      3.2542    149.5950
  1585.7500      0.0000    684.1425      3.4816    145.4887
  1586.0000      0.0000    687.2670      3.6838    141.6705
  1586.2500      0.0000    690.3499      3.8307    140.5748
  1586.5000      0.0000    692.1165      3.9222    143.3376
  1586.7500      0.0000    691.3793      3.9788    148.9652
  1587.0000      0.0000    685.7363      4.0227    154.5205
  1587.2500      0.0000    671.4424      4.0647    156.6370
  1587.5000      0.0000    646.5175      4.1040    153.8356
  1587.7500      0.0000    615.7346      4.1334    147.8141
  1588.0000      0.0000    590.9068      4.1464    142.2063
  1588.2500      0.0000    582.5167      4.1418    139.7188
  1588.5000      0.0000    590.8813      4.1219    140.2540
  1588.7500      0.0000    608.2564      4.0889    141.5824
  1589.0000      0.0000    628.0903      4.0457    141.6960
  1589.2500      0.0000    648.2722      4.0023    140.4690
  1589.5000      0.0000    667.2408      3.9759    139.1501
  1589.7500      0.0000    682.1766      3.9783    138.6333
  1590.0000      0.0000    691.4183      4.0053    138.5828
  1590.2500      0.0000    695.8701      4.0419    138.2019
  1590.5000      0.0000    697.6054      4.0795    137.6000
  1590.7500      0.0000    698.2275      4.1220    138.1421
  1591.0000      0.0000    698.4813      4.1739    141.4277
  1591.2500      0.0000    698.5867      4.2260    148.0794
  1591.5000      0.0000    698.5231      4.2574    157.2648
  1591.7500      0.0000    698.0998      4.2520    166.6572
  1592.0000      0.0000    696.9218      4.2161    172.7634
  1592.2500      0.0000    694.5967      4.1775    172.5495
  1592.5000      0.0000    691.2837      4.1666    165.9036
  1592.7500      0.0000    688.1354      4.1952    156.0660
  1593.0000      0.0000    686.7596      4.2546    146.9193
  1593.2500      0.0000    687.7968      4.3318    140.2623
  1593.5000      0.0000    690.1321      4.4209    135.9927
  1593.7500      0.0000    691.5144      4.5167    133.7602
  1594.0000      0.0000    689.2541      4.6050    133.3624
  1594.2500      0.0000    679.9432      4.6679    134.0116
  1594.5000      0.0000    659.8554      4.6982    134.0963
  1594.7500      0.0000    628.4250      4.7055    131.6868
  1595.0000      0.0000    593.0167      4.7060    125.4306
  1595.2500      0.0000    568.3410      4.7074    115.7031
  1595.5000      0.0000    567.1556      4.7061    105.1720
  1595.7500      0.0000    589.9039      4.6957     97.8541
  1596.0000      0.0000    624.5476      4.6735     97.1150
  1596.2500      0.0000    656.5839      4.6390    103.9375
  1596.5000      0.0000    678.2645      4.5884    116.2507
  1596.7500      0.0000    689.6940      4.5142    129.7632
  1597.0000      0.0000    694.5626      4.4124    140.1578
  1597.2500      0.0000    696.3160      4.2903    145.3063
  1597.5000      0.0000    696.9152      4.1648    146.1608
  1597.7500      0.0000    697.1642      4.0508    146.0350
  1598.0000      0.0000    697.3083      3.9541    148.4532
