~Version Information
 VERS.                                  2.0 : CWLS LAS VERSION
 WRAP.                                   NO : WRAPING MODE
 SWARE .                 MController 2.5.0J : SOFTWARE VERSION
~Well Information
 WELL.                         State 16-12V : WELL
 COMP.                Petrogulf Corporation : COMPANY
 FLD.                      Purgatoire River : FIELD
 LOC.                       05-071-08016-00 : LOCATION
 DATE.                             08/03/05 : DATE(S) LOGGED
 SRVC.       BLANCO Geological Services LLC : SERVICE COMPANY
 STAT.                                   CO : STATE
 CNTY.                           Las Animas : COUNTY
 CTRY.                                  USA : COUNTRY
 API.                       05-071-08016-00 : API NUMBER
 STRT.FT                             611.00 : START DEPTH
 STOP.FT                            2155.00 : STOP DEPTH
 STEP.FT                               1.00 : DEPTH INCREMENT
 NULL.                                -9999 : NULL VALUE
~Curve information
 DEPTH.FT                                   :
 ROP.MIN/FT                                 :
 GAS.UNITS                                  :
~ASCII Log data
# ...
      1211.0         0.20          8.5 
      1212.0         0.20          8.5 
      1213.0         0.20          9.3 
      1214.0         0.22          9.7 
      1215.0         0.20          9.6 
      1216.0         0.17          9.0 
      1217.0         0.20          8.7 
      1218.0         0.20          9.3 
      1219.0         0.30          9.1 
      1220.0         0.20          8.4 
      1221.0         0.17          9.1 
      1222.0         0.20         11.6 
      1223.0         0.20         15.5 
      1224.0         0.20         19.4 
      1225.0         0.23         26.1 
      1226.0         2.35         28.0 
      1227.0         0.40          8.7 
      1228.0         0.40          8.1 
      1229.0         0.43          8.1 
      1230.0         0.37          7.8 
      1231.0         0.32          7.9 
      1232.0         0.30          7.7 
      1233.0         0.43          7.5 
      1234.0         0.30          7.4 
      1235.0         0.37          7.2 
      1236.0         0.33          7.5 
      1237.0         0.27          8.8 
      1238.0         0.37          9.1 
      1239.0         0.30          8.1 
      1240.0         0.32          7.5 
      1241.0         0.37          7.5 
      1242.0         0.40          8.3 
      1243.0         0.17          9.0 
      1244.0         0.20         10.8 
      1245.0         0.23         11.2 
      1246.0         0.20         10.5 
      1247.0         0.20          9.7 
      1248.0         0.13          8.2 
      1249.0         0.17          8.3 
      1250.0         0.30          7.9 
      1251.0         0.23         12.7 
      1252.0         0.27         21.7 
      1253.0         0.28         27.6 
      1254.0         0.30         30.1 
      1255.0         0.23         29.5 
      1256.0         1.30         25.5 
      1257.0         0.23          8.8 
      1258.0         0.30          8.0 
      1259.0         0.37          9.4 
      1260.0         0.42         10.3 
      1261.0         0.33         11.5 
      1262.0         0.30         11.2 
      1263.0         0.43         10.3 
      1264.0         0.27         10.3 
      1265.0         0.27         10.3 
      1266.0         0.20         10.9 
      1267.0         0.17         11.2 
      1268.0         0.33         11.1 
      1269.0         0.43         10.9 
      1270.0         0.25         11.6 
      1271.0         0.27         11.9 
      1272.0         0.27         11.1 
      1273.0         0.30         11.0 
      1274.0         0.30         11.7 
      1275.0         0.20         12.1 
      1276.0         0.27         12.8 
      1277.0         0.33         13.3 
      1278.0         0.40         13.4 
      1279.0         0.43         11.2 
      1280.0         0.32         15.1 
      1281.0         0.27         24.9 
      1282.0         0.30         40.2 
      1283.0         0.27         49.1 
      1284.0         0.17         49.1 
      1285.0         0.30         45.5 
      1286.0         8.95         36.3 
      1287.0         0.60         36.3 
      1288.0         0.43         35.1 
      1289.0         0.27         35.4 
      1290.0         0.33         34.9 
      1291.0         0.30         33.3 
      1292.0         0.27         31.6 
      1293.0         0.32         30.5 
      1294.0         0.27         30.5 
      1295.0         0.27         30.1 
      1296.0         0.27         30.2 
      1297.0         0.27         31.1 
      1298.0         0.37         32.1 
      1299.0         0.30         32.7 
      1300.0         0.33         36.2 
      1301.0         0.37         35.8 
      1302.0         0.27         34.0 
      1303.0         0.20         33.6 
      1304.0         0.20         33.5 
      1305.0         0.28         33.6 
      1306.0         0.17         29.8 
      1307.0         0.13         25.7 
      1308.0         0.30         23.9 
      1309.0         0.23         20.9 
      1310.0         0.30         25.1 
      1311.0         0.23         34.8 
      1312.0         0.20         48.0 
      1313.0         0.23         64.5 
      1314.0         0.23         85.9 
      1315.0         0.17        102.5 
      1316.0         2.12        119.6 
      1317.0         0.40         59.0 
      1318.0         0.30         60.6 
      1319.0         0.30         60.8 
      1320.0         0.33         60.7 
      1321.0         0.33         59.5 
      1322.0         0.37         58.7 
      1323.0         0.25         58.7 
      1324.0         0.27         58.6 
      1325.0         0.27         58.1 
      1326.0         0.27         57.0 
      1327.0         0.23         56.4 
      1328.0         0.23         56.9 
      1329.0         0.20         58.1 
      1330.0         0.17         58.2 
      1331.0         0.20         57.4 
      1332.0         0.23         55.5 
      1333.0         0.27         53.9 
      1334.0         0.20         51.6 
      1335.0         0.23         49.3 
      1336.0         0.20         48.3 
      1337.0         0.25         48.2 
      1338.0         0.27         47.2 
      1339.0         0.23         40.6 
      1340.0         0.30         32.1 
      1341.0         0.23         39.0 
      1342.0         0.30         58.9 
      1343.0         0.30         92.6 
      1344.0         0.37        152.5 
      1345.0         0.30        180.6 
      1346.0         1.72        180.5 
      1347.0         0.27         79.3 
      1348.0         0.37         78.6 
      1349.0         0.37         74.9 
      1350.0         0.37         69.9 
      1351.0         0.27         63.7 
      1352.0         0.33         62.1 
      1353.0         0.33         59.7 
      1354.0         0.55         59.1 
      1355.0         0.43         58.6 
      1356.0         0.30         55.6 
      1357.0         0.37         53.9 
      1358.0         0.30         54.1 
      1359.0         0.27         55.4 
      1360.0         0.37         55.5 
      1361.0         0.30         55.3 
      1362.0         0.33         54.5 
      1363.0         0.32         53.4 
      1364.0         0.27         52.7 
      1365.0         0.23         52.3 
      1366.0         0.23         52.3 
      1367.0         0.23         52.0 
      1368.0         0.20         51.7 
      1369.0         0.23         48.9 
      1370.0         0.20         38.1 
      1371.0         0.20         30.2 
      1372.0         0.20         28.9 
      1373.0         0.20         35.1 
      1374.0         0.23         49.9 
      1375.0         0.20         69.8 
      1376.0         2.45        166.8 
      1377.0         0.47         80.2 
      1378.0         0.38         74.4 
      1379.0         0.37         64.4 
      1380.0         0.27         56.8 
      1381.0         0.20         56.9 
      1382.0         0.30         57.2 
      1383.0         0.23         56.9 
      1384.0         0.17         56.4 
      1385.0         0.37         58.0 
      1386.0         0.30         57.8 
      1387.0         0.42         55.7 
      1388.0         0.37         52.3 
      1389.0         0.33         55.1 
      1390.0         0.27         56.7 
      1391.0         0.23         56.7 
      1392.0         0.20         55.8 
      1393.0         0.23         53.8 
      1394.0         0.20         47.7 
      1395.0         0.30         44.8 
      1396.0         0.30         48.8 
      1397.0         0.35         52.7 
      1398.0         0.30         54.2 
      1399.0         0.57         54.3 
      1400.0         0.57         45.3 
      1401.0         0.47         35.5 
      1402.0         0.37         56.8 
      1403.0         0.33         80.2 
      1404.0         0.33        115.9 
      1405.0         0.32        140.0 
      1406.0         1.30        140.4 
      1407.0         0.30         73.2 
      1408.0         0.33         75.3 
      1409.0         0.27         74.9 
      1410.0         0.30         72.5 
