~Version Information
VERS.                      2.0: CWLS Log ASCII Standard - VERSION 2.0
WRAP.                       NO: One line per depth step
~Well Information Block
STRT.FT               292.0000: 
STOP.FT               801.0000: 
STEP.FT                 0.1000: 
NULL.                -999.2500: 
COMP.          Pioneer Natural Resources: COMPANY
WELL.          HG Duran 34-27 Tr: WELL
FLD.           Purgatoire River: FIELD
LOC.           1076' FSL & 1465' FEL: LOCATION
PROV.                 Colorado: PROVINCE
CNTY.               Las Animas: COUNTRY
SRVC.                Patterson: SERVICE COMPANY
DATE.          Wed Apr 13 08:36:06 2005: LOG DATE
UWI.           05 071 08218 00: UNIQUE WELL ID
~Curve Information Block
DEPT.FT            0 000 00 00: Depth
DCAL.in                       : CDL Caliper
RHOB.g/cc                     : CDL Bulk Density
RHOC.g/cc                     : CDL Density Correction
DPOR.pu                       : CDL Density Porosity
GR.GAPI                       : Gamma Ray
NPOR.pu                       : Neutron Porosity
~Parameter Information Block
~A  Depth       DCAL        RHOB        RHOC        DPOR         GR         NPOR    
# ...
   493.6000      7.8919      2.5874      0.0821      3.7925    158.0814     26.7853
   493.7000      7.8919      2.6095      0.1001      2.4517    147.4116     26.7328
   493.8000      7.8880      2.6151      0.0694      2.1142    138.1348     26.6732
   493.9000      7.8880      2.6250     -0.0070      1.5143    131.8126     26.9219
   494.0000      7.8682      2.6477      0.0876      0.1402    123.4547     26.9949
   494.1000      7.8682      2.6611      0.0651     -0.6718    115.5982     26.4571
   494.2000      7.8682      2.6637      0.0869     -0.8280    114.8263     25.5994
   494.3000      7.8654      2.6628      0.0665     -0.7732    117.7102     24.6430
   494.4000      7.8654      2.6429      0.1183      0.4287    116.9072     23.9524
   494.5000      7.8577      2.5983     -0.0336      3.1340    109.8035     24.1587
   494.6000      7.8577      2.5535     -0.0352      5.8479     98.8077     24.7537
   494.7000      7.8577      2.5344     -0.0953      7.0044     89.7867     24.4963
   494.8000      7.8643      2.5440      0.0268      6.4218     86.6936     23.3063
   494.9000      7.8643      2.5633     -0.0452      5.2521     87.2334     21.8330
   495.0000      7.8681      2.5741      0.0507      4.5997     88.4905     20.5827
   495.1000      7.8681      2.5679      0.0349      4.9777     89.7716     19.8295
   495.2000      7.8681      2.5544      0.0139      5.7932     89.2326     19.3510
   495.3000      7.8640      2.5459      0.0607      6.3117     86.2278     18.8813
   495.4000      7.8640      2.5470      0.0539      6.2447     83.2859     18.6378
   495.5000      7.8607      2.5479      0.0838      6.1882     82.1872     18.7232
   495.6000      7.8607      2.5266      0.0659      7.4794     79.4838     18.8880
   495.7000      7.8607      2.4945      0.0199      9.4246     72.8371     18.8802
   495.8000      7.8471      2.4905      0.0317      9.6691     66.8908     18.6869
   495.9000      7.8471      2.5197      0.0449      7.8974     65.0797     18.3580
   496.0000      7.8445      2.5498      0.0775      6.0752     66.0919     18.1389
   496.1000      7.8445      2.5622      0.1019      5.3185     67.7296     18.2601
   496.2000      7.8445      2.5665      0.0939      5.0580     69.0516     18.4628
   496.3000      7.8519      2.5728      0.0626      4.6814     70.6741     18.4618
   496.4000      7.8519      2.5776      0.0490      4.3886     71.7090     18.2296
   496.5000      7.8481      2.5666      0.0727      5.0521     69.5900     17.6356
   496.6000      7.8481      2.5351      0.0154      6.9643     64.7222     16.8429
   496.7000      7.8481      2.4941      0.0478      9.4456     62.0607     16.5866
   496.8000      7.8442      2.4501      0.0131     12.1159     65.2687     17.0268
   496.9000      7.8442      2.4093      0.0235     14.5904     70.5346     17.3016
   497.0000      7.8459      2.3809     -0.0256     16.3102     72.0539     16.8246
   497.1000      7.8459      2.3752     -0.0272     16.6568     69.6816     16.2225
   497.2000      7.8459      2.3981     -0.0026     15.2664     66.5094     16.0458
   497.3000      7.8346      2.4405     -0.0318     12.6945     63.6460     16.1698
   497.4000      7.8346      2.4837      0.0070     10.0772     60.7284     16.3666
   497.5000      7.8336      2.5041      0.0413      8.8452     59.7908     16.4682
   497.6000      7.8336      2.4868      0.0143      9.8938     64.2177     16.5602
   497.7000      7.8336      2.4525      0.0381     11.9695     70.4072     16.8342
   497.8000      7.8513      2.4378     -0.0082     12.8588     71.0702     17.1153
   497.9000      7.8513      2.4453     -0.0178     12.4033     67.8994     17.1333
   498.0000      7.8694      2.4420      0.0162     12.6091     66.6216     16.9952
   498.1000      7.8694      2.4126      0.0380     14.3891     66.8522     17.0164
   498.2000      7.8694      2.3967     -0.0627     15.3502     65.5817     17.3305
   498.3000      7.8651      2.4291     -0.0002     13.3882     64.0013     17.7404
   498.4000      7.8651      2.4677      0.0765     11.0514     64.7832     18.0557
   498.5000      7.8532      2.4587      0.0528     11.5920     67.1694     18.1693
   498.6000      7.8532      2.4270     -0.0861     13.5149     70.3020     17.9984
   498.7000      7.8532      2.4202     -0.0564     13.9261     74.1511     17.7844
   498.8000      7.8548      2.4334     -0.0846     13.1285     77.4162     17.9478
   498.9000      7.8548      2.4482     -0.0369     12.2292     80.0040     18.3975
   499.0000      7.8573      2.4561      0.0109     11.7511     82.6763     18.6330
   499.1000      7.8573      2.4568     -0.0723     11.7072     83.9836     18.5585
   499.2000      7.8573      2.4616     -0.0014     11.4162     83.0334     18.3046
   499.3000      7.8561      2.4636     -0.0239     11.2983     81.9301     17.9881
   499.4000      7.8561      2.4524     -0.0021     11.9762     82.3342     17.9042
   499.5000      7.8610      2.4419     -0.0513     12.6096     84.6758     18.0850
   499.6000      7.8610      2.4416      0.0230     12.6305     87.6905     18.3605
   499.7000      7.8610      2.4398     -0.0091     12.7408     84.9554     18.8435
   499.8000      7.8525      2.4302      0.0241     13.3185     75.0982     19.3264
   499.9000      7.8525      2.4207      0.0088     13.8983     67.0560     19.4057
   500.0000      7.8429      2.4279      0.0266     13.4622     66.4749     19.4358
   500.1000      7.8429      2.4510      0.0081     12.0619     67.9002     19.5695
   500.2000      7.8429      2.4643      0.0302     11.2548     66.9799     19.4773
   500.3000      7.8332      2.4564     -0.0199     11.7348     67.7851     19.2062
   500.4000      7.8332      2.4474     -0.0178     12.2779     71.9765     18.9165
   500.5000      7.8335      2.4544      0.0021     11.8573     73.9732     18.7465
   500.6000      7.8335      2.4737      0.0257     10.6865     72.5032     18.9111
   500.7000      7.8335      2.4974     -0.0168      9.2460     74.9085     19.3664
   500.8000      7.8425      2.5184      0.0475      7.9781     82.9675     19.8173
   500.9000      7.8425      2.5290      0.0780      7.3343     88.7435     19.9787
   501.0000      7.8511      2.5317      0.0348      7.1706     87.7112     19.5709
   501.1000      7.8511      2.5297      0.0395      7.2884     82.9830     18.8235
   501.2000      7.8511      2.5144      0.0205      8.2209     79.2331     18.4866
   501.3000      7.8512      2.4892     -0.0702      9.7454     78.8852     19.1303
   501.4000      7.8512      2.4782     -0.0045     10.4100     80.3860     20.4984
   501.5000      7.8580      2.4955     -0.0181      9.3622     80.5439     21.6217
   501.6000      7.8580      2.5264      0.0696      7.4880     79.6227     21.8405
   501.7000      7.8580      2.5407     -0.0102      6.6244     79.6671     21.3857
   501.8000      7.8545      2.5332      0.0058      7.0776     80.5543     21.0186
   501.9000      7.8545      2.5274      0.0344      7.4305     81.2333     21.1708
   502.0000      7.8350      2.5393      0.0019      6.7108     84.3734     21.5164
   502.1000      7.8350      2.5554      0.0524      5.7311     93.4033     21.5173
   502.2000      7.8350      2.5579      0.0055      5.5805    103.4971     21.2132
   502.3000      7.8562      2.5584      0.0251      5.5486    106.1839     21.1587
   502.4000      7.8562      2.5640      0.0467      5.2144    101.9373     21.7469
   502.5000      7.8697      2.5573      0.0381      5.6207     99.3763     22.5009
   502.6000      7.8697      2.5342     -0.0027      7.0156    101.8532     22.8370
   502.7000      7.8697      2.5086     -0.0210      8.5718    104.7997     22.8051
   502.8000      7.8742      2.4968     -0.0015      9.2850    105.8202     22.6398
   502.9000      7.8742      2.5082      0.0103      8.5933    106.4318     22.6839
   503.0000      7.8629      2.5339      0.0158      7.0362    107.0382     22.9778
   503.1000      7.8629      2.5620      0.0425      5.3355    108.3908     23.2578
