~Version Information
VERS.                      2.0: CWLS Log ASCII Standard - VERSION 2.0
WRAP.                       NO: One line per depth step
~Well Information Block
STRT.FT               710.0000: 
STOP.FT              2922.5000: 
STEP.FT                 0.2500: 
NULL.                -999.2500: 
COMP.          Petrogulf Corporation: COMPANY
WELL.            Montoya 1-41V: WELL
FLD.           Purgatorie River: FIELD
LOC.           610' FNL & 1205' FEL: LOCATION
PROV.                 Colorado: PROVINCE
CNTY.               Las Animas: COUNTRY
SRVC.                Patterson: SERVICE COMPANY
DATE.          Mon Aug 22 08:00:56 2005: LOG DATE
UWI.                          : UNIQUE WELL ID
~Curve Information Block
DEPT.FT            0 000 00 00: Depth
SP.mV                         : DIL Spontaneous Potential
RILD.Ohm-m                    : DIL Deep Resistivity
RILM.Ohm-m                    : DIL Medium Resistivity
RLL3.Ohm-m                    : DIL Shallow Resistivity
GR.GAPI                       : Gamma Ray
~Parameter Information Block
~A  Depth        SP         RILD        RILM        RLL3         GR     
# ...
  2614.0000     24.2595     15.2870     16.7582     19.4614     55.1272
  2614.2500     23.3255     14.9740     16.7564     21.8654     51.6352
  2614.5000     22.8730     15.2751     16.5037     22.7859     59.0395
  2614.7500     22.5293     15.3989     16.4231     21.5849     58.1150
  2615.0000     22.0206     15.3749     16.2286     19.2047     71.2752
  2615.2500     21.0923     15.2389     16.1080     17.1485     53.1902
  2615.5000     19.8141     15.5201     15.8911     16.0040     49.6494
  2615.7500     18.3024     15.4950     15.8892     16.1172     63.2204
  2616.0000     16.5714     15.7023     16.4844     17.0764     63.6259
  2616.2500     15.1470     16.3411     16.5306     17.5723     60.6723
  2616.5000     13.9793     15.9011     17.1059     17.4238     57.0748
  2616.7500     13.2369     16.4557     17.5339     17.7531     48.4183
  2617.0000     12.7670     16.4321     17.4129     18.5869     55.7980
  2617.2500     12.4364     16.6197     18.1225     19.2671     63.9977
  2617.5000     12.4091     16.6619     18.8997     19.4229     51.4702
  2617.7500     12.7936     17.0058     19.5833     19.8056     58.6921
  2618.0000     13.7244     16.7334     21.3102     21.3077     50.4999
  2618.2500     15.1683     16.4897     22.0624     24.0645     61.0151
  2618.5000     17.2457     16.1654     23.0239     27.6428     49.1050
  2618.7500     20.0490     15.6486     23.5637     29.7096     52.7913
  2619.0000     23.3698     15.3967     23.3545     29.3668     49.0367
  2619.2500     27.1238     14.5508     22.1166     29.2372     47.3712
  2619.5000     31.3793     13.7792     20.0100     30.2702     57.4306
  2619.7500     35.1159     13.0956     17.9076     30.3927     63.1717
  2620.0000     38.6085     12.9455     15.0959     26.8781     79.7894
  2620.2500     41.6314     12.7606     13.2481     21.0869     74.5777
  2620.5000     43.9242     12.8158     11.6854     14.7848     83.9166
  2620.7500     45.3837     12.9580     10.7305      9.6412     95.7519
  2621.0000     46.2236     13.1947     10.1659      7.6045    108.1582
  2621.2500     46.5052     13.4669     10.2855      7.9168    102.3784
  2621.5000     46.6104     13.6342     10.8619      9.3842    100.6216
  2621.7500     46.7470     13.5694     12.1906     13.8953     89.9334
  2622.0000     47.0699     13.3042     13.3938     24.8328     75.9618
  2622.2500     47.7885     13.3839     14.7003     38.3469     56.6596
  2622.5000     48.7210     13.3378     15.6363     43.2175     55.1362
  2622.7500     49.7080     13.3268     15.7238     41.3948     46.2151
  2623.0000     50.8157     13.7604     16.3454     37.2157     49.9995
  2623.2500     52.1036     14.5496     17.2109     37.4673     53.7749
  2623.5000     53.4490     15.9469     18.4872     37.3215     61.4286
  2623.7500     54.8566     17.6000     19.7206     37.7691     69.0101
  2624.0000     56.3255     19.2994     21.2653     40.0266     50.1759
  2624.2500     57.6298     21.4871     23.3003     41.6161     52.7486
  2624.5000     58.8061     22.4133     26.5000     38.4510     51.2304
  2624.7500     59.8096     22.9761     27.7310     36.8098     47.1282
  2625.0000     60.6533     23.4121     29.6909     39.0766     52.0954
  2625.2500     61.3543     22.5755     30.0448     38.6816     44.5336
  2625.5000     61.9629     21.5917     30.3420     39.5290     43.6151
  2625.7500     62.5480     19.6580     30.7659     41.9372     43.8378
  2626.0000     63.0423     18.1117     28.7284     43.4634     54.1184
  2626.2500     63.5451     16.5779     26.6378     32.7781     52.9564
  2626.5000     63.9362     15.4892     23.1508     31.3057     48.2611
  2626.7500     64.4057     14.7029     19.3081     30.7411     57.4090
  2627.0000     65.1899     14.0240     16.1634     26.5478     67.9392
  2627.2500     66.1971     13.4090     14.0687     16.5322     76.2978
  2627.5000     67.0266     13.1335     12.6256     11.4904     86.3527
  2627.7500     67.7311     12.6927     11.7985      7.4386     83.9790
  2628.0000     68.4510     12.2340     11.2634      7.0548     98.5847
  2628.2500     69.0194     11.7715     11.0509      8.0623     94.8382
  2628.5000     69.3564     11.2406     10.7834     10.0232     77.7339
  2628.7500     69.3476     10.6501     10.4672     10.6311     71.1458
  2629.0000     69.0913     10.4032     10.1654      9.4101     70.0142
  2629.2500     68.6110     10.0957      9.9093     12.2946     71.4595
  2629.5000     67.9927      9.9559      9.8325     12.3680     87.3578
  2629.7500     67.4191      9.9785      9.5983     11.0078     96.0005
  2630.0000     66.6683     10.0987      9.7160      9.7095     90.0147
  2630.2500     65.8395     10.3544      9.6853     10.4170     97.7092
  2630.5000     64.9607     10.6133      9.9297     14.3989    100.1169
  2630.7500     64.0591     11.0217     10.4204     11.7934     75.7188
  2631.0000     63.3267     11.3646     11.1438     16.2023     74.0570
  2631.2500     62.8027     11.6107     11.8345     19.1266     69.1615
  2631.5000     62.5699     12.0290     12.6538     21.9626     62.2569
  2631.7500     62.5375     12.4718     13.3313     25.1409     54.2624
  2632.0000     62.5880     12.9156     13.7481     29.2095     48.1488
  2632.2500     62.3368     12.9985     14.3487     34.2914     48.9484
  2632.5000     61.4674     13.3943     14.8533     36.0571     64.7916
  2632.7500     59.6542     13.7272     15.1063     27.4016     63.7010
  2633.0000     56.8533     14.2293     15.6377     12.5946     82.6957
  2633.2500     53.4646     14.6310     15.3735     10.4464     89.3565
  2633.5000     50.2338     14.8806     15.8090     12.2019     57.6292
  2633.7500     47.5392     15.6173     16.3103     12.8045     40.3643
  2634.0000     45.3294     15.2503     16.9701     14.7901     67.1016
  2634.2500     43.4571     15.0502     17.3974     12.9677     58.9733
  2634.5000     42.1969     15.3020     17.4706     13.6611     53.5136
  2634.7500     41.4043     15.5555     17.5915     15.8121     50.6129
  2635.0000     41.1518     15.5084     17.1170     18.0774     45.6066
  2635.2500     41.4408     15.4670     16.5957     21.0353     56.7024
  2635.5000     41.9452     15.5683     16.2069     12.8971     62.6486
  2635.7500     42.3833     15.3460     16.4437     11.1227     58.5582
  2636.0000     42.7468     14.8782     16.4819     13.3883     54.9130
  2636.2500     43.2553     15.3490     16.6455     15.7436     59.3906
  2636.5000     43.7508     15.5574     16.4380     17.9503     52.3090
  2636.7500     44.3045     15.9203     16.2127     13.0473     58.2398
  2637.0000     44.5901     15.7278     16.6714     11.1197     62.3279
  2637.2500     44.4440     15.9463     17.0145     11.8614     55.2084
  2637.5000     44.0343     16.0822     16.8147     15.9601     66.0264
  2637.7500     43.4566     16.2781     17.6012     19.4602     59.3735
  2638.0000     42.9496     16.4287     17.8913     26.5034     62.0188
  2638.2500     42.4731     16.7324     17.7083     24.2481     51.6681
  2638.5000     41.8344     16.2852     18.2081     23.9143     48.8523
  2638.7500     41.0009     16.0960     18.8311     26.9273     55.2815
  2639.0000     40.1638     16.0153     19.2702     28.8260     47.3507
  2639.2500     39.6355     16.3469     19.1776     28.2235     46.5088
  2639.5000     39.3333     15.9379     19.2722     28.7077     50.2124
  2639.7500     39.1720     15.9015     19.8966     31.3433     51.5153
  2640.0000     39.1180     15.4884     18.6949     33.8408     39.9418
  2640.2500     39.1445     15.4338     17.9615     34.0094     47.8204
  2640.5000     39.3363     15.8428     16.7800     31.0915     59.1438
  2640.7500     39.5639     15.7518     15.8043     25.3574     64.5996
  2641.0000     39.5913     15.7603     15.1050     17.4809     76.1213
  2641.2500     39.3345     16.2048     14.9964     11.1470     80.2507
  2641.5000     38.8865     15.6801     15.1380     11.9652     64.8341
  2641.7500     38.4260     16.0659     15.6820     15.8826     62.9005
