~Version Information
VERS.                      2.0: CWLS Log ASCII Standard - VERSION 2.0
WRAP.                       NO: One line per depth step
~Well Information Block
STRT.FT               -12.2500: 
STOP.FT              2595.7500: 
STEP.FT                 0.2500: 
NULL.                -999.2500: 
COMP.          Petrogulf Corporation: COMPANY
WELL.            Montoya 1-44V: WELL
FLD.           Purgatoire River: FIELD
LOC.           753' FSL & 990' FEL--: LOCATION
PROV.                       CO: PROVINCE
CNTY.               Las Aniams: COUNTRY
SRVC.          Patterson Wireline: SERVICE COMPANY
DATE.          Mon Jun 13 11:58:10 2005: LOG DATE
UWI.           05 071 08142 00: UNIQUE WELL ID
~Curve Information Block
DEPT.FT            0 000 00 00: Depth
CCL.                          : Casing Collar Locator
TT3.usec                      : CBL 3' Travel Time
AMP3.mV                       : CBL 3' Amplitude
GR.GAPI                       : Gamma Ray
~Parameter Information Block
~A  Depth       CCL         TT3         AMP3         GR     
# ...
   490.2500      0.0000    631.1793     13.1357    103.6392
   490.5000      0.0000    669.2033     13.0161    103.0042
   490.7500      0.0000    702.5961     12.9288    100.3320
   491.0000      0.0000    725.5313     12.8625     97.4761
   491.2500      0.0000    740.3696     12.7759     96.1982
   491.5000      0.0000    752.1308     12.6279     96.4948
   491.7500      0.0000    762.6578     12.3980     96.3598
   492.0000      0.0000    769.5737     12.1094     93.6062
   492.2500      0.0000    769.9609     11.8366     88.1269
   492.5000      0.0000    763.2103     11.6818     82.2122
   492.7500      0.0000    749.6514     11.7361     78.6280
   493.0000      0.0000    727.4765     12.0430     78.4906
   493.2500      0.0000    692.0908     12.5724     80.6639
   493.5000      0.0000    639.1799     13.2248     82.6678
   493.7500      0.0000    570.3811     13.8699     82.3506
   494.0000      0.0000    496.8757     14.3952     79.3094
   494.2500      0.0000    435.5140     14.7305     74.7849
   494.5000      0.0000    400.1143     14.8520     70.0995
   494.7500      0.0000    396.2139     14.7814     65.5360
   495.0000      0.0000    420.0661     14.5876     60.7621
   495.2500      0.0000    456.9849     14.3889     55.7296
   495.5000      0.0000    482.9996     14.3335     50.8485
   495.7500      0.0000    477.8885     14.5257     46.6395
   496.0000      0.0000    441.2018     14.9320     43.5755
   496.2500      0.0000    391.9677     15.3775     42.2148
   496.5000      0.0000    351.4007     15.6643     43.1779
   496.7500      0.0000    329.0235     15.6882     46.9753
   497.0000      0.0000    324.2436     15.4558     54.0457
   497.2500      0.0000    335.6144     15.0504     64.4788
   497.5000      0.0000    365.5647     14.5975     76.9304
   497.7500      0.0000    416.3525     14.2066     88.2853
   498.0000      0.0000    480.8629     13.9087     95.7375
   498.2500      0.0000    538.0217     13.6708     99.2043
   498.5000      0.0000    562.2496     13.4690    100.5625
   498.7500      0.0000    542.6949     13.3062    100.7831
   499.0000      0.0000    493.4370     13.1634     99.1255
   499.2500      0.0000    443.5215     12.9960     95.0010
   499.5000      0.0000    417.4238     12.8046     89.1988
   499.7500      0.0000    423.8465     12.6600     82.9300
   500.0000      0.0000    457.7567     12.6174     76.5691
   500.2500      0.0000    508.6927     12.6307     69.9324
   500.5000      0.0000    567.0505     12.5940     63.5022
   500.7500      0.0000    624.4894     12.4583     58.8736
   501.0000      0.0000    672.0830     12.2711     57.7287
   501.2500      0.0000    702.7206     12.0976     60.4594
   501.5000      0.0000    716.0998     11.9408     65.9589
   501.7500      0.0000    718.9618     11.7550     72.6282
   502.0000      0.0000    719.5174     11.5197     79.4629
   502.2500      0.0000    722.2368     11.2824     86.2725
   502.5000      0.0000    727.0784     11.1343     92.9545
   502.7500      0.0000    731.8516     11.1498     98.6230
   503.0000      0.0000    734.4871     11.3270    101.7051
   503.2500      0.0000    733.9514     11.5651    101.2376
   503.5000      0.0000    730.2943     11.7156     98.0273
   503.7500      0.0000    724.5593     11.6951     94.2851
   504.0000      0.0000    718.3768     11.5646     92.0534
   504.2500      0.0000    713.2727     11.4863     92.0821
   504.5000      0.0000    710.1117     11.5911     93.9816
   504.7500      0.0000    708.6677     11.8804     96.9395
   505.0000      0.0000    706.8044     12.2415    100.0188
   505.2500      0.0000    699.4514     12.5462    102.1387
   505.5000      0.0000    679.2531     12.7412    102.3962
   505.7500      0.0000    641.3508     12.8662    100.7235
   506.0000      0.0000    589.8294     12.9952     98.1707
   506.2500      0.0000    537.3859     13.1605     96.1523
   506.5000      0.0000    494.7991     13.3396     95.1035
   506.7500      0.0000    461.8643     13.5085     94.1019
   507.0000      0.0000    432.1016     13.6748     92.0696
   507.2500      0.0000    403.9964     13.8406     89.0828
   507.5000      0.0000    383.4976     13.9591     86.2761
   507.7500      0.0000    378.5095     13.9520     84.7373
   508.0000      0.0000    395.4937     13.7670     84.7138
   508.2500      0.0000    438.5157     13.4144     85.8567
   508.5000      0.0000    505.3985     12.9681     88.0021
   508.7500      0.0000    583.9203     12.5369     91.1849
   509.0000      0.0000    655.8827     12.2151     94.7249
   509.2500      0.0000    707.3119     12.0358     97.0828
   509.5000      0.0000    734.4412     11.9612     97.2948
   509.7500      0.0000    740.7928     11.9139     96.0606
   510.0000      0.0000    731.3412     11.8304     94.7452
   510.2500      0.0000    711.3602     11.7034     93.7246
   510.5000      0.0000    689.5015     11.5790     92.3619
   510.7500      0.0000    677.3708     11.5091     90.2870
   511.0000      0.0000    681.9954     11.5127     88.0830
   511.2500      0.0000    699.6395     11.5780     86.6460
   511.5000      0.0000    719.7891     11.6709     86.1476
   511.7500      0.0000    734.4534     11.7214     86.0577
   512.0000      0.0000    742.1662     11.6389     86.3407
   512.2500      0.0000    745.2416     11.3875     87.9768
   512.5000      0.0000    746.0084     11.0447     91.5378
   512.7500      0.0000    745.3929     10.7565     95.6027
   513.0000      0.0000    743.3161     10.6313     97.4677
   513.2500      0.0000    739.6959     10.6885     95.5774
   513.5000      0.0000    735.4310     10.8840     90.9724
   513.7500      0.0000    732.4586     11.1466     86.3753
   514.0000      0.0000    732.4994     11.3923     84.1485
   514.2500      0.0000    735.5789     11.5443     85.0474
   514.5000      0.0000    740.1529     11.5661     88.1558
   514.7500      0.0000    744.8054     11.4715     91.3792
   515.0000      0.0000    749.5241     11.3056     92.4583
   515.2500      0.0000    755.1857     11.1253     90.6458
   515.5000      0.0000    761.9761     10.9947     87.7225
   515.7500      0.0000    768.1735     10.9743     86.7329
   516.0000      0.0000    769.9430     11.0845     89.2929
   516.2500      0.0000    761.7451     11.2810     94.3504
   516.5000      0.0000    737.6882     11.4877     99.4769
   516.7500      0.0000    695.6889     11.6610    102.9052
   517.0000      0.0000    643.2842     11.8010    104.4385
   517.2500      0.0000    596.5178     11.8979    104.9920
   517.5000      0.0000    566.4183     11.8990    105.5494
   517.7500      0.0000    546.2537     11.7559    106.4855
   518.0000      0.0000    518.6165     11.4921    107.7043
   518.2500      0.0000    475.9451     11.2049    109.0464
   518.5000      0.0000    428.1618     10.9936    110.2505
   518.7500      0.0000    390.1854     10.8941    110.6501
   519.0000      0.0000    368.2874     10.8877    109.3732
   519.2500      0.0000    359.3366     10.9552    106.1634
   519.5000      0.0000    357.6418     11.0932    101.8643
   519.7500      0.0000    359.7991     11.2783     97.8931
   520.0000      0.0000    365.4251     11.4467     95.2564
   520.2500      0.0000    376.1615     11.5301     94.1359
   520.5000      0.0000    393.9795     11.5061     94.1158
   520.7500      0.0000    418.2794     11.4090     94.4100
   521.0000      0.0000    443.4928     11.2975     93.9740
   521.2500      0.0000    461.9745     11.2117     92.0449
   521.5000      0.0000    471.5568     11.1538     88.8851
   521.7500      0.0000    477.3621     11.1056     85.6095
   522.0000      0.0000    483.2005     11.0644     83.0193
   522.2500      0.0000    484.6593     11.0570     80.9910
   522.5000      0.0000    474.7174     11.1177     79.1716
   522.7500      0.0000    453.3819     11.2511     77.7401
   523.0000      0.0000    428.6027     11.4196     77.1445
   523.2500      0.0000    410.4283     11.5720     77.4306
   523.5000      0.0000    406.6227     11.6850     78.1741
