~Version Information
VERS.                      2.0: CWLS Log ASCII Standard - VERSION 2.0
WRAP.                       NO: One line per depth step
~Well Information Block
STRT.FT               472.0000: 
STOP.FT              2430.5000: 
STEP.FT                 0.2500: 
NULL.                -999.2500: 
COMP.          Pioneer Natural Resources: COMPANY
WELL.          Flying Horse 12-11: WELL
FLD.           Purgatoire River: FIELD
LOC.           2428' FNL & 308' FWL: LOCATION
PROV.                 Colorado: PROVINCE
CNTY.               Las Animas: COUNTRY
SRVC.                Patterson: SERVICE COMPANY
DATE.          Sun May 29 11:58:35 2005: LOG DATE
UWI.           05 071 08378 00: UNIQUE WELL ID
~Curve Information Block
DEPT.FT            0 000 00 00: Depth
SN.Ohm-m                      : IEL Short Normal
SP.mV                         : IEL Spontaneous Potential
DIR.Ohm-m                     : IEL Induction Resistivity
GR.GAPI                       : Gamma Ray
~Parameter Information Block
~A  Depth        SN          SP         DIR          GR     
   472.0000   2000.0000   2000.0000     94.6003     83.9753
   472.2500   2000.0000   2000.0000     92.4315     82.5929
   472.5000   2000.0000   2000.0000     89.0846     78.7321
   472.7500   2000.0000   2000.0000     85.8802     75.8845
   473.0000   2000.0000   2000.0000     83.6943     72.7246
   473.2500   2000.0000   2000.0000     82.6699     71.7093
   473.5000   2000.0000   2000.0000     82.4564     71.3500
   473.7500   2000.0000   2000.0000     82.5868     71.1898
   474.0000   2000.0000   2000.0000     82.7649     69.8762
   474.2500   2000.0000   2000.0000     82.9305     68.0687
   474.5000   2000.0000   2000.0000     83.1367     64.8614
   474.7500   2000.0000   2000.0000     83.4141     63.3127
   475.0000   2000.0000   2000.0000     83.7427     62.7370
   475.2500   2000.0000   2000.0000     84.0888     63.1517
   475.5000   2000.0000   2000.0000     84.4278     63.4174
   475.7500   2000.0000   2000.0000     84.7026     62.6556
   476.0000   2000.0000   2000.0000     84.7937     60.1010
   476.2500   2000.0000   2000.0000     84.5660     58.0617
   476.5000   2000.0000   2000.0000     83.9655     55.8665
   476.7500   2000.0000   2000.0000     83.0737     55.6215
   477.0000   2000.0000   2000.0000     82.0709     57.4878
   477.2500   2000.0000   2000.0000     81.1495     60.0130
   477.5000   2000.0000   2000.0000     80.4415     64.8453
   477.7500   2000.0000   2000.0000     79.9871     68.1680
   478.0000   2000.0000   2000.0000     79.7554     72.4651
   478.2500   2000.0000   2000.0000     79.6987     74.5016
   478.5000   2000.0000   2000.0000     79.8041     75.6312
   478.7500   2000.0000   2000.0000     80.0908     74.7205
   479.0000   2000.0000   2000.0000     80.5672     70.9299
   479.2500   2000.0000   2000.0000     81.1931     67.4706
   479.5000   2000.0000   2000.0000     81.8776     62.4191
   479.7500   2000.0000   2000.0000     82.4808     59.6631
   480.0000   2000.0000   2000.0000     82.7928     56.6010
   480.2500   2000.0000   2000.0000     82.5538     55.3079
   480.5000   2000.0000   2000.0000     81.6059     54.7187
   480.7500   2000.0000   2000.0000     80.1132     55.2614
   481.0000   2000.0000   2000.0000     78.5989     57.1777
   481.2500   2000.0000   2000.0000     77.6811     58.9393
   481.5000   2000.0000   2000.0000     77.7215     62.0179
   481.7500   2000.0000   2000.0000     78.6507     64.2886
   482.0000   2000.0000   2000.0000     80.0383     68.0499
   482.2500   2000.0000   2000.0000     81.3557     70.8917
   482.5000   2000.0000   2000.0000     82.2734     75.7751
   482.7500   2000.0000   2000.0000     82.7836     79.3160
   483.0000   2000.0000   2000.0000     83.0611     84.3600
   483.2500   2000.0000   2000.0000     83.2286     86.9534
   483.5000   2000.0000   2000.0000     83.2275     88.6670
   483.7500   2000.0000   2000.0000     82.8845     87.9491
   484.0000   2000.0000   2000.0000     82.1180     84.0497
   484.2500   2000.0000   2000.0000     81.1110     79.9671
   484.5000   2000.0000   2000.0000     80.2820     72.7371
   484.7500   2000.0000   2000.0000     80.0271     67.9389
   485.0000   2000.0000   2000.0000     80.3855     62.1097
   485.2500   2000.0000   2000.0000     80.8139     59.7651
   485.5000   2000.0000   2000.0000     80.2983     58.8834
   485.7500   2000.0000   2000.0000     77.9067     59.6181
   486.0000   2000.0000   2000.0000     73.4585     61.1666
   486.2500   2000.0000   2000.0000     67.6868     61.6721
   486.5000   2000.0000   2000.0000     61.8999     61.3891
   486.7500   2000.0000   2000.0000     57.6034     61.0351
   487.0000   2000.0000   2000.0000     56.3788     61.1911
   487.2500   2000.0000   2000.0000     60.2817     61.7866
   487.5000   2000.0000   2000.0000     73.3749     62.7536
   487.7500   2000.0000   2000.0000    106.5777     63.0667
   488.0000   2000.0000   2000.0000    195.7240     62.9188
   488.2500   2000.0000   2000.0000    462.6511     62.7056
   488.5000   2000.0000   2000.0000    797.2551     63.0882
   488.7500   2000.0000   2000.0000    457.6370     64.2043
   489.0000   2000.0000   2000.0000    242.5052     67.0558
   489.2500   2000.0000   2000.0000    162.3521     69.3216
   489.5000   2000.0000   2000.0000    130.0788     72.8649
   489.7500   2000.0000   2000.0000    118.3559     75.6186
   490.0000   2000.0000   2000.0000    119.5918     81.2814
   490.2500   2000.0000   2000.0000    133.8607     86.2840
   490.5000   2000.0000   2000.0000    162.6386     94.7181
   490.7500   2000.0000   2000.0000    187.9541     99.8955
   491.0000   2000.0000   2000.0000    159.7402    105.4790
   491.2500   2000.0000   2000.0000    102.3720    107.5842
   491.5000   2000.0000   2000.0000     66.1277    109.0554
   491.7500   2000.0000   2000.0000     50.9071    109.4907
   492.0000   2000.0000   2000.0000     51.0326    110.5551
   492.2500   2000.0000   2000.0000     83.8511    112.6328
   492.5000   2000.0000   2000.0000 100000.0000    119.4895
   492.7500   2000.0000   2000.0000 100000.0000    126.3699
   493.0000   2000.0000   2000.0000 100000.0000    137.1733
   493.2500   2000.0000   2000.0000 100000.0000    142.3591
   493.5000   2000.0000   2000.0000 100000.0000    144.5067
   493.7500   2000.0000   2000.0000 100000.0000    132.4401
   494.0000   2000.0000   2000.0000 100000.0000    123.9539
   494.2500   2000.0000   2000.0000     18.9086    115.9213
   494.5000   2000.0000   2000.0000      6.9657    102.2959
   494.7500   2000.0000   2000.0000      4.6938     86.8078
   495.0000   2000.0000   2000.0000      4.1957     76.5693
   495.2500   2000.0000   2000.0000      4.5610     71.4704
   495.5000   2000.0000   2000.0000      5.7855     66.1384
   495.7500   2000.0000   2000.0000      8.4670     58.8722
   496.0000   2000.0000   2000.0000     15.1548     56.8917
   496.2500   2000.0000   2000.0000     50.1102     56.3159
   496.5000   2000.0000   2000.0000 100000.0000     56.2444
   496.7500   2000.0000   2000.0000 100000.0000     51.7246
   497.0000   2000.0000   2000.0000 100000.0000     51.9291
   497.2500   2000.0000   2000.0000 100000.0000     51.9956
   497.5000   2000.0000   2000.0000 100000.0000     52.0904
   497.7500   2000.0000   2000.0000 100000.0000     47.4330
   498.0000   2000.0000   2000.0000 100000.0000     47.5187
   498.2500   2000.0000   2000.0000    280.9024     47.5407
   498.5000   2000.0000   2000.0000     73.8457     47.6924
   498.7500   2000.0000   2000.0000     53.9089     48.0194
   499.0000   2000.0000   2000.0000     48.6990     48.8340
   499.2500   2000.0000   2000.0000     47.3725     49.4069
   499.5000   2000.0000   2000.0000     47.2250     50.1503
   499.7500   2000.0000   2000.0000     47.4883     50.7961
   500.0000   2000.0000   2000.0000     48.3880     52.7595
   500.2500   2000.0000   2000.0000     50.8268     55.1479
   500.5000   2000.0000   2000.0000     56.0471     60.6712
   500.7500   2000.0000   2000.0000     64.9160     65.4980
   501.0000   2000.0000   2000.0000     75.8857     73.4885
   501.2500   2000.0000   2000.0000     82.2436     78.4832
   501.5000   2000.0000   2000.0000     77.3405     84.3967
   501.7500   2000.0000   2000.0000     65.0903     87.2654
   502.0000   2000.0000   2000.0000     53.0943     90.7753
   502.2500   2000.0000   2000.0000     44.0736     92.9817
   502.5000   2000.0000   2000.0000     37.6383     95.9833
   502.7500   2000.0000   2000.0000     32.9023     97.5880
   503.0000   2000.0000   2000.0000     29.3020     99.8399
   503.2500   2000.0000   2000.0000     26.6033    102.0125
   503.5000   2000.0000   2000.0000     24.7131    107.6636
   503.7500   2000.0000   2000.0000     23.5316    113.3348
   504.0000   2000.0000   2000.0000     22.8986    123.8825
   504.2500   2000.0000   2000.0000     22.6053    131.2073
   504.5000   2000.0000   2000.0000     22.4430    140.8337
   504.7500   2000.0000   2000.0000     22.2589    145.7847
   505.0000   2000.0000   2000.0000     21.9842    150.9226
   505.2500   2000.0000   2000.0000     21.6193    152.9941
