~Version Information
VERS.                      2.0: CWLS Log ASCII Standard - VERSION 2.0
WRAP.                       NO: One line per depth step
~Well Information Block
STRT.FT               910.3000: 
STOP.FT              1932.5000: 
STEP.FT                 0.1000: 
NULL.                -999.2500: 
COMP.          Petrogulf Corporation: COMPANY
WELL.             State 16-34R: WELL
FLD.           Purgatorie River: FIELD
LOC.           1095' FSL & 1498' FEL: LOCATION
CNTY.               Las Animas: COUNTY
SRVC.                         : SERVICE COMPANY
DATE.          Thu May 06 14:28:18 2004: LOG DATE
UWI.           05 071 08032 00: UNIQUE WELL ID
STAT.                 Colorado: STATE
~Curve Information Block
DEPT.FT            0 000 00 00: Depth
DCAL.in                       : CDL Caliper
RHOB.g/cc                     : CDL Bulk Density
RHOC.g/cc                     : CDL Density Correction
DPOR.pu                       : CDL Density Porosity
NPOR.pu                       : Neutron Porosity
GR.GAPI                       : Gamma Ray
~Parameter Information Block
~A  Depth       DCAL        RHOB        RHOC        DPOR        NPOR         GR     
# ...
  1889.5000      7.8531      2.5252      0.0187      7.5661     26.2300    129.8202
  1889.6000      7.8531      2.5058      0.0198      8.7383     26.0924    134.8240
  1889.7000      7.8531      2.4915      0.0041      9.6073     25.9102    135.5277
  1889.8000      7.8510      2.4879      0.0092      9.8236     25.5121    131.7885
  1889.9000      7.8510      2.4961      0.0482      9.3301     25.2803    122.4706
  1890.0000      7.8502      2.5157     -0.0061      8.1381     25.5777    112.6639
  1890.1000      7.8502      2.5381      0.1068      6.7836     26.0706    110.3199
  1890.2000      7.8502      2.5433      0.0842      6.4678     26.0469    114.2202
  1890.3000      7.8442      2.5303      0.0524      7.2559     25.2822    116.4867
  1890.4000      7.8442      2.5141      0.0441      8.2372     24.2706    114.5627
  1890.5000      7.8028      2.5038      0.0149      8.8616     23.6531    111.5086
  1890.6000      7.8028      2.5024      0.0534      8.9453     23.4586    110.6087
  1890.7000      7.8028      2.5121      0.0109      8.3593     23.3373    113.4389
  1890.8000      7.8439      2.5330      0.0477      7.0926     23.1303    116.7905
  1890.9000      7.8439      2.5467      0.0673      6.2582     22.8441    116.2747
  1891.0000      7.8467      2.5379      0.0469      6.7967     22.5228    112.7808
  1891.1000      7.8467      2.5213      0.0194      7.7985     22.3066    108.6224
  1891.2000      7.8467      2.5140      0.0464      8.2396     22.2125    105.9330
  1891.3000      7.8417      2.5208      0.0102      7.8281     22.1336    106.4094
  1891.4000      7.8417      2.5436      0.0563      6.4505     22.1092    107.7651
  1891.5000      7.8365      2.5667      0.0896      5.0511     22.1695    107.6121
  1891.6000      7.8365      2.5689      0.0633      4.9150     22.2389     99.7941
  1891.7000      7.8365      2.5560      0.0493      5.6949     22.1252     74.5258
  1891.8000      7.8384      2.5489      0.0285      6.1301     21.9482     38.3824
  1891.9000      7.8384      2.5548      0.0401      5.7715     21.9058     12.1808
  1892.0000      7.8313      2.5686      0.0358      4.9307     21.9622      2.2227
  1892.1000      7.8313      2.5807      0.1026      4.1990     22.3306      0.2239
  1892.2000      7.8313      2.5858      0.0768      3.8908     23.2248      0.0118
  1892.3000      7.8089      2.5933      0.0703      3.4370     24.2194      0.0000
  1892.4000      7.8089      2.6050      0.1169      2.7282     24.7026   -999.2500
  1892.5000      7.8092      2.6078      0.0962      2.5587     24.4822   -999.2500
  1892.6000      7.8092      2.6004      0.0703      3.0058     23.6072   -999.2500
  1892.7000      7.8092      2.5962      0.0395      3.2614     22.6801   -999.2500
  1892.8000      7.8053      2.5979      0.1056      3.1599     22.4912   -999.2500
  1892.9000      7.8053      2.5935      0.0938      3.4265     22.7297   -999.2500
  1893.0000      7.8341      2.5803      0.0405      4.2256     22.5904   -999.2500
  1893.1000      7.8341      2.5669      0.0538      5.0385     21.8317   -999.2500
  1893.2000      7.8341      2.5642     -0.0020      5.1994     20.7518   -999.2500
  1893.3000      7.8503      2.5746      0.0360      4.5705     19.9792   -999.2500
  1893.4000      7.8503      2.5766      0.0648      4.4474     19.9205   -999.2500
  1893.5000      7.8494      2.5639      0.0248      5.2170     20.3516   -999.2500
  1893.6000      7.8494      2.5623      0.0053      5.3139     20.6198   -999.2500
  1893.7000      7.8494      2.5735      0.0762      4.6335     20.2604   -999.2500
  1893.8000      7.8529      2.5748      0.0109      4.5551     19.8346   -999.2500
  1893.9000      7.8529      2.5662      0.0266      5.0790     20.0451   -999.2500
  1894.0000      7.8489      2.5617      0.0073      5.3518     20.3881   -999.2500
  1894.1000      7.8489      2.5676     -0.0025      4.9928     20.2389   -999.2500
  1894.2000      7.8489      2.5745      0.0656      4.5735     19.8878   -999.2500
  1894.3000      7.8469      2.5723      0.0126      4.7094     19.6507   -999.2500
  1894.4000      7.8469      2.5696      0.0514      4.8754     19.3980   -999.2500
  1894.5000      7.8415      2.5754      0.0239      4.5240     18.7805   -999.2500
  1894.6000      7.8415      2.5849      0.0302      3.9479     17.9077   -999.2500
  1894.7000      7.8415      2.5869      0.0386      3.8224     17.3105   -999.2500
  1894.8000      7.8441      2.5823      0.0475      4.1052     17.4193   -999.2500
  1894.9000      7.8441      2.5789      0.0443      4.3090     18.1521   -999.2500
  1895.0000      7.8428      2.5677      0.0545      4.9901     18.8088   -999.2500
  1895.1000      7.8428      2.5387      0.0219      6.7482     18.8209   -999.2500
  1895.2000      7.8428      2.5168     -0.0805      8.0718     18.5137   -999.2500
  1895.3000      7.8166      2.5275      0.0284      7.4272     18.3904   -999.2500
  1895.4000      7.8166      2.5552      0.0236      5.7443     18.4008   -999.2500
  1895.5000      7.8151      2.5742      0.0386      4.5912     18.5942   -999.2500
  1895.6000      7.8151      2.5727      0.0219      4.6824     19.1702   -999.2500
  1895.7000      7.8151      2.5576      0.0128      5.6011     20.0309   -999.2500
  1895.8000      7.8083      2.5522     -0.0513      5.9283     20.6726   -999.2500
  1895.9000      7.8083      2.5673      0.0565      5.0110     20.7353   -999.2500
  1896.0000      7.8107      2.5865      0.0692      3.8484     20.4594   -999.2500
  1896.1000      7.8107      2.5997      0.0601      3.0481     20.3689   -999.2500
  1896.2000      7.8107      2.6098      0.0852      2.4386     20.6097   -999.2500
  1896.3000      7.8132      2.6121      0.0707      2.2976     20.8248   -999.2500
  1896.4000      7.8132      2.6011      0.1083      2.9639     20.8150   -999.2500
  1896.5000      7.8139      2.5839      0.0513      4.0064     20.5847   -999.2500
  1896.6000      7.8139      2.5746      0.0658      4.5703     19.9761   -999.2500
  1896.7000      7.8139      2.5716      0.0494      4.7533     19.2182   -999.2500
  1896.8000      7.8092      2.5618      0.0769      5.3455     18.9037   -999.2500
  1896.9000      7.8092      2.5412      0.0224      6.5959     19.1057   -999.2500
  1897.0000      7.7868      2.5193      0.0079      7.9242     19.2588   -999.2500
  1897.1000      7.7868      2.5049      0.0118      8.7967     19.5103   -999.2500
  1897.2000      7.7868      2.4996     -0.0129      9.1175     21.8985   -999.2500
  1897.3000      7.8122      2.4992      0.0324      9.1406     28.9726   -999.2500
  1897.4000      7.8122      2.5009     -0.0090      9.0366     39.0758   -999.2500
  1897.5000      7.8086      2.5124      0.0107      8.3415     46.1616   -999.2500
  1897.6000      7.8086      2.5302      0.0257      7.2579     48.7303   -999.2500
  1897.7000      7.8086      2.5441      0.0206      6.4172     49.2355   -999.2500
  1897.8000      7.8121      2.5580      0.0607      5.5751     49.2889   -999.2500
  1897.9000      7.8121      2.5794      0.0301      4.2785     49.2919   -999.2500
  1898.0000      7.8135      2.6014      0.0759      2.9428   -999.2500   -999.2500
  1898.1000      7.8135      2.6040      0.0920      2.7875   -999.2500   -999.2500
  1898.2000      7.8135      2.5934      0.0333      3.4293   -999.2500   -999.2500
  1898.3000      7.8080      2.6022      0.0456      2.8970   -999.2500   -999.2500
  1898.4000      7.8080      2.6289      0.1084      1.2807   -999.2500   -999.2500
  1898.5000      7.7918      2.6430      0.0868      0.4236   -999.2500   -999.2500
  1898.6000      7.7918      2.6418      0.0691      0.4967   -999.2500   -999.2500
  1898.7000      7.7918      2.6424      0.0608      0.4594   -999.2500   -999.2500
  1898.8000      7.7743      2.6416      0.1267      0.5069   -999.2500   -999.2500
  1898.9000      7.7743      2.6270      0.0414      1.3966   -999.2500   -999.2500
  1899.0000      7.7739      2.6078      0.0544      2.5557   -999.2500   -999.2500
