~Version Information
VERS.                      2.0: CWLS Log ASCII Standard - VERSION 2.0
WRAP.                       NO: One line per depth step
~Well Information Block
STRT.FT               423.0000: 
STOP.FT              2306.0000: 
STEP.FT                 0.1000: 
NULL.                -999.2500: 
COMP.          Pioneer Natural Resources: COMPANY
WELL.             Culver 14-12: WELL
FLD.           Purgatoire River: FIELD
LOC.           913' FSL & 1140' FWL: LOCATION
PROV.                 Colorado: PROVINCE
CNTY.               Las Animas: COUNTRY
SRVC.                Patterson: SERVICE COMPANY
DATE.          Tue Jun 07 09:21:05 2005: LOG DATE
UWI.           05 071 08386 00: UNIQUE WELL ID
~Curve Information Block
DEPT.FT            0 000 00 00: Depth
DCAL.in                       : CDL Caliper
RHOB.g/cc                     : CDL Bulk Density
RHOC.g/cc                     : CDL Density Correction
DPOR.pu                       : CDL Density Porosity
GR.GAPI                       : Gamma Ray
NPOR.pu                       : Neutron Porosity
~Parameter Information Block
~A  Depth       DCAL        RHOB        RHOC        DPOR         GR         NPOR    
# ...
  1171.8000      8.3997      2.3750      0.0625     16.6688    140.7946     30.9310
  1171.9000      8.3997      2.3907      0.0449     15.7130    141.8581     31.0449
  1172.0000      8.2769      2.4282      0.1153     13.4438    139.3643     30.2647
  1172.1000      8.2769      2.4908      0.0798      9.6483    136.6123     29.3706
  1172.2000      8.2769      2.5555      0.1362      5.7259    138.2974     29.1249
  1172.3000      8.2221      2.5978      0.1593      3.1639    142.6114     29.6831
  1172.4000      8.2221      2.6183      0.1250      1.9219    145.8723     30.4505
  1172.5000      8.1857      2.6382      0.1340      0.7168    147.6775     30.4901
  1172.6000      8.1857      2.6670      0.1263     -1.0311    150.5380     30.0567
  1172.7000      8.1857      2.6917      0.1164     -2.5298    152.9250     29.8115
  1172.8000      8.1617      2.6888      0.1227     -2.3489    147.6762     29.4112
  1172.9000      8.1617      2.6549      0.0515     -0.2946    135.8900     28.7743
  1173.0000      8.1627      2.6261      0.0012      1.4485    129.6480     28.5378
  1173.1000      8.1627      2.6289      0.0084      1.2799    133.6472     28.6039
  1173.2000      8.1627      2.6382      0.0389      0.7139    142.7798     28.6437
  1173.3000      8.1632      2.6296      0.0038      1.2378    150.8186     28.7560
  1173.4000      8.1632      2.6135      0.0143      2.2121    151.3605     28.6944
  1173.5000      8.1640      2.6067      0.0009      2.6257    144.7126     28.4276
  1173.6000      8.1640      2.6160      0.0269      2.0585    137.2739     28.3242
  1173.7000      8.1640      2.6273      0.0844      1.3774    132.5747     28.4697
  1173.8000      8.1657      2.6196      0.0310      1.8409    131.5448     28.7051
  1173.9000      8.1657      2.5985      0.0660      3.1222    134.0875     28.5880
  1174.0000      8.1644      2.5697      0.0612      4.8662    137.9415     27.7810
  1174.1000      8.1644      2.5302     -0.0157      7.2601    141.7051     26.6498
  1174.2000      8.1644      2.4988     -0.0133      9.1606    144.2995     26.1162
  1174.3000      8.1659      2.4993     -0.0036      9.1360    145.9219     26.3456
  1174.4000      8.1659      2.5266      0.1013      7.4774    146.5693     26.8305
  1174.5000      8.1621      2.5630      0.0968      5.2717    143.3644     27.4399
  1174.6000      8.1621      2.6080      0.0864      2.5445    137.9660     28.0465
  1174.7000      8.1621      2.6600      0.0978     -0.6067    133.9177     28.4823
  1174.8000      8.1624      2.7069      0.1093     -3.4467    132.2538     28.6566
  1174.9000      8.1624      2.7449      0.2080     -5.7515    133.7775     28.4002
  1175.0000      8.1623      2.7729      0.2436     -7.4503    135.7301     27.7353
  1175.1000      8.1623      2.7858      0.2671     -8.2276    133.0063     27.3922
  1175.2000      8.1623      2.7717      0.2388     -7.3738    128.0675     28.3283
  1175.3000      8.1648      2.7277      0.1496     -4.7083    126.1231     30.0583
  1175.4000      8.1648      2.6762      0.0430     -1.5904    125.3784     30.9506
  1175.5000      8.1703      2.6391      0.0853      0.6602    124.7175     30.3452
  1175.6000      8.1703      2.6131      0.0334      2.2336    126.4935     29.2084
  1175.7000      8.1703      2.5944      0.0572      3.3715    128.3513     28.4158
  1175.8000      8.1772      2.5923      0.0299      3.4950    126.7451     28.1777
  1175.9000      8.1772      2.6041      0.1013      2.7789    123.8745     28.7201
  1176.0000      8.1887      2.6091      0.0597      2.4803    121.6654     29.8539
  1176.1000      8.1887      2.6057      0.0739      2.6839    120.6412     30.8207
  1176.2000      8.1887      2.6107      0.0646      2.3813    122.5478     31.2409
  1176.3000      8.1609      2.6282      0.0593      1.3203    128.5729     31.2114
  1176.4000      8.1609      2.6360      0.0921      0.8486    137.0359     30.6394
  1176.5000      8.1871      2.6033      0.0778      2.8281    142.8247     29.8649
  1176.6000      8.1871      2.5407     -0.0162      6.6264    143.0393     29.3807
  1176.7000      8.1871      2.4996      0.0278      9.1166    139.6908     28.8825
  1176.8000      8.2097      2.4995      0.0927      9.1193    136.3422     28.3705
  1176.9000      8.2097      2.5187      0.0675      7.9576    134.2932     28.5278
  1177.0000      8.2342      2.5427      0.0480      6.5048    133.0068     29.0499
  1177.1000      8.2342      2.5663      0.1213      5.0702    135.7480     29.2974
  1177.2000      8.2342      2.5766      0.1394      4.4511    141.7009     29.7600
  1177.3000      8.2499      2.5711      0.1379      4.7800    145.2378     30.6017
  1177.4000      8.2499      2.5696      0.1854      4.8755    149.7505     31.3766
  1177.5000      8.2614      2.5835      0.2502      4.0307    159.4387     31.8989
  1177.6000      8.2614      2.6043      0.2093      2.7695    165.2004     31.8466
  1177.7000      8.2614      2.6227      0.2212      1.6575    156.8313     31.1982
  1177.8000      8.2799      2.6331      0.1851      1.0255    144.0190     30.8517
  1177.9000      8.2799      2.6403      0.1423      0.5903    139.9704     31.2799
  1178.0000      8.3463      2.6521      0.2330     -0.1278    138.4750     31.9691
  1178.1000      8.3463      2.6563      0.2185     -0.3814    135.2438     32.4633
  1178.2000      8.3463      2.6471      0.1750      0.1728    138.2306     32.6181
  1178.3000      8.3057      2.6458      0.1892      0.2562    146.9083     32.3337
  1178.4000      8.3057      2.6606      0.1991     -0.6411    152.6513     31.5463
  1178.5000      8.3074      2.6715      0.1878     -1.3003    152.0809     30.1594
  1178.6000      8.3074      2.6640      0.1932     -0.8479    148.6373     28.8842
  1178.7000      8.3074      2.6528      0.0470     -0.1687    148.6267     28.6837
  1178.8000      8.3189      2.6561      0.1009     -0.3693    154.0651     29.3236
  1178.9000      8.3189      2.6656      0.1561     -0.9443    157.8234     29.9724
  1179.0000      8.2307      2.6708      0.1076     -1.2591    152.9744     29.9735
  1179.1000      8.2307      2.6815      0.0935     -1.9099    143.3068     29.4557
  1179.2000      8.2307      2.7034      0.1171     -3.2337    135.2358     29.0185
  1179.3000      8.1832      2.7225      0.1192     -4.3947    135.1470     28.6821
  1179.4000      8.1832      2.7263      0.0998     -4.6220    143.3240     28.2227
  1179.5000      8.1606      2.7181      0.0208     -4.1256    147.4763     28.0052
  1179.6000      8.1606      2.7049      0.0896     -3.3254    140.3185     28.5735
  1179.7000      8.1606      2.6875      0.0892     -2.2730    131.1600     29.5572
  1179.8000      8.1801      2.6791      0.0945     -1.7640    131.0573     30.2426
  1179.9000      8.1801      2.6879      0.1331     -2.2978    136.7216     30.5249
  1180.0000      8.1619      2.6968      0.1204     -2.8341    136.7553     30.5251
  1180.1000      8.1619      2.6862      0.0956     -2.1938    131.1833     30.0689
  1180.2000      8.1619      2.6564      0.0445     -0.3868    130.2528     29.4424
  1180.3000      8.1585      2.6301      0.0327      1.2047    136.5009     29.4877
  1180.4000      8.1585      2.6274      0.0210      1.3678    142.6535     30.1862
  1180.5000      8.1584      2.6340      0.0811      0.9674    144.6737     30.5718
  1180.6000      8.1584      2.6248      0.1146      1.5264    146.5001     30.0608
  1180.7000      8.1584      2.6129     -0.0273      2.2491    151.4798     29.0178
  1180.8000      8.1574      2.6261      0.0206      1.4488    155.6124     28.1988
  1180.9000      8.1574      2.6511      0.0658     -0.0638    153.0923     27.8798
  1181.0000      8.1545      2.6599      0.0913     -0.6016    148.7288     27.6027
  1181.1000      8.1545      2.6527      0.0500     -0.1661    147.3794     27.0588
  1181.2000      8.1545      2.6438      0.0370      0.3756    143.8813     27.0890
  1181.3000      8.1577      2.6401      0.0571      0.6001    137.2852     28.0554
