~Version Information
VERS.                      2.0: CWLS Log ASCII Standard - VERSION 2.0
WRAP.                       NO: One line per depth step
~Well Information Block
STRT.FT               235.0000: 
STOP.FT              1634.5000: 
STEP.FT                 0.2500: 
NULL.                -999.2500: 
COMP.          Petrogulf Corporation: COMPANY
WELL.             State 16-41R: WELL
FLD.           Purgatorie River: FIELD
LOC.           280' FNL & 907' FEL: LOCATION
SECT.                       16: SECTION
TOWN.                      33S: TOWNSHIP
RANG.                      67W: RANGE
STAT.                 Colorado: STATE
CNTY.               Las Animas: COUNTY
CTRY.                      USA: COUNTRY
SRVC.                Patterson: SERVICE COMPANY
DATE.         Tue Oct 18 15:59:41 2005: LOG DATE
API.              05-071-08345: UNIQUE WELL ID
~Curve Information Block
DEPT.FT            0 000 00 00: Depth
SP.mV                         : DIL Spontaneous Potential
RILD.Ohm-m                    : DIL Deep Resistivity
RILM.Ohm-m                    : DIL Medium Resistivity
RLL3.Ohm-m                    : DIL Shallow Resistivity
GR.GAPI                       : Gamma Ray
~Parameter Information Block
~A  Depth        SP         RILD        RILM        RLL3         GR     
# ...
  1411.0000    190.9140      8.3818      8.7034      9.6524    127.6306
  1411.2500    191.4665      8.3231      8.5988      9.4912    130.2828
  1411.5000    192.2989      8.2883      8.5115      9.4249    132.3906
  1411.7500    193.3673      8.2778      8.4463      9.4119    131.9417
  1412.0000    194.5925      8.2889      8.4067      9.3892    128.9777
  1412.2500    195.8700      8.3163      8.3954      9.3131    126.5363
  1412.5000    197.0963      8.3540      8.4135      9.1984    123.9251
  1412.7500    198.1957      8.3954      8.4604      9.1285    123.1052
  1413.0000    199.1306      8.4348      8.5333      9.2088    122.4905
  1413.2500    199.8918      8.4673      8.6267      9.4850    122.1125
  1413.5000    200.4810      8.4892      8.7322      9.8947    121.7501
  1413.7500    200.9008      8.4978      8.8391     10.3052    121.9128
  1414.0000    201.1601      8.4916      8.9354     10.6045    122.6758
  1414.2500    201.2832      8.4706      9.0092     10.7637    123.0203
  1414.5000    201.3122      8.4364      9.0506     10.8225    122.4757
  1414.7500    201.2958      8.3922      9.0532     10.8306    121.5241
  1415.0000    201.2719      8.3410      9.0151     10.8064    119.9641
  1415.2500    201.2594      8.2842      8.9387     10.7327    118.7913
  1415.5000    201.2626      8.2209      8.8299     10.5664    116.0610
  1415.7500    201.2855      8.1482      8.6973     10.2635    113.7720
  1416.0000    201.3405      8.0633      8.5499      9.8282    111.7507
  1416.2500    201.4457      7.9641      8.3963      9.3497    112.6189
  1416.5000    201.6124      7.8511      8.2429      8.9624    117.2735
  1416.7500    201.8324      7.7264      8.0934      8.7524    121.3445
  1417.0000    202.0755      7.5937      7.9490      8.7048    126.3560
  1417.2500    202.2971      7.4570      7.8091      8.7369    128.1589
  1417.5000    202.4509      7.3211      7.6720      8.7663    128.6482
  1417.7500    202.5020      7.1907      7.5362      8.7518    128.0510
  1418.0000    202.4363      7.0708      7.4012      8.6940    126.9552
  1418.2500    202.2675      6.9652      7.2679      8.6142    126.8167
  1418.5000    202.0387      6.8770      7.1387      8.5296    128.6536
  1418.7500    201.8160      6.8077      7.0169      8.4394    131.5591
  1419.0000    201.6720      6.7584      6.9063      8.3341    137.6960
  1419.2500    201.6627      6.7312      6.8115      8.2187    141.8367
  1419.5000    201.8083      6.7296      6.7374      8.1217    146.1061
  1419.7500    202.0881      6.7589      6.6897      8.0667    147.2021
  1420.0000    202.4510      6.8249      6.6748      8.0381    147.0741
  1420.2500    202.8349      6.9314      6.6998      7.9888    146.7250
  1420.5000    203.1836      7.0787      6.7727      7.8981    146.9364
  1420.7500    203.4568      7.2638      6.9018      7.8378    147.8564
  1421.0000    203.6326      7.4814      7.0949      8.0185    150.3945
  1421.2500    203.7088      7.7258      7.3584      8.8215    152.3122
  1421.5000    203.7043      7.9934      7.6965     10.7850    153.5863
  1421.7500    203.6570      8.2825      8.1093     14.3917    152.3085
  1422.0000    203.6128      8.5931      8.5923     19.5491    146.6548
  1422.2500    203.6060      8.9254      9.1356     25.0782    140.6401
  1422.5000    203.6383      9.2794      9.7247     28.9662    129.0869
  1422.7500    203.6682      9.6547     10.3422     29.6631    120.7398
  1423.0000    203.6213     10.0484     10.9683     27.3755    110.2282
  1423.2500    203.4198     10.4509     11.5815     23.9130    106.0689
  1423.5000    203.0196     10.8402     12.1561     21.1683    104.2374
  1423.7500    202.4363     11.1793     12.6595     19.8376    104.7385
  1424.0000    201.7453     11.4217     13.0519     19.4824    105.9461
  1424.2500    201.0557     11.5274     13.2906     19.4164    106.5628
  1424.5000    200.4699     11.4810     13.3410     19.3014    107.2261
  1424.7500    200.0491     11.2988     13.1895     19.0697    107.6196
  1425.0000    199.7976     11.0208     12.8514     18.6151    108.6858
  1425.2500    199.6703     10.6918     12.3689     17.7417    110.2982
  1425.5000    199.5943     10.3477     11.7988     16.3748    114.7928
  1425.7500    199.4938     10.0109     11.1981     14.7022    118.9879
  1426.0000    199.3076      9.6916     10.6129     13.0623    125.6891
  1426.2500    198.9999      9.3921     10.0738     11.7175    129.3848
  1426.5000    198.5646      9.1100      9.5966     10.7417    132.6065
  1426.7500    198.0312      8.8413      9.1853     10.0877    133.2803
  1427.0000    197.4703      8.5821      8.8354      9.7139    133.1545
  1427.2500    196.9921      8.3308      8.5374      9.6389    132.9116
  1427.5000    196.7289      8.0892      8.2798      9.8883    132.6566
  1427.7500    196.7973      7.8629      8.0512     10.3981    132.4917
  1428.0000    197.2542      7.6601      7.8432     10.9716    132.1573
  1428.2500    198.0687      7.4900      7.6507     11.3511    131.9630
  1428.5000    199.1255      7.3615      7.4738     11.3631    132.1148
  1428.7500    200.2609      7.2821      7.3164     11.0097    132.8948
  1429.0000    201.3122      7.2572      7.1856     10.4317    136.0065
  1429.2500    202.1563      7.2900      7.0903      9.7988    139.8375
  1429.5000    202.7260      7.3809      7.0401      9.2340    147.8239
  1429.7500    203.0027      7.5281      7.0448      8.8053    153.4372
  1430.0000    202.9996      7.7274      7.1144      8.5501    159.8909
  1430.2500    202.7446      7.9739      7.2592      8.5060    162.3140
  1430.5000    202.2690      8.2627      7.4903      8.7735    163.6271
  1430.7500    201.6019      8.5895      7.8199      9.6257    163.2617
  1431.0000    200.7686      8.9523      8.2609     11.5912    160.5856
  1431.2500    199.7945      9.3527      8.8266     15.3374    156.9162
  1431.5000    198.7173      9.7980      9.5295     21.2252    147.5231
  1431.7500    197.6009     10.3015     10.3800     28.7288    138.1778
  1432.0000    196.5439     10.8822     11.3851     36.2795    120.4099
  1432.2500    195.6701     11.5626     12.5468     41.9535    108.0465
  1432.5000    195.0975     12.3664     13.8628     44.6181     92.9434
  1432.7500    194.8968     13.3147     15.3259     44.6006     86.5309
  1433.0000    195.0588     14.4203     16.9242     43.3566     81.7524
  1433.2500    195.4930     15.6789     18.6387     42.4403     80.4250
  1433.5000    196.0588     17.0592     20.4383     42.4946     79.0838
  1433.7500    196.6177     18.4973     22.2741     42.9623     77.9978
  1434.0000    197.0777     19.9016     24.0767     42.7642     76.1666
  1434.2500    197.4113     21.1714     25.7623     41.3185     75.4090
  1434.5000    197.6433     22.2241     27.2477     38.9324     76.1603
  1434.7500    197.8203     23.0167     28.4703     36.4011     78.0564
  1435.0000    197.9804     23.5514     29.4015     34.4642     81.7736
  1435.2500    198.1359     23.8665     30.0489     33.5604     83.9003
  1435.5000    198.2713     24.0190     30.4484     33.7350     86.0162
  1435.7500    198.3523     24.0674     30.6510     34.5544     87.0022
  1436.0000    198.3384     24.0588     30.7140     35.2290     88.4024
  1436.2500    198.1951     24.0225     30.6928     35.0861     89.3362
  1436.5000    197.9033     23.9664     30.6350     34.0691     90.4813
  1436.7500    197.4638     23.8760     30.5720     32.7771     90.9283
  1437.0000    196.8966     23.7153     30.5096     32.0201     91.2634
  1437.2500    196.2358     23.4328     30.4192     32.3751     91.5831
  1437.5000    195.5222     22.9770     30.2342     34.1008     92.4959
  1437.7500    194.7994     22.3157     29.8568     37.2068     93.0888
  1438.0000    194.1144     21.4498     29.1791     41.2886     92.9199
  1438.2500    193.5218     20.4147     28.1184     45.2517     91.6535
  1438.5000    193.0845     19.2676     26.6527     47.4896     88.0769
  1438.7500    192.8679     18.0708     24.8381     46.7097     85.1288
