~Version Information
 VERS.                                  2.0 : CWLS LAS VERSION
 WRAP.                                   NO : WRAPING MODE
 SWARE .                 MController 2.5.0J : SOFTWARE VERSION
~Well Information
 WELL.                       Galloway 32-13 : WELL
 COMP.   Pioneer Natural Resources USA Inc. : COMPANY
 FLD.                         Spanish Peaks : FIELD
 LOC.                SW/NE Sec 13 T32S R66W : LOCATION
 DATE.                             7/6-7/05 : DATE(S) LOGGED
 SRVC.       BLANCO Geological Services LLC : SERVICE COMPANY
 STAT.                                   CO : STATE
 CNTY.                           Las Animas : COUNTY
 CTRY.                                  USA : COUNTRY
 API.                       05-071-08423-00 : API NUMBER
 STRT.FT                             596.00 : START DEPTH
 STOP.FT                            2075.00 : STOP DEPTH
 STEP.FT                               1.00 : DEPTH INCREMENT
 NULL.                                -9999 : NULL VALUE
~Curve information
 DEPTH.FT                                   :
 ROP.MIN/FT                                 :
 GAS.UNITS                                  :
~ASCII Log data
       596.0     -9999.00          1.5 
       597.0         1.00          1.6 
       598.0         0.42          1.6 
       599.0         0.50          1.9 
       600.0        86.67          2.2 
       601.0         0.20          1.6 
       602.0         0.30          1.5 
       603.0         0.20          1.9 
       604.0         0.20          2.0 
       605.0         0.20          2.1 
       606.0         0.20          2.2 
       607.0         0.20          1.8 
       608.0         6.53          2.2 
       609.0         0.20          2.0 
       610.0         0.20          2.0 
       611.0         0.20          2.1 
       612.0         0.20          1.9 
       613.0         0.30          2.0 
       614.0         7.05          1.5 
       615.0         0.20          1.6 
       616.0         0.20          1.8 
       617.0         0.20          1.7 
       618.0         0.20          1.3 
       619.0         0.20          1.5 
       620.0         0.20          1.5 
       621.0        21.20          2.2 
       622.0         0.22          2.4 
       623.0         0.20          2.5 
       624.0         0.30          2.2 
       625.0         0.40          2.2 
       626.0         0.40          2.3 
       627.0         0.30          2.3 
       628.0         0.30          2.2 
       629.0         0.30          2.3 
       630.0         0.40          2.1 
       631.0         0.82          2.2 
       632.0         6.45          8.6 
       633.0         0.28          9.5 
       634.0         0.30          9.1 
       635.0         0.20          9.2 
       636.0         0.30          9.6 
       637.0         0.30          9.7 
       638.0         0.30          9.4 
       639.0         5.33         11.9 
       640.0         0.20         11.8 
       641.0         0.30         12.0 
       642.0         0.30         12.9 
       643.0         0.30         12.0 
       644.0         0.50         12.4 
       645.0         0.30         12.2 
       646.0        11.02         14.8 
       647.0         0.52         15.2 
       648.0         0.50         14.9 
       649.0         0.30         15.9 
       650.0         0.30         15.3 
       651.0         0.60         15.6 
       652.0         0.30         16.0 
       653.0         0.40         15.4 
       654.0         0.40         15.8 
       655.0         0.32         15.7 
       656.0         0.50         15.4 
       657.0         0.30         15.8 
       658.0         0.30         15.5 
       659.0         0.40         15.6 
       660.0         0.40         15.6 
       661.0         0.40         16.3 
       662.0         0.30         16.5 
       663.0         6.03         16.8 
       664.0         0.60         17.4 
       665.0         0.30         17.3 
       666.0         0.42         16.9 
       667.0         0.40         17.4 
       668.0         0.60         18.0 
       669.0         0.50         18.1 
       670.0         0.40         17.2 
       671.0         0.30         17.5 
       672.0         0.40         17.6 
       673.0         0.40         17.6 
       674.0         0.28         17.7 
       675.0         0.70         17.6 
       676.0         0.80         17.8 
       677.0         0.70         18.4 
       678.0         0.70         18.9 
       679.0         0.52         18.8 
       680.0         0.50         18.3 
       681.0         0.60         18.2 
       682.0         0.50         19.0 
       683.0         0.30         18.0 
       684.0         0.40         18.4 
       685.0         0.40         18.5 
       686.0         0.62         19.1 
       687.0         0.40         18.9 
       688.0         0.50         18.6 
       689.0         0.50         18.7 
       690.0         0.50         18.6 
       691.0         0.40         18.8 
       692.0         0.50         19.2 
       693.0         0.52         18.7 
       694.0         0.50         18.9 
       695.0         0.40         19.6 
       696.0         0.50         18.8 
       697.0         0.30         19.1 
       698.0         0.30         18.9 
       699.0         0.30         18.7 
       700.0         0.40         19.7 
       701.0         0.30         19.9 
       702.0         0.32         19.1 
       703.0         0.30         19.2 
       704.0         0.30         19.4 
       705.0         0.50         19.3 
       706.0         0.30         20.0 
       707.0         0.40         20.1 
       708.0         0.40         19.6 
       709.0         0.30         19.4 
       710.0         0.30         20.4 
       711.0         0.42         19.4 
       712.0         0.40         20.1 
       713.0         0.30         19.8 
       714.0         0.20         19.6 
       715.0         0.40         19.4 
       716.0         0.30         19.5 
       717.0         0.30         20.1 
       718.0         0.40         20.1 
       719.0         0.20         20.4 
       720.0         0.20         20.9 
       721.0         0.20         19.7 
       722.0         0.22         21.1 
       723.0         0.20         20.1 
       724.0         0.20         20.4 
       725.0         0.20         20.0 
       726.0         0.20         20.2 
       727.0         0.30         20.4 
       728.0         0.20         20.3 
       729.0         0.20         21.2 
       730.0         0.40         20.4 
       731.0         0.20         21.3 
       732.0         0.20         19.9 
       733.0         0.20         20.4 
       734.0         0.20         21.2 
       735.0         0.30         20.6 
       736.0         0.22         20.5 
       737.0         0.10         20.4 
       738.0         0.20         20.3 
       739.0         0.10         20.4 
       740.0         0.10         21.2 
       741.0         0.20         20.6 
       742.0         0.20         20.4 
       743.0         0.20         20.0 
       744.0         0.20         21.1 
       745.0         0.20         20.3 
       746.0         0.20         20.6 
       747.0         0.20         20.4 
       748.0         0.20         20.5 
       749.0         0.20         20.4 
       750.0         0.20         19.8 
       751.0         0.10         20.6 
       752.0         0.20         20.3 
       753.0         0.10         20.1 
       754.0         0.10         20.1 
       755.0         0.10         20.8 
       756.0         0.20         19.8 
       757.0         0.12         20.2 
       758.0         0.10         20.5 
       759.0         0.10         20.0 
       760.0         0.20         20.9 
       761.0         0.10         21.2 
       762.0         0.20         20.6 
       763.0         0.10         20.5 
       764.0         0.20         20.7 
       765.0         0.10         20.5 
       766.0         0.10         20.3 
       767.0         0.20         20.4 
       768.0         0.10         20.9 
       769.0         0.10         20.1 
       770.0         0.20         20.0 
       771.0         0.20         19.9 
       772.0         0.10         19.9 
       773.0         0.20         20.4 
       774.0         0.20         20.4 
       775.0         0.20         19.8 
       776.0         0.20         19.8 
       777.0         0.10         19.8 
       778.0         0.10         20.2 
       779.0         0.22         19.4 
       780.0         0.20         20.1 
       781.0         0.10         20.1 
       782.0         0.20         20.1 
       783.0         0.10         21.0 
       784.0         0.30         20.0 
       785.0         0.20         20.7 
       786.0         0.20         20.1 
       787.0         0.20         19.5 
       788.0         0.40         20.0 
       789.0         0.20         19.7 
       790.0         0.60         20.1 
       791.0         0.40         19.9 
       792.0         0.42         20.0 
       793.0         0.20         20.2 
       794.0         0.30         20.0 
       795.0         0.50         19.7 
