~Version Information
VERS.                      2.0: CWLS Log ASCII Standard - VERSION 2.0
WRAP.                       NO: One line per depth step
~Well Information Block
STRT.FT               387.1000: 
STOP.FT              1748.0000: 
STEP.FT                 0.1000: 
NULL.                -999.2500: 
COMP.          Evergreen Operating Corp.: COMPANY
WELL.          Pachorek 13-31 Tr: WELL
FLD.           Cottontail Pass: FIELD
LOC.           1575' FSL & 900' FWL--API# 05-071-07019-00: LOCATION
PROV.                 Colorado: PROVINCE
CNTY.               Las Animas: COUNTRY
SRVC.          Scientific Data Systems, Inc.: SERVICE COMPANY
DATE.          Tue Aug 08 15:02:37 2000: LOG DATE
UWI.                      05071070190000:UNIQUE WELL IDENTIFICATION
~Curve Information Block
DEPT.FT            0 000 00 00: Depth
DCAL.in                       : CDL Caliper
RHOB.g/cc                     : CDL Bulk Density
RHOC.g/cc                     : CDL Density Correction
DPOR.pu                       : CDL Density Porosity
GR.GAPI                       : Gamma Ray
NPOR.pu                       : Neutron Porosity
~Parameter Information Block
~A  Depth       DCAL        RHOB        RHOC        DPOR         GR         NPOR    
# ...
   483.1000      7.8406      2.5457     -0.0015      6.3228    102.2550     13.4901
   483.2000      7.8406      2.5411     -0.0022      6.6004    103.0821     13.5948
   483.3000      7.8569      2.5370     -0.0023      6.8458    103.7775     13.7435
   483.4000      7.8569      2.5336     -0.0018      7.0557    104.3358     13.9232
   483.5000      7.8755      2.5307     -0.0007      7.2295    104.7728     14.1203
   483.6000      7.8755      2.5284      0.0009      7.3681    105.1135     14.3219
   483.7000      7.8755      2.5267      0.0028      7.4749    105.3817     14.5177
   483.8000      7.8796      2.5253      0.0049      7.5547    105.5886     14.7001
   483.9000      7.8796      2.5244      0.0069      7.6136    105.7329     14.8649
   484.0000      7.8695      2.5236      0.0088      7.6580    105.7980     15.0112
   484.1000      7.8695      2.5230      0.0104      7.6943    105.7605     15.1408
   484.2000      7.8695      2.5225      0.0116      7.7278    105.5971     15.2570
   484.3000      7.8597      2.5219      0.0124      7.7621    105.2947     15.3640
   484.4000      7.8597      2.5213      0.0128      7.7992    104.8536     15.4660
   484.5000      7.8547      2.5207      0.0128      7.8383    104.2962     15.5664
   484.6000      7.8547      2.5200      0.0127      7.8770    103.6602     15.6680
   484.7000      7.8547      2.5195      0.0127      7.9108    102.9989     15.7728
   484.8000      7.8502      2.5191      0.0129      7.9338    102.3671     15.8832
   484.9000      7.8502      2.5190      0.0137      7.9399    101.8130     16.0023
   485.0000      7.8439      2.5193      0.0150      7.9231    101.3674     16.1350
   485.1000      7.8439      2.5200      0.0171      7.8786    101.0384     16.2880
   485.2000      7.8439      2.5212      0.0198      7.8039    100.8090     16.4699
   485.3000      7.8344      2.5230      0.0231      7.6990    100.6517     16.6902
   485.4000      7.8344      2.5252      0.0267      7.5666    100.5256     16.9572
   485.5000      7.8224      2.5277      0.0302      7.4128    100.4027     17.2765
   485.6000      7.8224      2.5304      0.0334      7.2463    100.2724     17.6484
   485.7000      7.8224      2.5332      0.0359      7.0779    100.1483     18.0662
   485.8000      7.8157      2.5358      0.0372      6.9198    100.0679     18.5156
   485.9000      7.8157      2.5380      0.0372      6.7850    100.0862     18.9754
   486.0000      7.8178      2.5397      0.0358      6.6855    100.2679     19.4191
   486.1000      7.8178      2.5406      0.0328      6.6318    100.6650     19.8182
   486.2000      7.8178      2.5406      0.0284      6.6323    101.3130     20.1453
   486.3000      7.8250      2.5396      0.0230      6.6920    102.2152     20.3777
   486.4000      7.8250      2.5376      0.0170      6.8126    103.3441     20.4999
   486.5000      7.8259      2.5346      0.0109      6.9922    104.6432     20.5055
   486.6000      7.8259      2.5308      0.0052      7.2253    106.0291     20.3967
   486.7000      7.8259      2.5262      0.0006      7.5034    107.4077     20.1841
   486.8000      7.8196      2.5210     -0.0027      7.8156    108.6820     19.8848
   486.9000      7.8196      2.5155     -0.0042      8.1490    109.7678     19.5204
   487.0000      7.8219      2.5099     -0.0038      8.4897    110.6025     19.1150
   487.1000      7.8219      2.5044     -0.0017      8.8233    111.1541     18.6939
   487.2000      7.8219      2.4993      0.0021      9.1358    111.4231     18.2812
   487.3000      7.8314      2.4947      0.0073      9.4139    111.4428     17.8988
   487.4000      7.8314      2.4909      0.0133      9.6454    111.2683     17.5659
   487.5000      7.8424      2.4880      0.0199      9.8194    110.9662     17.2974
   487.6000      7.8424      2.4862      0.0266      9.9265    110.6020     17.1036
   487.7000      7.8424      2.4857      0.0333      9.9587    110.2280     16.9904
   487.8000      7.8583      2.4865      0.0398      9.9098    109.8713     16.9591
   487.9000      7.8583      2.4887      0.0458      9.7750    109.5395     17.0072
   488.0000      7.8755      2.4924      0.0515      9.5513    109.2179     17.1292
   488.1000      7.8755      2.4976      0.0569      9.2378    108.8842     17.3179
   488.2000      7.8755      2.5042      0.0621      8.8356    108.5162     17.5648
   488.3000      7.8851      2.5122      0.0672      8.3486    108.1006     17.8615
   488.4000      7.8851      2.5216      0.0724      7.7832    107.6446     18.1996
   488.5000      7.8877      2.5320      0.0776      7.1496    107.1736     18.5714
   488.6000      7.8877      2.5434      0.0830      6.4604    106.7300     18.9695
   488.7000      7.8877      2.5554      0.0886      5.7322    106.3695     19.3862
   488.8000      7.8880      2.5678      0.0941      4.9840    106.1498     19.8138
   488.9000      7.8880      2.5801      0.0994      4.2374    106.1267     20.2438
   489.0000      7.8872      2.5920      0.1041      3.5157    106.3441     20.6674
   489.1000      7.8872      2.6031      0.1081      2.8425    106.8262     21.0751
   489.2000      7.8872      2.6130      0.1109      2.2410    107.5766     21.4571
   489.3000      7.8786      2.6214      0.1123      1.7329    108.5737     21.8037
   489.4000      7.8786      2.6279      0.1120      1.3367    109.7703     22.1046
   489.5000      7.8595      2.6324      0.1100      1.0670    111.1023     22.3496
   489.6000      7.8595      2.6346      0.1063      0.9342    112.4886     22.5285
   489.7000      7.8595      2.6344      0.1010      0.9429    113.8405     22.6317
   489.8000      7.8393      2.6320      0.0942      1.0925    115.0743     22.6512
   489.9000      7.8393      2.6273      0.0862      1.3773    116.1136     22.5813
   490.0000      7.8221      2.6205      0.0774      1.7860    116.8963     22.4201
   490.1000      7.8221      2.6120      0.0681      2.3035    117.3771     22.1703
   490.2000      7.8221      2.6020      0.0587      2.9107    117.5316     21.8405
   490.3000      7.8088      2.5908      0.0495      3.5859    117.3548     21.4442
   490.4000      7.8088      2.5790      0.0407      4.3056    116.8644     20.9999
   490.5000      7.8017      2.5668      0.0326      5.0454    116.0920     20.5294
   490.6000      7.8017      2.5546      0.0254      5.7813    115.0856     20.0555
   490.7000      7.8017      2.5429      0.0193      6.4905    113.9012     19.6002
   490.8000      7.8016      2.5320      0.0143      7.1519    112.6031     19.1827
   490.9000      7.8016      2.5222      0.0106      7.7476    111.2520     18.8173
   491.0000      7.8133      2.5137      0.0083      8.2632    109.9094     18.5124
   491.1000      7.8133      2.5066      0.0074      8.6882    108.6318     18.2697
   491.2000      7.8133      2.5012      0.0079      9.0163    107.4784     18.0849
   491.3000      7.8355      2.4974      0.0096      9.2459    106.5106     17.9485
   491.4000      7.8355      2.4952      0.0126      9.3789    105.8009     17.8488
   491.5000      7.8548      2.4946      0.0166      9.4212    105.4358     17.7735
   491.6000      7.8548      2.4952      0.0213      9.3813    105.5221     17.7133
   491.7000      7.8548      2.4971      0.0265      9.2695    106.1787     17.6648
   491.8000      7.8624      2.4999      0.0320      9.0968    107.5366     17.6314
   491.9000      7.8624      2.5036      0.0376      8.8738    109.7242     17.6240
   492.0000      7.8617      2.5079      0.0430      8.6102    112.8433     17.6603
   492.1000      7.8617      2.5128      0.0483      8.3133    116.9506     17.7623
   492.2000      7.8617      2.5182      0.0535      7.9885    122.0364     17.9529
   492.3000      7.8655      2.5240      0.0589      7.6390    128.0070     18.2526
   492.4000      7.8655      2.5301      0.0646      7.2661    134.6796     18.6767
   492.5000      7.8747      2.5366      0.0709      6.8698    141.7899     19.2322
   492.6000      7.8747      2.5436      0.0779      6.4501    149.0168     19.9165
