~Version Information
 VERS.                                  2.0 : CWLS LAS VERSION
 WRAP.                                   NO : WRAPING MODE
 SWARE .                 MController 2.5.0J : SOFTWARE VERSION
~Well Information
 WELL.                          Graff 9-31R : WELL
 COMP.                       Petrogulf Corp : COMPANY
 FLD.                      Purgatorie River : FIELD
 LOC.                 NW/NE Sec 9 T32S R67W : LOCATION
 DATE.                           10/24/2004 : DATE(S) LOGGED
 SRVC.       Blanco Geological Services LLC : SERVICE COMPANY
 STAT.                                   CO : STATE
 CNTY.                           Las Animas : COUNTY
 CTRY.                                  USA : COUNTRY
 API.                       05-071-080370-00 : API NUMBER
 STRT.FT                             712.0 : START DEPTH
 STOP.FT                            1940.00 : STOP DEPTH
 STEP.FT                               1.00 : DEPTH INCREMENT
 NULL.                                -9999 : NULL VALUE
~Curve information
 DEPTH.FT                                   :
 ROP.MIN/FT                                 :
 GAS.UNITS                                  :
~ASCII Log data
       712.0         0.20          7.4 
       713.0         0.30          6.7 
       714.0         0.16          7.2 
       715.0         0.20          7.2 
       716.0         0.85          7.7 
       717.0         0.33          7.3 
       718.0         0.20          7.1 
       719.0         0.20          7.8 
       720.0         0.16          7.3 
       721.0         0.16          8.3 
       722.0         0.13          8.3 
       723.0         0.13          8.2 
       724.0         0.10          8.3 
       725.0         0.13          8.5 
       726.0         0.06          8.5 
       727.0         0.10          8.2 
       728.0         0.10          8.2 
       729.0         0.10          7.8 
       730.0         0.06          7.6 
       731.0         0.10          7.6 
       732.0         0.10          7.7 
       733.0         0.13          7.7 
       734.0         0.13          7.3 
       735.0         0.16          7.3 
       736.0         0.16          7.7 
       737.0         0.18          7.6 
       738.0         0.16          7.6 
       739.0         0.20          7.6 
       740.0         0.16          7.7 
       741.0         0.13          7.7 
       742.0         0.13          7.1 
       743.0         0.16          7.1 
       744.0         0.13          7.2 
       745.0         0.13          7.2 
       746.0         2.68          9.3 
       747.0         0.33          8.8 
       748.0         0.16          9.0 
       749.0         0.10          9.0 
       750.0         0.20          7.9 
       751.0         0.20          8.0 
       752.0         0.23          7.9 
       753.0         0.23          7.8 
       754.0         0.16          7.0 
       755.0         0.20          7.5 
       756.0         0.20          7.5 
       757.0         0.16          7.1 
       758.0         0.20          7.3 
       759.0         0.13          7.3 
       760.0         0.16          8.1 
       761.0         0.15          8.0 
       762.0         0.16          8.0 
       763.0         0.16          7.9 
       764.0         0.16          7.6 
       765.0         0.16          7.9 
       766.0         0.13          7.0 
       767.0         0.16          7.0 
       768.0         0.20          7.4 
       769.0         0.20          6.9 
       770.0         0.16          6.9 
       771.0         0.26          7.4 
       772.0         0.26          7.4 
       773.0         0.20          7.0 
       774.0         0.20          7.7 
       775.0         0.13          7.7 
       776.0         1.35          8.4 
       777.0         0.26          9.6 
       778.0         0.30         11.2 
       779.0         0.13         11.3 
       780.0         0.20         11.3 
       781.0         0.23         11.2 
       782.0         0.13         10.1 
       783.0         0.10         10.1 
       784.0         0.10          8.9 
       785.0         0.13          8.9 
       786.0         0.10          8.0 
       787.0         0.20          8.8 
       788.0         0.20          7.7 
       789.0         0.26          8.2 
       790.0         0.16          8.3 
       791.0         0.25          7.7 
       792.0         0.32          7.7
       793.0         0.73          1.2 
       794.0         0.20          2.8 
       795.0         0.27          5.0 
       796.0         0.27          4.5 
       797.0         0.27          4.4 
       798.0         0.27          5.2 
       799.0         0.33          6.7 
       800.0         0.22          7.4 
       801.0         0.37          9.7 
       802.0         0.27         10.8 
       803.0         0.20         11.2 
       804.0         0.27         10.8 
       805.0         0.40         10.4 
       806.0         0.27          9.5 
       807.0         0.33          9.7 
       808.0         0.33          9.0 
       809.0         0.27          8.6 
       810.0         0.30          9.1 
       811.0         0.32          9.4 
       812.0         0.33          9.4 
       813.0         0.27          9.3 
       814.0         0.30          9.1 
       815.0         0.27          8.9 
       816.0         0.23          9.0 
       817.0         0.23          8.8 
       818.0         0.20          8.5 
       819.0         0.27          8.9 
       820.0         0.27          8.0 
       821.0         0.33          8.9 
       822.0         0.30          8.3 
       823.0         0.32          6.2 
       824.0         0.17          5.0 
       825.0         0.20          4.7 
       826.0         0.17          4.3 
       827.0         0.20          6.0 
       828.0         0.20         58.3 
       829.0         0.17         88.0 
       830.0         0.23         68.2 
       831.0         0.17         48.0 
       832.0         0.20         31.5 
       833.0         0.17         22.2 
       834.0         0.17         15.9 
       835.0         0.20         10.3 
       836.0         0.90          2.5 
       837.0         0.23          2.3 
       838.0         0.47          3.2 
       839.0         0.37          4.7 
       840.0         0.33          5.0 
       841.0         0.30          8.4 
       842.0         0.33          7.7 
       843.0         0.37          5.7 
       844.0         0.38          3.7 
       845.0         0.43          2.6 
       846.0         0.43          2.5 
       847.0         0.43          2.5 
       848.0         0.37          2.5 
       849.0         0.37          2.6 
       850.0         0.43          2.7 
       851.0         0.40          3.0 
       852.0         0.42          2.9 
       853.0         0.40          2.8 
       854.0         0.40          2.6 
       855.0         0.33          3.1 
       856.0         0.37          2.5 
       857.0         0.53          2.9 
       858.0         0.33          2.6 
       859.0         0.33          2.7 
       860.0         0.52          3.1 
       861.0         0.27          2.9 
       862.0         0.33          2.9 
       863.0         0.53          2.9 
       864.0         0.27          2.7 
       865.0         0.27          2.8 
       866.0         0.27          4.3 
       867.0         0.17          4.5 
       868.0         0.17          5.2 
       869.0         0.13          5.3 
       870.0         0.13          6.1 
       871.0         0.10          6.1 
       872.0         0.10          7.1 
       873.0         0.10          7.9 
       874.0         0.10          8.5 
       875.0         0.13          9.6 
       876.0         0.17          8.9 
       877.0         0.20          9.4 
       878.0         0.17         12.4 
       879.0         0.23         21.6 
       880.0         0.22         25.4 
       881.0         0.20         23.2 
       882.0         0.20         17.4 
       883.0         0.17         13.3 
       884.0         0.17          9.7 
       885.0         0.17          7.3 
       886.0         0.17          5.8 
       887.0         0.20          5.1 
       888.0         0.23          3.9 
       889.0         0.17          3.6 
       890.0         0.13          3.2 
       891.0         0.10          3.2 
       892.0         0.10          3.0 
       893.0         0.17          3.3 
       894.0         0.17          3.2 
       895.0         0.23          3.1 
       896.0         0.17          4.0 
       897.0         0.17          4.4 
       898.0         0.20          5.2 
       899.0         0.30          5.9 
       900.0         0.37          7.6 
       901.0         0.27          9.1 
       902.0         0.28          8.6 
       903.0         0.33          5.8 
       904.0         0.27          4.5 
       905.0         0.30          3.4 
       906.0         0.23          3.6 
       907.0         0.23          2.6 
       908.0         0.20          2.5 
       909.0         0.20          2.6 
       910.0         0.20          2.9 
       911.0         0.17          2.5 
       912.0         0.17          2.6 
