~Version Information
VERS.                      2.0: CWLS Log ASCII Standard - VERSION 2.0
WRAP.                       NO: One line per depth step
~Well Information Block
STRT.FT               553.0000: 
STOP.FT              1576.5000: 
STEP.FT                 0.2500: 
NULL.                -999.2500: 
COMP.          Pioneer Natural Resources: COMPANY
WELL.           Telna 24-22 Tr: WELL
FLD.           Purgatoire River: FIELD
LOC.           748' FSL & 1931' FWL: LOCATION
PROV.                 Colorado: PROVINCE
CNTY.               Las Animas: COUNTRY
SRVC.                Patterson: SERVICE COMPANY
DATE.          Mon May 02 07:15:29 2005: LOG DATE
UWI.           05 071 08304 00: UNIQUE WELL ID
~Curve Information Block
DEPT.FT            0 000 00 00: Depth
DCAL.in                       : CDL Caliper
RHOB.g/cc                     : CDL Bulk Density
RHOC.g/cc                     : CDL Density Correction
DPOR.pu                       : CDL Density Porosity
GR.GAPI                       : Gamma Ray
NPOR.pu                       : Neutron Porosity
~Parameter Information Block
~A  Depth       DCAL        RHOB        RHOC        DPOR         GR         NPOR    
# ...
   697.0000      7.9840      1.8640      0.2436     47.6390    118.0988     26.5706
   697.2500      7.9828      2.2108      0.3371     26.6187    126.6868     31.8972
   697.5000      7.9792      2.9616      0.6593    -18.8869    118.1456     33.1332
   697.7500      7.9733      3.0411      0.6147    -23.7024    107.2916     29.7035
   698.0000      7.9671      2.6164      0.0377      2.0352    109.1433     25.1509
   698.2500      7.9745      2.3240     -0.2428     19.7580    121.6047     23.3080
   698.5000      8.0114      2.3235      0.1567     19.7908    148.6281     18.1948
   698.7500      8.0532      2.3511      0.3932     18.1173    149.5413     16.3132
   699.0000      8.0612      2.1050      0.2433     33.0295    155.2393     17.5454
   699.2500      8.0417      1.9951      0.1260     39.6888    139.7422     19.8175
   699.5000      8.0162      2.0289      0.1842     37.6419    137.5489     22.0084
   699.7500      8.0029      2.1114      0.2911     32.6447    141.5086     21.8762
   700.0000      7.9989      2.0061      0.0393     39.0227    136.3859     21.9528
   700.2500      8.0116      1.8905      0.0907     46.0331    135.3368     20.1076
   700.5000      8.0520      1.7234      0.0000     56.1567    118.5831     18.4559
   700.7500      8.1015      1.5418      0.0276     67.1616    113.7761     18.5642
   701.0000      8.1476      1.5481      0.0778     66.7826    128.1078     21.6921
   701.2500      8.1771      1.7709      0.0779     53.2813    121.4840     24.1973
   701.5000      8.1813      2.1832      0.3436     28.2898    119.5939     25.5942
   701.7500      8.1505      2.3735      0.4209     16.7563    136.0231     26.5269
   702.0000      8.0939      2.3112     -0.0066     20.5334    147.3063     27.8606
   702.2500      8.0554      2.2560      0.0193     23.8780    148.4090     26.6069
   702.5000      8.0444      2.2220      0.0068     25.9412    152.4902     22.5747
   702.7500      8.0498      2.1270      0.0276     31.6985    146.8786     20.0659
   703.0000      8.0614      1.8721      0.0212     47.1457    154.7811     16.4970
   703.2500      8.0711      1.6864     -0.0737     58.3988    139.3749     13.7096
   703.5000      8.0833      1.4295     -0.0287     73.9699    118.1649     10.3962
   703.7500      8.1209      1.3964      0.1877     75.9775    101.3543      9.9103
   704.0000      8.1825      1.4961      0.3421     69.9326     86.2448     14.5629
   704.2500      8.2083      1.6092      0.3979     63.0785     96.8074     18.2197
   704.5000      8.1638      1.8242      0.2878     50.0459    110.1291     23.0871
   704.7500      8.0792      2.0037      0.2179     39.1722    134.2710     27.4669
   705.0000      8.0248      2.2953      0.3136     21.4970    151.0363     31.0284
   705.2500      8.0114      2.3810      0.2384     16.3017    162.6670     30.2135
   705.5000      8.0128      2.4023      0.1639     15.0139    168.6087     26.8811
   705.7500      8.0147      2.4066      0.1088     14.7511    164.1895     26.6793
   706.0000      8.0250      2.3394      0.0721     18.8215    167.9424     27.6944
   706.2500      8.0538      2.3079      0.0720     20.7331    161.1839     25.9237
   706.5000      8.0833      2.3156      0.0963     20.2680    174.3977     23.1573
   706.7500      8.0991      2.3353      0.0796     19.0716    156.9320     21.7943
   707.0000      8.1195      2.3217      0.1246     19.8996    151.1146     20.4385
   707.2500      8.1564      2.2527      0.0604     24.0779    158.1953     18.9022
   707.5000      8.1723      2.1682      0.0665     29.2004    163.6746     21.1568
   707.7500      8.0984      2.1306      0.1450     31.4772    145.4658     22.8989
   708.0000      7.9508      2.1192      0.1485     32.1712    138.1276     25.8386
   708.2500      7.8566      2.1957      0.1211     27.5335    138.0654     26.5658
   708.5000      7.8305      2.4228      0.2133     13.7689    146.1301     31.0316
   708.7500      7.8214      2.5496      0.2229      6.0876    156.1876     31.2940
   709.0000      7.8165      2.6594      0.1028     -0.5703    134.6461     34.4643
   709.2500      7.8147      2.7361      0.1558     -5.2202    118.7976     32.9124
   709.5000      7.8139      2.7004      0.0680     -3.0527    119.0597     30.9947
   709.7500      7.8137      2.6246     -0.0002      1.5417    129.4286     29.7093
   710.0000      7.8139      2.5690     -0.0544      4.9106    137.3227     29.5476
   710.2500      7.8139      2.5802     -0.0697      4.2293    134.1394     29.4338
   710.5000      7.8139      2.5741     -0.0405      4.6019    133.4043     29.2956
   710.7500      7.8143      2.6428      0.0498      0.4394    132.1727     28.5564
   711.0000      7.8144      2.6377      0.0992      0.7481    128.8096     29.4463
   711.2500      7.8143      2.5831     -0.0047      4.0519    135.8150     28.2707
   711.5000      7.8143      2.5620      0.0338      5.3325    132.0574     29.2182
   711.7500      7.8148      2.5596      0.0568      5.4767    140.3468     30.9366
   712.0000      7.8153      2.5029      0.0573      8.9131    132.1207     31.2735
   712.2500      7.8148      2.5358      0.0233      6.9242    131.5017     30.9126
   712.5000      7.8133      2.7372      0.1716     -5.2846    132.7583     30.7651
   712.7500      7.8120      2.7937      0.1674     -8.7117    134.1233     29.6797
   713.0000      7.8125      2.7212      0.0829     -4.3140    123.4669     27.3564
   713.2500      7.8133      2.6307      0.0201      1.1700    130.8286     27.0842
   713.5000      7.8136      2.5090      0.0185      8.5433    138.6727     27.9833
   713.7500      7.8139      2.5070      0.0329      8.6684    129.8182     28.5503
   714.0000      7.8140      2.5725      0.0599      4.6968    127.4136     27.0047
   714.2500      7.8135      2.5459      0.0032      6.3068    125.2169     26.4262
   714.5000      7.8130      2.5969      0.0423      3.2194    113.6150     24.4048
   714.7500      7.8134      2.6413      0.0829      0.5256    105.8564     24.5430
   715.0000      7.8135      2.5736      0.0650      4.6288    101.6936     24.6439
   715.2500      7.8129      2.5742      0.1105      4.5967    115.8516     24.4600
   715.5000      7.8108      2.5630      0.0324      5.2742     94.9669     24.8142
   715.7500      7.8089      2.5911      0.1078      3.5675     96.7429     24.7380
   716.0000      7.8094      2.4637      0.0292     11.2894     90.8906     22.0453
   716.2500      7.8089      2.4428      0.0071     12.5593     89.8614     20.9135
   716.5000      7.8075      2.6153      0.1810      2.1043     77.8085     20.5587
   716.7500      7.8080      2.6231      0.1560      1.6312     70.1482     21.2385
   717.0000      7.8086      2.5576      0.0900      5.5970     67.1772     18.3173
   717.2500      7.8068      2.6003      0.1062      3.0133     69.4565     19.5440
   717.5000      7.8014      2.5625      0.1132      5.3019     58.2167     20.0524
   717.7500      7.7928      2.5049      0.1405      8.7915     67.6777     19.5122
   718.0000      7.7788      2.3901      0.0353     15.7530     74.2580     19.4243
   718.2500      7.7690      2.5014      0.2047      9.0051     83.7384     19.1234
   718.5000      7.7912      2.6329      0.2311      1.0352     81.7852     21.8473
   718.7500      7.8268      2.6777      0.2659     -1.6813     91.6286     24.6390
   719.0000      7.8445      2.6038      0.1883      2.7976    103.1597     24.3016
   719.2500      7.8485      2.5204      0.0572      7.8521    101.3052     22.2540
   719.5000      7.8484      2.4655      0.0260     11.1827    103.0916     23.4024
   719.7500      7.8437      2.4669      0.0234     11.0960     95.9650     24.0282
   720.0000      7.8283      2.5103      0.0959      8.4684     94.7719     24.6360
   720.2500      7.8075      2.5142      0.1418      8.2324     86.6780     24.3779
   720.5000      7.8029      2.5417      0.1159      6.5664     77.8616     23.0777
   720.7500      7.8130      2.5193      0.0893      7.9192     74.2805     22.7227
