~Version Information
VERS.                      2.0: CWLS Log ASCII Standard - VERSION 2.0
WRAP.                       NO: One line per depth step
~Well Information Block
STRT.FT               -10.8000: 
STOP.FT              2238.7000: 
STEP.FT                 0.1000: 
NULL.                -999.2500: 
COMP.          Petrogulf Corporation: COMPANY
WELL.             McLeod 9-42V: WELL
FLD.           Purgatorie River: FIELD
LOC.           1658' FNL & 415' FEL----: LOCATION
CNTY.               Las Animas: COUNTY
SRVC.                         : SERVICE COMPANY
DATE.          Wed Nov 17 12:01:16 2004: LOG DATE
UWI.                          : UNIQUE WELL ID
STAT.                       CO: STATE
~Curve Information Block
DEPT.FT            0 000 00 00: Depth
GR.GAPI                       : Gamma Ray
CCL.                          : Casing Collar Locator
TT3.usec                      : CBL 3' Travel Time
AMP3.mV                       : CBL 3' Amplitude
~Parameter Information Block
~A  Depth        GR         CCL         TT3         AMP3    
# ...
   284.0000     88.3786      0.0000    258.0376     72.6773
   284.1000     88.3786      0.0000    258.0376     72.6773
   284.2000     88.3786      0.0000    258.0376     72.6773
   284.3000     89.8263      0.0000    258.0133     72.9068
   284.4000     89.8263      0.0000    258.0133     72.9068
   284.5000     90.8360      0.0000    258.0089     73.1905
   284.6000     90.8360      0.0000    258.0089     73.1905
   284.7000     90.8360      0.0000    258.0089     73.1905
   284.8000     92.1083      0.0000    258.0212     73.4957
   284.9000     92.1083      0.0000    258.0212     73.4957
   285.0000     94.1144      0.0000    258.0379     73.7826
   285.1000     94.1144      0.0000    258.0379     73.7826
   285.2000     94.1144      0.0000    258.0379     73.7826
   285.3000     96.6821      0.0000    258.0500     74.0176
   285.4000     96.6821      0.0000    258.0500     74.0176
   285.5000     99.1889      0.0000    258.0588     74.1702
   285.6000     99.1889      0.0000    258.0588     74.1702
   285.7000     99.1889      0.0000    258.0588     74.1702
   285.8000    101.1756      0.0000    258.0719     74.2160
   285.9000    101.1756      0.0000    258.0719     74.2160
   286.0000    102.7235      0.0000    258.0930     74.1481
   286.1000    102.7235      0.0000    258.0930     74.1481
   286.2000    102.7235      0.0000    258.0930     74.1481
   286.3000    104.0150      0.0000    258.1180     73.9813
   286.4000    104.0150      0.0000    258.1180     73.9813
   286.5000    104.5207      0.0000    258.1375     73.7399
   286.6000    104.5207      0.0000    258.1375     73.7399
   286.7000    104.5207      0.0000    258.1375     73.7399
   286.8000    103.1404      0.0000    258.1414     73.4425
   286.9000    103.1404      0.0000    258.1414     73.4425
   287.0000     99.5203      0.0000    258.1229     73.0945
   287.1000     99.5203      0.0000    258.1229     73.0945
   287.2000     99.5203      0.0000    258.1229     73.0945
   287.3000     94.9802      0.0000    258.0828     72.6924
   287.4000     94.9802      0.0000    258.0828     72.6924
   287.5000     91.7149      0.0000    258.0315     72.2350
   287.6000     91.7149      0.0000    258.0315     72.2350
   287.7000     91.7149      0.0000    258.0315     72.2350
   287.8000     91.0827      0.0000    257.9832     71.7285
   287.9000     91.0827      0.0000    257.9832     71.7285
   288.0000     92.8034      0.0000    257.9484     71.1734
   288.1000     92.8034      0.0000    257.9484     71.1734
   288.2000     92.8034      0.0000    257.9484     71.1734
   288.3000     95.6366      0.0000    257.9285     70.5510
   288.4000     95.6366      0.0000    257.9285     70.5510
   288.5000     98.3770      0.0000    257.9183     69.8393
   288.6000     98.3770      0.0000    257.9183     69.8393
   288.7000     98.3770      0.0000    257.9183     69.8393
   288.8000    100.0567      0.0000    257.9123     69.0490
   288.9000    100.0567      0.0000    257.9123     69.0490
   289.0000     99.6548      0.0000    257.9096     68.2373
   289.1000     99.6548      0.0000    257.9096     68.2373
   289.2000     99.6548      0.0000    257.9096     68.2373
   289.3000     96.3930      0.0000    257.9109     67.4799
   289.4000     96.3930      0.0000    257.9109     67.4799
   289.5000     90.7156      0.0000    257.9113     66.8262
   289.6000     90.7156      0.0000    257.9113     66.8262
   289.7000     90.7156      0.0000    257.9113     66.8262
   289.8000     84.4893      0.0000    257.9000     66.2789
   289.9000     84.4893      0.0000    257.9000     66.2789
   290.0000     79.6274      0.0000    257.8706     65.8083
   290.1000     79.6274      0.0000    257.8706     65.8083
   290.2000     79.6274      0.0000    257.8706     65.8083
   290.3000     76.6739      0.0000    257.8295     65.3806
   290.4000     76.6739      0.0000    257.8295     65.3806
   290.5000     75.0046      0.0000    257.7927     64.9876
   290.6000     75.0046      0.0000    257.7927     64.9876
   290.7000     75.0046      0.0000    257.7927     64.9876
   290.8000     74.0614      0.0000    257.7733     64.6656
   290.9000     74.0614      0.0000    257.7733     64.6656
   291.0000     74.0528      0.0000    257.7719     64.4784
   291.1000     74.0528      0.0000    257.7719     64.4784
   291.2000     74.0528      0.0000    257.7719     64.4784
   291.3000     75.6070      0.0000    257.7785     64.4637
   291.4000     75.6070      0.0000    257.7785     64.4637
   291.5000     78.9170      0.0000    257.7825     64.5965
   291.6000     78.9170      0.0000    257.7825     64.5965
   291.7000     78.9170      0.0000    257.7825     64.5965
   291.8000     83.0637      0.0000    257.7803     64.8110
   291.9000     83.0637      0.0000    257.7803     64.8110
   292.0000     86.2389      0.0000    257.7762     65.0532
   292.1000     86.2389      0.0000    257.7762     65.0532
   292.2000     86.2389      0.0000    257.7762     65.0532
   292.3000     87.2589      0.0000    257.7775     65.3095
   292.4000     87.2589      0.0000    257.7775     65.3095
   292.5000     87.1409      0.0000    257.7903     65.5976
   292.6000     87.1409      0.0000    257.7903     65.5976
   292.7000     87.1409      0.0000    257.7903     65.5976
   292.8000     88.4108      0.0000    257.8158     65.9418
   292.9000     88.4108      0.0000    257.8158     65.9418
   293.0000     92.2443      0.0000    257.8469     66.3482
   293.1000     92.2443      0.0000    257.8469     66.3482
   293.2000     92.2443      0.0000    257.8469     66.3482
   293.3000     96.8934      0.0000    257.8707     66.7853
   293.4000     96.8934      0.0000    257.8707     66.7853
   293.5000     99.5607      0.0000    257.8760     67.1817
   293.6000     99.5607      0.0000    257.8760     67.1817
   293.7000     99.5607      0.0000    257.8760     67.1817
   293.8000     99.3159      0.0000    257.8615     67.4469
   293.9000     99.3159      0.0000    257.8615     67.4469
   294.0000     97.6770      0.0000    257.8353     67.4996
   294.1000     97.6770      0.0000    257.8353     67.4996
   294.2000     97.6770      0.0000    257.8353     67.4996
   294.3000     96.7256      0.0000    257.8065     67.2864
   294.4000     96.7256      0.0000    257.8065     67.2864
   294.5000     97.1531      0.0000    257.7790     66.7987
   294.6000     97.1531      0.0000    257.7790     66.7987
   294.7000     97.1531      0.0000    257.7790     66.7987
   294.8000     98.0729      0.0000    257.7523     66.0954
   294.9000     98.0729      0.0000    257.7523     66.0954
   295.0000     98.3161      0.0000    257.7277     65.3023
   295.1000     98.3161      0.0000    257.7277     65.3023
   295.2000     98.3161      0.0000    257.7277     65.3023
   295.3000     97.5153      0.0000    257.7087     64.5552
   295.4000     97.5153      0.0000    257.7087     64.5552
   295.5000     95.9193      0.0000    257.6961     63.9251
   295.6000     95.9193      0.0000    257.6961     63.9251
   295.7000     95.9193      0.0000    257.6961     63.9251
   295.8000     93.7169      0.0000    257.6860     63.4017
   295.9000     93.7169      0.0000    257.6860     63.4017
   296.0000     90.9451      0.0000    257.6736     62.9496
   296.1000     90.9451      0.0000    257.6736     62.9496
   296.2000     90.9451      0.0000    257.6736     62.9496
   296.3000     87.6606      0.0000    257.6574     62.5572
   296.4000     87.6606      0.0000    257.6574     62.5572
   296.5000     83.8066      0.0000    257.6405     62.2302
   296.6000     83.8066      0.0000    257.6405     62.2302
   296.7000     83.8066      0.0000    257.6405     62.2302
   296.8000     79.2946      0.0000    257.6262     61.9551
   296.9000     79.2946      0.0000    257.6262     61.9551
   297.0000     74.7927      0.0000    257.6219     61.6631
   297.1000     74.7927      0.0000    257.6219     61.6631
   297.2000     74.7927      0.0000    257.6219     61.6631
   297.3000     72.0825      0.0000    257.6562     61.1938
