~Version Information
VERS.                      2.0: CWLS Log ASCII Standard - VERSION 2.0
WRAP.                       NO: One line per depth step
~Well Information Block
STRT.FT               745.0000: 
STOP.FT              2945.7500: 
STEP.FT                 0.2500: 
NULL.                -999.2500: 
COMP.          Pioneer Natural Resources: COMPANY
WELL.          Old Yeller 31-32: WELL
FLD.           Purgatoire River: FIELD
LOC.           1832' FEL & 793' FNL--: LOCATION
STAT.                 Colorado: State
CNTY.               Las Animas: COUNTY
CTRY. USA : Country
SECT. 32 : Section
TOWN. 32S : Township
RANG. 67W : Range
SRVC.                Patterson: SERVICE COMPANY
DATE.          Sun Aug 28 20:20:00 2005: LOG DATE
API.           05 071 08356 00: UNIQUE WELL ID
~Curve Information Block
DEPT.FT            0 000 00 00: Depth
SN.Ohm-m                      : IEL Short Normal
SP.mV                         : IEL Spontaneous Potential
DIR.Ohm-m                     : IEL Induction Resistivity
GR.GAPI                       : Gamma Ray
~Parameter Information Block
~A  Depth        SN          SP         DIR          GR     
   745.0000   2000.0000   2004.0000 100000.0000     82.8914
   745.2500   2000.0000   2004.0000 100000.0000     81.0620
   745.5000   2000.0000   2004.0000 100000.0000     80.2461
   745.7500   2000.0000   2004.0000 100000.0000     81.3220
   746.0000   2000.0000   2004.0000 100000.0000     84.6470
   746.2500   2000.0000   2004.0000 100000.0000     87.0840
   746.5000   2000.0000   2004.0000 100000.0000     89.6088
   746.7500   2000.0000   2004.0000 100000.0000     90.0720
   747.0000   2000.0000   2004.0000 100000.0000     88.9394
   747.2500   2000.0000   2004.0000 100000.0000     87.4278
   747.5000   2000.0000   2004.0000 100000.0000     85.2872
   747.7500   2000.0000   2004.0000 100000.0000     84.5472
   748.0000   2000.0000   2004.0000 100000.0000     84.5792
   748.2500   2000.0000   2004.0000 100000.0000     84.9338
   748.5000   2000.0000   2004.0000 100000.0000     85.1807
   748.7500   2000.0000   2004.0000 100000.0000     85.0191
   749.0000   2000.0000   2004.0000 100000.0000     84.4404
   749.2500   2000.0000   2004.0000 100000.0000     83.8373
   749.5000   2000.0000   2004.0000 100000.0000     82.3518
   749.7500   2000.0000   2004.0000 100000.0000     80.9024
   750.0000   2000.0000   2004.0000 100000.0000     78.4183
   750.2500   2000.0000   2004.0000 100000.0000     77.0178
   750.5000   2000.0000   2004.0000 100000.0000     76.0086
   750.7500   2000.0000   2004.0000 100000.0000     76.1149
   751.0000   2000.0000   2004.0000 100000.0000     76.7991
   751.2500   2000.0000   2004.0000 100000.0000     77.1195
   751.5000   2000.0000   2004.0000 100000.0000     76.9988
   751.7500   2000.0000   2004.0000 100000.0000     76.5363
   752.0000   2000.0000   2004.0000 100000.0000     75.3388
   752.2500   2000.0000   2004.0000 100000.0000     74.2122
   752.5000   2000.0000   2004.0000 100000.0000     72.2564
   752.7500   2000.0000   2004.0000 100000.0000     71.0998
   753.0000   2000.0000   2004.0000 100000.0000     70.1666
   753.2500   2000.0000   2004.0000 100000.0000     70.2020
   753.5000   2000.0000   2004.0000 100000.0000     71.0407
   753.7500   2000.0000   2004.0000 100000.0000     71.9811
   754.0000   2000.0000   2004.0000 100000.0000     74.1130
   754.2500   2000.0000   2004.0000 100000.0000     76.3900
   754.5000   2000.0000   2004.0000 100000.0000     81.8860
   754.7500   2000.0000   2004.0000 100000.0000     87.1606
   755.0000   2000.0000   2004.0000 100000.0000     96.9051
   755.2500   2000.0000   2004.0000 100000.0000    103.7092
   755.5000   2000.0000   2004.0000 100000.0000    112.5261
   755.7500   2000.0000   2004.0000 100000.0000    116.6912
   756.0000   2000.0000   2004.0000 100000.0000    119.8558
   756.2500   2000.0000   2004.0000 100000.0000    120.0798
   756.5000   2000.0000   2004.0000     40.2229    118.6495
   756.7500   2000.0000   2004.0000      5.7299    117.4178
   757.0000   2000.0000   2004.0000      3.7863    116.3854
   757.2500   2000.0000   2004.0000      3.7658    116.4142
   757.5000   2000.0000   2004.0000      5.1389    116.9223
   757.7500   2000.0000   2004.0000     10.7827    117.0219
   758.0000   2000.0000   2004.0000   1248.0529    116.2612
   758.2500   2000.0000   2004.0000 100000.0000    115.2332
   758.5000   2000.0000   2004.0000 100000.0000    113.4624
   758.7500   2000.0000   2004.0000 100000.0000    112.3551
   759.0000   2000.0000   2004.0000 100000.0000    110.6768
   759.2500   2000.0000   2004.0000 100000.0000    109.2949
   759.5000   2000.0000   2004.0000     26.1735    106.6863
   759.7500   2000.0000   2004.0000     13.8784    104.8623
   760.0000   2000.0000   2004.0000     10.7868    102.8237
   760.2500   2000.0000   2004.0000      9.9042    102.3746
   760.5000   2000.0000   2004.0000      9.9538    103.5399
   760.7500   2000.0000   2004.0000     10.4889    105.5254
   761.0000   2000.0000   2004.0000     11.2456    109.4810
   761.2500   2000.0000   2004.0000     12.0014    111.9014
   761.5000   2000.0000   2004.0000     12.5865    113.9466
   761.7500   2000.0000   2004.0000     12.9624    114.0815
   762.0000   2000.0000   2004.0000     13.2754    113.0450
   762.2500   2000.0000   2004.0000     13.8106    112.0307
   762.5000   2000.0000   2004.0000     14.9061    110.4850
   762.7500   2000.0000   2004.0000     16.8918    109.3355
   763.0000   2000.0000   2004.0000     19.9720    106.9189
   763.2500   2000.0000   2004.0000     23.8424    104.6985
   763.5000   2000.0000   2004.0000     27.1568    100.7427
   763.7500   2000.0000   2004.0000     28.1499     97.9693
   764.0000   2000.0000   2004.0000     26.6725     93.9167
   764.2500   2000.0000   2004.0000     24.2018     91.4742
   764.5000   2000.0000   2004.0000     22.0054     88.7386
   764.7500   2000.0000   2004.0000     20.5549     87.7930
   765.0000   2000.0000   2004.0000     19.8749     87.6924
   765.2500   2000.0000   2004.0000     19.8266     88.3857
   765.5000   2000.0000   2004.0000     20.2005     90.4951
   765.7500   2000.0000   2004.0000     20.7509     92.5380
   766.0000   2000.0000   2004.0000     21.2538     96.0055
   766.2500   2000.0000   2004.0000     21.5807     98.0653
   766.5000   2000.0000   2004.0000     21.7251    100.0079
   766.7500   2000.0000   2004.0000     21.7612    100.4400
   767.0000   2000.0000   2004.0000     21.7774    100.4047
   767.2500   2000.0000   2004.0000     21.8320    100.4730
   767.5000   2000.0000   2004.0000     21.9423    101.2533
   767.7500   2000.0000   2004.0000     22.0940    102.2465
   768.0000   2000.0000   2004.0000     22.2571    104.3918
   768.2500   2000.0000   2004.0000     22.4013    106.2740
   768.5000   2000.0000   2004.0000     22.5067    109.7201
   768.7500   2000.0000   2004.0000     22.5717    112.3095
   769.0000   2000.0000   2004.0000     22.6139    116.3433
   769.2500   2000.0000   2004.0000     22.6628    118.9796
   769.5000   2000.0000   2004.0000     22.7482    122.7421
   769.7500   2000.0000   2004.0000     22.8915    125.1258
   770.0000   2000.0000   2004.0000     23.1048    128.4256
   770.2500   2000.0000   2004.0000     23.3947    130.2748
   770.5000   2000.0000   2004.0000     23.7664    132.1769
   770.7500   2000.0000   2004.0000     24.2254    132.6503
   771.0000   2000.0000   2004.0000     24.7789    131.6177
   771.2500   2000.0000   2004.0000     25.4384    129.3517
   771.5000   2000.0000   2004.0000     26.2194    123.1603
   771.7500   2000.0000   2004.0000     27.1340    117.3405
   772.0000   2000.0000   2004.0000     28.1809    107.1017
   772.2500   2000.0000   2004.0000     29.3363    100.0255
   772.5000   2000.0000   2004.0000     30.5531     89.9051
   772.7500   2000.0000   2004.0000     31.7646     83.5903
   773.0000   2000.0000   2004.0000     32.8870     74.6271
   773.2500   2000.0000   2004.0000     33.8222     69.0570
   773.5000   2000.0000   2004.0000     34.4673     61.8780
   773.7500   2000.0000   2004.0000     34.7320     58.3465
   774.0000   2000.0000   2004.0000     34.5606     55.7094
   774.2500   2000.0000   2004.0000     33.9477     56.0514
   774.5000   2000.0000   2004.0000     32.9432     59.8233
   774.7500   2000.0000   2004.0000     31.6409     64.3210
   775.0000   2000.0000   2004.0000     30.1508     73.7879
   775.2500   2000.0000   2004.0000     28.5695     81.9625
   775.5000   2000.0000   2004.0000     26.9658     96.7308
   775.7500   2000.0000   2004.0000     25.3850    107.3284
   776.0000   2000.0000   2004.0000     23.8606    121.7120
   776.2500   2000.0000   2004.0000     22.4197    128.9379
   776.5000   2000.0000   2004.0000     21.0823    135.5927
   776.7500   2000.0000   2004.0000     19.8609    137.8652
   777.0000   2000.0000   2004.0000     18.7657    139.6127
   777.2500   2000.0000   2004.0000     17.8084    140.2159
   777.5000   2000.0000   2004.0000     17.0021    140.3057
   777.7500   2000.0000   2004.0000     16.3566    139.5992
   778.0000   2000.0000   2004.0000     15.8704    137.1791
   778.2500   2000.0000   2004.0000     15.5268    134.8668
