~Version Information
VERS.                      2.0: CWLS Log ASCII Standard - VERSION 2.0
WRAP.                       NO: One line per depth step
~Well Information Block
STRT.FT               710.0000: 
STOP.FT              2921.0000: 
STEP.FT                 0.1000: 
NULL.                -999.2500: 
COMP.          Petrogulf Corporation: COMPANY
WELL.            Montoya 1-41V: WELL
FLD.           Purgatorie River: FIELD
LOC.           610' FNL & 1205' FEL: LOCATION
PROV.                 Colorado: PROVINCE
CNTY.               Las Animas: COUNTRY
SRVC.                Patterson: SERVICE COMPANY
DATE.          Mon Aug 22 07:54:27 2005: LOG DATE
UWI.                          : UNIQUE WELL ID
~Curve Information Block
DEPT.FT            0 000 00 00: Depth
DCAL.in                       : CDL Caliper
RHOB.g/cc                     : CDL Bulk Density
RHOC.g/cc                     : CDL Density Correction
DPOR.pu                       : CDL Density Porosity
GR.GAPI                       : Gamma Ray
NPOR.pu                       : Neutron Porosity
~Parameter Information Block
~A  Depth       DCAL        RHOB        RHOC        DPOR         GR         NPOR    
# ...
  2466.8000      7.8205      2.6308      0.1224      1.1647     72.8698     22.9603
  2466.9000      7.8205      2.6146      0.1505      2.1484     78.6460     23.3419
  2467.0000      7.8079      2.5762      0.0959      4.4715     85.2819     23.5620
  2467.1000      7.8079      2.5332      0.0634      7.0781     89.2456     23.9614
  2467.2000      7.8079      2.4973      0.0476      9.2532     87.3661     24.5420
  2467.3000      7.8959      2.4772      0.0008     10.4700     82.2644     24.7390
  2467.4000      7.8959      2.4838      0.0380     10.0741     79.7572     24.4411
  2467.5000      7.8608      2.5164      0.0237      8.0993     79.8671     23.9957
  2467.6000      7.8608      2.5625      0.0835      5.3025     80.5530     23.7032
  2467.7000      7.8608      2.6000      0.1355      3.0287     81.5411     23.7352
  2467.8000      7.9124      2.6178      0.1530      1.9508     82.7249     23.9495
  2467.9000      7.9124      2.6285      0.1662      1.3017     83.9835     24.0564
  2468.0000      7.9073      2.6481      0.1907      0.1178     83.9520     23.9672
  2468.1000      7.9073      2.6718      0.2281     -1.3239     82.7330     23.7541
  2468.2000      7.9073      2.6808      0.2062     -1.8659     83.0199     23.6054
  2468.3000      7.7968      2.6705      0.1435     -1.2422     85.6981     23.6749
  2468.4000      7.7968      2.6506      0.1133     -0.0372     88.4810     23.8174
  2468.5000      7.7602      2.6231      0.1315      1.6297     88.2675     24.0017
  2468.6000      7.7602      2.5901      0.0683      3.6278     86.0148     24.2866
  2468.7000      7.7602      2.5653      0.0437      5.1356     86.7991     24.2508
  2468.8000      7.8411      2.5558      0.0496      5.7107     90.8187     23.9010
  2468.9000      7.8411      2.5541      0.0301      5.8150     93.4387     23.7924
  2469.0000      7.9203      2.5481      0.0749      6.1755     94.6470     23.9870
  2469.1000      7.9203      2.5349      0.0224      6.9778     97.8451     24.2952
  2469.2000      7.9203      2.5278      0.0220      7.4077    101.9144     24.5922
  2469.3000      8.0015      2.5360      0.0355      6.9087    103.5016     24.5961
  2469.4000      8.0015      2.5456      0.0907      6.3255    102.5982     24.2621
  2469.5000      8.0112      2.5446      0.0491      6.3898    101.0046     23.7744
  2469.6000      8.0112      2.5470      0.0249      6.2417    100.7263     23.1883
  2469.7000      8.0112      2.5610      0.1110      5.3916    102.6196     22.7639
  2469.8000      7.9554      2.5685      0.1330      4.9420    106.1975     22.9475
  2469.9000      7.9554      2.5599      0.0847      5.4627    110.5989     23.8260
  2470.0000      7.9589      2.5454      0.0810      6.3391    114.3462     25.0012
  2470.1000      7.9589      2.5335      0.0680      7.0576    114.5479     25.9062
  2470.2000      7.9589      2.5254      0.0814      7.5500    109.1228     26.3394
  2470.3000      7.9343      2.5204      0.0601      7.8559    101.4466     26.5610
  2470.4000      7.9343      2.5199      0.0746      7.8837     98.1214     26.8448
  2470.5000      7.9699      2.5257      0.0550      7.5344     98.3231     27.0662
  2470.6000      7.9699      2.5329      0.0883      7.0965     98.6535     27.1766
  2470.7000      7.9699      2.5304      0.1098      7.2504    102.0208     27.3593
  2470.8000      8.0092      2.5171      0.0871      8.0545    108.2404     27.4879
  2470.9000      8.0092      2.5070      0.1129      8.6695    111.0831     27.6048
  2471.0000      8.0241      2.5095      0.0885      8.5171    109.3346     27.9095
  2471.1000      8.0241      2.5147      0.1248      8.1982    106.9804     28.1560
  2471.2000      8.0241      2.5008      0.1323      9.0443    106.2796     28.1780
  2471.3000      8.0107      2.4711      0.0601     10.8440    107.7717     28.1701
  2471.4000      8.0107      2.4552      0.0696     11.8068    110.0935     28.1780
  2471.5000      8.0405      2.4636      0.1238     11.2973    110.5462     28.0997
  2471.6000      8.0405      2.4788      0.1232     10.3774    108.7781     28.2138
  2471.7000      8.0405      2.4809      0.1172     10.2514    107.4545     28.5940
  2471.8000      8.0432      2.4726      0.0625     10.7520    108.5139     28.7628
  2471.9000      8.0432      2.4744      0.1048     10.6430    109.9601     28.5992
  2472.0000      8.0494      2.4884      0.1197      9.7937    108.5903     28.4452
  2472.1000      8.0494      2.4992      0.1408      9.1421    104.9145     28.4414
  2472.2000      8.0494      2.5014      0.1079      9.0034    102.3349     28.5233
  2472.3000      8.0494      2.4988      0.1439      9.1622    100.9496     28.6536
  2472.4000      8.0494      2.4900      0.1114      9.6964     99.8878     28.8718
  2472.5000      8.0402      2.4783      0.0799     10.4075    102.3094     29.1153
  2472.6000      8.0402      2.4666      0.0963     11.1136    108.4027     29.2151
  2472.7000      8.0402      2.4546      0.0512     11.8433    110.5628     29.2580
  2472.8000      8.0258      2.4490      0.0478     12.1810    105.0021     29.2680
  2472.9000      8.0258      2.4549      0.0484     11.8232     98.6106     28.9639
  2473.0000      8.0674      2.4702      0.0910     10.8978     97.8205     28.5724
  2473.1000      8.0674      2.4883      0.0897      9.7998     99.7939     28.8314
  2473.2000      8.0674      2.4959      0.1221      9.3364     99.2761     29.4512
  2473.3000      8.0626      2.4849      0.0864     10.0055     97.7919     29.5212
  2473.4000      8.0626      2.4664      0.0421     11.1279     98.5053     29.1557
  2473.5000      8.0636      2.4517      0.0946     12.0164    100.2540     28.9695
  2473.6000      8.0636      2.4389      0.0626     12.7963    101.4254     28.9451
  2473.7000      8.0636      2.4366     -0.0061     12.9309    100.8819     28.7107
  2473.8000      8.0437      2.4533      0.0919     11.9238     98.2827     28.3788
  2473.9000      8.0437      2.4705      0.0969     10.8777     94.5052     28.2912
  2474.0000      8.0329      2.4763      0.0688     10.5258     91.8235     28.3627
  2474.1000      8.0329      2.4803      0.0804     10.2854     92.1542     28.3166
  2474.2000      8.0329      2.4876      0.0932      9.8453     91.9286     28.1378
  2474.3000      8.0230      2.4999      0.0616      9.0986     87.6017     27.8077
  2474.4000      8.0230      2.5246      0.0755      7.5996     81.2012     27.4183
  2474.5000      8.0365      2.5623      0.0837      5.3128     75.8650     27.1775
  2474.6000      8.0365      2.6024      0.1431      2.8822     73.4260     26.9835
  2474.7000      8.0365      2.6334      0.1249      1.0055     73.3919     26.7119
  2474.8000      7.9940      2.6492      0.1621      0.0505     70.9881     26.2750
  2474.9000      7.9940      2.6477      0.1162      0.1403     63.7181     25.7197
  2475.0000      7.9724      2.6370      0.0986      0.7895     56.3385     25.4547
  2475.1000      7.9724      2.6260      0.0977      1.4516     52.4692     25.5616
  2475.2000      7.9724      2.6125      0.0959      2.2716     50.5119     25.5998
  2475.3000      7.9642      2.5978      0.0539      3.1649     48.2786     25.2882
  2475.4000      7.9642      2.5890      0.0584      3.6998     46.3591     24.5569
  2475.5000      7.9294      2.5813      0.0613      4.1640     46.5264     23.5532
  2475.6000      7.9294      2.5742      0.0094      4.5942     49.3154     22.8452
  2475.7000      7.9294      2.5741      0.0671      4.6015     52.6635     22.7767
  2475.8000      7.9857      2.5752      0.1044      4.5331     52.5843     23.1141
  2475.9000      7.9857      2.5729      0.0693      4.6708     48.9408     23.4944
  2476.0000      7.9242      2.5660      0.0767      5.0921     45.5119     23.6253
  2476.1000      7.9242      2.5490      0.0595      6.1215     44.5053     23.3216
  2476.2000      7.9242      2.5291     -0.0046      7.3296     44.8695     22.5825
  2476.3000      7.9248      2.5265      0.0184      7.4878     45.8601     21.7875
