~Version Information
VERS.                      2.0: CWLS Log ASCII Standard - VERSION 2.0
WRAP.                       NO: One line per depth step
~Well Information Block
STRT.FT                -6.7500: 
STOP.FT              2058.2500: 
STEP.FT                 0.2500: 
NULL.                -999.2500: 
COMP.          Petrogulf Corporation: COMPANY
WELL.           Schedler 9-23R: WELL
FLD.           Purgatorie River: FIELD
LOC.           2084' FSL & 2331' FWL--: LOCATION
PROV.                       CO: PROVINCE
CNTY.               Las Animas: COUNTRY
SRVC.                         : SERVICE COMPANY
DATE.          Fri Nov 12 13:22:46 2004: LOG DATE
UWI.       005 071 08040 : UNIQUE WELL ID
~Curve Information Block
DEPT.FT            0 000 00 00: Depth
GR.GAPI                       : Gamma Ray
CCL.                          : Casing Collar Locator
TT3.usec                      : CBL 3' Travel Time
AMP3.mV                       : CBL 3' Amplitude
~Parameter Information Block
~A  Depth        GR         CCL         TT3         AMP3    
# ...
   663.2500     47.9677      0.0000    814.7727     15.4352
   663.5000     44.1724      0.0000    809.2018     15.5664
   663.7500     45.4683      0.0000    799.7018     15.8809
   664.0000     50.1601      0.0000    784.7216     16.4132
   664.2500     56.0312      0.0000    766.3366     17.1061
   664.5000     61.2528      0.0000    750.4352     17.8516
   664.7500     64.7371      0.0000    743.4537     18.5446
   665.0000     66.2172      0.0000    747.9487     19.1225
   665.2500     66.2154      0.0000    760.9406     19.5678
   665.5000     65.6562      0.0000    776.4001     19.8835
   665.7500     65.1410      0.0000    789.3563     20.0836
   666.0000     64.5619      0.0000    797.7092     20.2084
   666.2500     63.6036      0.0000    801.0206     20.3140
   666.5000     62.5064      0.0000    799.3470     20.4161
   666.7500     62.1096      0.0000    793.9625     20.4576
   667.0000     63.1630      0.0000    788.3201     20.3492
   667.2500     65.6239      0.0000    786.9713     20.0432
   667.5000     68.5170      0.0000    792.4370     19.5672
   667.7500     70.4830      0.0000    802.9181     18.9967
   668.0000     70.8223      0.0000    814.0588     18.4053
   668.2500     70.1670      0.0000    824.0006     17.8415
   668.5000     69.8441      0.0000    835.5658     17.3464
   668.7500     70.4271      0.0000    851.8394     16.9755
   669.0000     71.2337      0.0000    870.4351     16.7833
   669.2500     71.3876      0.0000    883.9883     16.7797
   669.5000     71.0213      0.0000    886.3137     16.9003
   669.7500     71.1839      0.0000    877.5641     17.0214
   670.0000     72.7091      0.0000    863.8684     17.0223
   670.2500     75.4515      0.0000    852.1769     16.8659
   670.5000     78.5511      0.0000    844.7709     16.6285
   670.7500     81.0610      0.0000    838.2466     16.4340
   671.0000     82.2470      0.0000    827.2436     16.3500
   671.2500     81.8319      0.0000    808.3041     16.3470
   671.5000     80.3704      0.0000    781.3491     16.3524
   671.7500     79.0575      0.0000    750.2919     16.3221
   672.0000     78.7436      0.0000    722.2775     16.2553
   672.2500     79.3397      0.0000    703.5043     16.1612
   672.5000     80.4328      0.0000    695.0953     16.0314
   672.7500     81.9563      0.0000    694.8050     15.8471
   673.0000     83.9026      0.0000    701.5889     15.6107
   673.2500     85.7639      0.0000    715.8036     15.3558
   673.5000     86.6336      0.0000    735.5894     15.1106
   673.7500     85.7763      0.0000    755.5033     14.8541
   674.0000     83.2115      0.0000    769.0268     14.5353
   674.2500     80.0453      0.0000    772.1769     14.1425
   674.5000     77.9891      0.0000    766.0875     13.7404
   674.7500     78.1526      0.0000    756.8917     13.4335
   675.0000     80.4097      0.0000    751.5159     13.2905
   675.2500     84.0620      0.0000    752.6196     13.3005
   675.5000     88.7058      0.0000    758.0772     13.4061
   675.7500     94.1925      0.0000    764.4375     13.5746
   676.0000    100.0220      0.0000    769.6462     13.8074
   676.2500    105.1721      0.0000    773.3827     14.0718
   676.5000    108.5485      0.0000    776.3484     14.2626
   676.7500    109.3676      0.0000    779.5138     14.2671
   677.0000    107.1968      0.0000    783.3479     14.0598
   677.2500    102.1784      0.0000    787.4903     13.7194
   677.5000     95.3850      0.0000    791.1484     13.3717
   677.7500     88.3802      0.0000    793.6697     13.1293
   678.0000     82.2311      0.0000    794.3735     13.0517
   678.2500     77.3291      0.0000    791.9781     13.1238
   678.5000     74.0409      0.0000    785.1709     13.2723
   678.7500     72.7660      0.0000    774.3593     13.4092
   679.0000     72.9893      0.0000    762.3633     13.4594
   679.2500     72.9979      0.0000    752.7168     13.3558
   679.5000     71.4371      0.0000    747.1252     13.0467
   679.7500     69.1093      0.0000    744.1057     12.5373
   680.0000     68.5602      0.0000    739.5063     11.9049
   680.2500     71.6160      0.0000    729.6130     11.2375
   680.5000     77.4072      0.0000    715.9705     10.5625
   680.7500     82.8838      0.0000    706.9123      9.8779
   681.0000     85.4156      0.0000    711.9717      9.2478
   681.2500     85.0674      0.0000    734.3260      8.8078
   681.5000     84.3226      0.0000    768.9721      8.6536
   681.7500     85.6658     -2.0000    805.9236      8.7510
   682.0000     89.4733      2.0000    834.4836      8.9628
   682.2500     93.8049      0.0000    848.2193      9.1460
   682.5000     95.8381      0.0000    848.3675      9.2395
   682.7500     93.8601      0.0000    841.3502      9.3093
   683.0000     88.4339      0.0000    832.9049      9.5445
   683.2500     81.6922      0.0000    825.6476     10.1801
   683.5000     75.4763      0.0000    820.7406     11.3533
   683.7500     70.4211      0.0000    818.9567     12.9760
   684.0000     66.5876      0.0000    819.2880     14.7356
   684.2500     64.1708      0.0000    816.2079     16.2607
   684.5000     63.3714      0.0000    798.2326     17.3400
   684.7500     63.9695      0.0000    753.2477     18.0048
   685.0000     65.1405      0.0000    682.3926     18.4094
   685.2500     65.6404      0.0000    610.0190     18.6667
   685.5000     64.4720      0.0000    572.5762     18.8151
   685.7500     61.6665      0.0000    590.8915     18.8881
   686.0000     58.3004      0.0000    653.2192     18.9364
   686.2500     55.5584      0.0000    725.8835     18.9640
   686.5000     53.8924      0.0000    778.5082     18.8904
   686.7500     53.1237      0.0000    800.8713     18.6139
   687.0000     53.0944      0.0000    802.7262     18.1124
   687.2500     54.0048      0.0000    801.3869     17.4728
   687.5000     56.2430      0.0000    806.9346     16.8229
   687.7500     60.0395      0.0000    816.6736     16.2420
   688.0000     65.1931      0.0000    822.7420     15.7413
   688.2500     70.9138      0.0000    822.2311     15.3175
   688.5000     75.9666      0.0000    818.4500     15.0023
   688.7500     79.2994      0.0000    815.3708     14.8541
   689.0000     80.6986      0.0000    814.1926     14.9074
   689.2500     80.7588      0.0000    814.4459     15.1310
   689.5000     80.2230      0.0000    816.0905     15.4256
   689.7500     79.5614      0.0000    819.8019     15.6702
   690.0000     79.3596      0.0000    825.5498     15.7883
   690.2500     80.7907      0.0000    831.2369     15.7862
   690.5000     85.0157      0.0000    833.5512     15.7325
   690.7500     91.7117      0.0000    830.8784     15.7033
   691.0000     98.4839      0.0000    825.0425     15.7360
   691.2500    102.2970      0.0000    819.7050     15.8209
   691.5000    101.7668      0.0000    817.6675     15.9188
   691.7500     98.0569      0.0000    819.8342     15.9858
   692.0000     93.7268      0.0000    825.2825     15.9881
   692.2500     90.9677      0.0000    831.2370     15.9116
   692.5000     90.5505      0.0000    834.0689     15.7656
   692.7500     91.6115      0.0000    831.9170     15.5733
   693.0000     92.1887      0.0000    826.2816     15.3557
   693.2500     90.5332      0.0000    820.3628     15.1310
   693.5000     86.4251      0.0000    816.2144     14.9226
   693.7500     81.2086      0.0000    813.7852     14.7495
   694.0000     76.4283      0.0000    811.9891     14.5972
   694.2500     72.6056      0.0000    810.0928     14.4224
   694.5000     69.4782      0.0000    808.3019     14.2045
   694.7500     67.0309      0.0000    807.3019     13.9753
   695.0000     65.8669      0.0000    807.2231     13.7828
   695.2500     66.6332      0.0000    807.1951     13.6442
   695.5000     69.3232      0.0000    806.2048     13.5576
   695.7500     73.0899      0.0000    804.2335     13.5448
   696.0000     76.5849      0.0000    802.3314     13.6526
   696.2500     78.6514      0.0000    801.8059     13.9007
   696.5000     78.9761      0.0000    803.8146     14.2337
