~Version Information
VERS.                      2.0: CWLS Log ASCII Standard - VERSION 2.0
WRAP.                       NO: One line per depth step
~Well Information Block
STRT.FT               500.0000: 
STOP.FT              2732.5000: 
STEP.FT                 0.1000: 
NULL.                -999.2500: 
COMP.          Pioneer Natural Resources: COMPANY
WELL.          Dude Canyon 22-32: WELL
FLD.           Purgatoire River: FIELD
LOC.           1662' FNL & 2446' FWL----: LOCATION
PROV.                 Colorado: PROVINCE
CNTY.               Las Animas: COUNTRY
SRVC.                Patterson: SERVICE COMPANY
DATE.          Thu Mar 10 07:06:34 2005: LOG DATE
UWI.           05 071 08257 00: UNIQUE WELL ID
~Curve Information Block
DEPT.FT            0 000 00 00: Depth
GR.GAPI                       : Gamma Ray
DCAL.in                       : CDL Caliper
DPOR.pu                       : CDL Density Porosity
NPOR.pu                       : Neutron Porosity
RHOB.g/cc                     : CDL Bulk Density
RHOC.g/cc                     : CDL Density Correction
~Parameter Information Block
~A  Depth        GR         DCAL        DPOR        NPOR        RHOB        RHOC    
# ...
  1095.2000    114.5145      8.0270      8.7386     23.7627      2.5058      0.0538
  1095.3000    119.2276      8.0218      7.4319     23.0998      2.5274      0.0219
  1095.4000    120.6482      8.0218      6.9429     23.1125      2.5354      0.0101
  1095.5000    116.7905      8.0200      6.3882     23.5007      2.5446      0.0344
  1095.6000    112.9416      8.0200      5.1790     23.9405      2.5645      0.0307
  1095.7000    110.4951      8.0200      4.0291     24.4347      2.5835      0.1009
  1095.8000    106.8149      8.0164      4.1873     25.0759      2.5809      0.0696
  1095.9000    102.8604      8.0164      5.5400     25.6214      2.5586      0.0471
  1096.0000    100.9397      8.0093      6.8500     25.7200      2.5370      0.0017
  1096.1000    100.0616      8.0093      7.4011     25.4498      2.5279      0.0280
  1096.2000     97.7831      8.0093      7.2174     24.9713      2.5309     -0.0136
  1096.3000     95.5956      8.0009      6.2818     24.4735      2.5463     -0.0128
  1096.4000     95.7727      8.0009      4.4154     24.4389      2.5771      0.0199
  1096.5000     94.5078      7.9969      2.0079     24.8808      2.6169      0.0531
  1096.6000     91.3753      7.9969      0.5349     25.5082      2.6412      0.0692
  1096.7000     91.8363      7.9969      1.2878     26.0888      2.6288      0.0519
  1096.8000     95.8625      7.9960      3.6131     26.2421      2.5904      0.0104
  1096.9000     97.7505      7.9960      5.3138     25.8906      2.5623     -0.0198
  1097.0000     97.2310      7.9963      5.1500     25.3535      2.5650      0.0054
  1097.1000     97.9219      7.9963      3.8734     24.9892      2.5861      0.0346
  1097.2000     96.4335      7.9963      2.3527     25.0082      2.6112      0.0124
  1097.3000     90.4577      7.9973      1.1315     25.3567      2.6313      0.0590
  1097.4000     86.3658      7.9973      1.1314     25.7076      2.6313      0.0647
  1097.5000     86.1108      7.9973      2.3194     26.0122      2.6117      0.0458
  1097.6000     85.1380      7.9973      3.7181     26.4369      2.5887      0.0111
  1097.7000     83.0278      7.9973      4.4603     26.7354      2.5764     -0.0291
  1097.8000     82.6173      7.9965      4.1055     26.4672      2.5823     -0.0106
  1097.9000     83.1510      7.9965      3.4607     25.4116      2.5929      0.0313
  1098.0000     80.0106      7.9962      3.5883     24.1259      2.5908     -0.0213
  1098.1000     73.8885      7.9962      3.9389     23.6516      2.5850     -0.0377
  1098.2000     69.4749      7.9962      3.8119     24.0611      2.5871     -0.0110
  1098.3000     67.5743      7.9946      3.7641     24.3720      2.5879      0.0285
  1098.4000     66.7727      7.9946      3.8355     24.1968      2.5867      0.0099
  1098.5000     66.0509      7.9930      3.2953     24.1998      2.5956      0.0159
  1098.6000     65.6210      7.9930      2.5538     24.5839      2.6079      0.0478
  1098.7000     66.8793      7.9930      2.4313     25.0915      2.6099     -0.0019
  1098.8000     69.3016      7.9935      2.3913     25.8893      2.6105     -0.0426
  1098.9000     69.9608      7.9935      2.0100     26.8899      2.6168      0.0108
  1099.0000     67.9190      7.9961      2.2173     27.4947      2.6134     -0.0050
  1099.1000     63.8648      7.9961      3.2636     27.5414      2.5962     -0.0588
  1099.2000     59.7134      7.9961      3.9830     27.2428      2.5843     -0.0687
  1099.3000     59.6284      7.9985      3.6906     26.7928      2.5891     -0.0209
  1099.4000     64.3693      7.9985      3.1091     26.3467      2.5987      0.0207
  1099.5000     70.4038      7.9990      2.9105     25.8256      2.6020     -0.0197
  1099.6000     74.4778      7.9990      2.5423     25.3214      2.6081     -0.0205
  1099.7000     75.4550      7.9990      1.2099     25.1543      2.6300      0.0090
  1099.8000     76.1374      7.9977     -0.5571     25.3594      2.6592      0.0289
  1099.9000     79.4478      7.9977     -0.7605     25.8623      2.6625      0.0603
  1100.0000     83.1702      7.9961      1.3715     26.4274      2.6274      0.0161
  1100.1000     82.4583      7.9961      3.8481     26.5224      2.5865     -0.0011
  1100.2000     77.4927      7.9961      4.8552     25.8403      2.5699      0.0112
  1100.3000     73.4211      7.9968      4.8112     24.5615      2.5706      0.0082
  1100.4000     72.5652      7.9968      4.5232     23.5030      2.5754      0.0167
  1100.5000     74.0257      7.9983      3.6140     23.3531      2.5904     -0.0119
  1100.6000     74.4608      7.9983      1.8777     23.5662      2.6190      0.0381
  1100.7000     71.6827      7.9983      0.5206     23.3841      2.6414      0.0549
  1100.8000     70.0339      7.9986      0.7940     22.7778      2.6369      0.0852
  1100.9000     73.5043      7.9986      2.2939     22.0495      2.6122      0.0244
  1101.0000     79.1241      7.9972      3.5265     21.3337      2.5918      0.0116
  1101.1000     80.4363      7.9972      3.9419     20.6865      2.5850      0.0417
  1101.2000     75.2122      7.9972      3.5274     20.3641      2.5918      0.0173
  1101.3000     68.6442      7.9942      1.9717     20.4913      2.6175      0.0322
  1101.4000     64.3839      7.9942     -0.1537     20.6586      2.6525      0.0691
  1101.5000     61.7956      7.9935     -1.5161     20.4236      2.6750      0.0787
  1101.6000     60.9690      7.9935     -1.5655     19.8883      2.6758      0.0943
  1101.7000     61.1541      7.9935     -0.7436     19.6100      2.6623      0.0498
  1101.8000     61.1276      7.9954      0.4035     19.7253      2.6433      0.0761
  1101.9000     61.6323      7.9954      1.6906     19.7597      2.6221      0.0373
  1102.0000     63.0154      7.9961      2.9118     19.7041      2.6020      0.0369
  1102.1000     64.3351      7.9961      3.7407     19.8839      2.5883      0.0034
  1102.2000     64.5332      7.9961      3.8912     19.9844      2.5858      0.0155
  1102.3000     63.3219      7.9977      3.8115     19.6586      2.5871      0.0516
  1102.4000     62.5954      7.9977      4.1550     19.3015      2.5814     -0.0138
  1102.5000     63.8022      8.0015      4.5062     19.1858      2.5756      0.0048
  1102.6000     65.3944      8.0015      4.3449     19.0102      2.5783      0.0339
  1102.7000     65.6546      8.0015      3.9323     18.6466      2.5851      0.0454
  1102.8000     63.8196      8.0051      3.7259     18.3436      2.5885      0.0289
  1102.9000     60.7203      8.0051      4.0050     18.3453      2.5839      0.0706
  1103.0000     58.4093      8.0067      4.5049     18.6474      2.5757      0.0051
  1103.1000     58.5497      8.0067      4.7261     19.1591      2.5720      0.0355
  1103.2000     60.8445      8.0067      5.1109     19.8073      2.5657      0.0670
  1103.3000     62.6090      8.0064      6.2771     20.1933      2.5464      0.0433
  1103.4000     62.6822      8.0064      7.7142     20.0376      2.5227      0.0175
  1103.5000     62.7370      8.0044      8.1628     19.6752      2.5153     -0.0011
  1103.6000     62.8931      8.0044      7.0646     19.4606      2.5334      0.0143
  1103.7000     61.0602      8.0044      5.1882     19.1724      2.5644      0.0059
  1103.8000     59.1294      8.0030      3.8628     18.9122      2.5863      0.0704
  1103.9000     60.4711      8.0030      3.5184     19.3431      2.5919      0.0112
  1104.0000     62.3644      8.0038      3.2846     20.4520      2.5958      0.0315
  1104.1000     59.8382      8.0038      2.4363     21.3866      2.6098      0.0306
  1104.2000     56.6064      8.0038      1.2410     21.5093      2.6295      0.0722
  1104.3000     60.4161      8.0043      0.4234     21.2912      2.6430      0.0400
  1104.4000     67.7860      8.0043     -0.0001     21.7851      2.6500      0.0595
  1104.5000     68.7688      8.0036     -0.3638     23.1205      2.6560      0.0647
  1104.6000     63.9537      8.0036     -0.8072     24.2854      2.6633      0.0514
  1104.7000     62.4033      8.0036     -1.4033     24.7172      2.6732      0.0602
