~Version Information
 VERS.                                  2.0 : CWLS LAS VERSION
 WRAP.                                   NO : WRAPING MODE
 SWARE .                 MController 2.5.0J : SOFTWARE VERSION
~Well Information
 WELL.                         State 16-24R : WELL
 COMP.                Petrogulf Corporation : COMPANY
 FLD.                      Purgatoire River : FIELD
 LOC.                SE/SW Sec 16 T33S R67W : LOCATION
 DATE.                            8/9-11/05 : DATE(S) LOGGED
 SRVC.       BLANCO Geological Services LLC : SERVICE COMPANY
 STAT.                                   CO : STATE
 CNTY.                           Las Animas : COUNTY
 CTRY.                                  USA : COUNTRY
 API.                       05-071-08312-00 : API NUMBER
 STRT.FT                              27.00 : START DEPTH
 STOP.FT                            1870.00 : STOP DEPTH
 STEP.FT                               1.00 : DEPTH INCREMENT
 NULL.                                -9999 : NULL VALUE
~Curve information
 DEPTH.FT                                   :
 ROP.MIN/FT                                 :
 GAS.UNITS                                  :
~ASCII Log data
# ...
       427.0         0.32         12.2 
       428.0         0.30         12.5 
       429.0         0.27         12.2 
       430.0         0.27         12.5 
       431.0         0.10         11.6 
       432.0         0.20         12.3 
       433.0         0.17         12.0 
       434.0         0.23         12.1 
       435.0         0.27         12.1 
       436.0         0.30         12.4 
       437.0         0.30         12.2 
       438.0         0.33         12.4 
       439.0         0.23         12.1 
       440.0         0.30         12.4 
       441.0         0.28         12.3 
       442.0         0.27         11.9 
       443.0         0.13         11.9 
       444.0         0.23         12.3 
       445.0         0.27         12.1 
       446.0         1.53         12.2 
       447.0         0.33         11.9 
       448.0         0.33         11.9 
       449.0         0.28         12.1 
       450.0         0.17         12.0 
       451.0         0.17         11.7 
       452.0         0.13         11.7 
       453.0         0.20         11.5 
       454.0         0.17         12.0 
       455.0         0.27         12.3 
       456.0         0.27         12.3 
       457.0         0.27         11.9 
       458.0         0.30         11.7 
       459.0         0.23         12.3 
       460.0         0.30         12.5 
       461.0         0.33         12.3 
       462.0         0.42         12.7 
       463.0         0.33         12.5 
       464.0         0.33         12.7 
       465.0         0.30         12.7 
       466.0         0.30         12.6 
       467.0         0.23         12.5 
       468.0         0.20         12.6 
       469.0         0.23         12.8 
       470.0         0.20         12.8 
       471.0         0.30         12.6 
       472.0         0.33         12.5 
       473.0         0.30         12.6 
       474.0         0.32         12.7 
       475.0         0.30         12.8 
       476.0         1.43         13.0 
       477.0         0.33         12.4 
       478.0         0.33         12.4 
       479.0         0.27         12.4 
       480.0         0.27         12.3 
       481.0         0.22         12.3 
       482.0         0.27         12.4 
       483.0         0.27         12.8 
       484.0         0.20         12.7 
       485.0         0.23         12.5 
       486.0         0.20         12.4 
       487.0         0.17         12.3 
       488.0         0.10         12.4 
       489.0         0.07         11.5 
       490.0         0.20         12.1 
       491.0         0.23         12.4 
       492.0         0.17         12.4 
       493.0         0.27         12.4 
       494.0         0.33         12.4 
       495.0         0.30         12.4 
       496.0         0.27         12.2 
       497.0         0.32         12.4 
       498.0         0.30         12.2 
       499.0         0.33         11.8 
       500.0         0.37         12.1 
       501.0         0.37         12.4 
       502.0         0.30         12.4 
       503.0         0.27         12.2 
       504.0         0.30         12.2 
       505.0         0.37         12.2 
       506.0         1.92         12.9 
       507.0         0.20         12.2 
       508.0         0.13         12.0 
       509.0         0.20         12.4 
       510.0         0.27         12.4 
       511.0         0.20         12.2 
       512.0         0.23         12.5 
       513.0         0.37         12.5 
       514.0         0.32         12.3 
       515.0         0.37         12.3 
       516.0         0.30         12.5 
       517.0         0.33         12.4 
       518.0         0.33         12.7 
       519.0         0.30         12.4 
       520.0         0.33         12.5 
       521.0         0.33         12.3 
       522.0         0.40         12.8 
       523.0         0.40         12.9 
       524.0         0.42         13.0 
       525.0         0.40         13.0 
       526.0         0.37         13.1 
       527.0         0.40         12.7 
       528.0         0.40         12.9 
       529.0         0.37         13.0 
       530.0         0.33         12.9 
       531.0         0.40         13.1 
       532.0         0.33         12.9 
       533.0         0.42         12.9 
       534.0         0.30         13.0 
       535.0         0.43         13.0 
       536.0         1.50         13.1 
       537.0         0.43         12.7 
       538.0         0.30         12.7 
       539.0         0.35         12.8 
       540.0         0.27         12.8 
       541.0         0.20         12.0 
       542.0         0.30         12.1 
       543.0         0.27         12.0 
       544.0         0.30         12.1 
       545.0         0.30         11.3 
       546.0         0.33         11.8 
       547.0         0.27         11.8 
       548.0         0.40         11.8 
       549.0         0.40         11.7 
       550.0         0.35         11.7 
       551.0         0.40         11.3 
       552.0         0.40         11.8 
       553.0         0.40         11.7 
       554.0         0.43         11.7 
       555.0         0.37         11.3 
       556.0         0.37         11.2 
       557.0         0.33         11.6 
       558.0         0.30         11.8 
       559.0         0.32         11.6 
       560.0         0.40         11.8 
       561.0         0.37         11.7 
       562.0         0.37         11.0 
       563.0         0.30         11.5 
       564.0         0.37         11.5 
       565.0         0.33         11.4 
       566.0         1.72         12.9 
       567.0         0.27         11.8 
       568.0         0.27         11.7 
       569.0         0.30         11.8 
       570.0         0.37         11.7 
       571.0         0.40         11.9 
       572.0         0.53         11.7 
       573.0         0.55         12.0 
       574.0         0.47         11.8 
       575.0         0.50         12.2 
       576.0         0.60         11.9 
       577.0         0.50         11.9 
       578.0         0.47         11.3 
       579.0         0.33         11.4 
       580.0         0.27         11.4 
       581.0         0.35         11.5 
       582.0         0.27         11.3 
       583.0         0.27         12.2 
       584.0         0.37         14.6 
       585.0         0.30         15.3 
       586.0         0.27         15.6 
       587.0         0.27         15.6 
       588.0         0.40         15.5 
       589.0         0.37         15.6 
       590.0         0.37         15.9 
       591.0         0.48         16.2 
       592.0         0.40         15.2 
       593.0         0.37         13.6 
       594.0         0.30         12.4 
       595.0         0.43         13.3 
       596.0         1.53         20.0 
       597.0         0.38         16.6 
       598.0         0.33         16.1 
       599.0         0.30         15.5 
       600.0         0.43         15.3 
       601.0         0.37         15.3 
       602.0         0.33         15.3 
       603.0         0.33         15.4 
       604.0         0.30         15.8 
       605.0         0.37         16.0 
       606.0         0.48         16.2 
       607.0         0.60         16.4 
       608.0         0.67         15.6 
       609.0         0.40         15.5 
       610.0         0.40         15.5 
       611.0         0.37         15.3 
       612.0         0.33         16.0 
       613.0         0.38         17.3 
       614.0         0.37         16.9 
       615.0         0.33         15.8 
       616.0         0.43         15.5 
       617.0         0.40         15.0 
       618.0         0.37         14.9 
       619.0         0.30         14.9 
       620.0         0.33         14.8 
       621.0         0.30         14.7 
       622.0         0.37         15.0 
       623.0         0.42         15.1 
       624.0         0.43         12.7 
       625.0         0.57         11.2 
       626.0         1.63         17.6 
