~Version Information
VERS.                      2.0: CWLS Log ASCII Standard - VERSION 2.0
WRAP.                       NO: One line per depth step
~Well Information Block
STRT.FT               245.0000: 
STOP.FT              1919.7000: 
STEP.FT                 0.1000: 
NULL.                -999.2500: 
COMP.          Pioneer Natural Resources: COMPANY
WELL.          Oink Oink 14-36 Tr: WELL
FLD.           Purgatoire River: FIELD
LOC.           236' FSL & 164' FWL--: LOCATION
PROV.                 Colorado: PROVINCE
CNTY.               Las Animas: COUNTRY
SRVC.                Patterson: SERVICE COMPANY
DATE.          Fri Jun 10 08:23:18 2005: LOG DATE
UWI.           05 071 08393 00: UNIQUE WELL ID
~Curve Information Block
DEPT.FT            0 000 00 00: Depth
DCAL.in                       : CDL Caliper
RHOB.g/cc                     : CDL Bulk Density
RHOC.g/cc                     : CDL Density Correction
DPOR.pu                       : CDL Density Porosity
NPOR.pu                       : Neutron Porosity
GR.GAPI                       : Gamma Ray
~Parameter Information Block
~A  Depth       DCAL        RHOB        RHOC        DPOR        NPOR         GR     
# ...
  1445.0000      8.0093      2.6702      0.1080     -1.2258     24.5025    122.4550
  1445.1000      8.0093      2.6893      0.1594     -2.3813     24.0895    111.2530
  1445.2000      8.0093      2.6919      0.1544     -2.5405     23.8556    105.7314
  1445.3000      8.0568      2.6779      0.1034     -1.6903     23.9405    104.2509
  1445.4000      8.0568      2.6666      0.0895     -1.0052     24.3083    105.9835
  1445.5000      8.0837      2.6546      0.1030     -0.2779     25.0054    111.3270
  1445.6000      8.0837      2.6233      0.0819      1.6201     25.8640    116.2541
  1445.7000      8.0837      2.5843      0.0207      3.9817     26.2867    119.3900
  1445.8000      8.0903      2.5690      0.0434      4.9108     26.1665    122.3705
  1445.9000      8.0903      2.5757      0.0856      4.5031     26.1749    124.4380
  1446.0000      8.0931      2.5782      0.0923      4.3511     26.9132    124.7002
  1446.1000      8.0931      2.5684      0.0506      4.9459     27.8664    124.3973
  1446.2000      8.0931      2.5537      0.0437      5.8387     28.0439    125.2009
  1446.3000      8.0942      2.5405      0.0281      6.6338     27.3661    125.3046
  1446.4000      8.0942      2.5388      0.0148      6.7423     26.3782    123.6784
  1446.5000      8.0936      2.5500      0.0588      6.0609     25.8324    122.7597
  1446.6000      8.0936      2.5645      0.0674      5.1792     26.2407    123.9663
  1446.7000      8.0936      2.5819      0.0874      4.1243     27.0187    126.1143
  1446.8000      8.0927      2.5989      0.0888      3.0983     27.3806    129.2907
  1446.9000      8.0927      2.5999      0.0958      3.0358     27.3277    134.9504
  1447.0000      8.0924      2.5863      0.0501      3.8614     27.3729    141.8812
  1447.1000      8.0924      2.5773      0.0715      4.4072     27.7662    146.7529
  1447.2000      8.0924      2.5787      0.0778      4.3223     28.1902    146.9032
  1447.3000      8.0920      2.5876      0.0573      3.7817     28.4422    145.1855
  1447.4000      8.0920      2.6041      0.0935      2.7838     28.4836    144.7555
  1447.5000      8.0918      2.6213      0.0741      1.7401     28.1394    144.5710
  1447.6000      8.0918      2.6315      0.1024      1.1197     27.6219    140.7698
  1447.7000      8.0918      2.6330      0.0909      1.0319     27.5004    133.5610
  1447.8000      8.0925      2.6275      0.0838      1.3611     27.7026    130.7333
  1447.9000      8.0925      2.6161      0.0701      2.0560     27.9754    136.3969
  1448.0000      8.0936      2.6026      0.0373      2.8712     28.1324    142.1635
  1448.1000      8.0936      2.5947      0.0468      3.3500     27.9397    143.1901
  1448.2000      8.0936      2.5950      0.0446      3.3306     27.8670    143.6515
  1448.3000      8.0959      2.6032      0.0646      2.8392     28.3621    141.5876
  1448.4000      8.0959      2.6088      0.0416      2.4972     28.8182    135.6143
  1448.5000      8.0981      2.5980      0.0569      3.1499     28.9503    132.2221
  1448.6000      8.0981      2.5749      0.0641      4.5544     29.0705    135.1364
  1448.7000      8.0981      2.5553      0.0487      5.7370     28.7290    142.4402
  1448.8000      8.0995      2.5443      0.0652      6.4091     28.2232    152.2360
  1448.9000      8.0995      2.5359      0.0555      6.9157     28.5240    160.1512
  1449.0000      8.1005      2.5276      0.0482      7.4182     29.2905    161.6819
  1449.1000      8.1005      2.5197      0.0660      7.8941     29.8481    157.8189
  1449.2000      8.1005      2.5148      0.0544      8.1937     30.2135    149.8657
  1449.3000      8.1018      2.5179      0.0461      8.0031     30.3102    143.5834
  1449.4000      8.1018      2.5243      0.0802      7.6171     30.0467    147.4299
  1449.5000      8.1036      2.5181      0.1034      7.9931     29.8012    154.9977
  1449.6000      8.1036      2.4901      0.1225      9.6902     30.0145    155.6990
  1449.7000      8.1036      2.4453      0.0468     12.4033     30.5303    150.1337
  1449.8000      8.1051      2.4006     -0.0007     15.1164     30.8118    144.3285
  1449.9000      8.1051      2.3608      0.0402     17.5281     30.8934    141.3939
  1450.0000      8.1064      2.3116      0.0214     20.5102     31.0714    140.6949
  1450.1000      8.1064      2.2492      0.0167     24.2933     31.3683    141.8554
  1450.2000      8.1064      2.1838      0.0125     28.2519     31.7715    141.2620
  1450.3000      8.1069      2.1265     -0.0021     31.7246     32.1594    133.3746
  1450.4000      8.1069      2.0900     -0.0115     33.9409     32.1994    122.5786
  1450.5000      8.1016      2.0836     -0.0105     34.3261     31.7883    119.5951
  1450.6000      8.1016      2.0999      0.0415     33.3366     31.3428    125.4789
  1450.7000      8.1016      2.1201      0.0285     32.1172     31.1828    132.9276
  1450.8000      8.0931      2.1381      0.0765     31.0264     31.0223    135.4581
  1450.9000      8.0931      2.1670      0.0516     29.2704     30.6257    131.6217
  1451.0000      8.0896      2.2273      0.1191     25.6211     30.1495    127.3632
  1451.1000      8.0896      2.3145      0.2339     20.3326     29.8764    125.8808
  1451.2000      8.0896      2.3957      0.2366     15.4137     29.7424    125.9502
  1451.3000      8.0907      2.4516      0.1982     12.0224     29.3008    128.4786
  1451.4000      8.0907      2.4866      0.1752      9.9003     28.6391    131.9353
  1451.5000      8.0909      2.5065      0.1570      8.6951     28.1523    131.9440
  1451.6000      8.0909      2.5096      0.1359      8.5063     27.8902    128.4765
  1451.7000      8.0909      2.4953      0.1255      9.3769     28.0970    127.3026
  1451.8000      8.0905      2.4793      0.0596     10.3434     28.8692    129.8402
  1451.9000      8.0905      2.4775      0.0996     10.4535     29.5763    130.0448
  1452.0000      8.0910      2.4732      0.1155     10.7124     30.0843    124.1431
  1452.1000      8.0910      2.4354      0.0883     13.0062     31.0374    113.9935
  1452.2000      8.0910      2.3543      0.0653     17.9212     32.4521    104.2356
  1452.3000      8.0918      2.2428     -0.0004     24.6759     33.5343     98.8801
  1452.4000      8.0918      2.1143     -0.0261     32.4685     34.0970     99.4491
  1452.5000      8.0981      1.9770     -0.0923     40.7875     34.5426     98.9796
  1452.6000      8.0981      1.8431     -0.1287     48.9056     34.9015     91.5454
  1452.7000      8.0981      1.7285     -0.2045     55.8467     34.9870     84.5452
  1452.8000      8.1275      1.6457     -0.1884     60.8689     34.9172     83.3986
  1452.9000      8.1275      1.5873     -0.1281     64.4063     34.9548     82.4585
  1453.0000      8.1946      1.5441     -0.1177     67.0249     35.2199     77.4977
  1453.1000      8.1946      1.5281     -0.0631     67.9959     35.7239     71.0709
  1453.2000      8.1946      1.5462      0.0751     66.8981     36.1854     69.1421
  1453.3000      8.2672      1.5792      0.1282     64.8984     36.2927     72.6441
  1453.4000      8.2672      1.6051      0.1407     63.3244     35.8957     76.0201
  1453.5000      8.3002      1.6131      0.1557     62.8453     35.3671     75.3511
  1453.6000      8.3002      1.6001      0.1194     63.6285     35.2658     71.7260
  1453.7000      8.3002      1.5721      0.1061     65.3275     35.3110     66.2655
  1453.8000      8.2971      1.5388      0.0903     67.3456     34.9065     61.0175
  1453.9000      8.2971      1.5182      0.0618     68.5926     34.2543     60.0780
  1454.0000      8.2898      1.5325      0.0907     67.7257     33.9743     62.0772
  1454.1000      8.2898      1.5914      0.0778     64.1601     33.8721     61.7041
  1454.2000      8.2898      1.6873      0.1142     58.3430     33.2452     61.7769
  1454.3000      8.2942      1.8044      0.1481     51.2455     32.1083     69.1249
  1454.4000      8.2942      1.9360      0.2272     43.2722     31.0739     79.9066
  1454.5000      8.2917      2.0826      0.2787     34.3902     30.1801     86.4644
