~Version Information
VERS.                      2.0: CWLS Log ASCII Standard - VERSION 2.0
WRAP.                       NO: One line per depth step
~Well Information Block
STRT.FT               440.0000: 
STOP.FT              1003.5000: 
STEP.FT                 0.2500: 
NULL.                -999.2500: 
COMP.          Pioneer Natural Resources: COMPANY
WELL.              Dylan 42-25: WELL
FLD.           Purgatoire River: FIELD
LOC.           2160' FNL & 855' FEL: LOCATION
PROV.                 Colorado: PROVINCE
CNTY.               Las Animas: COUNTRY
SRVC.                Patterson: SERVICE COMPANY
DATE.          Sat Apr 23 11:21:51 2005: LOG DATE
UWI.           05 071 08229 00: UNIQUE WELL ID
~Curve Information Block
DEPT.FT            0 000 00 00: Depth
SN.Ohm-m                      : IEL Short Normal
SP.mV                         : IEL Spontaneous Potential
DIR.Ohm-m                     : IEL Induction Resistivity
GR.GAPI                       : Gamma Ray
~Parameter Information Block
~A  Depth        SN          SP         DIR          GR     
# ...
   875.5000     32.2846     22.2918     32.1338     73.0051
   875.7500     32.7433     22.4931     33.1774     73.9679
   876.0000     33.2945     22.6845     34.4528     75.4127
   876.2500     33.9771     22.8549     35.7402     76.0900
   876.5000     34.7901     22.9928     36.8631     75.9336
   876.7500     35.7021     23.0877     37.7562     74.5985
   877.0000     36.6648     23.1367     38.4519     70.3748
   877.2500     37.6308     23.1521     39.0156     66.4128
   877.5000     38.5775     23.1610     39.4874     60.3575
   877.7500     39.4954     23.1983     39.8615     57.3515
   878.0000     40.3253     23.2937     40.0990     55.5773
   878.2500     40.9269     23.4595     40.1553     56.2619
   878.5000     41.1472     23.6834     40.0075     59.2519
   878.7500     40.9138     23.9348     39.6744     61.7984
   879.0000     40.2638     24.1814     39.2224     65.1180
   879.2500     39.3130     24.4034     38.7446     66.3703
   879.5000     38.2066     24.5974     38.3160     66.3268
   879.7500     37.0717     24.7733     37.9530     65.2650
   880.0000     35.9940     24.9464     37.6090     63.3321
   880.2500     35.0243     25.1266     37.2086     62.5552
   880.5000     34.1887     25.3104     36.7014     62.6295
   880.7500     33.5020     25.4808     36.0908     63.2442
   881.0000     32.9742     25.6154     35.4216     64.2142
   881.2500     32.5936     25.7000     34.7447     64.5242
   881.5000     32.3242     25.7369     34.0934     64.2458
   881.7500     32.1293     25.7435     33.4870     63.7147
   882.0000     31.9847     25.7398     32.9473     63.0607
   882.2500     31.8677     25.7382     32.5081     63.1163
   882.5000     31.7563     25.7416     32.2057     64.2193
   882.7500     31.6456     25.7489     32.0553     65.5210
   883.0000     31.5401     25.7585     32.0322     67.8090
   883.2500     31.4318     25.7644     32.0722     69.1643
   883.5000     31.3083     25.7549     32.0956     70.2309
   883.7500     31.1565     25.7172     32.0410     69.9776
   884.0000     30.9518     25.6451     31.8886     68.1531
   884.2500     30.6800     25.5425     31.6631     66.3819
   884.5000     30.3836     25.4204     31.4182     63.7974
   884.7500     30.1557     25.2917     31.2136     62.4153
   885.0000     30.0468     25.1663     31.0929     60.8620
   885.2500     30.0097     25.0475     31.0714     60.1256
   885.5000     29.9747     24.9304     31.1370     59.6008
   885.7500     29.9191     24.8048     31.2612     59.7685
   886.0000     29.8520     24.6607     31.4098     60.8850
   886.2500     29.7892     24.4941     31.5496     62.1879
   886.5000     29.7482     24.3113     31.6521     64.9054
   886.7500     29.7473     24.1287     31.6961     67.0318
   887.0000     29.7767     23.9676     31.6725     69.8795
   887.2500     29.7766     23.8470     31.5956     71.0220
   887.5000     29.7032     23.7767     31.5127     71.4782
   887.7500     29.5909     23.7551     31.4925     71.4915
   888.0000     29.4978     23.7707     31.5872     72.2165
   888.2500     29.4513     23.8064     31.7919     73.3183
   888.5000     29.4521     23.8461     32.0390     75.1128
   888.7500     29.4858     23.8815     32.2371     75.8598
   889.0000     29.5420     23.9146     32.3285     76.0501
   889.2500     29.6011     23.9533     32.3133     75.7255
   889.5000     29.5946     24.0060     32.2241     74.8837
   889.7500     29.4880     24.0806     32.0850     74.2287
   890.0000     29.3670     24.1865     31.9013     73.4415
   890.2500     29.3230     24.3328     31.6834     73.2544
   890.5000     29.3470     24.5226     31.4674     73.5146
   890.7500     29.3785     24.7482     31.2960     73.7825
   891.0000     29.3795     24.9931     31.1754     73.5730
   891.2500     29.3662     25.2352     31.0622     72.6748
   891.5000     29.3845     25.4537     30.9019     70.2169
   891.7500     29.4487     25.6360     30.6836     68.2908
   892.0000     29.5115     25.7808     30.4510     66.1402
   892.2500     29.4973     25.8927     30.2605     65.7603
   892.5000     29.3598     25.9745     30.1337     67.0889
   892.7500     29.1112     26.0209     30.0532     69.0806
   893.0000     28.8091     26.0116     29.9948     73.1631
   893.2500     28.5284     25.9137     29.9624     76.1853
   893.5000     28.3327     25.6996     29.9882     80.1730
   893.7500     28.2282     25.3694     30.1002     81.7641
   894.0000     28.1498     24.9581     30.2910     81.6399
   894.2500     28.0417     24.5194     30.5197     79.8968
   894.5000     27.9245     24.1033     30.7434     75.9362
   894.7500     27.8532     23.7452     30.9443     73.3405
   895.0000     27.8507     23.4652     31.1245     70.5892
   895.2500     27.9056     23.2629     31.2795     69.6135
   895.5000     28.0009     23.1119     31.3832     69.0119
   895.7500     28.1198     22.9671     31.3976     68.8643
   896.0000     28.2323     22.7888     31.2985     68.6821
   896.2500     28.3142     22.5595     31.1000     68.5848
   896.5000     28.3754     22.2792     30.8585     68.6948
   896.7500     28.4422     21.9524     30.6480     69.0515
   897.0000     28.5062     21.5837     30.5156     70.0336
   897.2500     28.5156     21.1852     30.4522     70.9301
   897.5000     28.4530     20.7798     30.4005     72.4341
   897.7500     28.3934     20.3952     30.2958     73.2961
   898.0000     28.3965     20.0522     30.1051     73.7459
   898.2500     28.3977     19.7571     29.8352     73.2076
   898.5000     28.3160     19.5034     29.5178     71.3040
   898.7500     28.1626     19.2790     29.1911     69.7669
   899.0000     27.9848     19.0740     28.8956     67.9805
   899.2500     27.8005     18.8852     28.6768     67.4340
   899.5000     27.6093     18.7134     28.5843     67.4635
   899.7500     27.4250     18.5561     28.6558     67.7231
   900.0000     27.2782     18.4031     28.8882     67.8174
   900.2500     27.1987     18.2391     29.2182     67.3988
   900.5000     27.2075     18.0520     29.5396     65.8816
   900.7500     27.3229     17.8420     29.7608     64.4057
   901.0000     27.5513     17.6249     29.8658     62.0527
   901.2500     27.8698     17.4247     29.9251     60.8022
   901.5000     28.2504     17.2589     30.0544     60.0612
   901.7500     28.6876     17.1262     30.3566     60.5978
   902.0000     29.1785     17.0109     30.8811     62.9546
   902.2500     29.6937     16.8988     31.6056     65.1147
   902.5000     30.1910     16.7881     32.4493     67.8430
   902.7500     30.6596     16.6836     33.3153     68.5792
   903.0000     31.1294     16.5895     34.1441     67.7540
   903.2500     31.6278     16.5113     34.9364     66.3436
   903.5000     32.1397     16.4585     35.7306     64.0455
   903.7500     32.6168     16.4393     36.5607     62.8870
   904.0000     33.0143     16.4537     37.4356     62.0715
   904.2500     33.3138     16.4941     38.3436     62.0848
   904.5000     33.5285     16.5503     39.2620     62.3934
   904.7500     33.6871     16.6149     40.1592     62.3227
   905.0000     33.7959     16.6828     40.9884     61.3060
   905.2500     33.8259     16.7496     41.6922     60.2128
   905.5000     33.7508     16.8114     42.2305     58.9648
   905.7500     33.5844     16.8663     42.6149     58.9037
   906.0000     33.3452     16.9185     42.8943     59.9221
   906.2500     33.0113     16.9780     43.0788     60.8738
   906.5000     32.5569     17.0544     43.0708     61.9979
   906.7500     32.0044     17.1470     42.7081     62.4522
   907.0000     31.4293     17.2406     41.9107     62.8532
   907.2500     30.9377     17.3109     40.7839     62.9868
   907.5000     30.5983     17.3353     39.5471     62.9816
   907.7500     30.3879     17.3035     38.3709     62.9386
   908.0000     30.2386     17.2298     37.2860     63.2730
   908.2500     30.1143     17.1568     36.2140     64.0478
   908.5000     30.0245     17.1405     35.0602     66.1947
   908.7500     29.9887     17.2155     33.7777     68.1103
