~Version Information
VERS.                      2.0: CWLS Log ASCII Standard - VERSION 2.0
WRAP.                       NO: One line per depth step
~Well Information Block
STRT.FT               250.0000: 
STOP.FT              1573.7000: 
STEP.FT                 0.1000: 
NULL.                -999.2500: 
COMP.          Pioneer Natural Resources: COMPANY
WELL.          Big Cat Federal 44-1: WELL
FLD.           Purgatoire River: FIELD
LOC.           197' FSL & 973' FEL--: LOCATION
CNTY.               Las Animas: COUNTY
SRVC.                Patterson: SERVICE COMPANY
DATE.          Mon Apr 24 08:33:37 2006: LOG DATE
UWI.           05 071 08042 00: UNIQUE WELL ID
STAT.                 Colorado: STATE
~Curve Information Block
DEPT.FT            0 000 00 00: Depth
DCAL.in                       : CDL Caliper
RHOB.g/cc                     : CDL Bulk Density
RHOC.g/cc                     : CDL Density Correction
DPOR.pu                       : CDL Density Porosity
NPOR.pu                       : Neutron Porosity
GR.GAPI                       : Gamma Ray
~Parameter Information Block
~A  Depth       DCAL        RHOB        RHOC        DPOR        NPOR         GR     
# ...
   336.4000      8.3471      1.2808     -0.0785     82.9809      4.9710     77.6309
   336.5000      8.4493      1.2645      0.0144     83.9669      4.2838     77.7051
   336.6000      8.4493      1.2650      0.0515     83.9408      3.9886     75.0382
   336.7000      8.4493      1.2677      0.0755     83.7775      3.9931     70.5186
   336.8000      8.4759      1.2786      0.0642     83.1173      4.1262     66.7576
   336.9000      8.4759      1.3067      0.1207     81.4104      4.2151     63.6269
   337.0000      8.4518      1.3487      0.1166     78.8648      4.2636     61.0020
   337.1000      8.4518      1.3991      0.1136     75.8135      4.4566     58.3310
   337.2000      8.4518      1.4577      0.1125     72.2615      4.9030     55.4242
   337.3000      8.4118      1.5231      0.1381     68.2992      5.4503     55.1175
   337.4000      8.4118      1.5908      0.1457     64.1940      5.9548     60.1690
   337.5000      8.3523      1.6586      0.1736     60.0863      6.6150     68.7425
   337.6000      8.3523      1.7306      0.1656     55.7222      7.5897     76.7695
   337.7000      8.3523      1.8155      0.1727     50.5776      8.6827     83.7595
   337.8000      8.2775      1.9101      0.1828     44.8434      9.5724     89.8630
   337.9000      8.2775      1.9926      0.2450     39.8450     10.1675     92.4518
   338.0000      8.2163      2.0467      0.2030     36.5625     10.6701     91.6258
   338.1000      8.2163      2.0798      0.1660     34.5570     11.2353     93.5521
   338.2000      8.2163      2.1029      0.1306     33.1556     11.9909    101.4706
   338.3000      8.1765      2.1216      0.0814     32.0243     12.8790    112.1778
   338.4000      8.1765      2.1508      0.0667     30.2523     13.5784    121.9583
   338.5000      8.1584      2.2068      0.0867     26.8592     14.0072    127.6698
   338.6000      8.1584      2.2742      0.1859     22.7750     14.2946    125.3071
   338.7000      8.1584      2.3200      0.1542     20.0023     14.5543    117.9313
   338.8000      8.1554      2.3449      0.0675     18.4934     14.8901    114.0915
   338.9000      8.1554      2.3744      0.1298     16.7013     15.2397    115.6559
   339.0000      8.1572      2.4216      0.1349     13.8441     15.4784    118.6997
   339.1000      8.1572      2.4795      0.1783     10.3336     15.6829    121.8681
   339.2000      8.1572      2.5208      0.1553      7.8303     16.0903    126.5252
   339.3000      8.1614      2.5233      0.1300      7.6771     16.6778    132.0691
   339.4000      8.1614      2.5060      0.0279      8.7291     17.0369    135.2766
   339.5000      8.1683      2.5045      0.0250      8.8189     16.9700    134.8584
   339.6000      8.1683      2.5141      0.0755      8.2354     16.7947    134.0970
   339.7000      8.1683      2.5153      0.0252      8.1660     17.0780    133.1839
   339.8000      8.1789      2.5175      0.0317      8.0314     17.8279    130.9889
   339.9000      8.1789      2.5270      0.0393      7.4530     18.6725    130.0887
   340.0000      8.1930      2.5351      0.0201      6.9609     19.5342    133.1367
   340.1000      8.1930      2.5436     -0.0028      6.4495     20.5334    135.5287
   340.2000      8.1930      2.5489      0.0434      6.1255     21.5335    131.4171
   340.3000      8.2082      2.5389      0.0024      6.7363     22.1474    124.4245
   340.4000      8.2082      2.5248     -0.0280      7.5854     22.3554    118.5787
   340.5000      8.2158      2.5246      0.0115      7.6006     22.5765    116.3856
   340.6000      8.2158      2.5284      0.0174      7.3703     22.6819    121.6953
   340.7000      8.2158      2.5267     -0.0341      7.4737     22.1959    131.0783
   340.8000      8.2183      2.5254      0.0370      7.5518     21.5546    135.3854
   340.9000      8.2183      2.5187      0.0146      7.9567     21.4088    133.0381
   341.0000      8.2185      2.4984      0.0396      9.1866     21.5287    127.9910
   341.1000      8.2185      2.4740     -0.0287     10.6648     21.4814    124.2346
   341.2000      8.2185      2.4574      0.0408     11.6750     21.0882    123.6083
   341.3000      8.2217      2.4451      0.0151     12.4171     20.2680    125.4208
   341.4000      8.2217      2.4268      0.0294     13.5286     19.2985    130.8996
   341.5000      8.2385      2.3938      0.0054     15.5281     18.5455    139.5175
   341.6000      8.2385      2.3472      0.0192     18.3499     17.9590    147.1406
   341.7000      8.2385      2.3033     -0.0118     21.0143     17.3063    149.5161
   341.8000      8.2668      2.2851     -0.0586     22.1166     16.8461    146.8920
   341.9000      8.2668      2.2974      0.0012     21.3699     16.9036    143.4566
   342.0000      8.2883      2.3246      0.0304     19.7205     17.0731    142.3514
   342.1000      8.2883      2.3594      0.0344     17.6137     16.9049    145.8190
   342.2000      8.2883      2.3967      0.1391     15.3521     16.7112    154.9924
   342.3000      8.2985      2.4183      0.1633     14.0430     16.7839    165.5045
   342.4000      8.2985      2.4186      0.1677     14.0253     17.0520    170.1240
   342.5000      8.2983      2.4131      0.2014     14.3558     17.5197    168.5546
   342.6000      8.2983      2.4162      0.2117     14.1720     17.8552    164.1758
   342.7000      8.2983      2.4233      0.2419     13.7400     17.7358    159.8986
   342.8000      8.2751      2.4136      0.1914     14.3283     17.4764    157.6044
   342.9000      8.2751      2.3775      0.1338     16.5179     17.3874    154.5421
   343.0000      8.2074      2.3335      0.1015     19.1817     17.1833    147.2972
   343.1000      8.2074      2.3193      0.0235     20.0396     16.7519    140.0326
   343.2000      8.2074      2.3554      0.1211     17.8546     16.5671    140.0379
   343.3000      8.1134      2.4110      0.1635     14.4876     16.7744    147.3442
   343.4000      8.1134      2.4383      0.1913     12.8289     17.3042    153.6131
   343.5000      8.0461      2.4324      0.1154     13.1902     18.2080    150.8612
   343.6000      8.0461      2.4312      0.1275     13.2632     19.2071    141.5807
   343.7000      8.0461      2.4537      0.2195     11.8972     19.8066    135.3566
   343.8000      8.0079      2.4780      0.2282     10.4227     19.7817    136.9968
   343.9000      8.0079      2.4850      0.1953      9.9983     19.3147    142.1950
   344.0000      7.9795      2.4748      0.1373     10.6180     18.6594    143.6300
   344.1000      7.9795      2.4546      0.1156     11.8406     17.8503    141.4875
   344.2000      7.9795      2.4383      0.0597     12.8305     17.1472    141.9154
   344.3000      7.9629      2.4376      0.0692     12.8716     16.9877    144.5647
   344.4000      7.9629      2.4427      0.0915     12.5660     16.9502    144.4343
   344.5000      7.9575      2.4360      0.0803     12.9680     16.3700    140.0854
   344.6000      7.9575      2.4292     -0.0248     13.3832     15.9070    135.4589
   344.7000      7.9575      2.4365      0.0545     12.9365     16.3396    135.5347
   344.8000      7.9558      2.4458      0.0222     12.3767     17.1675    140.2651
   344.9000      7.9558      2.4556      0.0434     11.7792     17.5824    142.9959
   345.0000      7.9546      2.4727      0.0749     10.7466     17.6051    137.8586
   345.1000      7.9546      2.4860      0.1004      9.9408     17.7808    130.4386
   345.2000      7.9546      2.4863      0.0293      9.9218     18.3345    130.1295
   345.3000      7.9539      2.4776      0.0527     10.4456     18.8940    134.0742
   345.4000      7.9539      2.4683      0.0149     11.0151     19.0951    135.5993
   345.5000      7.9541      2.4651      0.0313     11.2063     19.1844    134.0768
   345.6000      7.9541      2.4690      0.0662     10.9671     19.7409    130.7695
   345.7000      7.9541      2.4799      0.0467     10.3067     20.6949    128.4496
   345.8000      7.9554      2.4965      0.0591      9.3041     21.3203    128.3837
   345.9000      7.9554      2.5108      0.0956      8.4344     21.3101    128.8421
