~Version Information
VERS.                      2.0: CWLS Log ASCII Standard - VERSION 2.0
WRAP.                       NO: One line per depth step
~Well Information Block
STRT.FT               258.0000: 
STOP.FT               998.2000: 
STEP.FT                 0.1000: 
NULL.                -999.2500: 
COMP.          Pioneer Natural Resources: COMPANY
WELL.          Piggyback 33-25: WELL
FLD.           Purgatoire River: FIELD
LOC.           1600' FSL & 1800' FEL: LOCATION
PROV.                 Colorado: PROVINCE
CNTY.               Las Animas: COUNTRY
SRVC.                Patterson: SERVICE COMPANY
DATE.          Fri Apr 29 16:11:48 2005: LOG DATE
UWI.           05 071 08233 00: UNIQUE WELL ID
~Curve Information Block
DEPT.FT            0 000 00 00: Depth
DCAL.in                       : CDL Caliper
RHOB.g/cc                     : CDL Bulk Density
RHOC.g/cc                     : CDL Density Correction
DPOR.pu                       : CDL Density Porosity
GR.GAPI                       : Gamma Ray
NPOR.pu                       : Neutron Porosity
~Parameter Information Block
~A  Depth       DCAL        RHOB        RHOC        DPOR         GR         NPOR    
# ...
   594.0000      7.9327      2.5237      0.1179      7.6566    134.5601     25.8981
   594.1000      7.9327      2.5400      0.1040      6.6662    140.1684     25.1605
   594.2000      7.9327      2.5453      0.1036      6.3442    142.5008     24.0645
   594.3000      7.9477      2.5278      0.0851      7.4034    136.5070     22.7954
   594.4000      7.9477      2.4983      0.1073      9.1961    130.3650     22.2409
   594.5000      7.9490      2.4744      0.0166     10.6424    129.3668     22.9469
   594.6000      7.9490      2.4704      0.0563     10.8823    130.3165     24.0631
   594.7000      7.9490      2.4805      0.1077     10.2737    130.0547     24.7841
   594.8000      7.9406      2.4814      0.1080     10.2177    129.0467     25.6065
   594.9000      7.9406      2.4752      0.0185     10.5932    127.9286     26.4711
   595.0000      7.9447      2.4882      0.0380      9.8032    127.0942     26.3339
   595.1000      7.9447      2.5266      0.0537      7.4805    128.6830     25.1669
   595.2000      7.9447      2.5646      0.1540      5.1767    133.2089     23.8897
   595.3000      7.9595      2.5763      0.1208      4.4656    136.5192     23.2864
   595.4000      7.9595      2.5681      0.1082      4.9632    134.0019     23.3515
   595.5000      7.9559      2.5599      0.1119      5.4596    127.4693     23.5290
   595.6000      7.9559      2.5602      0.0938      5.4407    123.1037     24.0277
   595.7000      7.9559      2.5638      0.1634      5.2224    121.9782     25.2700
   595.8000      7.9471      2.5582      0.1246      5.5665    119.8987     26.5976
   595.9000      7.9471      2.5484      0.0525      6.1572    117.8059     27.0616
   596.0000      7.9348      2.5453      0.0830      6.3426    117.0996     26.7294
   596.1000      7.9348      2.5380      0.1197      6.7876    115.3830     26.3946
   596.2000      7.9348      2.5228      0.0461      7.7082    113.8410     26.3077
   596.3000      7.9398      2.5124      0.0686      8.3403    113.3756     25.7985
   596.4000      7.9398      2.5100     -0.0112      8.4850    113.1094     24.7878
   596.5000      7.9426      2.5089      0.0727      8.5514    113.5526     24.2877
   596.6000      7.9426      2.5023      0.0664      8.9530    114.2192     24.3761
   596.7000      7.9426      2.5022      0.0629      8.9582    113.3844     24.1632
   596.8000      7.9273      2.5171      0.1161      8.0537    112.1321     23.7784
   596.9000      7.9273      2.5275      0.1200      7.4215    112.8866     23.8246
   597.0000      7.9059      2.5215      0.0616      7.7903    114.8473     23.9686
   597.1000      7.9059      2.5121      0.0404      8.3593    113.4640     23.6746
   597.2000      7.9059      2.5107      0.0707      8.4434    109.4599     23.0495
   597.3000      7.9008      2.5158      0.0416      8.1311    108.6782     22.3394
   597.4000      7.9008      2.5279      0.0875      7.4014    111.1140     22.0372
   597.5000      7.9042      2.5421      0.1091      6.5365    112.8528     22.5526
   597.6000      7.9042      2.5439      0.1168      6.4298    111.3580     23.1153
   597.7000      7.9042      2.5264      0.1068      7.4924    106.8901     23.2547
   597.8000      7.9161      2.5083      0.0415      8.5883    102.9690     23.3669
   597.9000      7.9161      2.5117      0.0503      8.3808    102.4463     23.2784
   598.0000      7.8976      2.5244      0.1341      7.6133    105.5088     23.2288
   598.1000      7.8976      2.5275      0.0737      7.4270    110.1120     23.8941
   598.2000      7.8976      2.5270      0.0595      7.4564    113.9149     24.7351
   598.3000      7.8754      2.5295      0.1191      7.3044    115.7320     24.9696
   598.4000      7.8754      2.5332      0.1057      7.0809    114.5594     24.6334
   598.5000      7.8904      2.5353      0.1033      6.9512    110.5409     24.0104
   598.6000      7.8904      2.5288      0.1033      7.3450    106.3205     23.2307
   598.7000      7.8904      2.5186      0.0576      7.9620    105.9677     22.6373
   598.8000      7.8826      2.5214      0.0534      7.7912    108.5221     22.6060
   598.9000      7.8826      2.5287      0.1019      7.3539    109.8886     22.8318
   599.0000      7.8956      2.5141      0.1151      8.2372    110.8800     23.3034
   599.1000      7.8956      2.4848      0.0417     10.0093    113.6506     24.0801
   599.2000      7.8956      2.4698      0.0537     10.9236    117.9854     24.7525
   599.3000      7.9136      2.4709      0.0419     10.8522    122.5354     25.3769
   599.4000      7.9136      2.4721      0.0430     10.7819    124.2008     25.3964
   599.5000      7.9296      2.4702      0.0496     10.8941    120.9183     24.3893
   599.6000      7.9296      2.4792      0.0103     10.3518    114.0676     23.6815
   599.7000      7.9296      2.5129      0.0299      8.3115    108.0922     24.1192
   599.8000      7.9399      2.5579      0.1088      5.5814    105.1175     24.8075
   599.9000      7.9399      2.5862      0.0903      3.8674    103.5757     24.6646
   600.0000      7.9326      2.5844      0.1457      3.9755    104.9969     23.7268
   600.1000      7.9326      2.5593      0.0555      5.4978    107.9876     22.7415
   600.2000      7.9326      2.5343      0.0571      7.0140    106.9160     22.4644
   600.3000      7.9311      2.5228     -0.0104      7.7067    103.1137     23.0817
   600.4000      7.9311      2.5197      0.0233      7.8974    101.5446     23.6006
   600.5000      7.9143      2.5181      0.0210      7.9950    104.3808     23.0830
   600.6000      7.9143      2.5231      0.0168      7.6930    109.0209     22.4949
   600.7000      7.9143      2.5361      0.0829      6.9045    109.6161     22.7649
   600.8000      7.9051      2.5523      0.0853      5.9223    104.3007     22.8486
   600.9000      7.9051      2.5750      0.0788      4.5435     97.5868     22.2316
   601.0000      7.9099      2.5942      0.1384      3.3805     94.7984     21.5915
   601.1000      7.9099      2.5913      0.0906      3.5556     97.3106     20.5634
   601.2000      7.9099      2.5755      0.0224      4.5172    102.0353     19.0095
   601.3000      7.9053      2.5622      0.0790      5.3196    103.1941     17.9895
   601.4000      7.9053      2.5484      0.0253      6.1552     97.5065     18.4441
   601.5000      7.9014      2.5399      0.0374      6.6702     88.9926     20.1448
   601.6000      7.9014      2.5513      0.0629      5.9789     82.3285     21.4005
   601.7000      7.9014      2.5790      0.0903      4.3043     78.4284     21.2497
   601.8000      7.9154      2.6054      0.1002      2.7061     79.5302     20.2186
   601.9000      7.9154      2.6122      0.1038      2.2908     85.1005     18.8461
   602.0000      7.8713      2.5843      0.0860      3.9815     89.0833     18.0808
   602.1000      7.8713      2.5260      0.0589      7.5151     90.0130     18.8337
   602.2000      7.8713      2.4718     -0.0544     10.8010     92.5937     20.6215
   602.3000      7.8652      2.4531     -0.0006     11.9345     97.1275     22.0275
   602.4000      7.8652      2.4572      0.0073     11.6822    101.0740     22.7538
   602.5000      7.8976      2.4554      0.0370     11.7932    104.3522     23.3591
   602.6000      7.8976      2.4449      0.0125     12.4305    106.7347     23.5641
   602.7000      7.8976      2.4363      0.0369     12.9523    109.3013     23.4274
   602.8000      7.9309      2.4311      0.0606     13.2640    114.1498     23.6261
   602.9000      7.9309      2.4354      0.0364     13.0063    118.9950     23.7933
   603.0000      7.9132      2.4608      0.0469     11.4668    121.0469     23.9624
   603.1000      7.9132      2.4919      0.1192      9.5795    122.2770     24.9525
   603.2000      7.9132      2.4999      0.0914      9.0997    123.3549     26.0706
   603.3000      7.9091      2.4905      0.0197      9.6673    120.6850     26.0036
   603.4000      7.9091      2.4884      0.0613      9.7919    114.8746     24.8839
   603.5000      7.9052      2.4954      0.0836      9.3719    112.9582     23.5789
