~Version Information
VERS.                      2.0: CWLS Log ASCII Standard - VERSION 2.0
WRAP.                       NO: One line per depth step
~Well Information Block
STRT.FT               955.2500: 
STOP.FT              2226.0000: 
STEP.FT                 0.2500: 
NULL.                -999.2500: 
COMP.          Petrogulf Corporation: COMPANY
WELL.             Burson 8-13R: WELL
FLD.           Purgatorie River: FIELD
LOC.           1045' FNL & 2189' FEL: LOCATION
CNTY.               Las Animas: COUNTY
SRVC.                         : SERVICE COMPANY
DATE.          Fri Apr 30 04:52:15 2004: LOG DATE
UWI.           05 071 08039 00: UNIQUE WELL ID
STAT.                 Colorado: STATE
~Curve Information Block
DEPT.FT            0 000 00 00: Depth
SP.mV                         : DIL Spontaneous Potential
RILD.Ohm-m                    : DIL Deep Resistivity
RILM.Ohm-m                    : DIL Medium Resistivity
RLL3.Ohm-m                    : DIL Shallow Resistivity
~Parameter Information Block
~A  Depth        SP         RILD        RILM        RLL3    
# ...
  1055.7500   2000.0000     11.9362     13.5242   2000.0000
  1056.0000   2000.0000     12.2702     13.9949   2000.0000
  1056.2500   2000.0000     12.7374     14.3433   2000.0000
  1056.5000   2000.0000     13.2959     14.5228   2000.0000
  1056.7500   2000.0000     13.8642     14.5685   2000.0000
  1057.0000   2000.0000     14.3388     14.5571   2000.0000
  1057.2500   2000.0000     14.6327     14.5534   2000.0000
  1057.5000   2000.0000     14.7117     14.5800   2000.0000
  1057.7500   2000.0000     14.6067     14.6162   2000.0000
  1058.0000   2000.0000     14.3941     14.6179   2000.0000
  1058.2500   2000.0000     14.1568     14.5493   2000.0000
  1058.5000   2000.0000     13.9521     14.4057   2000.0000
  1058.7500   2000.0000     13.8011     14.2147   2000.0000
  1059.0000   2000.0000     13.7008     14.0240   2000.0000
  1059.2500   2000.0000     13.6447     13.8894   2000.0000
  1059.5000   2000.0000     13.6343     13.8650   2000.0000
  1059.7500   2000.0000     13.6752     13.9885   2000.0000
  1060.0000   2000.0000     13.7650     14.2610   2000.0000
  1060.2500   2000.0000     13.8845     14.6318   2000.0000
  1060.5000   2000.0000     13.9974     15.0025   2000.0000
  1060.7500   2000.0000     14.0615     15.2590   2000.0000
  1061.0000   2000.0000     14.0474     15.3199   2000.0000
  1061.2500   2000.0000     13.9604     15.1686   2000.0000
  1061.5000   2000.0000     13.8468     14.8540   2000.0000
  1061.7500   2000.0000     13.7779     14.4686   2000.0000
  1062.0000   2000.0000     13.8186     14.1190   2000.0000
  1062.2500   2000.0000     13.9986     13.8972   2000.0000
  1062.5000   2000.0000     14.3028     13.8615   2000.0000
  1062.7500   2000.0000     14.6851     14.0309   2000.0000
  1063.0000   2000.0000     15.1009     14.3940   2000.0000
  1063.2500   2000.0000     15.5349     14.9248   2000.0000
  1063.5000   2000.0000     16.0004     15.5971   2000.0000
  1063.7500   2000.0000     16.5120     16.3882   2000.0000
  1064.0000   2000.0000     17.0655     17.2689   2000.0000
  1064.2500   2000.0000     17.6409     18.1843   2000.0000
  1064.5000   2000.0000     18.2209     19.0442   2000.0000
  1064.7500   2000.0000     18.7967     19.7438   2000.0000
  1065.0000   2000.0000     19.3603     20.2144   2000.0000
  1065.2500   2000.0000     19.8972     20.4639   2000.0000
  1065.5000   2000.0000     20.3879     20.5676   2000.0000
  1065.7500   2000.0000     20.8112     20.6248   2000.0000
  1066.0000   2000.0000     21.1485     20.7195   2000.0000
  1066.2500   2000.0000     21.3959     20.9031   2000.0000
  1066.5000   2000.0000     21.5738     21.1889   2000.0000
  1066.7500   2000.0000     21.7203     21.5520   2000.0000
  1067.0000   2000.0000     21.8695     21.9415   2000.0000
  1067.2500   2000.0000     22.0314     22.3118   2000.0000
  1067.5000   2000.0000     22.1901     22.6532   2000.0000
  1067.7500   2000.0000     22.3189     22.9984   2000.0000
  1068.0000   2000.0000     22.4015     23.3872   2000.0000
  1068.2500   2000.0000     22.4459     23.8116   2000.0000
  1068.5000   2000.0000     22.4793     24.1859   2000.0000
  1068.7500   2000.0000     22.5335     24.3797   2000.0000
  1069.0000   2000.0000     22.6351     24.3108   2000.0000
  1069.2500   2000.0000     22.8015     24.0182   2000.0000
  1069.5000   2000.0000     23.0328     23.6406   2000.0000
  1069.7500   2000.0000     23.2963     23.3255   2000.0000
  1070.0000   2000.0000     23.5159     23.1574   2000.0000
  1070.2500   2000.0000     23.5962     23.1383   2000.0000
  1070.5000   2000.0000     23.4723     23.2085   2000.0000
  1070.7500   2000.0000     23.1422     23.2853   2000.0000
  1071.0000   2000.0000     22.6510     23.3054   2000.0000
  1071.2500   2000.0000     22.0593     23.2505   2000.0000
  1071.5000   2000.0000     21.4362     23.1408   2000.0000
  1071.7500   2000.0000     20.8670     23.0031   2000.0000
  1072.0000   2000.0000     20.4400     22.8439   2000.0000
  1072.2500   2000.0000     20.2140     22.6482   2000.0000
  1072.5000   2000.0000     20.1940     22.4000   2000.0000
  1072.7500   2000.0000     20.3343     22.1050   2000.0000
  1073.0000   2000.0000     20.5606     21.7926   2000.0000
  1073.2500   2000.0000     20.7955     21.4985   2000.0000
  1073.5000   2000.0000     20.9749     21.2441   2000.0000
  1073.7500   2000.0000     21.0577     21.0271   2000.0000
  1074.0000   2000.0000     21.0334     20.8304   2000.0000
  1074.2500   2000.0000     20.9252     20.6385   2000.0000
  1074.5000   2000.0000     20.7825     20.4486   2000.0000
  1074.7500   2000.0000     20.6612     20.2686   2000.0000
  1075.0000   2000.0000     20.6047     20.1098   2000.0000
  1075.2500   2000.0000     20.6350     19.9826   2000.0000
  1075.5000   2000.0000     20.7499     19.8994   2000.0000
  1075.7500   2000.0000     20.9241     19.8750   2000.0000
  1076.0000   2000.0000     21.1128     19.9228   2000.0000
  1076.2500   2000.0000     21.2630     20.0502   2000.0000
  1076.5000   2000.0000     21.3322     20.2540   2000.0000
  1076.7500   2000.0000     21.3060     20.5125   2000.0000
  1077.0000   2000.0000     21.2046     20.7735   2000.0000
  1077.2500   2000.0000     21.0747     20.9549   2000.0000
  1077.5000   2000.0000     20.9706     20.9774   2000.0000
  1077.7500   2000.0000     20.9314     20.8179   2000.0000
  1078.0000   2000.0000     20.9678     20.5346   2000.0000
  1078.2500   2000.0000     21.0604     20.2344   2000.0000
  1078.5000   2000.0000     21.1677     20.0141   2000.0000
  1078.7500   2000.0000     21.2361     19.9199   2000.0000
  1079.0000   2000.0000     21.2163     19.9386   2000.0000
  1079.2500   2000.0000     21.0892     20.0122   2000.0000
  1079.5000   2000.0000     20.8924     20.0742   2000.0000
  1079.7500   2000.0000     20.7177     20.0899   2000.0000
  1080.0000   2000.0000     20.6713     20.0744   2000.0000
  1080.2500   2000.0000     20.8221     20.0720   2000.0000
  1080.5000   2000.0000     21.1685     20.1221   2000.0000
  1080.7500   2000.0000     21.6421     20.2410   2000.0000
  1081.0000   2000.0000     22.1440     20.4246   2000.0000
  1081.2500   2000.0000     22.5924     20.6517   2000.0000
  1081.5000   2000.0000     22.9495     20.8839   2000.0000
  1081.7500   2000.0000     23.2165     21.0732   2000.0000
  1082.0000   2000.0000     23.4120     21.1865   2000.0000
  1082.2500   2000.0000     23.5591     21.2298   2000.0000
  1082.5000   2000.0000     23.6794     21.2475   2000.0000
  1082.7500   2000.0000     23.7909     21.3001   2000.0000
  1083.0000   2000.0000     23.9033     21.4425   2000.0000
  1083.2500   2000.0000     24.0207     21.7110   2000.0000
  1083.5000   2000.0000     24.1471     22.1155   2000.0000
  1083.7500   2000.0000     24.2887     22.6318   2000.0000
  1084.0000   2000.0000     24.4459     23.2004   2000.0000
  1084.2500   2000.0000     24.5977     23.7398   2000.0000
  1084.5000   2000.0000     24.6967     24.1795   2000.0000
  1084.7500   2000.0000     24.6844     24.4990   2000.0000
  1085.0000   2000.0000     24.5194     24.7396   2000.0000
  1085.2500   2000.0000     24.1960     24.9630   2000.0000
  1085.5000   2000.0000     23.7373     25.1749   2000.0000
  1085.7500   2000.0000     23.1755     25.2755   2000.0000
  1086.0000   2000.0000     22.5387     25.0855   2000.0000
  1086.2500   2000.0000     21.8482     24.4509   2000.0000
  1086.5000   2000.0000     21.1219     23.3524   2000.0000
  1086.7500   2000.0000     20.3712     21.9246   2000.0000
  1087.0000   2000.0000     19.5977     20.3781   2000.0000
  1087.2500   2000.0000     18.7949     18.9000   2000.0000
  1087.5000   2000.0000     17.9613     17.5998   2000.0000
  1087.7500   2000.0000     17.1138     16.5039   2000.0000
  1088.0000   2000.0000     16.2886     15.5797   2000.0000
  1088.2500   2000.0000     15.5249     14.7716   2000.0000
  1088.5000   2000.0000     14.8489     14.0377   2000.0000
  1088.7500   2000.0000     14.2727     13.3721   2000.0000
  1089.0000   2000.0000     13.8022     12.7991   2000.0000
