~Version Information
VERS.                      2.0: CWLS Log ASCII Standard - VERSION 2.0
WRAP.                       NO: One line per depth step
~Well Information Block
STRT.FT               425.0000: 
STOP.FT              2461.0000: 
STEP.FT                 0.2500: 
NULL.                -999.2500: 
COMP.          Evergreen Operating Corporation: COMPANY
WELL.              Nomad 32-10: WELL
FLD.           Purgatorie River: FIELD
LOC.           2281' FNL & 1585' FEL: LOCATION
PROV.                 Colorado: PROVINCE
CNTY.               Las Animas: COUNTRY
SRVC.                Patterson: SERVICE COMPANY
DATE.          Thu Aug 12 02:01:07 2004: LOG DATE
UWI.           05 071 08127 00: UNIQUE WELL ID
~Curve Information Block
DEPT.FT            0 000 00 00: Depth
SN.Ohm-m                      : IEL Short Normal
SP.mV                         : IEL Spontaneous Potential
DIR.Ohm-m                     : IEL Induction Resistivity
GR.GAPI                       : Gamma Ray
~Parameter Information Block
~A  Depth        SN          SP         DIR          GR     
# ...
   693.0000   2000.0000   2000.0000     28.0401     77.9378
   693.2500   2000.0000   2000.0000     28.0818     78.0726
   693.5000   2000.0000   2000.0000     28.0887     77.8269
   693.7500   2000.0000   2000.0000     28.0973     77.4398
   694.0000   2000.0000   2000.0000     28.1403     77.0842
   694.2500   2000.0000   2000.0000     28.2267     77.2912
   694.5000   2000.0000   2000.0000     28.3396     78.2976
   694.7500   2000.0000   2000.0000     28.4387     79.1461
   695.0000   2000.0000   2000.0000     28.4657     80.0223
   695.2500   2000.0000   2000.0000     28.3591     80.1382
   695.5000   2000.0000   2000.0000     28.0816     79.7719
   695.7500   2000.0000   2000.0000     27.6414     79.4442
   696.0000   2000.0000   2000.0000     27.0881     79.4864
   696.2500   2000.0000   2000.0000     26.4848     80.3979
   696.5000   2000.0000   2000.0000     25.8838     83.8689
   696.7500   2000.0000   2000.0000     25.3204     87.6093
   697.0000   2000.0000   2000.0000     24.8199     94.7541
   697.2500   2000.0000   2000.0000     24.4047    100.3496
   697.5000   2000.0000   2000.0000     24.0902    110.3496
   697.7500   2000.0000   2000.0000     23.8687    118.1304
   698.0000   2000.0000   2000.0000     23.6928    130.0718
   698.2500   2000.0000   2000.0000     23.4771    136.7668
   698.5000   2000.0000   2000.0000     23.1343    143.1022
   698.7500   2000.0000   2000.0000     22.6281    144.7922
   699.0000   2000.0000   2000.0000     21.9976    144.7324
   699.2500   2000.0000   2000.0000     21.3284    143.8454
   699.5000   2000.0000   2000.0000     20.7041    142.1671
   699.7500   2000.0000   2000.0000     20.1801    140.7976
   700.0000   2000.0000   2000.0000     19.7847    137.6700
   700.2500   2000.0000   2000.0000     19.5281    134.5905
   700.5000   2000.0000   2000.0000     19.4077    129.1444
   700.7500   2000.0000   2000.0000     19.4113    125.9772
   701.0000   2000.0000   2000.0000     19.5227    123.6152
   701.2500   2000.0000   2000.0000     19.7263    123.9320
   701.5000   2000.0000   2000.0000     20.0074    126.2910
   701.7500   2000.0000   2000.0000     20.3476    128.1354
   702.0000   2000.0000   2000.0000     20.7223    130.1150
   702.2500   2000.0000   2000.0000     21.1049    130.8997
   702.5000   2000.0000   2000.0000     21.4760    131.9360
   702.7500   2000.0000   2000.0000     21.8279    132.6440
   703.0000   2000.0000   2000.0000     22.1562    132.9484
   703.2500   2000.0000   2000.0000     22.4461    132.0645
   703.5000   2000.0000   2000.0000     22.6668    128.9611
   703.7500   2000.0000   2000.0000     22.7905    126.2505
   704.0000   2000.0000   2000.0000     22.8213    122.7378
   704.2500   2000.0000   2000.0000     22.8018    121.6090
   704.5000   2000.0000   2000.0000     22.7827    122.3175
   704.7500   2000.0000   2000.0000     22.7791    123.9195
   705.0000   2000.0000   2000.0000     22.7509    126.1832
   705.2500   2000.0000   2000.0000     22.6258    126.6698
   705.5000   2000.0000   2000.0000     22.3485    125.7223
   705.7500   2000.0000   2000.0000     21.9176    124.7211
   706.0000   2000.0000   2000.0000     21.3806    124.1946
   706.2500   2000.0000   2000.0000     20.7977    124.8769
   706.5000   2000.0000   2000.0000     20.2101    127.1760
   706.7500   2000.0000   2000.0000     19.6334    129.3333
   707.0000   2000.0000   2000.0000     19.0684    133.3688
   707.2500   2000.0000   2000.0000     18.5147    136.4005
   707.5000   2000.0000   2000.0000     17.9772    140.8613
   707.7500   2000.0000   2000.0000     17.4667    143.6103
   708.0000   2000.0000   2000.0000     16.9956    147.5921
   708.2500   2000.0000   2000.0000     16.5724    150.2688
   708.5000   2000.0000   2000.0000     16.1984    154.1394
   708.7500   2000.0000   2000.0000     15.8686    156.3231
   709.0000   2000.0000   2000.0000     15.5770    158.3328
   709.2500   2000.0000   2000.0000     15.3228    158.5672
   709.5000   2000.0000   2000.0000     15.1120    157.4019
   709.7500   2000.0000   2000.0000     14.9528    155.9301
   710.0000   2000.0000   2000.0000     14.8485    153.1012
   710.2500   2000.0000   2000.0000     14.7915    150.9326
   710.5000   2000.0000   2000.0000     14.7655    147.6292
   710.7500   2000.0000   2000.0000     14.7531    145.6735
   711.0000   2000.0000   2000.0000     14.7451    143.2856
   711.2500   2000.0000   2000.0000     14.7463    141.9666
   711.5000   2000.0000   2000.0000     14.7741    140.3204
   711.7500   2000.0000   2000.0000     14.8520    139.5305
   712.0000   2000.0000   2000.0000     15.0022    138.9243
   712.2500   2000.0000   2000.0000     15.2391    138.8732
   712.5000   2000.0000   2000.0000     15.5648    139.3040
   712.7500   2000.0000   2000.0000     15.9674    140.0225
   713.0000   2000.0000   2000.0000     16.4255    141.8033
   713.2500   2000.0000   2000.0000     16.9157    143.2020
   713.5000   2000.0000   2000.0000     17.4208    144.6787
   713.7500   2000.0000   2000.0000     17.9291    144.6443
   714.0000   2000.0000   2000.0000     18.4320    142.3940
   714.2500   2000.0000   2000.0000     18.9232    139.3580
   714.5000   2000.0000   2000.0000     19.4006    132.9313
   714.7500   2000.0000   2000.0000     19.8652    127.9166
   715.0000   2000.0000   2000.0000     20.3122    120.3842
   715.2500   2000.0000   2000.0000     20.7222    115.8499
   715.5000   2000.0000   2000.0000     21.0632    110.0373
   715.7500   2000.0000   2000.0000     21.3076    106.7225
   716.0000   2000.0000   2000.0000     21.4532    102.4523
   716.2500   2000.0000   2000.0000     21.5315    100.2145
   716.5000   2000.0000   2000.0000     21.5917     98.5634
   716.7500   2000.0000   2000.0000     21.6734     99.1972
   717.0000   2000.0000   2000.0000     21.7845    102.9976
   717.2500   2000.0000   2000.0000     21.8995    106.6997
   717.5000   2000.0000   2000.0000     21.9769    111.9267
   717.7500   2000.0000   2000.0000     21.9875    114.3444
   718.0000   2000.0000   2000.0000     21.9321    116.1158
   718.2500   2000.0000   2000.0000     21.8415    116.2163
   718.5000   2000.0000   2000.0000     21.7628    115.0091
   718.7500   2000.0000   2000.0000     21.7450    113.6192
   719.0000   2000.0000   2000.0000     21.8304    111.4588
   719.2500   2000.0000   2000.0000     22.0541    110.0960
   719.5000   2000.0000   2000.0000     22.4449    107.3788
   719.7500   2000.0000   2000.0000     23.0230    104.5494
   720.0000   2000.0000   2000.0000     23.7957     98.7368
   720.2500   2000.0000   2000.0000     24.7533     94.4007
   720.5000   2000.0000   2000.0000     25.8702     88.4763
   720.7500   2000.0000   2000.0000     27.1079     85.3706
   721.0000   2000.0000   2000.0000     28.4181     81.9864
   721.2500   2000.0000   2000.0000     29.7441     80.2471
   721.5000   2000.0000   2000.0000     31.0275     77.7092
   721.7500   2000.0000   2000.0000     32.2188     75.8031
   722.0000   2000.0000   2000.0000     33.2861     72.6559
   722.2500   2000.0000   2000.0000     34.2090     70.6286
   722.5000   2000.0000   2000.0000     34.9622     68.2499
   722.7500   2000.0000   2000.0000     35.5085     67.3430
   723.0000   2000.0000   2000.0000     35.8188     67.1707
   723.2500   2000.0000   2000.0000     35.9091     67.8182
   723.5000   2000.0000   2000.0000     35.8557     69.6763
   723.7500   2000.0000   2000.0000     35.7590     71.2561
   724.0000   2000.0000   2000.0000     35.6812     73.6234
   724.2500   2000.0000   2000.0000     35.6128     74.9252
   724.5000   2000.0000   2000.0000     35.5042     76.2504
   724.7500   2000.0000   2000.0000     35.3331     76.8240
   725.0000   2000.0000   2000.0000     35.1406     77.7120
   725.2500   2000.0000   2000.0000     34.9994     78.6293
   725.5000   2000.0000   2000.0000     34.9412     80.6447
   725.7500   2000.0000   2000.0000     34.9091     82.1317
   726.0000   2000.0000   2000.0000     34.7765     83.7125
   726.2500   2000.0000   2000.0000     34.4280     84.0613
