~Version Information
VERS.                      2.0: CWLS Log ASCII Standard - VERSION 2.0
WRAP.                       NO: One line per depth step
~Well Information Block
STRT.FT               732.2500: 
STOP.FT              2476.0000: 
STEP.FT                 0.2500: 
NULL.                -999.2500: 
COMP.          Petrogulf Corporation: COMPANY
WELL.            Montoya 7-14V: WELL
FLD.           Purgatorie River: FIELD
LOC.           535' FSL & 491' FWL: LOCATION
CNTY.               Las Animas: COUNTY
SRVC.                         : SERVICE COMPANY
DATE.          Mon Aug 23 05:51:43 2004: LOG DATE
UWI.           05 071 08019 00: UNIQUE WELL ID
STAT.                 Colorado: STATE
~Curve Information Block
DEPT.FT            0 000 00 00: Depth
SP.mV                         : DIL Spontaneous Potential
RILD.Ohm-m                    : DIL Deep Resistivity
RILM.Ohm-m                    : DIL Medium Resistivity
RLL3.Ohm-m                    : DIL Shallow Resistivity
GR.GAPI                       : Gamma Ray
~Parameter Information Block
~A  Depth        SP         RILD        RILM        RLL3         GR     
# ...
   760.2500   2000.0000    126.4449    107.1149   1998.0000     86.6472
   760.5000   2000.0000    119.8787    107.5277   1998.0000     84.4497
   760.7500   2000.0000    112.8455    108.4651   1998.0000     82.6423
   761.0000   2000.0000    106.3253    109.6647   1998.0000     80.0414
   761.2500   2000.0000    101.1477    110.9709   1998.0000     78.5342
   761.5000   2000.0000     97.4636    112.2995   1998.0000     76.5230
   761.7500   2000.0000     94.7807    113.6207   1998.0000     75.2601
   762.0000   2000.0000     92.3295    114.9430   1998.0000     73.5092
   762.2500   2000.0000     89.5818    116.2719   1998.0000     72.5289
   762.5000   2000.0000     86.5631    117.5838   1998.0000     71.4949
   762.7500   2000.0000     83.7479    118.8363   1998.0000     71.2206
   763.0000   2000.0000     81.7055    119.9491   1998.0000     71.6860
   763.2500   2000.0000     80.8556    120.8302   1998.0000     72.5546
   763.5000   2000.0000     81.3881    121.3970   1998.0000     73.8394
   763.7500   2000.0000     83.2686    121.6285   1998.0000     73.7097
   764.0000   2000.0000     86.1931    121.5895   1998.0000     70.4734
   764.2500   2000.0000     89.5328    121.4439   1998.0000     66.1965
   764.5000   2000.0000     92.4852    121.4368   1998.0000     58.4468
   764.7500   2000.0000     94.5368    121.8868   1998.0000     54.0854
   765.0000   2000.0000     95.9514    123.1384   1998.0000     50.9823
   765.2500   2000.0000     97.6988    125.5425   1998.0000     51.6173
   765.5000   2000.0000    100.7998    129.4599   1998.0000     55.9846
   765.7500   2000.0000    105.5436    135.2474   1998.0000     60.1801
   766.0000   2000.0000    110.8512    143.2668   1998.0000     65.8253
   766.2500   2000.0000    114.3113    153.8215   1998.0000     67.6295
   766.5000   2000.0000    113.6655    167.0473   1998.0000     66.3571
   766.7500   2000.0000    109.0575    182.6784   1998.0000     63.6372
   767.0000   2000.0000    103.0287    199.7144   1998.0000     59.4813
   767.2500   2000.0000     98.2851    216.1985   1998.0000     58.0137
   767.5000   2000.0000     96.2417    229.4074   1998.0000     58.5926
   767.7500   2000.0000     97.0203    236.8254   1998.0000     60.6020
   768.0000   2000.0000     99.7869    237.4895   1998.0000     65.2232
   768.2500   2000.0000    103.0730    232.3864   1998.0000     68.8937
   768.5000   2000.0000    105.2758    223.7047   1998.0000     74.5492
   768.7500   2000.0000    105.3415    213.5982   1998.0000     77.9980
   769.0000   2000.0000    103.0472    203.3484   1998.0000     81.9084
   769.2500   2000.0000     98.7201    193.4040   1998.0000     83.3557
   769.5000   2000.0000     92.9392    183.6341   1998.0000     84.0496
   769.7500   2000.0000     86.5543    173.7899   1998.0000     84.1958
   770.0000   2000.0000     80.6437    163.8721   1998.0000     85.2379
   770.2500   2000.0000     76.2299    154.1521   1998.0000     86.8842
   770.5000   2000.0000     73.9662    145.1606   1998.0000     90.6350
   770.7500   2000.0000     74.0268    137.4384   1998.0000     93.5529
   771.0000   2000.0000     76.0434    131.3486   1998.0000     97.5690
   771.2500   2000.0000     79.0210    127.0535   1998.0000     99.4819
   771.5000   2000.0000     81.4203    124.5172   1998.0000    100.6971
   771.7500   2000.0000     81.8190    123.5505   1998.0000    100.4444
   772.0000   2000.0000     79.9506    123.8742   1998.0000     99.2047
   772.2500   2000.0000     76.9777    125.1653   1998.0000     98.5239
   772.5000   2000.0000     74.6888    127.1332   1998.0000     98.8527
   772.7500   2000.0000     74.7506    129.5498   1998.0000    100.1772
   773.0000   2000.0000     78.6852    132.2648   1998.0000    103.1854
   773.2500   2000.0000     88.4136    135.1749   1998.0000    105.2320
   773.5000   2000.0000    107.1058    138.1684   1998.0000    107.5107
   773.7500   2000.0000    140.1202    140.9998   1998.0000    108.2809
   774.0000   2000.0000    193.9792    143.2623   1998.0000    108.2620
   774.2500   2000.0000    263.4575    144.4249   1998.0000    107.6207
   774.5000   2000.0000    302.6140    143.9675   1998.0000    106.1997
   774.7500   2000.0000    269.8286    141.6365   1998.0000    105.1278
   775.0000   2000.0000    208.3766    137.5711   1998.0000    103.3734
   775.2500   2000.0000    161.0249    132.3237   1998.0000    102.2786
   775.5000   2000.0000    133.4521    126.6038   1998.0000    101.5500
   775.7500   2000.0000    121.0661    121.0855   1998.0000    102.0581
   776.0000   2000.0000    120.4967    116.2062   1998.0000    104.1198
   776.2500   2000.0000    130.8313    112.1330   1998.0000    105.8227
   776.5000   2000.0000    152.5854    108.8164   1998.0000    107.8757
   776.7500   2000.0000    184.2990    106.0586   1998.0000    108.5327
   777.0000   2000.0000    214.4165    103.5993   1998.0000    108.3222
   777.2500   2000.0000    219.6444    101.2290   1998.0000    107.6805
   777.5000   2000.0000    192.8787     98.8307   1998.0000    107.0373
   777.7500   2000.0000    155.2941     96.4116   1998.0000    107.4129
   778.0000   2000.0000    124.4601     94.0604   1998.0000    109.2890
   778.2500   2000.0000    103.8803     91.8940   1998.0000    110.8747
   778.5000   2000.0000     91.5871     90.0170   1998.0000    112.5503
   778.7500   2000.0000     85.1774     88.4823   1998.0000    112.7900
   779.0000   2000.0000     82.8761     87.2975   1998.0000    111.8589
   779.2500   2000.0000     83.4251     86.4444   1998.0000    110.6358
   779.5000   2000.0000     85.7647     85.9070   1998.0000    108.3112
   779.7500   2000.0000     88.7594     85.7003   1998.0000    106.5891
   780.0000   2000.0000     91.0932     85.8969   1998.0000    104.0359
   780.2500   2000.0000     91.5034     86.6302   1998.0000    102.5865
   780.5000   2000.0000     89.3527     88.0882   1998.0000    101.0310
   780.7500   2000.0000     85.0217     90.4915   1998.0000    100.2776
   781.0000   2000.0000     79.6103     94.0562   1998.0000     99.0782
   781.2500   2000.0000     74.2279     98.9505   1998.0000     98.1449
   781.5000   2000.0000     69.5224    105.2169   1998.0000     97.1652
   781.7500   2000.0000     65.6044    112.6782   1998.0000     97.3449
   782.0000   2000.0000     62.2316    120.8449   1998.0000     99.1365
   782.2500   2000.0000     59.0394    128.8699   1998.0000    100.8222
   782.5000   2000.0000     55.7885    135.6752   1998.0000    102.6631
   782.7500   2000.0000     52.4987    140.3184   1998.0000    102.9687
   783.0000   2000.0000     49.3891    142.3508   1998.0000    102.4742
   783.2500   2000.0000     46.6787    142.0221   1998.0000    102.1331
   783.5000   2000.0000     44.4257    140.0467   1998.0000    102.3614
   783.7500   2000.0000     42.5006    137.2807   1998.0000    103.0965
   784.0000   2000.0000     40.6846    134.3970   1998.0000    104.8079
   784.2500   2000.0000     38.8356    131.8307   1998.0000    105.9626
   784.5000   2000.0000     37.0251    129.8085   1998.0000    106.6527
   784.7500   2000.0000     35.5605    128.4528   1998.0000    105.8524
   785.0000   2000.0000     34.9188    127.8618   1998.0000    102.4802
   785.2500   2000.0000     35.7166    128.1533   1998.0000     99.0124
   785.5000   2000.0000     38.8580    129.4331   1998.0000     92.7085
   785.7500   2000.0000     46.0267    131.7659   1998.0000     88.3593
   786.0000   2000.0000     61.0879    135.1241   1998.0000     82.6761
   786.2500   2000.0000     94.8774    139.3555   1998.0000     79.7601
   786.5000   2000.0000    188.0407    144.1530   1998.0000     76.4095
   786.7500   2000.0000    621.2084    149.0990   1998.0000     74.4307
   787.0000   2000.0000 100000.0000    153.7346   1998.0000     71.1669
   787.2500   2000.0000 100000.0000    157.6563   1998.0000     68.5236
   787.5000   2000.0000    712.1113    160.6161   1998.0000     63.6331
   787.7500   2000.0000    280.9211    162.5464   1998.0000     59.8168
   788.0000   2000.0000    175.5758    163.5517   1998.0000     53.7017
