~Version Information
VERS.                      2.0: CWLS Log ASCII Standard - VERSION 2.0
WRAP.                       NO: One line per depth step
~Well Information Block
STRT.FT               -13.0000: 
STOP.FT              1411.2500: 
STEP.FT                 0.2500: 
NULL.                -999.2500: 
COMP.                         : COMPANY
WELL.                         : WELL
FLD.                          : FIELD
LOC.                          : LOCATION
CNTY.                         : COUNTY
SRVC.                         : SERVICE COMPANY
DATE.          Sat Jan 17 07:25:27 2004: LOG DATE
UWI.                          : UNIQUE WELL ID
STAT.                         : STATE
~Curve Information Block
DEPT.FT            0 000 00 00: Depth
CCL.                          : Casing Collar Locator
TT3.usec                      : CBL 3' Travel Time
AMP3.mV                       : CBL 3' Amplitude
GR.GAPI                       : Gamma Ray
~Parameter Information Block
~A  Depth       CCL         TT3         AMP3         GR     
# ...
   925.0000      0.0000    665.8056      1.7679    125.4348
   925.2500      0.0000    668.6650      1.7147    126.3267
   925.5000      0.0000    672.0695      1.6626    126.5000
   925.7500      0.0000    675.0218      1.6579    126.0241
   926.0000      0.0000    678.2407      1.7234    124.5903
   926.2500      0.0000    682.4201      1.8314    121.7205
   926.5000      0.0000    686.2741      1.9190    117.4697
   926.7500      0.0000    687.4716      1.9401    112.9409
   927.0000      0.0000    685.4592      1.9074    109.7023
   927.2500      0.0000    682.3516      1.8829    108.3560
   927.5000      0.0000    680.6829      1.9210    107.7706
   927.7500      0.0000    681.0455      2.0223    106.2154
   928.0000      0.0000    682.3039      2.1380    103.4622
   928.2500      0.0000    683.3019      2.2127    101.2933
   928.5000      0.0000    683.7209      2.2214    101.5358
   928.7500      0.0000    683.7505      2.1764    104.0722
   929.0000      0.0000    683.5969      2.1123    107.1367
   929.2500      0.0000    683.3842      2.0636    109.0593
   929.5000      0.0000    683.2224      2.0484    109.4544
   929.7500      0.0000    683.1965      2.0645    109.3580
   930.0000      0.0000    683.3041      2.0948    110.4850
   930.2500      0.0000    683.4517      2.1152    113.5714
   930.5000      0.0000    683.5304      2.1035    117.0805
   930.7500      0.0000    683.4937      2.0468    118.3370
   931.0000      0.0000    683.3810      1.9494    116.3999
   931.2500      0.0000    683.2657      1.8388    113.2201
   931.5000      0.0000    683.1768      1.7609    111.6887
   931.7500      0.0000    682.8755      1.7537    113.0875
   932.0000      0.0000    681.4747      1.8208    116.3878
   932.2500      0.0000    677.0895      1.9333    119.2270
   932.5000      0.0000    667.5474      2.0600    119.4271
   932.7500      0.0000    653.0426      2.1839    116.3773
   933.0000      0.0000    638.7500      2.2906    111.3999
   933.2500      0.0000    632.7765      2.3609    106.6161
   933.5000      0.0000    639.2258      2.3909    103.3421
   933.7500      0.0000    654.0608      2.4086    101.6343
   934.0000      0.0000    669.1961      2.4512    101.0390
   934.2500      0.0000    679.4441      2.5234    101.2548
   934.5000      0.0000    684.6273      2.5884    102.0588
   934.7500      0.0000    687.0602      2.5993    103.0021
   935.0000      0.0000    689.0175      2.5367    103.4534
   935.2500      0.0000    692.0484      2.4255    103.1564
   935.5000      0.0000    696.9225      2.3257    102.8888
   935.7500      0.0000    703.2552      2.3007    104.2344
   936.0000      0.0000    709.5280      2.3803    108.1553
   936.2500      0.0000    714.2256      2.5515    113.8071
   936.5000      0.0000    717.1878      2.7827    119.0451
   936.7500      0.0000    719.4486      3.0452    122.1324
   937.0000      0.0000    721.7537      3.3046    122.8591
   937.2500      0.0000    723.5903      3.5116    122.1230
   937.5000      0.0000    723.8717      3.6231    120.6441
   937.7500      0.0000    722.5275      3.6335    118.2981
   938.0000      0.0000    721.1216      3.5748    114.7801
   938.2500      0.0000    721.4919      3.4833    110.6748
   938.5000      0.0000    723.7888      3.3739    107.4256
   938.7500      0.0000    726.1059      3.2446    106.1144
   939.0000      0.0000    725.9171      3.0922    106.5141
   939.2500      0.0000    721.7020      2.9128    107.4778
   939.5000      0.0000    713.6259      2.6991    108.2418
   939.7500      0.0000    703.2053      2.4568    109.2471
   940.0000      0.0000    692.2589      2.2174    111.5543
   940.2500      0.0000    682.0833      2.0186    115.5336
   940.5000      0.0000    673.8093      1.8688    120.3352
   940.7500      0.0000    669.1739      1.7490    124.5515
   941.0000      0.0000    670.1085      1.6504    127.0677
   941.2500      0.0000    677.2780      1.5919    127.3397
   941.5000      0.0000    689.4675      1.5929    125.3561
   941.7500      0.0000    704.2587      1.6403    121.7232
   942.0000      0.0000    718.4454      1.6968    117.7951
   942.2500      0.0000    727.7348      1.7415    115.1920
   942.5000      0.0000    727.7984      1.7983    114.5228
   942.7500      0.0000    717.5010      1.9112    114.6615
   943.0000      0.0000    700.9988      2.0894    113.9149
   943.2500      0.0000    685.3809      2.2921    111.9201
   943.5000      0.0000    675.8667      2.4756    109.7957
   943.7500      0.0000    673.1339      2.6483    108.3543
   944.0000      0.0000    674.5270      2.8815    107.0124
   944.2500      0.0000    677.2869      3.2716    105.0593
   944.5000      0.0000    679.8342      3.8851    103.3588
   944.7500      0.0000    679.1935      4.7290    103.8757
   945.0000      0.0000    668.6593      5.7925    107.5703
   945.2500      0.0000    642.5499      7.1052    113.3831
   945.5000      0.0000    606.3920      8.6912    119.2465
   945.7500      0.0000    579.0073     10.4368    123.5268
   946.0000      0.0000    578.2608     12.0710    125.4655
   946.2500      0.0000    603.2678     13.3333    124.9687
   946.5000      0.0000    634.2097     14.0973    122.5368
   946.7500      0.0000    651.3228     14.2874    119.1680
   947.0000      0.0000    652.4262     13.7906    115.9023
   947.2500      0.0000    651.1515     12.5753    113.4012
   947.5000      0.0000    660.3538     10.8581    111.9548
   947.7500      0.0000    680.0279      9.0418    111.6161
   948.0000      0.0000    700.5931      7.4565    112.1821
   948.2500      0.0000    713.6884      6.2008    113.3177
   948.5000      0.0000    717.9048      5.2189    114.8942
   948.7500      0.0000    717.0248      4.4479    117.0200
   949.0000      0.0000    715.4473      3.8609    119.5490
   949.2500      0.0000    714.9158      3.4255    121.7621
   949.5000      0.0000    714.2023      3.0871    122.8083
   949.7500      0.0000    711.4987      2.8040    122.6302
   950.0000      0.0000    707.0522      2.5749    122.4198
   950.2500      0.0000    703.1520      2.4236    123.8346
   950.5000      0.0000    701.7399      2.3691    127.3763
   950.7500      0.0000    702.5881      2.4101    131.6669
   951.0000      0.0000    703.9954      2.5199    134.6413
   951.2500      0.0000    704.6641      2.6464    135.2409
   951.5000      0.0000    704.3788      2.7227    133.5702
   951.7500      0.0000    703.4387      2.6950    129.9177
   952.0000      0.0000    702.3958      2.5562    124.5468
   952.2500      0.0000    702.0398      2.3609    118.2494
   952.5000      0.0000    702.5861      2.2001    112.0623
   952.7500      0.0000    702.9919      2.1432    106.3941
   953.0000      0.0000    701.8538      2.1946    101.1603
   953.2500      0.0000    698.8228      2.3067     96.7799
   953.5000      0.0000    694.5225      2.4317     94.3171
   953.7500      0.0000    689.3615      2.5501     94.2874
   954.0000      0.0000    683.2370      2.6550     95.7045
   954.2500      0.0000    676.5250      2.7349     96.7942
   954.5000      0.0000    670.3849      2.7884     96.5112
   954.7500      0.0000    665.0797      2.8403     95.0662
   955.0000      0.0000    658.1115      2.9178     93.2473
   955.2500      0.0000    645.7001      3.0080     91.5812
   955.5000      0.0000    627.7867      3.0580     89.9048
   955.7500      0.0000    611.2246      3.0348     87.4541
   956.0000      0.0000    605.1803      2.9696     83.5533
   956.2500      0.0000    610.5902      2.9300     78.3542
   956.5000      0.0000    614.9301      2.9557     72.7299
   956.7500      0.0000    600.6740      3.0310     67.5568
   957.0000      0.0000    560.9177      3.1125     63.3847
   957.2500      0.0000    506.5798      3.1652     60.6290
   957.5000      0.0000    458.3938      3.1728     59.6036
   957.7500      0.0000    432.0640      3.1313     60.1982
   958.0000      0.0000    429.0583      3.0463     61.8338
   958.2500      0.0000    437.7452      2.9359     63.9907
