~Version Information
VERS.                      2.0: CWLS Log ASCII Standard - VERSION 2.0
WRAP.                       NO: One line per depth step
~Well Information Block
STRT.FT                -7.0000: 
STOP.FT              2389.2500: 
STEP.FT                 0.2500: 
NULL.                -999.2500: 
COMP.          Pioneer Natural Resources: COMPANY
WELL.            Victory 12-14: WELL
FLD.           Purgatorie River: FIELD
LOC.           2434' FNL & 188' FWL------: LOCATION
PROV.                       CO: PROVINCE
CNTY.               Las Animas: COUNTRY
SRVC.          Patterson Wireline: SERVICE COMPANY
DATE.          Fri Apr 22 14:29:17 2005: LOG DATE
UWI.           05 071 08332 00: UNIQUE WELL ID
~Curve Information Block
DEPT.FT            0 000 00 00: Depth
CCL.                          : Casing Collar Locator
TT3.usec                      : CBL 3' Travel Time
AMP3.mV                       : CBL 3' Amplitude
GR.GAPI                       : Gamma Ray
~Parameter Information Block
~A  Depth       CCL         TT3         AMP3         GR     
# ...
   629.5000      0.0000    707.3149      7.0866     86.9320
   629.7500      0.0000    713.6953      7.0169     83.0078
   630.0000      0.0000    720.9083      6.9557     79.2307
   630.2500      0.0000    727.2731      6.9273     76.5164
   630.5000      0.0000    731.5647      6.9115     74.6818
   630.7500      0.0000    733.6463      6.8686     73.1510
   631.0000      0.0000    734.1992      6.7945     71.7193
   631.2500      0.0000    734.0735      6.7314     70.5875
   631.5000      0.0000    733.8888      6.7213     70.0462
   631.7500      0.0000    734.0022      6.7642     70.2989
   632.0000      0.0000    734.7060      6.8252     71.3610
   632.2500      0.0000    736.3920      6.8619     73.0620
   632.5000      0.0000    739.4263      6.8434     75.1686
   632.7500      0.0000    743.8220      6.7636     77.3486
   633.0000      0.0000    749.1506      6.6491     79.1216
   633.2500      0.0000    754.7909      6.5435     80.2468
   633.5000      0.0000    760.0810      6.4770     81.1584
   633.7500      0.0000    764.2461      6.4512     82.5559
   634.0000      0.0000    766.4343      6.4515     84.5149
   634.2500      0.0000    765.9153      6.4614     86.5831
   634.5000      0.0000    762.3195      6.4623     88.8358
   634.7500      0.0000    756.0054      6.4344     91.9908
   635.0000      0.0000    748.3160      6.3686     95.9469
   635.2500      0.0000    741.1170      6.2772     98.9165
   635.5000      0.0000    735.7735      6.1892     99.0079
   635.7500      0.0000    732.5461      6.1285     96.6164
   636.0000      0.0000    730.9037      6.0945     94.4185
   636.2500      0.0000    730.1918      6.0676     94.7067
   636.5000      0.0000    730.0167      6.0336     97.2261
   636.7500      0.0000    730.2349      6.0013     99.9441
   637.0000      0.0000    730.7786      5.9920    101.5103
   637.2500      0.0000    731.5169      6.0103    102.3590
   637.5000      0.0000    732.2356      6.0293    103.5169
   637.7500      0.0000    732.7319      6.0110    104.9980
   638.0000      0.0000    732.9410      5.9450    105.7035
   638.2500      0.0000    732.9899      5.8634    104.5221
   638.5000      0.0000    733.0974      5.8152    101.1621
   638.7500      0.0000    733.3807      5.8233     96.0982
   639.0000      0.0000    733.7589      5.8707     90.1788
   639.2500      0.0000    734.0607      5.9237     84.3975
   639.5000      0.0000    734.1922      5.9555     79.6432
   639.7500      0.0000    734.1757      5.9462     76.4126
   640.0000      0.0000    734.0762      5.8790     74.8374
   640.2500      0.0000    733.9552      5.7567     74.9038
   640.5000      0.0000    733.8777      5.6206     76.3522
   640.7500      0.0000    733.8975      5.5346     78.4642
   641.0000      0.0000    734.0153      5.5340     80.2926
   641.2500      0.0000    734.1741      5.5945     81.1727
   641.5000      0.0000    734.3372      5.6606     80.9543
   641.7500      0.0000    734.6119      5.6999     79.8643
   642.0000      0.0000    735.3629      5.7168     78.3222
   642.2500      0.0000    737.1614      5.7188     76.9793
   642.5000      0.0000    740.4506      5.6898     76.7372
   642.7500      0.0000    745.2131      5.6043     78.1425
   643.0000      0.0000    751.1432      5.4632     80.5563
   643.2500      0.0000    758.2474      5.3036     82.4355
   643.5000      0.0000    767.0439      5.1769     82.7101
   643.7500      0.0000    777.9169      5.1144     81.5658
   644.0000      0.0000    789.9656      5.1080     79.8034
   644.2500      0.0000    800.1349      5.1163     77.8222
   644.5000      0.0000    804.1221      5.0999     75.5031
   644.7500      0.0000    799.9856      5.0580     73.0354
   645.0000      0.0000    792.2974      5.0177     71.4634
   645.2500      0.0000    791.1537      4.9785     71.9237
   645.5000      0.0000    803.2189      4.8962     74.3362
   645.7500      0.0000    822.3217      4.7494     77.2138
   646.0000      0.0000    832.4377      4.6046     78.8482
   646.2500      0.0000    823.2956      4.5827     78.5870
   646.5000      0.0000    801.0861      4.7627     77.1808
   646.7500      2.0000    780.9279      5.1229     76.2118
   647.0000      2.0000    770.6263      5.5575     77.0832
   647.2500      0.0000    764.1064      5.9551     80.1908
   647.5000      0.0000    750.0330      6.2842     84.7846
   647.7500      0.0000    725.6847      6.5977     89.4896
   648.0000      0.0000    702.4032      6.9392     92.8720
   648.2500      0.0000    696.9263      7.2674     93.7540
   648.5000      0.0000    716.6461      7.5070     91.7756
   648.7500      0.0000    753.6146      7.6339     88.1941
   649.0000      0.0000    792.2695      7.6741     85.4842
   649.2500      0.0000    820.3390      7.6528     85.1455
   649.5000      0.0000    832.5386      7.5856     86.2012
   649.7500      0.0000    828.5688      7.4832     86.7183
   650.0000      0.0000    811.6232      7.3362     86.3858
   650.2500      0.0000    788.0952      7.1239     86.6286
   650.5000      0.0000    765.3522      6.8578     88.5473
   650.7500      0.0000    747.8524      6.5998     91.6079
   651.0000      0.0000    735.5189      6.4222     94.0432
   651.2500      0.0000    725.4694      6.3645     93.9751
   651.5000      0.0000    714.8854      6.4293     90.6535
   651.7500      0.0000    703.2520      6.5877     85.4378
   652.0000      0.0000    693.5887      6.7702     81.2999
   652.2500      0.0000    690.7995      6.8799     80.6800
   652.5000      0.0000    696.7341      6.8510     83.6374
   652.7500      0.0000    707.0869      6.6930     88.0386
   653.0000      0.0000    714.6989      6.4652     91.2887
   653.2500      0.0000    715.5724      6.2186     91.9870
   653.5000      0.0000    710.9617      5.9794     90.4838
   653.7500      0.0000    704.6987      5.7737     88.2343
   654.0000      0.0000    699.7327      5.6394     86.4717
   654.2500      0.0000    696.8638      5.5963     85.1971
   654.5000      0.0000    695.5215      5.6119     83.4004
   654.7500      0.0000    694.9413      5.6154     80.2701
   655.0000      0.0000    694.6760      5.5549     76.0602
   655.2500      0.0000    694.4757      5.4356     71.8228
   655.5000      0.0000    694.1720      5.2981     68.5086
   655.7500      0.0000    693.7382      5.1741     66.3824
   656.0000      0.0000    693.2985      5.0755     65.0987
   656.2500      0.0000    692.9866      5.0152     64.1934
   656.5000      0.0000    692.8452      5.0111     63.3917
   656.7500      0.0000    692.8655      5.0613     62.5573
   657.0000      0.0000    693.0084      5.1271     61.6791
   657.2500      0.0000    693.1501      5.1619     60.9374
   657.5000      0.0000    692.9612      5.1660     60.3810
   657.7500      0.0000    691.7523      5.2075     59.5482
   658.0000      0.0000    688.3182      5.3754     57.8995
   658.2500      0.0000    681.3731      5.6990     55.7084
   658.5000      0.0000    671.2023      6.1073     54.0640
   658.7500      0.0000    661.3116      6.4641     53.8575
   659.0000      0.0000    657.0571      6.6485     55.0494
   659.2500      0.0000    661.0985      6.6198     56.8291
   659.5000      0.0000    670.7156      6.4337     58.0996
   659.7500      0.0000    680.5410      6.2035     57.8927
   660.0000      0.0000    687.1415      6.0248     55.7869
   660.2500      0.0000    690.3755      5.9209     52.2234
   660.5000      0.0000    691.6785      5.8741     48.3102
   660.7500      0.0000    692.3726      5.8994     45.1512
   661.0000      0.0000    693.2697      6.0476     43.3355
   661.2500      0.0000    694.8768      6.3240     42.9646
   661.5000      0.0000    697.4128      6.6375     43.8714
   661.7500      0.0000    700.5438      6.8581     45.5802
   662.0000      0.0000    703.2039      6.9134     47.3025
   662.2500      0.0000    704.1205      6.8144     48.4635
   662.5000      0.0000    702.8913      6.6110     49.2179
   662.7500      0.0000    700.5690      6.3643     50.0554
