~Version Information
VERS.                      2.0: CWLS Log ASCII Standard - VERSION 2.0
WRAP.                       NO: One line per depth step
~Well Information Block
STRT.FT               650.0000: 
STOP.FT              2087.0000: 
STEP.FT                 0.2500: 
NULL.                -999.2500: 
COMP.          Pioneer Natural Resources: COMPANY
WELL.           Galloway 32-13: WELL
FLD.           Purgatoire River: FIELD
LOC.           1809' FNL & 2004' FEL: LOCATION
PROV.                 Colorado: PROVINCE
CNTY.               Las Animas: COUNTRY
SRVC.                Patterson: SERVICE COMPANY
DATE.          Fri Jul 08 15:50:04 2005: LOG DATE
UWI.           05 071 08423 00: UNIQUE WELL ID
~Curve Information Block
DEPT.FT            0 000 00 00: Depth
SN.Ohm-m                      : IEL Short Normal
SP.mV                         : IEL Spontaneous Potential
DIR.Ohm-m                     : IEL Induction Resistivity
GR.GAPI                       : Gamma Ray
~Parameter Information Block
~A  Depth        SN          SP         DIR          GR     
# ...
  1387.0000     13.5036    -78.3670     10.2611    139.7821
  1387.2500     13.2598    -78.5051     10.4375    139.6965
  1387.5000     12.9554    -78.5902     10.6678    138.2424
  1387.7500     12.6156    -78.5999     10.9547    135.7905
  1388.0000     12.3675    -78.4981     11.2866    130.0008
  1388.2500     12.3943    -78.2493     11.6431    125.7441
  1388.5000     12.6784    -77.8435     12.0028    121.0228
  1388.7500     12.9711    -77.3049     12.3479    119.5945
  1389.0000     13.0948    -76.6777     12.6669    119.2025
  1389.2500     13.0861    -76.0082     12.9581    119.0718
  1389.5000     13.0722    -75.3420     13.2371    117.7218
  1389.7500     13.2228    -74.7237     13.5406    116.0321
  1390.0000     13.7573    -74.1897     13.9202    113.9761
  1390.2500     14.8219    -73.7564     14.4263    114.4940
  1390.5000     16.3663    -73.4170     15.0895    119.9614
  1390.7500     18.1676    -73.1506     15.9084    126.4767
  1391.0000     19.9025    -72.9388     16.8459    137.8443
  1391.2500     21.3160    -72.7796     17.8372    144.4298
  1391.5000     22.3549    -72.6912     18.8072    150.4687
  1391.7500     23.0277    -72.7001     19.6907    151.9376
  1392.0000     23.3188    -72.8223     20.4436    152.2366
  1392.2500     23.3252    -73.0505     21.0439    152.3457
  1392.5000     23.2791    -73.3605     21.4887    152.6913
  1392.7500     23.3738    -73.7261     21.7932    152.2558
  1393.0000     23.6256    -74.1316     21.9898    149.2210
  1393.2500     23.9170    -74.5772     22.1190    145.5714
  1393.5000     24.1477    -75.0757     22.2170    138.9029
  1393.7500     24.3154    -75.6410     22.3079    134.5314
  1394.0000     24.4560    -76.2756     22.4066    128.7869
  1394.2500     24.5601    -76.9700     22.5240    125.3726
  1394.5000     24.6074    -77.7151     22.6693    120.3356
  1394.7500     24.6225    -78.5079     22.8448    116.8516
  1395.0000     24.6104    -79.3445     23.0413    111.4990
  1395.2500     24.5366    -80.2099     23.2403    108.0275
  1395.5000     24.4275    -81.0808     23.4191    103.3002
  1395.7500     24.3824    -81.9373     23.5525    100.4961
  1396.0000     24.4687    -82.7698     23.6122     96.3905
  1396.2500     24.6296    -83.5762     23.5709     93.3840
  1396.5000     24.7124    -84.3535     23.4184     88.4335
  1396.7500     24.6682    -85.0914     23.1758     85.3292
  1397.0000     24.6312    -85.7722     22.8912     82.2300
  1397.2500     24.6874    -86.3787     22.6138     81.7296
  1397.5000     24.7088    -86.9060     22.3698     83.5075
  1397.7500     24.5409    -87.3693     22.1553     86.2819
  1398.0000     24.2118    -87.7991     21.9510     92.6255
  1398.2500     23.8635    -88.2255     21.7419     97.9482
  1398.5000     23.6073    -88.6671     21.5293    105.9527
  1398.7500     23.4365    -89.1375     21.3253    109.8692
  1399.0000     23.2303    -89.6628     21.1403    111.4630
  1399.2500     22.9376    -90.2807     20.9753    109.3769
  1399.5000     22.6854    -91.0072     20.8222    103.2719
  1399.7500     22.6227    -91.8071     20.6701     99.0645
  1400.0000     22.7302    -92.6130     20.5115     95.5498
  1400.2500     22.7791    -93.3772     20.3468     96.2723
  1400.5000     22.5047    -94.0947     20.1890    102.9958
  1400.7500     21.8692    -94.7799     20.0658    111.1032
  1401.0000     21.0892    -95.4434     20.0162    126.6774
  1401.2500     20.4068    -96.0970     20.0808    137.1577
  1401.5000     19.9332    -96.7521     20.2867    148.7010
  1401.7500     19.6970    -97.3646     20.6343    151.6378
  1402.0000     19.6717    -97.7465     21.0911    147.6593
  1402.2500     19.8128    -97.5494     21.6009    140.0126
  1402.5000     20.1810    -96.4235     22.1025    123.7141
  1402.7500     20.8926    -94.3073     22.5551    111.6337
  1403.0000     21.9579    -91.6147     22.9575     94.7740
  1403.2500     23.2191    -89.0767     23.3542     85.5163
  1403.5000     24.4142    -87.3123     23.8209     75.3854
  1403.7500     25.3683    -86.5059     24.4336     71.1062
  1404.0000     26.0870    -86.4494     25.2314     67.6706
  1404.2500     26.6293    -86.8163     26.1915     66.6286
  1404.5000     27.0228    -87.3761     27.2292     65.6420
  1404.7500     27.3034    -88.0331     28.2306     64.9175
  1405.0000     27.5266    -88.7639     29.1023     63.6260
  1405.2500     27.7169    -89.5508     29.8067     62.7913
  1405.5000     27.8535    -90.3455     30.3585     61.9073
  1405.7500     27.9325    -91.0639     30.7904     61.6872
  1406.0000     27.9878    -91.6124     31.1169     61.8422
  1406.2500     28.0282    -91.9280     31.3221     62.0242
  1406.5000     28.0453    -92.0150     31.3775     61.9691
  1406.7500     28.0888    -91.9543     31.2742     61.6744
  1407.0000     28.2110    -91.8699     31.0447     61.0290
  1407.2500     28.3792    -91.8660     30.7566     60.4964
  1407.5000     28.5347    -91.9816     30.4855     59.5463
  1407.7500     28.6329    -92.1988     30.2856     58.9256
  1408.0000     28.6301    -92.4836     30.1682     58.2615
  1408.2500     28.5420    -92.8139     30.0980     58.0539
  1408.5000     28.4681    -93.1763     30.0148     58.1431
  1408.7500     28.4758    -93.5510     29.8759     58.4832
  1409.0000     28.5106    -93.9095     29.6935     59.1941
  1409.2500     28.4674    -94.2283     29.5300     59.5259
  1409.5000     28.3225    -94.5054     29.4550     59.4321
  1409.7500     28.1901    -94.7574     29.5007     58.9923
  1410.0000     28.2105    -95.0004     29.6528     58.2458
  1410.2500     28.3719    -95.2317     29.8797     58.0940
  1410.5000     28.5473    -95.4272     30.1684     58.8140
  1410.7500     28.6767    -95.5467     30.5321     59.7957
  1411.0000     28.7502    -95.5489     30.9806     61.1851
  1411.2500     28.7518    -95.4189     31.4892     61.5236
  1411.5000     28.7612    -95.1934     31.9992     60.7782
  1411.7500     28.9316    -94.9598     32.4558     59.6151
  1412.0000     29.2940    -94.8260     32.8483     57.5388
  1412.2500     29.7323    -94.8780     33.2140     56.3387
  1412.5000     30.1470    -95.1389     33.6042     55.2324
  1412.7500     30.5296    -95.5562     34.0485     54.9367
  1413.0000     30.9155    -96.0355     34.5412     54.7988
  1413.2500     31.3332    -96.4967     35.0519     54.7380
  1413.5000     31.7815    -96.9060     35.5465     54.7478
  1413.7500     32.2565    -97.2688     36.0039     55.0267
  1414.0000     32.7913    -97.6058     36.4179     56.1874
  1414.2500     33.4193    -97.9378     36.7849     57.4652
  1414.5000     34.1124    -98.2872     37.0935     59.7579
  1414.7500     34.7861    -98.6842     37.3320     61.2248
  1415.0000     35.3092    -99.1625     37.5026     62.9784
  1415.2500     35.5367    -99.7443     37.6199     63.7515
  1415.5000     35.4253   -100.4193     37.6888     64.1266
  1415.7500     35.0902   -101.1356     37.6871     63.8027
  1416.0000     34.6958   -101.8135     37.5754     62.9252
  1416.2500     34.3425   -102.3793     37.3281     62.6838
  1416.5000     34.0806   -102.7979     36.9624     63.5955
  1416.7500     33.9083   -103.0838     36.5397     64.9475
  1417.0000     33.7387   -103.2863     36.1339     67.3333
  1417.2500     33.4788   -103.4603     35.7848     68.8693
  1417.5000     33.1064   -103.6417     35.4717     71.1901
  1417.7500     32.6363   -103.8379     35.1289     73.0104
  1418.0000     32.0854   -104.0363     34.6986     76.6376
  1418.2500     31.4667   -104.2216     34.1769     79.8087
  1418.5000     30.8189   -104.3886     33.6160     85.4832
  1418.7500     30.2403   -104.5462     33.0795     89.4601
  1419.0000     29.8546   -104.7170     32.5952     94.7008
  1419.2500     29.7039   -104.9315     32.1481     97.1286
  1419.5000     29.6988   -105.2172     31.7169     98.5458
  1419.7500     29.7213   -105.5822     31.3177     97.9990
  1420.0000     29.7122   -106.0102     31.0052     95.5140
  1420.2500     29.6417   -106.4713     30.8340     93.2857
