~Version Information
VERS.                      2.0: CWLS Log ASCII Standard - VERSION 2.0
WRAP.                       NO: One line per depth step
~Well Information Block
STRT.FT               488.0000: 
STOP.FT              1824.7000: 
STEP.FT                 0.1000: 
NULL.                -999.2500: 
COMP.          Pioneer Natural Resources: COMPANY
WELL.            Buckeye 11-13: WELL
FLD.           Purgatoire River: FIELD
LOC.           211' FNL & 1054' FWL: LOCATION
STAT.                 Colorado: State
CNTY.               Las Animas: COUNTY
CTRY. USA : Country
SECT. 13 : Section
TOWN. 33S : Township
RANG. 67W : Range
SRVC.                Patterson: SERVICE COMPANY
DATE.          Mon Mar 07 02:06:39 2005: LOG DATE
API.           05 071 08317 00: UNIQUE WELL ID
~Curve Information Block
DEPT.FT            0 000 00 00: Depth
DCAL.in                       : CDL Caliper
RHOB.g/cc                     : CDL Bulk Density
RHOC.g/cc                     : CDL Density Correction
DPOR.pu                       : CDL Density Porosity
GR.GAPI                       : Gamma Ray
NPOR.pu                       : Neutron Porosity
~Parameter Information Block
~A  Depth       DCAL        RHOB        RHOC        DPOR         GR         NPOR    
# ...
  1371.2000      7.9436      2.4625      0.0064     11.3609    131.7240     28.5252
  1371.3000      7.9530      2.4667      0.0392     11.1065    144.2959     28.1499
  1371.4000      7.9530      2.4724      0.0103     10.7644    149.8807     27.8077
  1371.5000      7.9549      2.4886      0.0434      9.7836    152.7395     28.4712
  1371.6000      7.9549      2.5085      0.0755      8.5753    155.6869     29.6080
  1371.7000      7.9549      2.5150      0.0960      8.1830    154.6302     30.2846
  1371.8000      7.9741      2.5079      0.0657      8.6131    151.7939     30.0434
  1371.9000      7.9741      2.5032      0.0503      8.8953    155.5503     29.4612
  1372.0000      8.0395      2.5029      0.1301      8.9153    167.2361     29.8410
  1372.1000      8.0395      2.4935      0.0854      9.4831    178.4072     31.2551
  1372.2000      8.0395      2.4773      0.0383     10.4655    177.9545     32.1643
  1372.3000      8.0386      2.4617      0.0677     11.4118    167.7275     31.7554
  1372.4000      8.0386      2.4399      0.0558     12.7322    160.0654     30.9281
  1372.5000      7.9247      2.4189     -0.0352     14.0050    157.1640     30.8573
  1372.6000      7.9247      2.4149      0.0153     14.2487    154.1798     31.5113
  1372.7000      7.9247      2.4183      0.0115     14.0403    150.3971     32.0780
  1372.8000      7.9096      2.4187      0.0131     14.0185    146.7420     32.6070
  1372.9000      7.9096      2.4263     -0.0241     13.5553    145.8365     33.2704
  1373.0000      7.9101      2.4427      0.0268     12.5646    149.0451     33.7650
  1373.1000      7.9101      2.4482      0.0609     12.2287    152.0894     33.9017
  1373.2000      7.9101      2.4383      0.0357     12.8278    151.6652     33.2982
  1373.3000      7.9089      2.4337      0.0302     13.1063    149.8906     31.9197
  1373.4000      7.9089      2.4347      0.0654     13.0478    147.1706     30.9060
  1373.5000      7.9094      2.4205      0.0054     13.9071    140.6519     30.7945
  1373.6000      7.9094      2.3953     -0.0471     15.4346    132.1305     30.6657
  1373.7000      7.9094      2.3776     -0.0546     16.5094    127.5401     30.2788
  1373.8000      8.0060      2.3613     -0.0176     17.4954    127.4081     30.2700
  1373.9000      8.0060      2.3139     -0.0185     20.3700    127.2771     30.7645
  1374.0000      8.0020      2.2163     -0.0546     26.2846    125.6926     31.5572
  1374.1000      8.0020      2.0946     -0.1393     33.6597    120.6518     32.4038
  1374.2000      8.0020      1.9924     -0.1517     39.8521    112.9114     33.1044
  1374.3000      8.0046      1.9225     -0.1443     44.0917    109.7125     33.4146
  1374.4000      8.0046      1.8785     -0.1316     46.7566    109.9531     32.9470
  1374.5000      8.0041      1.8674     -0.0688     47.4294    105.2061     31.7876
  1374.6000      8.0041      1.8945      0.0233     45.7866     96.3656     30.7898
  1374.7000      8.0041      1.9477      0.0996     42.5631     89.7554     30.8387
  1374.8000      8.0478      2.0141      0.0968     38.5380     86.8956     31.5807
  1374.9000      8.0478      2.0887      0.1321     34.0163     87.4238     31.7623
  1375.0000      8.0325      2.1613      0.1409     29.6160     90.6369     31.1310
  1375.1000      8.0325      2.2197      0.1369     26.0771     95.3880     30.3543
  1375.2000      8.0325      2.2686      0.0952     23.1146     99.2184     29.6839
  1375.3000      7.9709      2.3216      0.0174     19.9026    100.5908     29.2632
  1375.4000      7.9709      2.3717     -0.0329     16.8638    103.7034     29.1871
  1375.5000      7.9609      2.3998     -0.0276     15.1629    111.6275     29.0101
  1375.6000      7.9609      2.4090     -0.0755     14.6067    117.8697     28.4267
  1375.7000      7.9609      2.4175     -0.0695     14.0886    117.9788     27.4917
  1375.8000      7.9595      2.4311     -0.0731     13.2693    118.4223     26.4567
  1375.9000      7.9595      2.4444     -0.0426     12.4593    121.6640     25.3554
  1376.0000      7.9595      2.4540     -0.0424     11.8809    124.2905     23.8973
  1376.1000      7.9595      2.4639     -0.0633     11.2793    126.0862     22.7703
  1376.2000      7.9595      2.4772      0.0007     10.4726    127.4410     22.6740
  1376.3000      7.9576      2.4888     -0.0059      9.7691    126.9153     23.1286
  1376.4000      7.9576      2.4959     -0.0228      9.3386    124.1322     23.6069
  1376.5000      7.9347      2.4979     -0.0166      9.2192    120.4943     23.9503
  1376.6000      7.9347      2.4932     -0.0114      9.5029    117.0944     23.7459
  1376.7000      7.9347      2.4872     -0.0562      9.8662    114.5261     23.0965
  1376.8000      7.9312      2.4942     -0.0399      9.4415    114.7278     22.9901
  1376.9000      7.9312      2.5204     -0.0752      7.8516    119.9156     23.4271
  1377.0000      7.9321      2.5496      0.0061      6.0847    125.2484     23.2388
  1377.1000      7.9321      2.5588      0.0431      5.5301    125.5969     22.2493
  1377.2000      7.9321      2.5508     -0.0174      6.0144    123.6516     21.4142
  1377.3000      7.9255      2.5439     -0.0169      6.4303    122.6979     21.1221
  1377.4000      7.9255      2.5356      0.0120      6.9352    123.5518     20.6796
  1377.5000      7.9197      2.5191     -0.0573      7.9349    126.1111     19.8829
  1377.6000      7.9197      2.5055     -0.0335      8.7574    128.4550     19.7201
  1377.7000      7.9197      2.4972     -0.0172      9.2591    129.3502     20.4886
  1377.8000      7.9023      2.4891     -0.0671      9.7499    128.5311     21.3119
  1377.9000      7.9023      2.4903     -0.0302      9.6761    126.5482     21.4647
  1378.0000      7.8771      2.5131     -0.0760      8.2970    124.0207     21.2208
  1378.1000      7.8771      2.5492     -0.0001      6.1102    122.0598     21.0774
  1378.2000      7.8771      2.5699      0.0168      4.8530    121.2704     21.0055
  1378.3000      7.8779      2.5623     -0.0211      5.3154    119.8611     20.6338
  1378.4000      7.8779      2.5410     -0.0435      6.6074    118.9749     19.8664
  1378.5000      7.8745      2.5247      0.0035      7.5950    119.6056     19.4327
  1378.6000      7.8745      2.5254     -0.0621      7.5520    117.2745     19.9530
  1378.7000      7.8745      2.5402      0.0055      6.6546    110.1979     20.9396
  1378.8000      7.8736      2.5444     -0.0097      6.3975    101.8565     21.3598
  1378.9000      7.8736      2.5311     -0.0741      7.2035     93.7671     21.0426
  1379.0000      7.8727      2.5208     -0.0430      7.8278     86.8021     20.7059
  1379.1000      7.8727      2.5207     -0.0260      7.8365     84.2679     20.7236
  1379.2000      7.8727      2.5196     -0.0421      7.9015     87.0612     20.8431
  1379.3000      7.8728      2.5151     -0.0445      8.1732     92.5742     20.8300
  1379.4000      7.8728      2.5210     -0.0714      7.8160     98.1576     20.4484
  1379.5000      7.8708      2.5406     -0.0466      6.6320    101.8603     19.7943
  1379.6000      7.8708      2.5489      0.0173      6.1281    103.3903     19.5092
  1379.7000      7.8708      2.5330     -0.0403      7.0902    103.5832     19.8122
  1379.8000      7.8729      2.5136     -0.0204      8.2642    102.4474     20.2249
  1379.9000      7.8729      2.5053     -0.0225      8.7670    100.5199     20.3207
  1380.0000      7.8733      2.5096     -0.0800      8.5068     99.0630     20.4151
  1380.1000      7.8733      2.5241     -0.0208      7.6312     96.8821     20.8695
  1380.2000      7.8733      2.5379     -0.0335      6.7912     93.7120     21.3014
  1380.3000      7.8735      2.5437     -0.0081      6.4423     91.3904     21.5557
  1380.4000      7.8735      2.5407     -0.0102      6.6220     91.2631     21.7581
  1380.5000      7.8727      2.5334     -0.0253      7.0674     93.1246     21.7747
  1380.6000      7.8727      2.5274     -0.0316      7.4299     95.2256     21.5038
  1380.7000      7.8727      2.5250     -0.0246      7.5763     97.4062     21.2589
