~Version Information
VERS.                      2.0: CWLS Log ASCII Standard - VERSION 2.0
WRAP.                       NO: One line per depth step
~Well Information Block
STRT.FT               750.0000: 
STOP.FT              2433.0000: 
STEP.FT                 0.2500: 
NULL.                -999.2500: 
COMP.          Petrogulf Corporation: COMPANY
WELL.           McDaniel 9-34V: WELL
FLD.           Purgatorie River: FIELD
LOC.           620' FSL & 1800' FEL: LOCATION
PROV.                 Colorado: PROVINCE
CNTY.               Las Animas: COUNTRY
SRVC.                Patterson: SERVICE COMPANY
DATE.          Tue Sep 27 19:56:11 2005: LOG DATE
UWI.                          : UNIQUE WELL ID
~Curve Information Block
DEPT.FT            0 000 00 00: Depth
SP.mV                         : DIL Spontaneous Potential
RILD.Ohm-m                    : DIL Deep Resistivity
RILM.Ohm-m                    : DIL Medium Resistivity
RLL3.Ohm-m                    : DIL Shallow Resistivity
GR.GAPI                       : Gamma Ray
~Parameter Information Block
~A  Depth        SP         RILD        RILM        RLL3         GR     
# ...
  1422.0000    125.0842     17.3302     22.2241     47.5237     54.1040
  1422.2500    125.5066     17.0315     21.7970     50.7334     52.1576
  1422.5000    126.0278     16.6629     20.8774     51.9079     51.8435
  1422.7500    126.5984     16.2850     19.6337     49.6915     52.8325
  1423.0000    127.1622     15.9484     18.2675     43.7678     55.7318
  1423.2500    127.6632     15.6874     16.9526     35.4100     59.1845
  1423.5000    128.0535     15.5162     15.8056     26.8474     68.8502
  1423.7500    128.3022     15.4315     14.8883     19.9689     79.3312
  1424.0000    128.4016     15.4167     14.2228     15.5231    100.0583
  1424.2500    128.3707     15.4495     13.8083     13.2964    114.6634
  1424.5000    128.2529     15.5094     13.6335     12.7861    132.8276
  1424.7500    128.1084     15.5865     13.6835     13.6814    141.0318
  1425.0000    128.0032     15.6877     13.9434     15.8724    147.4669
  1425.2500    127.9958     15.8372     14.4005     19.1365    147.9372
  1425.5000    128.1263     16.0690     15.0455     22.8686    142.9501
  1425.7500    128.4089     16.4168     15.8734     26.2007    136.7315
  1426.0000    128.8297     16.9025     16.8840     28.5392    125.9794
  1426.2500    129.3504     17.5296     18.0786     30.1068    119.0655
  1426.5000    129.9160     18.2764     19.4532     31.9748    109.2034
  1426.7500    130.4654     19.0884     20.9833     35.4477    102.7921
  1427.0000    130.9415     19.8723     22.6019     41.1406     94.4159
  1427.2500    131.3010     20.5008     24.1739     48.3129     90.7779
  1427.5000    131.5208     20.8386     25.4857     54.9637     89.3737
  1427.7500    131.6009     20.7894     26.2741     58.7989     90.7299
  1428.0000    131.5635     20.3358     26.3128     58.4984     93.8701
  1428.2500    131.4486     19.5443     25.5227     54.3605     95.0761
  1428.5000    131.3068     18.5300     24.0233     47.8724     94.1052
  1428.7500    131.1900     17.4103     22.0765     40.6627     92.0980
  1429.0000    131.1418     16.2749     19.9701     33.7290     89.4981
  1429.2500    131.1897     15.1797     17.9270     27.4340     89.5349
  1429.5000    131.3399     14.1553     16.0762     21.9656     93.9228
  1429.7500    131.5764     13.2171     14.4689     17.6102    100.0020
  1430.0000    131.8644     12.3714     13.1070     14.5980    112.6565
  1430.2500    132.1581     11.6186     11.9683     12.8471    121.7378
  1430.5000    132.4104     10.9555     11.0224     11.9706    132.8270
  1430.7500    132.5825     10.3790     10.2396     11.5225    137.2587
  1431.0000    132.6521      9.8880      9.5947     11.2212    139.8703
  1431.2500    132.6168      9.4853      9.0688     10.9895    140.3908
  1431.5000    132.4925      9.1755      8.6484     10.8456    142.0779
  1431.7500    132.3085      8.9633      8.3257     10.7777    144.4540
  1432.0000    132.0992      8.8503      8.0967     10.7105    148.7781
  1432.2500    131.8969      8.8348      7.9610     10.5735    151.0466
  1432.5000    131.7260      8.9117      7.9207     10.3842    153.2161
  1432.7500    131.6010      9.0747      7.9803     10.2633    155.0484
  1433.0000    131.5272      9.3183      8.1463     10.3847    160.6065
  1433.2500    131.5039      9.6387      8.4271     10.9136    165.7519
  1433.5000    131.5273     10.0345      8.8335     11.9590    171.5072
  1433.7500    131.5936     10.5060      9.3786     13.5579    171.6825
  1434.0000    131.7000     11.0551     10.0776     15.7314    165.9685
  1434.2500    131.8448     11.6851     10.9479     18.6159    159.5200
  1434.5000    132.0264     12.4004     12.0084     22.5134    147.8692
  1434.7500    132.2435     13.2038     13.2771     27.6460    139.1123
  1435.0000    132.4933     14.0894     14.7668     33.7017    124.9499
  1435.2500    132.7727     15.0326     16.4761     39.6974    115.5756
  1435.5000    133.0771     15.9820     18.3728     44.5542    103.1275
  1435.7500    133.4015     16.8580     20.3707     47.9661     96.4338
  1436.0000    133.7398     17.5645     22.3029     50.6109     89.1156
  1436.2500    134.0859     18.0118     23.9146     53.3524     86.1056
  1436.5000    134.4348     18.1429     24.9050     56.2040     84.0420
  1436.7500    134.7843     17.9503     25.0363     58.0839     83.6810
  1437.0000    135.1362     17.4739     24.2577     57.5114     83.6536
  1437.2500    135.4971     16.7848     22.7445     53.5516     84.0481
  1437.5000    135.8767     15.9655     20.8092     46.4061     86.4174
  1437.7500    136.2852     15.0939     18.7636     37.4489     89.7423
  1438.0000    136.7294     14.2330     16.8296     28.6339     97.2130
  1438.2500    137.2091     13.4262     15.1235     21.5353    103.3774
  1438.5000    137.7147     12.6969     13.6835     16.7185    113.6948
  1438.7500    138.2278     12.0525     12.5024     13.8602    120.9136
  1439.0000    138.7232     11.4900     11.5528     12.2929    131.2822
  1439.2500    139.1731     11.0013     10.8015     11.4402    137.3080
  1439.5000    139.5521     10.5776     10.2164     10.9625    144.6101
  1439.7500    139.8406     10.2118      9.7685     10.7262    148.4014
  1440.0000    140.0277      9.9003      9.4332     10.7181    152.6569
  1440.2500    140.1114      9.6427      9.1894     10.9511    154.4936
  1440.5000    140.0966      9.4407      9.0198     11.3825    155.4986
  1440.7500    139.9929      9.2978      8.9107     11.8881    154.9728
  1441.0000    139.8114      9.2183      8.8525     12.3170    152.8849
  1441.2500    139.5628      9.2073      8.8393     12.5759    151.1202
  1441.5000    139.2577      9.2691      8.8692     12.6532    148.3906
  1441.7500    138.9078      9.4048      8.9439     12.5794    146.4040
  1442.0000    138.5287      9.6102      9.0678     12.4008    143.0882
  1442.2500    138.1423      9.8755      9.2473     12.1902    141.1962
  1442.5000    137.7784     10.1848      9.4891     12.0453    140.3503
  1442.7500    137.4741     10.5179      9.7990     12.0557    141.5171
  1443.0000    137.2699     10.8517     10.1798     12.2763    145.0232
  1443.2500    137.2055     11.1636     10.6288     12.7408    147.3878
  1443.5000    137.3121     11.4345     11.1343     13.4951    148.8172
  1443.7500    137.6059     11.6529     11.6732     14.5979    147.7072
  1444.0000    138.0834     11.8158     12.2087     16.0502    143.7486
  1444.2500    138.7186     11.9275     12.6927     17.6887    140.6078
  1444.5000    139.4653     11.9967     13.0730     19.1552    135.8608
  1444.7500    140.2628     12.0335     13.3059     20.0205    132.3026
  1445.0000    141.0453     12.0480     13.3696     20.0011    126.1342
  1445.2500    141.7516     12.0483     13.2708     19.1084    122.3679
  1445.5000    142.3342     12.0389     13.0420     17.6236    120.0188
  1445.7500    142.7645     12.0190     12.7300     15.9438    121.9028
  1446.0000    143.0337     11.9832     12.3827     14.4151    129.7450
  1446.2500    143.1503     11.9259     12.0402     13.2426    136.8368
  1446.5000    143.1341     11.8451     11.7306     12.4873    146.6577
  1446.7500    143.0106     11.7448     11.4714     12.1083    150.8792
  1447.0000    142.8056     11.6340     11.2717     12.0130    152.7223
  1447.2500    142.5434     11.5245     11.1356     12.1030    151.7325
  1447.5000    142.2464     11.4274     11.0639     12.3022    149.1870
  1447.7500    141.9359     11.3509     11.0557     12.5637    147.6017
  1448.0000    141.6335     11.2998     11.1081     12.8789    145.4601
  1448.2500    141.3617     11.2768     11.2163     13.2999    144.0048
  1448.5000    141.1420     11.2859     11.3728     13.9255    141.5888
  1448.7500    140.9930     11.3331     11.5675     14.8243    139.4399
  1449.0000    140.9273     11.4260     11.7888     15.9451    134.2050
  1449.2500    140.9489     11.5717     12.0251     17.0973    129.1643
  1449.5000    141.0525     11.7749     12.2676     18.0130    120.9941
  1449.7500    141.2243     12.0368     12.5130     18.4439    116.8295
