~Version Information
VERS.                      2.0: CWLS Log ASCII Standard - VERSION 2.0
WRAP.                       NO: One line per depth step
~Well Information Block
STRT.FT                -7.2500: 
STOP.FT               765.5000: 
STEP.FT                 0.2500: 
NULL.                -999.2500: 
COMP.          Pioneer Natural Resources: COMPANY
WELL.          Barrelman 41-27: WELL
FLD.           Purgatorie River: FIELD
LOC.           371' FNL & 493' FEL--: LOCATION
PROV.                       CO: PROVINCE
CNTY.               Las Animas: COUNTRY
SRVC.          Patterson Wireline: SERVICE COMPANY
DATE.          Wed May 25 09:32:20 2005: LOG DATE
UWI.           05 071 08334 00: UNIQUE WELL ID
~Curve Information Block
DEPT.FT            0 000 00 00: Depth
CCL.                          : Casing Collar Locator
TT3.usec                      : CBL 3' Travel Time
AMP3.mV                       : CBL 3' Amplitude
GR.GAPI                       : Gamma Ray
~Parameter Information Block
~A  Depth       CCL         TT3         AMP3         GR     
    -7.2500   -999.2500   -999.2500   -999.2500     90.8691
    -7.0000   -999.2500   -999.2500   -999.2500     90.6212
    -6.7500   -999.2500   -999.2500   -999.2500     89.3813
    -6.5000   -999.2500   -999.2500   -999.2500     87.0676
    -6.2500   -999.2500   -999.2500   -999.2500     84.3646
    -6.0000   -999.2500   -999.2500   -999.2500     82.3367
    -5.7500   -999.2500   -999.2500   -999.2500     81.8001
    -5.5000   -999.2500   -999.2500   -999.2500     82.7966
    -5.2500   -999.2500   -999.2500   -999.2500     84.4857
    -5.0000   -999.2500   -999.2500   -999.2500     85.6946
    -4.7500   -999.2500   -999.2500   -999.2500     85.6948
    -4.5000   -999.2500   -999.2500   -999.2500     84.4747
    -4.2500   -999.2500   -999.2500   -999.2500     82.5847
    -4.0000   -999.2500   -999.2500   -999.2500     80.9521
    -3.7500   -999.2500   -999.2500   -999.2500     80.5209
    -3.5000   -999.2500   -999.2500   -999.2500     81.6505
    -3.2500   -999.2500   -999.2500   -999.2500     83.8906
    -3.0000   -999.2500   -999.2500   -999.2500     86.4117
    -2.7500   -999.2500   -999.2500   -999.2500     88.4845
    -2.5000   -999.2500   -999.2500   -999.2500     89.5445
    -2.2500   -999.2500   1161.0000      0.6950     89.2381
    -2.0000   -999.2500   1161.0000      0.6976     87.6813
    -1.7500   -999.2500   1161.0000      0.7021     85.4119
    -1.5000   -999.2500   1161.0000      0.7085     82.9142
    -1.2500   -999.2500   1161.0000      0.7141     80.3437
    -1.0000   -999.2500   1161.0000      0.7156     77.6255
    -0.7500   -999.2500   1161.0000      0.7115     74.5539
    -0.5000   -999.2500   1161.0000      0.7039     70.8965
    -0.2500   -999.2500   1161.0000      0.6971     66.5693
     0.0000   -999.2500   1161.0000      0.6956     61.5941
     0.2500   -999.2500   1161.0000      0.6997     55.9282
     0.5000   -999.2500   1161.0000      0.7124     43.1027
     0.7500   -999.2500   1161.0000      0.7132     37.2198
     1.0000   -999.2500   1161.0000      0.7091     32.8311
     1.2500   -999.2500   1161.0000      0.7044     30.4683
     1.5000   -999.2500   1161.0000      0.7039     30.1446
     1.7500   -999.2500   1161.0000      0.7080     31.4130
     2.0000   -999.2500   1161.0000      0.7107     33.5634
     2.2500   -999.2500   1161.0000      0.7058     35.8176
     2.5000   -999.2500   1161.0000      0.6929     37.6516
     2.7500   -999.2500   1160.9421      0.6798     39.1675
     3.0000      0.0000   1160.5621      0.6839     40.9827
     3.2500      0.0000   1158.6293      0.7561     43.5462
     3.5000      0.0000   1150.9677      1.0667     46.6540
     3.7500      0.0000   1127.3020      2.0667     49.7418
     4.0000      0.0000   1070.3262      4.6072     52.5638
     4.2500      0.0000    963.3937      9.7066     55.4298
     4.5000      0.0000    806.9098     17.7680     58.6376
     4.7500      0.0000    628.3451     27.7386     61.8064
     5.0000      0.0000    469.5704     37.2138     64.1357
     5.2500      0.0000    360.0240     43.7409     65.3661
     5.5000      0.0000    302.5471     46.2033     66.0188
     5.7500      0.0000    281.9425     45.0710     66.6342
     6.0000      0.0000    281.0000     41.6205     67.2968
     6.2500      0.0000    289.3503     37.0925     67.9483
     6.5000      0.0000    305.3230     32.3460     68.5534
     6.7500      0.0000    336.3774     27.8746     68.8332
     7.0000      0.0000    397.1901     23.9046     68.5455
     7.2500      0.0000    499.9849     20.4811     68.2743
     7.5000      0.0000    638.3499     17.5503     69.2439
     7.7500      0.0000    780.8018     15.0386     71.9176
     8.0000      0.0000    890.0384     12.9055     75.2518
     8.2500      0.0000    953.9805     11.1544     77.5490
     8.5000      0.0000    992.5662      9.8051     77.6801
     8.7500      0.0000   1031.4264      8.8525     75.5532
     9.0000      0.0000   1076.3807      8.2482     71.8767
     9.2500      0.0000   1116.5347      7.9171     67.5988
     9.5000      0.0000   1142.5903      7.7847     63.5326
     9.7500      0.0000   1155.0425      7.7848     60.5761
    10.0000      0.0000   1159.4940      7.8517     59.8449
    10.2500      0.0000   1160.7035      7.9242     61.8683
    10.5000      0.0000   1160.9545      7.9653     65.6488
    10.7500      0.0000   1161.0000      7.9731     68.9598
    11.0000      0.0000   1161.0000      7.9652     69.7086
    11.2500      0.0000   1161.0000      7.9529     67.1398
    11.5000      0.0000   1161.0000      7.9328     62.2661
    11.7500      0.0000   1161.0000      7.8995     57.5222
    12.0000      0.0000   1161.0000      7.8587     55.5970
    12.2500      0.0000   1161.0000      7.8228     57.7832
    12.5000      0.0000   1161.0000      7.7986     63.0831
    12.7500      0.0000   1161.0000      7.7827     69.0339
    13.0000      0.0000   1161.0000      7.7690     73.4134
    13.2500      0.0000   1161.0000      7.7555     75.0888
    13.5000      0.0000   1161.0000      7.7457     73.7532
    13.7500      0.0000   1160.9479      7.7434     69.7665
    14.0000      0.0000   1160.6603      7.7455     64.4137
    14.2500      0.0000   1159.2750      7.7419     59.5551
    14.5000      0.0000   1154.1777      7.7236     56.4734
    14.7500      0.0000   1139.9858      7.6929     55.1913
    15.0000      0.0000   1110.5898      7.6630     54.9618
    15.2500      0.0000   1066.8213      7.6466     54.9811
    15.5000      0.0000   1023.9708      7.6456     54.4614
    15.7500      0.0000   1005.7256      7.6504     52.6548
    16.0000      0.0000   1023.9708      7.6493     49.4603
    16.2500      0.0000   1066.8213      7.6362     45.9296
    16.5000      0.0000   1110.5898      7.6111     43.7878
    16.7500      0.0000   1139.9653      7.5753     44.2645
    17.0000      0.0000   1154.0233      7.5290     47.2321
    17.2500      0.0000   1158.4406      7.4732     51.4109
    17.5000      0.0000   1157.1354      7.4122     55.5229
    17.7500      0.0000   1149.1328      7.3517     59.1644
    18.0000      0.0000   1129.2870      7.2944     62.4054
    18.2500      0.0000   1092.0815      7.2384     64.8760
    18.5000      0.0000   1037.8767      7.1798     65.7736
    18.7500      0.0000    976.3260      7.1153     64.7112
    19.0000      0.0000    921.8252      7.0447     62.2160
    19.2500      0.0000    884.1642      6.9714     59.5006
    19.5000      0.0000    863.8298      6.9004     57.9102
    19.7500      0.0000    855.2397      6.8369     58.2436
    20.0000      0.0000    852.4158      6.7869     60.2117
    20.2500      0.0000    851.7606      6.7573     62.6561
    20.5000      0.0000    851.8023      6.7535     64.5835
    20.7500      0.0000    852.0676      6.7759     65.9845
    21.0000      0.0000    852.3529      6.8201     67.6039
    21.2500      0.0000    852.5150      6.8793     70.1226
    21.5000      0.0000    852.5489      6.9460     73.6487
    21.7500      0.0000    852.6100      7.0149     77.6250
    22.0000      0.0000    853.1528      7.0829     80.8980
    22.2500      0.0000    855.3171      7.1461     82.1227
    22.5000      0.0000    861.5865      7.1969     80.5238
    22.7500      0.0000    875.4903      7.2265     76.3710
    23.0000      0.0000    899.2203      7.2316     70.7718
    23.2500      0.0000    930.4929      7.2170     65.2309
    23.5000      0.0000    962.7562      7.1913     61.2726
    23.7500      0.0000    989.8054      7.1607     59.8294
    24.0000      0.0000   1009.0534      7.1283     60.6364
    24.2500      0.0000   1018.7726      7.0943     62.5010
    24.5000      0.0000   1014.2581      7.0575     64.4000
    24.7500      0.0000    991.0392      7.0142     66.1858
    25.0000      0.0000    952.4589      6.9609     68.2417
    25.2500      0.0000    910.2916      6.8991     70.7241
    25.5000      0.0000    876.1553      6.8350     73.2384
    25.7500      0.0000    854.3574      6.7757     75.0801
    26.0000      0.0000    842.9952      6.7247     75.8427
