~Version Information
VERS.                      2.0: CWLS Log ASCII Standard - VERSION 2.0
WRAP.                       NO: One line per depth step
~Well Information Block
STRT.FT               395.0000: 
STOP.FT              1998.0000: 
STEP.FT                 0.1000: 
NULL.                -999.2500: 
COMP.          Pioneer Natural Resources: COMPANY
WELL.          Easton 12-30 Tr: WELL
FLD.           Purgatoire River: FIELD
LOC.           549' FWL & 2416' FNL--: LOCATION
PROV.                 Colorado: PROVINCE
CNTY.               Las Animas: COUNTRY
SRVC.                Patterson: SERVICE COMPANY
DATE.          Thu Jun 02 09:14:44 2005: LOG DATE
UWI.           05 071 08379 00: UNIQUE WELL ID
~Curve Information Block
DEPT.FT            0 000 00 00: Depth
DCAL.in                       : CDL Caliper
RHOB.g/cc                     : CDL Bulk Density
RHOC.g/cc                     : CDL Density Correction
DPOR.pu                       : CDL Density Porosity
NPOR.pu                       : Neutron Porosity
GR.GAPI                       : Gamma Ray
~Parameter Information Block
~A  Depth       DCAL        RHOB        RHOC        DPOR        NPOR         GR     
# ...
  1547.0000      8.0496      2.4129      0.1398     14.3667     14.8925    117.4211
  1547.1000      8.0496      2.4491      0.0700     12.1784     15.8738    117.8063
  1547.2000      8.0496      2.4782      0.0842     10.4140     17.0060    121.3277
  1547.3000      8.0410      2.5115      0.1146      8.3948     18.1331    120.8151
  1547.4000      8.0410      2.5380      0.1527      6.7883     18.9927    115.5402
  1547.5000      8.0365      2.5426      0.1222      6.5106     19.6703    113.4166
  1547.6000      8.0365      2.5276      0.1091      7.4193     20.4880    115.7525
  1547.7000      8.0365      2.5124      0.0694      8.3411     21.4027    118.9026
  1547.8000      8.0365      2.5117      0.0724      8.3802     22.1568    122.0753
  1547.9000      8.0365      2.5199      0.0822      7.8855     22.7115    123.4913
  1548.0000      8.0364      2.5339      0.0492      7.0343     23.0449    124.5411
  1548.1000      8.0364      2.5552      0.1005      5.7434     23.1914    130.2585
  1548.2000      8.0364      2.5640      0.1175      5.2115     23.3556    137.6619
  1548.3000      8.0331      2.5500      0.0600      6.0587     23.7622    138.9341
  1548.4000      8.0331      2.5339     -0.0064      7.0380     24.4747    133.5279
  1548.5000      8.0258      2.5292      0.0746      7.3209     24.9932    128.4439
  1548.6000      8.0258      2.5292      0.0377      7.3185     24.7027    127.0276
  1548.7000      8.0258      2.5290      0.0512      7.3338     23.9789    125.6941
  1548.8000      8.0215      2.5283      0.0782      7.3783     23.7886    123.3405
  1548.9000      8.0215      2.5344      0.0485      7.0035     24.1656    121.9682
  1549.0000      8.0257      2.5507      0.0685      6.0192     24.3210    119.9963
  1549.1000      8.0257      2.5625      0.0796      5.3027     24.1366    117.3007
  1549.2000      8.0257      2.5547      0.1071      5.7757     23.9807    114.5375
  1549.3000      8.0279      2.5264      0.0354      7.4901     23.9080    110.4682
  1549.4000      8.0279      2.4953      0.0416      9.3736     23.6647    109.1032
  1549.5000      8.0267      2.4767      0.0174     10.5034     23.3668    113.6835
  1549.6000      8.0267      2.4655      0.0684     11.1802     23.3757    119.2978
  1549.7000      8.0267      2.4506      0.0313     12.0856     23.4122    121.5678
  1549.8000      8.0297      2.4306      0.0227     13.2972     23.2198    120.0937
  1549.9000      8.0297      2.4120      0.0218     14.4226     23.1233    116.3118
  1550.0000      8.0334      2.4021      0.0116     15.0254     23.1035    114.0641
  1550.1000      8.0334      2.4032      0.0552     14.9548     22.6069    116.5876
  1550.2000      8.0334      2.4139      0.0568     14.3106     21.6021    122.6518
  1550.3000      8.0346      2.4324      0.0782     13.1856     20.7397    127.9373
  1550.4000      8.0346      2.4539      0.1027     11.8847     20.3265    129.9841
  1550.5000      8.0335      2.4750      0.1119     10.6089     20.0274    130.1361
  1550.6000      8.0335      2.4972      0.1249      9.2590     19.6429    129.1171
  1550.7000      8.0335      2.5182      0.1476      7.9865     19.6751    125.2384
  1550.8000      8.0322      2.5346      0.1041      6.9958     20.4849    119.5311
  1550.9000      8.0322      2.5504      0.0909      6.0375     21.5582    114.0826
  1551.0000      8.0315      2.5699      0.0770      4.8538     22.2447    109.7462
  1551.1000      8.0315      2.5933      0.0951      3.4368     22.5522    109.8157
  1551.2000      8.0315      2.6152      0.1082      2.1088     22.8531    115.4676
  1551.3000      8.0320      2.6239      0.0939      1.5846     23.1921    119.5608
  1551.4000      8.0320      2.6138      0.0784      2.1967     23.4887    119.2564
  1551.5000      8.0352      2.5915      0.0713      3.5437     23.8100    120.9753
  1551.6000      8.0352      2.5718      0.0171      4.7418     23.9714    124.1461
  1551.7000      8.0352      2.5644      0.0484      5.1853     23.9881    123.3927
  1551.8000      8.0368      2.5626      0.0555      5.2972     24.3960    121.7594
  1551.9000      8.0368      2.5588      0.0588      5.5247     25.1833    121.8075
  1552.0000      8.0334      2.5560      0.0572      5.6960     25.5877    121.8431
  1552.1000      8.0334      2.5545      0.0461      5.7857     25.1285    123.2513
  1552.2000      8.0334      2.5494      0.0444      6.0965     24.0354    126.0198
  1552.3000      8.0296      2.5430      0.0441      6.4879     23.0217    126.4249
  1552.4000      8.0296      2.5423      0.0697      6.5291     22.5882    123.1540
  1552.5000      8.0312      2.5436      0.1077      6.4467     22.7410    119.4305
  1552.6000      8.0312      2.5387      0.0783      6.7440     23.0523    116.9308
  1552.7000      8.0312      2.5282      0.1022      7.3805     23.2322    115.0056
  1552.8000      8.0333      2.5223      0.0462      7.7413     23.3761    117.4655
  1552.9000      8.0333      2.5306      0.0762      7.2370     23.4421    123.9023
  1553.0000      8.0337      2.5433      0.0962      6.4684     23.4438    127.2821
  1553.1000      8.0337      2.5450      0.0803      6.3657     23.4028    126.9201
  1553.2000      8.0337      2.5391      0.0702      6.7209     23.0131    125.1302
  1553.3000      8.0353      2.5363      0.0897      6.8880     22.5955    120.7942
  1553.4000      8.0353      2.5428      0.0538      6.4964     22.8652    115.2944
  1553.5000      8.0366      2.5586      0.0719      5.5379     23.5298    113.1716
  1553.6000      8.0366      2.5738      0.0798      4.6189     23.8645    114.5498
  1553.7000      8.0366      2.5824      0.0505      4.0978     23.8089    115.1740
  1553.8000      8.0365      2.5876      0.0502      3.7805     23.6698    113.7488
  1553.9000      8.0365      2.5867      0.0775      3.8347     23.7052    111.7499
  1554.0000      8.0364      2.5762      0.0906      4.4737     23.9647    110.5059
  1554.1000      8.0364      2.5644      0.0350      5.1882     24.1432    111.8455
  1554.2000      8.0364      2.5581      0.1000      5.5711     24.1804    116.0042
  1554.3000      8.0341      2.5521      0.0521      5.9348     24.3788    120.4580
  1554.4000      8.0341      2.5424      0.0431      6.5236     24.8172    122.3559
  1554.5000      8.0271      2.5262      0.0222      7.5053     25.3025    122.5880
  1554.6000      8.0271      2.5028      0.0514      8.9231     25.6472    123.4452
  1554.7000      8.0271      2.4784      0.0160     10.3994     25.8020    124.6102
  1554.8000      8.0181      2.4588      0.0119     11.5852     25.8106    124.5698
  1554.9000      8.0181      2.4449     -0.0075     12.4290     25.6142    125.1698
  1555.0000      8.0139      2.4385      0.0287     12.8211     25.1175    130.3374
  1555.1000      8.0139      2.4337      0.0857     13.1076     24.2329    139.1395
  1555.2000      8.0139      2.4241      0.0363     13.6932     23.0225    148.3614
  1555.3000      8.0265      2.4165      0.0325     14.1543     21.7905    153.5831
  1555.4000      8.0265      2.4171      0.1008     14.1177     20.8907    150.9943
  1555.5000      8.0578      2.4252      0.1106     13.6260     20.5016    145.6764
  1555.6000      8.0578      2.4374      0.1438     12.8834     20.4640    142.3155
  1555.7000      8.0578      2.4408      0.1454     12.6767     20.3629    139.2200
  1555.8000      8.0823      2.4269      0.1531     13.5210     20.0342    137.7717
  1555.9000      8.0823      2.4083      0.1073     14.6467     19.8476    139.9616
  1556.0000      8.0846      2.4012      0.1296     15.0785     19.9229    142.6730
  1556.1000      8.0846      2.4040      0.1390     14.9067     19.7586    142.3638
  1556.2000      8.0846      2.4106      0.1296     14.5112     19.3765    138.1516
  1556.3000      8.0825      2.4182      0.1071     14.0486     19.3280    132.6576
  1556.4000      8.0825      2.4226      0.1399     13.7795     19.3991    129.0318
  1556.5000      8.0821      2.4251      0.1001     13.6276     18.8841    127.6234
