~Version Information
VERS.                      2.0: CWLS Log ASCII Standard - VERSION 2.0
WRAP.                       NO: One line per depth step
~Well Information Block
STRT.FT                -9.2500: 
STOP.FT              1945.2500: 
STEP.FT                 0.2500: 
NULL.                -999.2500: 
COMP.          Pioneer Natural Resources: COMPANY
WELL.          Titan Federal 34-17: WELL
FLD.           Purgatorie River: FIELD
LOC.           321' FSL & 1911' FEL: LOCATION
STAT.                       CO: State
CNTY.               Las Animas: COUNTY
CTRY. USA : Country
SECT. 17 : Section
TOWN. 32S : Township
RANG. 65W : Range
SRVC.          Patterson Wireline: SERVICE COMPANY
DATE.          Tue Oct 11 10:22:27 2005: LOG DATE
API.           05 071 08272 00: UNIQUE WELL ID
~Curve Information Block
DEPT.FT            0 000 00 00: Depth
CCL.                          : Casing Collar Locator
TT3.usec                      : CBL 3' Travel Time
AMP3.mV                       : CBL 3' Amplitude
GR.GAPI                       : Gamma Ray
~Parameter Information Block
~A  Depth       CCL         TT3         AMP3         GR     
# ...
  1263.7500      0.0000    451.5941     17.9571    124.6898
  1264.0000      0.0000    503.4291     17.2557    122.4073
  1264.2500      0.0000    566.6837     16.1619    121.5045
  1264.5000      0.0000    623.8760     14.8903    122.3867
  1264.7500      0.0000    665.0301     13.6162    123.7670
  1265.0000      0.0000    689.3483     12.4637    124.7609
  1265.2500      0.0000    700.5529     11.4992    125.9867
  1265.5000      0.0000    702.4487     10.7289    128.4786
  1265.7500      0.0000    698.1429     10.1172    132.1853
  1266.0000      0.0000    690.8012      9.6179    135.7687
  1266.2500      0.0000    683.4959      9.1961    137.7837
  1266.5000      0.0000    678.1972      8.8310    137.8618
  1266.7500      0.0000    675.2974      8.5104    136.5173
  1267.0000      0.0000    674.1177      8.2268    134.0412
  1267.2500      0.0000    673.7740      7.9799    130.2131
  1267.5000      0.0000    673.6653      7.7781    125.1040
  1267.7500      0.0000    673.5356      7.6331    119.6178
  1268.0000      0.0000    673.3566      7.5502    115.1438
  1268.2500      0.0000    673.1964      7.5215    112.8585
  1268.5000      0.0000    673.1632      7.5276    113.2313
  1268.7500      0.0000    673.4440      7.5447    116.0098
  1269.0000      0.0000    674.3890      7.5549    120.6018
  1269.2500      0.0000    676.4866      7.5528    126.3950
  1269.5000      0.0000    680.0709      7.5431    132.8470
  1269.7500      0.0000    684.8852      7.5314    139.6486
  1270.0000      0.0000    689.9086      7.5192    146.8237
  1270.2500      0.0000    693.6380      7.5074    154.3863
  1270.5000      0.0000    694.6520      7.5012    161.7688
  1270.7500      0.0000    692.3570      7.5080    167.6906
  1271.0000      0.0000    687.5994      7.5319    170.7456
  1271.2500      0.0000    682.3295      7.5683    170.1952
  1271.5000      0.0000    678.3272      7.6040    166.1368
  1271.7500      0.0000    676.3177      7.6250    159.1976
  1272.0000      0.0000    676.3224      7.6259    150.3563
  1272.2500      0.0000    678.4384      7.6157    140.6497
  1272.5000      0.0000    682.8445      7.6108    130.6547
  1272.7500      0.0000    688.8853      7.6216    120.6667
  1273.0000      0.0000    694.4217      7.6430    111.7452
  1273.2500      0.0000    696.7104      7.6581    106.2753
  1273.5000      0.0000    694.4315      7.6519    106.8457
  1273.7500      0.0000    688.8169      7.6214    113.9887
  1274.0000      0.0000    682.6030      7.5747    124.8341
  1274.2500      0.0000    677.9695      7.5233    134.4923
  1274.5000      0.0000    675.5065      7.4756    139.4971
  1274.7500      0.0000    674.6915      7.4355    140.1937
  1275.0000      0.0000    674.7925      7.4056    139.7938
  1275.2500      0.0000    675.3288      7.3874    141.3674
  1275.5000      0.0000    676.1837      7.3807    145.7104
  1275.7500      0.0000    677.6829      7.3835    151.3796
  1276.0000      0.0000    680.5572      7.3942    156.1229
  1276.2500      0.0000    685.4667      7.4109    158.4748
  1276.5000      0.0000    692.1603      7.4294    158.5217
  1276.7500      0.0000    698.9924      7.4444    157.3771
  1277.0000      0.0000    703.5975      7.4561    155.9416
  1277.2500      0.0000    704.5374      7.4734    154.2646
  1277.5000      0.0000    702.6059      7.5057    151.9318
  1277.7500      0.0000    700.4777      7.5538    148.7801
  1278.0000      0.0000    700.6653      7.6082    145.2757
  1278.2500      0.0000    703.5117      7.6562    142.2918
  1278.5000      0.0000    707.1591      7.6883    140.4592
  1278.7500      0.0000    709.3986      7.7025    139.7014
  1279.0000      0.0000    709.4370      7.7057    139.3266
  1279.2500      0.0000    708.1622      7.7124    138.5038
  1279.5000      0.0000    706.9789      7.7374    137.0641
  1279.7500      0.0000    706.3323      7.7847    136.2128
  1280.0000      0.0000    705.3276      7.8437    137.9382
  1280.2500      0.0000    702.7891      7.8954    142.8699
  1280.5000      0.0000    698.4380      7.9260    148.5974
  1280.7500      0.0000    693.0433      7.9348    150.7497
  1281.0000      0.0000    688.0698      7.9306    146.3114
  1281.2500      0.0000    685.4602      7.9238    135.8988
  1281.5000      0.0000    687.2938      7.9232    122.7081
  1281.7500      0.0000    695.1232      7.9383    109.6475
  1282.0000      0.0000    709.1419      7.9735     97.8717
  1282.2500      0.0000    727.1543      8.0184     87.4814
  1282.5000      0.0000    744.1616      8.0459     78.6326
  1282.7500      0.0000    754.4388      8.0279     71.7621
  1283.0000      0.0000    755.7766      7.9576     67.3343
  1283.2500      0.0000    751.6760      7.8592     65.9163
  1283.5000      0.0000    748.1262      7.7723     68.5474
  1283.7500      0.0000    747.7060      7.7258     76.4920
  1284.0000      0.0000    747.4308      7.7238     89.8446
  1284.2500      0.0000    742.8396      7.7528    106.0633
  1284.5000      0.0000    733.4940      7.7960    120.5885
  1284.7500      0.0000    723.4786      7.8382    130.0021
  1285.0000      0.0000    717.0009      7.8628    134.7743
  1285.2500      0.0000    714.8715      7.8557    138.2751
  1285.5000      0.0000    715.2298      7.8165    142.9911
  1285.7500      0.0000    716.1250      7.7634    148.5003
  1286.0000      0.0000    716.7472      7.7236    153.3190
  1286.2500      0.0000    717.0592      7.7189    157.4368
  1286.5000      0.0000    717.1921      7.7571    161.8044
  1286.7500      0.0000    717.3058      7.8301    165.9014
  1287.0000      0.0000    717.7457      7.9212    167.3340
  1287.2500      0.0000    719.1595      8.0154    164.3298
  1287.5000      0.0000    722.2252      8.1002    157.9180
  1287.7500      0.0000    726.8159      8.1604    151.1352
  1288.0000      0.0000    731.2703      8.1811    146.5697
  1288.2500      0.0000    733.1089      8.1609    145.2791
  1288.5000      0.0000    731.1448      8.1139    147.4907
  1288.7500      0.0000    726.6426      8.0614    152.9952
  1289.0000      0.0000    722.0173      8.0201    160.5532
  1289.2500      0.0000    718.7861      7.9965    168.0531
  1289.5000      0.0000    716.9848      7.9816    174.0105
  1289.7500      0.0000    715.8680      7.9535    178.5300
  1290.0000      0.0000    714.5292      7.8838    182.5149
  1290.2500      0.0000    712.1330      7.7442    186.2563
  1290.5000      0.0000    708.3820      7.5201    188.8217
  1290.7500      0.0000    704.5031      7.2372    188.4542
  1291.0000      0.0000    703.8330      6.9568    183.4257
  1291.2500      0.0000    710.5870      6.7183    172.8991
  1291.5000      0.0000    726.7710      6.5084    157.6328
  1291.7500      0.0000    749.6365      6.3194    140.1336
  1292.0000      0.0000    772.6880      6.1996    123.7370
  1292.2500      0.0000    790.1981      6.2023    111.0683
  1292.5000      0.0000    801.2123      6.3172    103.1611
  1292.7500      2.0000    808.9620      6.4884     99.7014
  1293.0000      0.0000    816.3446      6.6818     99.5943
  1293.2500      0.0000    822.2153      6.9247    101.3547
  1293.5000      0.0000    822.0128      7.2948    103.6956
  1293.7500      0.0000    811.8505      7.8516    106.2258
  1294.0000      0.0000    792.2709      8.5338    109.3923
  1294.2500      0.0000    768.4382      9.1455    113.8131
  1294.5000      0.0000    746.8879      9.5048    119.9974
  1294.7500      0.0000    731.9575      9.5972    128.3116
  1295.0000      0.0000    724.6722      9.5437    138.2624
  1295.2500      0.0000    723.9147      9.4618    147.7548
  1295.5000      0.0000    727.7639      9.4013    154.0231
  1295.7500      0.0000    734.0301      9.3719    155.9421
  1296.0000      0.0000    740.9067      9.3773    155.1811
  1296.2500      0.0000    747.8464      9.4191    154.5443
  1296.5000      0.0000    755.0443      9.4903    155.1016
  1296.7500      0.0000    761.7587      9.5723    155.2206
  1297.0000      0.0000    766.4210      9.6445    152.3593
