~Version Information
VERS.                      2.0: CWLS Log ASCII Standard - VERSION 2.0
WRAP.                       NO: One line per depth step
~Well Information Block
STRT.FT                 3.0000: 
STOP.FT              1884.7500: 
STEP.FT                 0.2500: 
NULL.                -999.2500: 
COMP.          Pioneer Natural Resources: COMPANY
WELL.          Blackjack 32-11 Tr: WELL
FLD.           Purgatoire River: FIELD
LOC.           2066' FNL & 1453' FEL: LOCATION
PROV.                 Colorado: PROVINCE
CNTY.               Las Animas: COUNTRY
SRVC.                Patterson: SERVICE COMPANY
DATE.          Fri Aug 19 11:07:11 2005: LOG DATE
UWI.           05 071 08310 00: UNIQUE WELL ID
~Curve Information Block
DEPT.FT            0 000 00 00: Depth
CCL.                          : Casing Collar Locator
TT3.usec                      : CBL 3' Travel Time
AMP3.mV                       : CBL 3' Amplitude
GR.GAPI                       : Gamma Ray
~Parameter Information Block
~A  Depth       CCL         TT3         AMP3         GR     
# ...
  1711.5000      0.0000    745.5554     15.5509    120.9546
  1711.7500      0.0000    745.9432     15.4011    119.5470
  1712.0000      0.0000    747.7644     14.8153    120.4675
  1712.2500      0.0000    750.9420     13.7163    122.8955
  1712.5000      0.0000    753.6332     12.1712    125.4525
  1712.7500      0.0000    753.2337     10.3492    126.8873
  1713.0000      0.0000    748.6539      8.4378    126.7205
  1713.2500      0.0000    741.0232      6.6021    124.8537
  1713.5000      0.0000    731.9442      4.9864    120.8786
  1713.7500      0.0000    721.7775      3.7082    114.3646
  1714.0000      0.0000    710.3590      2.8298    105.7660
  1714.2500      0.0000    699.3013      2.3422     96.6279
  1714.5000      0.0000    692.8086      2.1801     88.8146
  1714.7500      0.0000    695.1126      2.2561     83.6405
  1715.0000      0.0000    706.5024      2.5000     81.5311
  1715.2500      0.0000    722.0354      2.8923     82.2171
  1715.5000      0.0000    734.5717      3.4778     85.4390
  1715.7500      0.0000    739.5635      4.3465     91.5792
  1716.0000      0.0000    737.1091      5.5975    101.0768
  1716.2500      0.0000    729.1889      7.3209    112.8904
  1716.5000      0.0000    715.0366      9.6045    124.2276
  1716.7500      0.0000    690.0849     12.5043    132.4964
  1717.0000      0.0000    651.5226     15.9269    137.2875
  1717.2500      0.0000    606.9305     19.4948    140.0080
  1717.5000      0.0000    575.7890     22.5799    141.9506
  1717.7500      0.0000    576.9100     24.5748    143.2074
  1718.0000      0.0000    611.6464     25.2329    143.0062
  1718.2500      0.0000    661.7207     24.7999    140.5539
  1718.5000      0.0000    704.3452     23.8235    135.8470
  1718.7500      0.0000    727.5446     22.8146    129.9783
  1719.0000      0.0000    732.6710     22.0316    124.3673
  1719.2500      0.0000    727.4962     21.4885    119.5039
  1719.5000      0.0000    719.1946     21.0899    114.7826
  1719.7500      0.0000    711.6857     20.7513    109.8283
  1720.0000      0.0000    706.4103     20.4409    105.6153
  1720.2500      0.0000    703.7334     20.1612    103.7069
  1720.5000      0.0000    703.2295     19.9145    104.3562
  1720.7500      0.0000    703.5857     19.6910    105.8716
  1721.0000      0.0000    703.4896     19.4840    106.1111
  1721.2500      0.0000    702.8479     19.3031    104.4372
  1721.5000      0.0000    702.7285     19.1619    102.0876
  1721.7500      0.0000    703.9635     19.0607    100.7401
  1722.0000      0.0000    706.1815     18.9864    100.8929
  1722.2500      0.0000    708.3271     18.9213    101.7570
  1722.5000      0.0000    709.7224     18.8474    102.4396
  1722.7500      0.0000    710.3872     18.7559    102.7341
  1723.0000      0.0000    710.6500     18.6683    102.8734
  1723.2500      0.0000    710.7513     18.6351    103.0620
  1723.5000      0.0000    710.7237     18.6879    103.3050
  1723.7500      0.0000    710.3871     18.7731    103.3217
  1724.0000      0.0000    709.2732     18.7215    102.5874
  1724.2500      0.0000    706.6343     18.2900    100.8667
  1724.5000      0.0000    701.8985     17.3102     99.1570
  1724.7500      0.0000    695.8166     15.8875     99.8590
  1725.0000      0.0000    691.3732     14.4217    105.1012
  1725.2500      0.0000    692.6570     13.3125    114.5261
  1725.5000      0.0000    701.6836     12.6503    125.2556
  1725.7500      0.0000    716.2081     12.2812    134.1901
  1726.0000      0.0000    731.2638     12.0790    139.7745
  1726.2500      0.0000    742.1745     12.0166    141.6444
  1726.5000     -2.8796    745.2951     12.0554    139.7523
  1726.7500     -3.0000    737.4438     12.1271    134.6421
  1727.0000      3.0000    716.6764     12.2333    128.0094
  1727.2500      0.0000    682.8556     12.5389    121.8148
  1727.5000      0.0000    636.8968     13.3438    116.5534
  1727.7500      0.0000    583.3187     14.8692    111.0448
  1728.0000      0.0000    535.5727     16.9678    104.1083
  1728.2500      0.0000    512.0747     19.1073     95.8978
  1728.5000      0.0000    520.5668     20.7590     87.6568
  1728.7500      0.0000    550.0755     21.7683     80.7642
  1729.0000      0.0000    583.1652     22.3072     76.0109
  1729.2500      0.0000    611.9202     22.5943     73.3179
  1729.5000      0.0000    636.9843     22.7481     72.0860
  1729.7500      0.0000    655.6996     22.8111     71.8109
  1730.0000      0.0000    658.3019     22.8025     72.1043
  1730.2500      0.0000    635.3294     22.7370     72.2239
  1730.5000      0.0000    586.6459     22.6302     71.2872
  1730.7500      0.0000    524.4294     22.5021     69.2437
  1731.0000      0.0000    467.5257     22.3784     67.1208
  1731.2500      0.0000    430.3253     22.2875     65.9212
  1731.5000      0.0000    415.4055     22.2431     65.6366
  1731.7500      0.0000    415.7234     22.2245     65.7074
  1732.0000      0.0000    421.9579     22.1789     66.0424
  1732.2500      0.0000    428.0289     22.0535     66.9737
  1732.5000      0.0000    432.8813     21.8284     68.4192
  1732.7500      0.0000    438.8438     21.5230     69.7353
  1733.0000      0.0000    447.7127     21.1750     70.4147
  1733.2500      0.0000    458.1603     20.8190     70.4633
  1733.5000      0.0000    467.1235     20.4820     70.1131
  1733.7500      0.0000    472.7460     20.1988     69.6331
  1734.0000      0.0000    475.1942     20.0170     69.5190
  1734.2500      0.0000    475.3118     19.9657     70.4063
  1734.5000      0.0000    473.4611     20.0149     72.3802
  1734.7500      0.0000    469.7084     20.0808     74.4423
  1735.0000      0.0000    464.7859     20.0831     75.0253
  1735.2500      0.0000    460.2841     19.9996     73.2139
  1735.5000      0.0000    457.3504     19.8652     69.4158
  1735.7500      0.0000    455.2823     19.7241     64.9556
  1736.0000      0.0000    452.1236     19.5900     61.2148
  1736.2500      0.0000    446.6295     19.4508     58.9548
  1736.5000      0.0000    438.9428     19.2974     58.0777
  1736.7500      0.0000    429.4678     19.1399     57.9765
  1737.0000      0.0000    418.4540     19.0004     58.2077
  1737.2500      0.0000    407.5491     18.8968     58.7612
  1737.5000      0.0000    400.8354     18.8304     59.7643
  1737.7500      0.0000    402.9825     18.7886     61.1927
  1738.0000      0.0000    415.7350     18.7623     62.8489
  1738.2500      0.0000    435.6847     18.7585     64.4618
  1738.5000      0.0000    455.0078     18.7989     65.9500
  1738.7500      0.0000    465.9761     18.9106     67.7092
  1739.0000      0.0000    466.9019     19.1149     70.4320
  1739.2500      0.0000    463.0960     19.4162     74.4183
  1739.5000      0.0000    461.0541     19.7956     79.0472
  1739.7500      0.0000    462.9222     20.2208     83.0054
  1740.0000      0.0000    466.8055     20.6596     85.0884
  1740.2500      0.0000    470.2814     21.0830     84.8951
  1740.5000      0.0000    472.4240     21.4586     82.9932
  1740.7500      0.0000    473.4767     21.7541     80.6100
  1741.0000      0.0000    473.8133     21.9503     79.0462
  1741.2500      0.0000    473.3408     22.0504     79.0131
  1741.5000      0.0000    471.5819     22.0764     80.2647
  1741.7500      0.0000    468.7078     22.0589     81.8965
  1742.0000      0.0000    467.6675     22.0242     83.1310
  1742.2500      0.0000    475.4893     21.9805     83.8425
  1742.5000      0.0000    499.8231     21.9123     84.3412
  1742.7500      0.0000    540.8888     21.7963     84.8732
  1743.0000      0.0000    587.5944     21.6275     85.5169
  1743.2500      0.0000    625.3779     21.4347     86.2340
  1743.5000      0.0000    648.7141     21.2714     86.6394
  1743.7500      0.0000    663.4949     21.1865     86.0067
  1744.0000      0.0000    677.4861     21.1965     84.0079
  1744.2500      0.0000    692.2448     21.2820     81.3538
  1744.5000      0.0000    704.9332     21.4124     79.3612
  1744.7500      0.0000    713.7803     21.5739     78.9031
