~Version Information
VERS.                      2.0: CWLS Log ASCII Standard - VERSION 2.0
WRAP.                       NO: One line per depth step
~Well Information Block
STRT.FT               454.0000: 
STOP.FT              1392.0000: 
STEP.FT                 0.2500: 
NULL.                -999.2500: 
COMP.          Pioneer Natural Resources: COMPANY
WELL.          Lorencito 6-3-34-66: WELL
FLD.           Purgatoire River: FIELD
LOC.           2545' FNL & 1914' FWL: LOCATION
STAT.                 Colorado: State
CNTY.               Las Animas: COUNTY
CTRY. USA : Country
SECT. 3 : Section
TOWN. 34S : Township
RANG. 66W : Range
SRVC.                Patterson: SERVICE COMPANY
DATE.          Fri Sep 09 22:07:39 2005: LOG DATE
API.           05 071 08369 00: UNIQUE WELL ID
~Curve Information Block
DEPT.FT            0 000 00 00: Depth
SN.Ohm-m                      : IEL Short Normal
SP.mV                         : IEL Spontaneous Potential
DIR.Ohm-m                     : IEL Induction Resistivity
GR.GAPI                       : Gamma Ray
~Parameter Information Block
~A  Depth        SN          SP         DIR          GR     
# ...
  1291.5000     18.0234     -6.6828     16.1443     97.7764
  1291.7500     18.6617     -6.4796     16.3791    102.7676
  1292.0000     19.1711     -6.3887     16.6945    111.3974
  1292.2500     19.4895     -6.3860     17.0736    116.2525
  1292.5000     19.6377     -6.4327     17.4874    119.8038
  1292.7500     19.6867     -6.4917     17.8987    119.3950
  1293.0000     19.7052     -6.5368     18.2696    115.8181
  1293.2500     19.7205     -6.5478     18.5703    112.3075
  1293.5000     19.7194     -6.5048     18.7850    105.8709
  1293.7500     19.6868     -6.3864     18.9160    100.6939
  1294.0000     19.6478     -6.1733     18.9796     91.8850
  1294.2500     19.6671     -5.8597     19.0008     86.1641
  1294.5000     19.8088     -5.4702     19.0070     79.7687
  1294.7500     20.0862     -5.0531     19.0225     77.5237
  1295.0000     20.4474     -4.6453     19.0643     76.2246
  1295.2500     20.8006     -4.2438     19.1413     75.5073
  1295.5000     21.0569     -3.8061     19.2542     73.2239
  1295.7500     21.1594     -3.2657     19.3963     71.0329
  1296.0000     21.1005     -2.5662     19.5565     68.1066
  1296.2500     20.9307     -1.7275     19.7212     67.1161
  1296.5000     20.7515     -0.8826     19.8770     67.3219
  1296.7500     20.6743     -0.1985     20.0116     68.2384
  1297.0000     20.7564      0.2635     20.1160     69.9825
  1297.2500     20.9642      0.5838     20.1838     71.0600
  1297.5000     21.1966      0.8806     20.2139     72.2787
  1297.7500     21.3529      1.2136     20.2098     72.8183
  1298.0000     21.3881      1.5913     20.1791     73.4811
  1298.2500     21.3194      2.0151     20.1329     74.0361
  1298.5000     21.1957      2.4790     20.0813     75.0418
  1298.7500     21.0651      2.9513     20.0307     75.5535
  1299.0000     20.9630      3.3847     19.9815     75.7022
  1299.2500     20.9150      3.7493     19.9296     75.5557
  1299.5000     20.9361      4.0503     19.8688     75.8691
  1299.7500     21.0227      4.3111     19.7948     76.9456
  1300.0000     21.1442      4.5394     19.7102     79.9825
  1300.2500     21.2480      4.7135     19.6242     82.5044
  1300.5000     21.2863      4.8038     19.5519     85.8760
  1300.7500     21.2475      4.7992     19.5090     87.3049
  1301.0000     21.1659      4.7094     19.5046     87.7380
  1301.2500     21.0962      4.5548     19.5364     86.8737
  1301.5000     21.0715      4.3677     19.5870     84.2824
  1301.7500     21.0810      4.1975     19.6260     82.0933
  1302.0000     21.0818      4.0999     19.6161     78.6167
  1302.2500     21.0257      4.1149     19.5260     76.3102
  1302.5000     20.8784      4.2549     19.3410     73.2243
  1302.7500     20.6252      4.4989     19.0698     71.7785
  1303.0000     20.2762      4.7945     18.7412     71.0123
  1303.2500     19.8715      5.0771     18.3953     71.4344
  1303.5000     19.4766      5.2990     18.0705     73.0792
  1303.7500     19.1600      5.4427     17.7961     74.5215
  1304.0000     18.9635      5.5155     17.5887     76.5118
  1304.2500     18.8839      5.5437     17.4541     77.3620
  1304.5000     18.8784      5.5722     17.3901     77.8389
  1304.7500     18.8940      5.6480     17.3899     77.9016
  1305.0000     18.8983      5.7925     17.4447     78.1290
  1305.2500     18.8873      5.9830     17.5449     78.5167
  1305.5000     18.8745      6.1600     17.6805     79.5094
  1305.7500     18.8800      6.2657     17.8402     80.3434
  1306.0000     18.9299      6.2965     18.0119     81.3372
  1306.2500     19.0560      6.3087     18.1834     81.5206
  1306.5000     19.2806      6.3552     18.3432     81.0697
  1306.7500     19.5934      6.4346     18.4829     80.5332
  1307.0000     19.9401      6.5211     18.5969     79.6696
  1307.2500     20.2411      6.6254     18.6831     79.0801
  1307.5000     20.4327      6.8028     18.7417     78.2796
  1307.7500     20.5028      7.1038     18.7749     77.8661
  1308.0000     20.4939      7.5152     18.7864     77.1485
  1308.2500     20.4715      7.9465     18.7805     76.2455
  1308.5000     20.4841      8.2932     18.7629     73.9178
  1308.7500     20.5445      8.5298     18.7393     71.9374
  1309.0000     20.6364      8.7296     18.7145     69.3035
  1309.2500     20.7350      8.9869     18.6927     68.3373
  1309.5000     20.8257      9.3382     18.6779     68.2100
  1309.7500     20.9124      9.7667     18.6735     68.5034
  1310.0000     21.0114     10.2471     18.6845     68.4619
  1310.2500     21.1384     10.7533     18.7153     67.9008
  1310.5000     21.2998     11.2380     18.7683     66.7185
  1310.7500     21.4882     11.6381     18.8399     66.1972
  1311.0000     21.6805     11.9190     18.9171     66.5639
  1311.2500     21.8372     12.1210     18.9769     67.7190
  1311.5000     21.9073     12.3480     18.9904     70.3355
  1311.7500     21.8436     12.6910     18.9315     72.0620
  1312.0000     21.6254     13.1537     18.7888     73.6045
  1312.2500     21.2820     13.6593     18.5738     73.7111
  1312.5000     20.9040     14.1254     18.3211     73.0522
  1312.7500     20.6213     14.5215     18.0807     72.6661
  1313.0000     20.5419     14.8586     17.9042     72.5721
  1313.2500     20.6827     15.1498     17.8336     72.4911
  1313.5000     20.9501     15.3958     17.8928     71.5672
  1313.7500     21.1995     15.6034     18.0841     70.3643
  1314.0000     21.3382     15.7976     18.3883     68.2572
  1314.2500     21.3872     16.0077     18.7677     67.0851
  1314.5000     21.4440     16.2474     19.1725     66.3432
  1314.7500     21.5775     16.5157     19.5502     66.7960
  1315.0000     21.7493     16.8077     19.8585     68.7360
  1315.2500     21.8336     17.1139     20.0723     70.3273
  1315.5000     21.7155     17.4144     20.1886     72.1936
  1315.7500     21.3769     17.6903     20.2208     73.0065
  1316.0000     20.9026     17.9445     20.1904     74.1803
  1316.2500     20.4142     18.2019     20.1171     75.1868
  1316.5000     20.0029     18.4864     20.0149     76.5543
  1316.7500     19.7108     18.8027     19.8916     76.6823
  1317.0000     19.5549     19.1376     19.7523     74.8618
  1317.2500     19.5511     19.4606     19.6054     72.5097
  1317.5000     19.7065     19.7183     19.4635     68.5815
  1317.7500     19.9902     19.8487     19.3436     66.4128
  1318.0000     20.3152     19.8203     19.2623     64.3616
  1318.2500     20.5554     19.6564     19.2275     63.8504
  1318.5000     20.5996     19.4173     19.2349     64.2481
  1318.7500     20.4083     19.1710     19.2623     64.9597
  1319.0000     20.0350     18.9875     19.2719     65.7649
  1319.2500     19.5915     18.9397     19.2156     65.7577
  1319.5000     19.1851     19.0692     19.0482     65.0664
  1319.7500     18.8733     19.3329     18.7434     64.5521
  1320.0000     18.6586     19.6101     18.3037     64.5093
  1320.2500     18.5115     19.7870     17.7649     65.3376
  1320.5000     18.3958     19.8302     17.1846     67.9562
  1320.7500     18.2821     19.7893     16.6279     70.2530
  1321.0000     18.1551     19.7583     16.1528     73.5826
  1321.2500     18.0178     19.8363     15.8024     75.3582
  1321.5000     17.8932     20.0892     15.6022     77.1698
  1321.7500     17.8113     20.5134     15.5622     77.7271
  1322.0000     17.7866     21.0290     15.6794     77.2663
  1322.2500     17.7996     21.5199     15.9390     75.9596
  1322.5000     17.8001     21.9118     16.3157     72.7550
  1322.7500     17.7344     22.2317     16.7739     70.2855
  1323.0000     17.5803     22.5798     17.2688     67.2622
  1323.2500     17.3638     23.0227     17.7495     66.2605
  1323.5000     17.1492     23.5261     18.1665     66.4591
  1323.7500     17.0120     24.0017     18.4790     67.3782
  1324.0000     17.0083     24.3977     18.6657     69.0790
  1324.2500     17.1518     24.7226     18.7290     70.0022
  1324.5000     17.4029     25.0022     18.6921     70.5977
  1324.7500     17.6799     25.2529     18.5895     70.3788
