~Version Information
VERS.                      2.0: CWLS Log ASCII Standard - VERSION 2.0
WRAP.                       NO: One line per depth step
~Well Information Block
STRT.FT               450.0000: 
STOP.FT              1739.2500: 
STEP.FT                 0.2500: 
NULL.                -999.2500: 
COMP.          Pioneer Natural Resources: COMPANY
WELL.            Harlee L 34-9: WELL
FLD.           Purgatoire River: FIELD
LOC.           600' FSL & 2125' FEL: LOCATION
PROV.                 Colorado: PROVINCE
CNTY.               Las Animas: COUNTRY
SRVC.                Patterson: SERVICE COMPANY
DATE.          Wed Jan 26 02:00:08 2005: LOG DATE
UWI.           05 071 08009 00: UNIQUE WELL ID
~Curve Information Block
DEPT.FT            0 000 00 00: Depth
SN.Ohm-m                      : IEL Short Normal
SP.mV                         : IEL Spontaneous Potential
DIR.Ohm-m                     : IEL Induction Resistivity
GR.GAPI                       : Gamma Ray
~Parameter Information Block
~A  Depth        SN          SP         DIR          GR     
# ...
  1689.5000     21.9959    -24.5776     21.1333     82.5599
  1689.7500     21.8581    -24.0311     21.1742     82.3801
  1690.0000     21.7366    -23.4641     21.2712     80.8001
  1690.2500     21.6166    -22.8563     21.3870     79.2892
  1690.5000     21.4977    -22.1936     21.4770     77.1843
  1690.7500     21.3848    -21.4685     21.5026     76.0842
  1691.0000     21.2790    -20.6816     21.4405     75.1036
  1691.2500     21.1764    -19.8439     21.2857     75.2467
  1691.5000     21.0703    -18.9753     21.0496     77.2802
  1691.7500     20.9554    -18.1019     20.7541     79.7908
  1692.0000     20.8300    -17.2484     20.4249     84.3991
  1692.2500     20.6973    -16.4318     20.0851     87.4322
  1692.5000     20.5644    -15.6561     19.7519     91.3064
  1692.7500     20.4401    -14.9135     19.4399     93.3337
  1693.0000     20.3323    -14.1894     19.1670     95.4615
  1693.2500     20.2450    -13.4694     18.9562     96.0973
  1693.5000     20.1757    -12.7459     18.8271     95.4902
  1693.7500     20.1161    -12.0197     18.7816     94.1615
  1694.0000     20.0545    -11.2993     18.7982     91.9457
  1694.2500     19.9823    -10.5962     18.8391     91.0895
  1694.5000     19.9030     -9.9215     18.8684     90.9316
  1694.7500     19.8365     -9.2838     18.8636     90.9671
  1695.0000     19.8097     -8.6905     18.8128     90.1327
  1695.2500     19.8368     -8.1503     18.7062     88.9714
  1695.5000     19.9076     -7.6762     18.5402     87.5291
  1695.7500     19.9956     -7.2847     18.3366     87.7268
  1696.0000     20.0792     -6.9926     18.1511     90.5682
  1696.2500     20.1532     -6.8095     18.0515     93.6165
  1696.5000     20.2214     -6.7303     18.0786     97.5459
  1696.7500     20.2824     -6.7314     18.2213     98.4715
  1697.0000     20.3263     -6.7724     18.4258     97.1319
  1697.2500     20.3430     -6.8057     18.6281     95.3270
  1697.5000     20.3314     -6.7879     18.7845     92.6295
  1697.7500     20.3015     -6.6919     18.8776     90.9665
  1698.0000     20.2681     -6.5125     18.9049     88.4898
  1698.2500     20.2400     -6.2661     18.8701     86.9318
  1698.5000     20.2158     -5.9847     18.7843     84.9130
  1698.7500     20.1884     -5.7065     18.6679     83.7096
  1699.0000     20.1527     -5.4671     18.5447     82.0122
  1699.2500     20.1063     -5.2946     18.4291     81.1108
  1699.5000     20.0449     -5.2081     18.3214     80.5724
  1699.7500     19.9636     -5.2203     18.2127     80.8668
  1700.0000     19.8644     -5.3399     18.0970     81.8816
  1700.2500     19.7614     -5.5720     17.9796     82.4875
  1700.5000     19.6742     -5.9158     17.8738     82.7071
  1700.7500     19.6177     -6.3616     17.7892     82.4091
  1701.0000     19.5974     -6.8899     17.7218     81.8229
  1701.2500     19.6086     -7.4744     17.6544     81.6367
  1701.5000     19.6333     -8.0872     17.5662     81.7239
  1701.7500     19.6423     -8.7017     17.4450     81.8774
  1702.0000     19.6094     -9.2902     17.2923     82.2599
  1702.2500     19.5279     -9.8165     17.1189     82.9833
  1702.5000     19.4049    -10.2314     16.9365     85.6534
  1702.7500     19.2408    -10.4803     16.7550     88.6623
  1703.0000     19.0184    -10.5274     16.5815     94.1328
  1703.2500     18.7182    -10.3865     16.4178     97.4935
  1703.5000     18.3443    -10.1404     16.2545    101.1576
  1703.7500     17.9361     -9.9309     16.0731    102.9613
  1704.0000     17.5621     -9.9154     15.8620    106.1359
  1704.2500     17.3000    -10.2061     15.6360    109.2594
  1704.5000     17.2001    -10.8200     15.4356    115.4707
  1704.7500     17.2470    -11.6617     15.2998    119.7909
  1705.0000     17.3508    -12.5480     15.2331    124.0471
  1705.2500     17.3891    -13.2595     15.1943    124.0024
  1705.5000     17.2773    -13.5983     15.1170    119.0276
  1705.7500     17.0215    -13.4318     14.9519    113.5411
  1706.0000     16.7162    -12.7144     14.7002    104.9645
  1706.2500     16.4866    -11.4906     14.4106     99.7636
  1706.5000     16.4053     -9.8849     14.1440     90.6306
  1706.7500     16.4459     -8.0838     13.9403     81.2640
  1707.0000     16.5069     -6.3091     13.8064     60.5021
  1707.2500     16.4873     -4.7831     13.7264     44.1111
  1707.5000     16.3512     -3.6903     13.6807     22.0801
  1707.7500     16.1412     -3.1461     13.6615     11.8536
  1708.0000     15.9487     -3.1792     13.6769      3.5997
  1708.2500     15.8741     -3.7315     13.7469      1.3592
  1708.5000     15.9983     -4.6725     13.8972      0.2378
  1708.7500     16.3696     -5.8219     14.1537      0.0606
  1709.0000     17.0019     -6.9789     14.5383      0.0037
  1709.2500     17.8761     -7.9557     15.0615   -999.2500
  1709.5000     18.9396     -8.6094     15.7150   -999.2500
  1709.7500     20.1019     -8.8637     16.4664   -999.2500
  1710.0000     21.2405     -8.7128     17.2593   -999.2500
  1710.2500     22.2267     -8.2073     18.0186   -999.2500
  1710.5000     22.9641     -7.4307     18.6622   -999.2500
  1710.7500     23.4141     -6.4785     19.1172   -999.2500
  1711.0000     23.5932     -5.4441     19.3421   -999.2500
  1711.2500     23.5534     -4.4118     19.3447   -999.2500
  1711.5000     23.3617     -3.4516     19.1840   -999.2500
  1711.7500     23.0874     -2.6134     18.9494   -999.2500
  1712.0000     22.7973     -1.9230     18.7264   -999.2500
  1712.2500     22.5466     -1.3837     18.5680   -999.2500
  1712.5000     22.3623     -0.9824     18.4839   -999.2500
  1712.7500     22.2367     -0.6990     18.4496   -999.2500
  1713.0000     22.1438     -0.5141     18.4301   -999.2500
  1713.2500     22.0632     -0.4131     18.4035   -999.2500
  1713.5000     21.9847     -0.3869     18.3718   -999.2500
  1713.7500     21.8978     -0.4294     18.3520   -999.2500
  1714.0000     21.7868     -0.5361     18.3588   -999.2500
  1714.2500     21.6401     -0.7004     18.3925   -999.2500
  1714.5000     21.4598     -0.9118     18.4383   -999.2500
  1714.7500     21.2596     -1.1524     18.4724   -999.2500
  1715.0000     21.0555     -1.3977     18.4679   -999.2500
  1715.2500     20.8541     -1.6221     18.3992   -999.2500
  1715.5000     20.6499     -1.8107     18.2486   -999.2500
  1715.7500     20.4331     -1.9711     18.0155   -999.2500
  1716.0000     20.2072     -2.1381     17.7235   -999.2500
  1716.2500     19.9991     -2.3660     17.4185   -999.2500
  1716.5000     19.8458     -2.7089     17.1557   -999.2500
  1716.7500     19.7639     -3.1962     16.9814   -999.2500
  1717.0000     19.7272     -3.8133     16.9155   -999.2500
  1717.2500     19.6722     -4.4951     16.9408   -999.2500
  1717.5000     19.5305     -5.1350     17.0032   -999.2500
  1717.7500     19.2681     -5.6084     17.0263   -999.2500
  1718.0000     18.9108     -5.8063     16.9401   -999.2500
  1718.2500     18.5353     -5.6728     16.7129   -999.2500
  1718.5000     18.2329     -5.2349     16.3682   -999.2500
  1718.7500     18.0660     -4.6132     15.9744   -999.2500
  1719.0000     18.0470     -4.0047     15.6138   -999.2500
  1719.2500     18.1491     -3.6400     15.3535   -999.2500
  1719.5000     18.3284     -3.7257     15.2301   -999.2500
  1719.7500     18.5414     -4.3931     15.2494   -999.2500
  1720.0000     18.7499     -5.6693     15.3925   -999.2500
  1720.2500     18.9220     -7.4770     15.6239   -999.2500
  1720.5000     19.0413     -9.6591     15.8974   -999.2500
  1720.7500     19.1255    -12.0148     16.1644   -999.2500
  1721.0000     19.2370    -14.3332     16.3849   -999.2500
  1721.2500     19.4645    -16.4168     16.5445   -999.2500
  1721.5000     19.8726    -18.0943     16.6647   -999.2500
  1721.7500     20.4494    -19.2282     16.7915   -999.2500
  1722.0000     21.0874    -19.7233     16.9597   -999.2500
  1722.2500     21.6122    -19.5395     17.1554   -999.2500
  1722.5000     21.8470    -18.7027     17.3013   -999.2500
  1722.7500     21.6876    -17.3073     17.2852   -999.2500
