~Version Information
VERS.                      2.0: CWLS Log ASCII Standard - VERSION 2.0
WRAP.                       NO: One line per depth step
~Well Information Block
STRT.FT               846.5000: 
STOP.FT              2610.0000: 
STEP.FT                 0.2500: 
NULL.                -999.2500: 
COMP.          Petrogulf Corporation: COMPANY
WELL.            Lavedure 7-44: WELL
FLD.           Purgatoire River: FIELD
LOC.           969' FSL & 501' FEL: LOCATION
PROV.                 Colorado: PROVINCE
CNTY.               Las Animas: COUNTRY
SRVC.                Patterson: SERVICE COMPANY
DATE.          Sun Dec 07 15:26:03 2003: LOG DATE
UWI.                          : UNIQUE WELL ID
~Curve Information Block
DEPT.FT            0 000 00 00: Depth
SP.mV                         : DIL Spontaneous Potential
RILD.Ohm-m                    : DIL Deep Resistivity
RILM.Ohm-m                    : DIL Medium Resistivity
RLL3.Ohm-m                    : DIL Shallow Resistivity
GR.GAPI                       : Gamma Ray
~Parameter Information Block
~A  Depth        SP         RILD        RILM        RLL3         GR     
# ...
  1658.5000   -643.4321     22.7261     24.6785     27.8712     54.2541
  1658.7500   -643.3864     23.3040     24.9760     28.1622     53.5446
  1659.0000   -643.3764     23.9946     25.2963     28.4261     51.4855
  1659.2500   -643.3713     24.7754     25.6423     28.6509     50.0840
  1659.5000   -643.3310     25.6373     26.0255     28.8856     48.3822
  1659.7500   -643.2132     26.5747     26.4589     29.2506     47.3453
  1660.0000   -642.9790     27.5584     26.9483     29.8724     45.5895
  1660.2500   -642.6038     28.5155     27.4885     30.7942     44.3212
  1660.5000   -642.0864     29.3456     28.0697     31.9430     42.7143
  1660.7500   -641.4547     29.9723     28.6873     33.1662     42.1061
  1661.0000   -640.7681     30.3853     29.3462     34.3014     41.9273
  1661.2500   -640.1152     30.6260     30.0582     35.2347     42.0621
  1661.5000   -639.5894     30.7322     30.8354     35.9262     42.2438
  1661.7500   -639.2483     30.6918     31.6807     36.4092     42.3204
  1662.0000   -639.0776     30.4339     32.5757     36.8197     42.6019
  1662.2500   -638.9955     29.8589     33.4634     37.4638     42.9888
  1662.5000   -638.8961     28.8868     34.2276     38.8196     43.5554
  1662.7500   -638.7003     27.5019     34.6779     41.3783     43.5128
  1663.0000   -638.3819     25.7718     34.5600     45.3823     42.3394
  1663.2500   -637.9659     23.8301     33.6295     50.5595     40.9719
  1663.5000   -637.5111     21.8346     31.7875     55.8523     39.0592
  1663.7500   -637.0829     19.9221     29.1859     59.3032     38.7500
  1664.0000   -636.7303     18.1800     26.1780     58.6335     41.4697
  1664.2500   -636.4789     16.6426     23.1445     52.6905     46.3519
  1664.5000   -636.3420     15.3034     20.3546     42.6703     58.9874
  1664.7500   -636.3363     14.1348     17.9376     31.6415     70.3506
  1665.0000   -636.4877     13.1042     15.9221     22.5735     88.9975
  1665.2500   -636.8206     12.1852     14.2805     16.7394    100.5565
  1665.5000   -637.3342     11.3624     12.9584     13.7227    114.5613
  1665.7500   -637.9782     10.6313     11.8940     12.4332    121.5742
  1666.0000   -638.6482      9.9944     11.0317     11.9474    129.3449
  1666.2500   -639.2137      9.4561     10.3303     11.7381    133.0669
  1666.5000   -639.5660      9.0195      9.7636     11.5727    136.8392
  1666.7500   -639.6579      8.6848      9.3166     11.3890    138.3624
  1667.0000   -639.5207      8.4495      8.9803     11.2074    139.4259
  1667.2500   -639.2505      8.3094      8.7465     11.0570    139.3238
  1667.5000   -638.9658      8.2579      8.6079     10.9412    138.0403
  1667.7500   -638.7469      8.2863      8.5604     10.8625    136.7451
  1668.0000   -638.5964      8.3829      8.6074     10.8659    134.7544
  1668.2500   -638.4510      8.5336      8.7608     11.0801    133.3136
  1668.5000   -638.2274      8.7242      9.0364     11.7706    129.9930
  1668.7500   -637.8594      8.9426      9.4453     13.3975    126.4915
  1669.0000   -637.3134      9.1813      9.9843     16.5601    119.4736
  1669.2500   -636.5930      9.4403     10.6279     21.6555    114.2125
  1669.5000   -635.7430      9.7278     11.3260     28.2746    106.2762
  1669.7500   -634.8494     10.0593     12.0130     34.7948    101.0407
  1670.0000   -634.0289     10.4525     12.6353     38.8460     93.3502
  1670.2500   -633.4023     10.9182     13.1806     38.7153     88.7591
  1670.5000   -633.0501     11.4533     13.6864     34.6599     83.9266
  1670.7500   -632.9707     12.0390     14.2132     28.8415     82.6749
  1671.0000   -633.0718     12.6454     14.8066     23.8360     83.8655
  1671.2500   -633.2124     13.2387     15.4727     21.0924     86.0660
  1671.5000   -633.2693     13.7849     16.1766     20.5433     89.6332
  1671.7500   -633.1851     14.2491     16.8613     21.2448     91.3516
  1672.0000   -632.9733     14.5974     17.4738     22.1962     92.6861
  1672.2500   -632.6944     14.8087     17.9846     22.8385     92.9103
  1672.5000   -632.4240     14.8918     18.3910     23.2004     92.0810
  1672.7500   -632.2244     14.8915     18.7029     23.7237     90.6204
  1673.0000   -632.1239     14.8722     18.9272     24.8086     87.9129
  1673.2500   -632.1137     14.8923     19.0612     26.3308     86.7987
  1673.5000   -632.1714     14.9878     19.0996     27.5380     87.3722
  1673.7500   -632.2974     15.1714     19.0490     27.5433     89.1210
  1674.0000   -632.5251     15.4375     18.9409     26.0903     92.8032
  1674.2500   -632.8945     15.7673     18.8330     23.8594     95.5610
  1674.5000   -633.4203     16.1304     18.7924     21.9448     99.9119
  1674.7500   -634.0826     16.4870     18.8719     21.0191    102.6999
  1675.0000   -634.8148     16.7914     19.0894     21.0203    105.6789
  1675.2500   -635.4886     17.0016     19.4210     21.5583    106.2153
  1675.5000   -635.9435     17.0958     19.8073     22.4853    104.6775
  1675.7500   -636.0676     17.0854     20.1710     24.0181    102.6909
  1676.0000   -635.8692     17.0113     20.4397     26.3164     99.5394
  1676.2500   -635.4732     16.9234     20.5665     28.9447     97.6174
  1676.5000   -635.0500     16.8565     20.5399     30.8197     94.7008
  1676.7500   -634.7273     16.8202     20.3836     30.8977     92.5177
  1677.0000   -634.5350     16.8043     20.1468     29.0611     89.2655
  1677.2500   -634.4103     16.7913     19.8899     26.2550     87.9028
  1677.5000   -634.2488     16.7655     19.6711     23.6841     88.5895
  1677.7500   -633.9617     16.7092     19.5361     21.9594     91.1048
  1678.0000   -633.5035     16.5947     19.5081     21.0280     96.7810
  1678.2500   -632.8721     16.3859     19.5792     20.6840    100.6430
  1678.5000   -632.1042     16.0595     19.7034     20.9220    104.6291
  1678.7500   -631.2753     15.6270     19.8002     21.8328    105.4227
  1679.0000   -630.4838     15.1299     19.7709     23.3193    104.1278
  1679.2500   -629.8151     14.6090     19.5270     24.9814    102.6299
  1679.5000   -629.3134     14.0806     19.0165     26.2539    101.5191
  1679.7500   -628.9785     13.5398     18.2401     26.6620    102.2343
  1680.0000   -628.7743     12.9839     17.2502     26.0048    105.3706
  1680.2500   -628.6409     12.4284     16.1363     24.3639    108.2744
  1680.5000   -628.5222     11.9013     14.9995     22.0038    112.8376
  1680.7500   -628.3980     11.4261     13.9279     19.2923    115.6889
  1681.0000   -628.2925     11.0110     12.9811     16.6535    119.6096
  1681.2500   -628.2509     10.6507     12.1877     14.4710    122.1133
  1681.5000   -628.2991     10.3357     11.5513     12.9578    126.0304
  1681.7500   -628.4196     10.0599     11.0595     12.1082    128.9331
  1682.0000   -628.5691      9.8207     10.6923     11.7666    133.7260
  1682.2500   -628.7182      9.6166     10.4274     11.7283    136.8982
  1682.5000   -628.8777      9.4435     10.2435     11.8047    140.7876
  1682.7500   -629.0943      9.2939     10.1230     11.8696    142.4791
  1683.0000   -629.4257      9.1595     10.0544     11.9055    143.6939
  1683.2500   -629.9077      9.0347     10.0341     12.0133    143.8313
  1683.5000   -630.5289      8.9193     10.0639     12.3404    143.2173
  1683.7500   -631.2313      8.8173     10.1431     12.9605    142.0799
  1684.0000   -631.9285      8.7325     10.2595     13.7979    138.6665
  1684.2500   -632.5234      8.6653     10.3874     14.6515    135.1563
  1684.5000   -632.9191      8.6141     10.4947     15.2944    129.0072
  1684.7500   -633.0449      8.5789     10.5561     15.5794    125.4027
  1685.0000   -632.8935      8.5644     10.5622     15.4923    122.4541
  1685.2500   -632.5334      8.5761     10.5177     15.1246    122.5742
  1685.5000   -632.0757      8.6135     10.4343     14.5941    125.5423
  1685.7500   -631.6155      8.6642     10.3256     13.9848    128.7373
  1686.0000   -631.1874      8.7058     10.2069     13.3518    133.9841
  1686.2500   -630.7595      8.7152     10.0955     12.7630    137.0754
