~Version Information
VERS.                      2.0: CWLS Log ASCII Standard - VERSION 2.0
WRAP.                       NO: One line per depth step
~Well Information Block
STRT.FT                -9.7500: 
STOP.FT              2374.2500: 
STEP.FT                 0.2500: 
NULL.                -999.2500: 
COMP.          Pioneer Natural Resources: COMPANY
WELL.            Chevron 13-13: WELL
FLD.           Purgatorie River: FIELD
LOC.           1560' FSL & 711' FWL--: LOCATION
CNTY.               Las Animas: COUNTY
SRVC.          Superior Well Services: SERVICE COMPANY
DATE.          Wed Apr 11 08:47:55 2007: LOG DATE
UWI.           05 071 08319 00: UNIQUE WELL ID
STAT.                       CO: STATE
~Curve Information Block
DEPT.FT            0 000 00 00: Depth
CCL.                          : Casing Collar Locator
TT3.usec                      : CBL 3' Travel Time
AMP3.mV                       : CBL 3' Amplitude
GR.GAPI                       : Gamma Ray
~Parameter Information Block
~A  Depth       CCL         TT3         AMP3         GR     
# ...
  1095.7500      0.0000    606.7701      3.9620     67.1276
  1096.0000      0.0000    646.8138      3.9417     65.9733
  1096.2500      0.0000    680.1978      3.9203     65.1412
  1096.5000      0.0000    702.1711      3.8969     64.7106
  1096.7500      0.0000    710.1287      3.8854     65.1859
  1097.0000      0.0000    701.8813      3.9010     67.2814
  1097.2500      0.0000    676.4174      3.9481     71.2767
  1097.5000      0.0000    636.2474      4.0181     76.2376
  1097.7500      0.0000    588.4432      4.0959     80.0189
  1098.0000      0.0000    543.4975      4.1697     80.8413
  1098.2500      0.0000    512.7648      4.2366     79.1284
  1098.5000      0.0000    505.1390      4.2987     77.2768
  1098.7500      0.0000    523.5898      4.3555     77.5057
  1099.0000      0.0000    562.8445      4.4062     80.3972
  1099.2500      0.0000    610.5297      4.4559     85.5281
  1099.5000      0.0000    653.0732      4.5099     92.8724
  1099.7500      0.0000    682.9148      4.5636    103.1300
  1100.0000      0.0000    700.8971      4.6048    116.6914
  1100.2500      0.0000    712.4338      4.6291    132.4502
  1100.5000      0.0000    722.0234      4.6484    147.6173
  1100.7500      0.0000    730.5824      4.6846    158.7875
  1101.0000      0.0000    735.9308      4.7535    163.6482
  1101.2500      0.0000    734.1257      4.8482    162.3442
  1101.5000      0.0000    720.4664      4.9391    157.6034
  1101.7500      0.0000    691.6878      4.9933    153.2290
  1102.0000      0.0000    650.1954      4.9985    151.7993
  1102.2500      0.0000    606.0157      4.9722    153.4706
  1102.5000      0.0000    571.1236      4.9539    156.6945
  1102.7500      0.0000    549.9262      4.9882    159.6470
  1103.0000      0.0000    537.0891      5.1003    161.0240
  1103.2500      0.0000    525.6188      5.2785    160.1343
  1103.5000      0.0000    514.9094      5.4823    156.8785
  1103.7500      0.0000    509.5064      5.6707    151.8004
  1104.0000      0.0000    511.5362      5.8174    145.8640
  1104.2500      0.0000    515.9622      5.9007    140.0717
  1104.5000      0.0000    513.9260      5.8969    135.2981
  1104.7500      0.0000    501.4124      5.7935    132.1185
  1105.0000      0.0000    484.3724      5.6061    130.4347
  1105.2500      0.0000    474.9085      5.3786    129.5700
  1105.5000      0.0000    483.2686      5.1666    128.9789
  1105.7500      0.0000    512.7224      5.0141    128.5384
  1106.0000      0.0000    558.4656      4.9337    128.0859
  1106.2500      0.0000    609.3691      4.9057    127.4201
  1106.5000      0.0000    653.0980      4.8970    127.0998
  1106.7500      0.0000    682.4722      4.8793    128.4721
  1107.0000      0.0000    697.8298      4.8330    132.1837
  1107.2500      0.0000    703.9334      4.7434    136.9653
  1107.5000      0.0000    705.6268      4.6039    140.5442
  1107.7500      0.0000    705.8507      4.4236    141.6765
  1108.0000      0.0000    705.8680      4.2268    140.7363
  1108.2500      0.0000    706.0258      4.0419    138.7016
  1108.5000      0.0000    706.2551      3.8858    136.6964
  1108.7500      0.0000    706.4014      3.7596    136.5184
  1109.0000      0.0000    706.5458      3.6574    140.0328
  1109.2500      0.0000    707.3361      3.5773    146.9534
  1109.5000      0.0000    710.0560      3.5202    153.9354
  1109.7500      0.0000    716.0306      3.4817    157.0492
  1110.0000      0.0000    725.3956      3.4509    155.3556
  1110.2500      0.0000    736.3271      3.4192    151.5911
  1110.5000      0.0000    746.1367      3.3850    149.0895
  1110.7500      0.0000    753.4427      3.3506    148.4209
  1111.0000      0.0000    758.5390      3.3193    147.5261
  1111.2500      0.0000    761.2251      3.2952    144.7844
  1111.5000      0.0000    759.4775      3.2841    141.0326
  1111.7500      0.0000    751.4944      3.2950    138.5010
  1112.0000      0.0000    738.5247      3.3359    138.5304
  1112.2500      0.0000    724.6074      3.4069    140.5252
  1112.5000      0.0000    713.5899      3.4985    142.6819
  1112.7500      0.0000    706.7169      3.6015    143.4287
  1113.0000      0.0000    702.3789      3.7194    142.1515
  1113.2500      0.0000    696.9975      3.8671    138.9181
  1113.5000      0.0000    686.1058      4.0580    134.2385
  1113.7500      0.0000    666.3455      4.2860    129.1458
  1114.0000      0.0000    638.8038      4.5167    124.8008
  1114.2500      0.0000    610.2953      4.6942    121.5819
  1114.5000      0.0000    588.6442      4.7695    118.8206
  1114.7500      0.0000    575.2488      4.7354    115.7069
  1115.0000      0.0000    563.9908      4.6396    112.2890
  1115.2500      0.0000    548.1339      4.5553    109.3962
  1115.5000      0.0000    526.4230      4.5322    107.7932
  1115.7500      0.0000    502.3875      4.5759    107.7373
  1116.0000     -2.0000    480.5278      4.6673    109.3240
  1116.2500      0.0000    464.6537      4.7889    112.8500
  1116.5000      0.0000    458.9880      4.9335    118.4195
  1116.7500      0.0000    469.0186      5.0971    125.2552
  1117.0000      0.0000    498.7937      5.2626    131.7807
  1117.2500      0.0000    545.2689      5.3841    136.4267
  1117.5000      0.0000    595.9010      5.4022    138.2081
  1117.7500      0.0000    634.8839      5.2983    136.6278
  1118.0000      0.0000    653.7321      5.1305    131.5191
  1118.2500      0.0000    655.3123      4.9945    123.4106
  1118.5000      0.0000    647.6697      4.9565    114.1170
  1118.7500      0.0000    635.4336      5.0326    106.6299
  1119.0000      0.0000    618.0295      5.2112    103.8837
  1119.2500      0.0000    594.8086      5.4672    107.0749
  1119.5000      0.0000    570.3095      5.7571    114.8083
  1119.7500      0.0000    554.4957      6.0202    123.9109
  1120.0000      0.0000    557.4786      6.2032    131.3840
  1120.2500      0.0000    581.9424      6.2930    135.8454
  1120.5000      0.0000    619.7800      6.3271    137.5540
  1120.7500      0.0000    657.2684      6.3661    137.7389
  1121.0000      0.0000    684.3680      6.4520    137.7169
  1121.2500      0.0000    699.2454      6.5857    137.7176
  1121.5000      0.0000    705.5281      6.7357    136.5040
  1121.7500      0.0000    707.4693      6.8631    132.9750
  1122.0000      0.0000    707.6697      6.9431    128.2865
  1122.2500      0.0000    707.3265      6.9747    125.7114
  1122.5000      0.0000    707.0380      6.9750    128.1637
  1122.7500      0.0000    707.1213      6.9607    136.0743
  1123.0000      0.0000    707.6188      6.9316    147.4236
  1123.2500      0.0000    708.3177      6.8758    159.1324
  1123.5000      0.0000    708.8839      6.7908    168.2160
  1123.7500      0.0000    708.9584      6.6944    172.5577
  1124.0000      0.0000    708.1442      6.6112    171.8857
  1124.2500      0.0000    705.8918      6.5532    168.3683
  1124.5000      0.0000    701.5062      6.5166    165.5163
  1124.7500      0.0000    694.0614      6.4938    165.6367
  1125.0000      0.0000    682.3077      6.4836    167.8498
  1125.2500      0.0000    665.4468      6.4883    168.7333
  1125.5000      0.0000    645.2387      6.5055    165.5902
  1125.7500      0.0000    627.2800      6.5290    159.1408
  1126.0000      0.0000    618.8221      6.5587    152.4568
  1126.2500      0.0000    624.0912      6.6099    147.6922
  1126.5000      0.0000    640.7394      6.7076    144.6393
  1126.7500      0.0000    660.2466      6.8677    141.8689
  1127.0000      0.0000    672.4766      7.0816    138.3927
  1127.2500      0.0000    671.4802      7.3200    134.4513
  1127.5000      0.0000    658.1312      7.5501    131.0385
  1127.7500      0.0000    637.5109      7.7465    128.5739
  1128.0000      0.0000    613.3062      7.8905    126.3395
  1128.2500      0.0000    585.1281      7.9680    123.6806
  1128.5000      0.0000    552.2302      7.9719    121.3468
  1128.7500      0.0000    518.6197      7.9040    120.8670
  1129.0000      0.0000    492.2497      7.7785    122.4622
