~Version Information
VERS.                      2.0: CWLS Log ASCII Standard - VERSION 2.0
WRAP.                       NO: One line per depth step
~Well Information Block
STRT.FT                -4.2500: 
STOP.FT              2018.7500: 
STEP.FT                 0.2500: 
NULL.                -999.2500: 
COMP.          Petrogulf Corporation: COMPANY
WELL.             State 16-21R: WELL
FLD.           Purgatoire River: FIELD
LOC.           203' FNL & 1560' FWL----: LOCATION
PROV.                 Colorado: PROVINCE
CNTY.               Las Animas: COUNTRY
SRVC.                         : SERVICE COMPANY
DATE.          Thu Sep 29 11:32:19 2005: LOG DATE
API.           05-071-08313 : API Number
~Curve Information Block
DEPT.FT            0 000 00 00: Depth
GR.GAPI                       : Gamma Ray
CCL.                          : Casing Collar Locator
AMP3.mV                       : CBL 3' Amplitude
AMP5.mV                       : CBL 5' Amplitude
~Parameter Information Block
~A  Depth        GR         CCL         AMP3        AMP5    
# ...
   263.7500     58.4836      0.0000      5.0033      0.5472
   264.0000     61.6869      0.0000      4.8322      0.5293
   264.2500     68.0681      0.0000      4.6281      0.4947
   264.5000     76.6444      0.0000      4.3981      0.4392
   264.7500     86.3205      0.0000      4.1620      0.3725
   265.0000     96.3008      0.0000      3.9445      0.3149
   265.2500    105.2319      0.0000      3.7612      0.2855
   265.5000    110.7725      0.0000      3.6169      0.2888
   265.7500    110.9769      0.0000      3.5142      0.3117
   266.0000    106.1172      0.0000      3.4566      0.3340
   266.2500     98.7489      0.0000      3.4453      0.3426
   266.5000     91.9778      0.0000      3.4760      0.3372
   266.7500     87.6239      0.0000      3.5383      0.3257
   267.0000     85.4706      0.0000      3.6166      0.3157
   267.2500     83.7932      0.0000      3.6933      0.3087
   267.5000     80.7669      0.0000      3.7554      0.3041
   267.7500     75.7933      0.0000      3.7987      0.3042
   268.0000     69.6882      0.0000      3.8299      0.3131
   268.2500     63.7547      0.0000      3.8640      0.3291
   268.5000     58.9579      0.0000      3.9126      0.3420
   268.7500     55.9543      0.0000      3.9671      0.3400
   269.0000     55.3171      0.0000      3.9931      0.3192
   269.2500     57.2538      0.0000      3.9471      0.2851
   269.5000     61.3041      0.0000      3.8043      0.2491
   269.7500     66.6399      0.0000      3.5765      0.2225
   270.0000     72.4783      0.0000      3.3110      0.2111
   270.2500     77.9448      0.0000      3.0688      0.2102
   270.5000     81.8587      0.0000      2.8940      0.2066
   270.7500     83.2527      0.0000      2.7962      0.1891
   271.0000     82.2804      0.0000      2.7581      0.1598
   271.2500     80.4626      0.0000      2.7508      0.1324
   271.5000     79.8903      0.0000      2.7444      0.1204
   271.7500     81.9270      0.0000      2.7148      0.1262
   272.0000     86.3077      0.0000      2.6578      0.1436
   272.2500     91.3999      0.0000      2.5948      0.1637
   272.5000     95.4422      0.0000      2.5592      0.1803
   272.7500     97.4086      0.0000      2.5739      0.1916
   273.0000     96.8040      0.0000      2.6418      0.1978
   273.2500     93.3868      0.0000      2.7534      0.1980
   273.5000     87.5100      0.0000      2.8994      0.1896
   273.7500     80.3065      0.0000      3.0852      0.1725
   274.0000     73.2176      0.0000      3.3465      0.1527
   274.2500     67.3818      0.0000      3.7338      0.1442
   274.5000     63.2262      0.0000      4.2469      0.1636
   274.7500     60.3375      0.0000      4.7927      0.2217
   275.0000     57.8172      0.0000      5.2573      0.3153
   275.2500     55.0012      0.0000      5.6180      0.4258
   275.5000     51.9114      0.0000      5.9479      0.5308
   275.7500     49.1067      0.0000      6.3179      0.6176
   276.0000     47.1811      2.0000      6.7292      0.6874
   276.2500     46.3308      0.0000      7.1343      0.7471
   276.5000     46.3086      0.0000      7.5146      0.8005
   276.7500     46.7623      0.0000      7.9330      0.8489
   277.0000     47.5458      0.0000      8.4690      0.8919
   277.2500     48.8088      0.0000      9.0671      0.9295
   277.5000     51.0975      0.0000      9.5002      0.9683
   277.7500     55.2277      0.0000      9.5655      1.0278
   278.0000     61.5848      0.0000      9.2945      1.1289
   278.2500     69.5108      0.0000      8.9191      1.2670
   278.5000     77.6851      0.0000      8.6735      1.4010
   278.7500     84.9967      0.0000      8.6613      1.4822
   279.0000     90.7443      0.0000      8.8492      1.4924
   279.2500     94.2173      0.0000      9.1242      1.4512
   279.5000     94.7417      0.0000      9.3742      1.3961
   279.7500     92.3716      0.0000      9.5459      1.3605
   280.0000     88.0940      0.0000      9.6442      1.3601
   280.2500     83.1654      0.0000      9.6911      1.3879
   280.5000     78.5704      0.0000      9.7014      1.4218
   280.7500     75.0861      0.0000      9.6858      1.4421
   281.0000     73.1940      0.0000      9.6591      1.4444
   281.2500     72.6483      0.0000      9.6344      1.4380
   281.5000     72.5122      0.0000      9.6138      1.4352
   281.7500     71.7723      0.0000      9.5897      1.4397
   282.0000     69.8517      0.0000      9.5541      1.4458
   282.2500     66.8265      0.0000      9.5011      1.4420
   282.5000     63.4858      0.0000      9.4252      1.4201
   282.7500     61.0014      0.0000      9.3310      1.3832
   283.0000     60.1699      0.0000      9.2427      1.3452
   283.2500     60.9159      0.0000      9.1933      1.3188
   283.5000     62.6151      0.0000      9.2005      1.3048
   283.7500     64.7579      0.0000      9.2564      1.2940
   284.0000     67.2088      0.0000      9.3359      1.2796
   284.2500     70.0461      0.0000      9.4100      1.2634
   284.5000     73.3443      0.0000      9.4574      1.2504
   284.7500     77.0943      0.0000      9.4676      1.2400
   285.0000     81.2254      0.0000      9.4356      1.2269
   285.2500     85.5296      0.0000      9.3629      1.2069
   285.5000     89.4543      0.0000      9.2665      1.1831
   285.7500     92.2296      0.0000      9.1769      1.1650
   286.0000     93.5843      0.0000      9.1166      1.1624
   286.2500     94.2427      0.0000      9.0849      1.1746
   286.5000     95.3671      0.0000      9.0653      1.1870
   286.7500     97.4223      0.0000      9.0448      1.1804
   287.0000     99.6997      0.0000      9.0222      1.1480
   287.2500    101.1358      0.0000      8.9994      1.1036
   287.5000    101.5906      0.0000      8.9726      1.0727
   287.7500    101.9449      0.0000      8.9332      1.0749
   288.0000    102.7893      0.0000      8.8743      1.1091
   288.2500    103.4770      0.0000      8.7932      1.1543
   288.5000    102.8467      0.0000      8.6954      1.1849
   288.7500    100.5651      0.0000      8.5921      1.1886
   289.0000     97.3950      0.0000      8.4905      1.1691
   289.2500     94.4391      0.0000      8.3872      1.1372
   289.5000     92.5568      0.0000      8.2826      1.1020
   289.7500     92.3245      0.0000      8.1934      1.0691
   290.0000     93.9481      0.0000      8.1411      1.0394
   290.2500     96.9326      0.0000      8.1247      1.0094
   290.5000    100.0225      0.0000      8.1140      0.9768
   290.7500    101.8145      0.0000      8.0653      0.9466
   291.0000    101.7071      0.0000      7.9436      0.9270
   291.2500    100.3806      0.0000      7.7395      0.9179
   291.5000     99.2372      0.0000      7.4825      0.9090
   291.7500     99.1652      0.0000      7.2381      0.8903
   292.0000     99.8574      0.0000      7.0793      0.8642
   292.2500    100.3269      0.0000      7.0469      0.8442
   292.5000     99.8329      0.0000      7.1308      0.8446
   292.7500     98.2184      0.0000      7.2818      0.8673
   293.0000     95.7436      0.0000      7.4391      0.9014
   293.2500     92.9083      0.0000      7.5564      0.9337
   293.5000     90.2400      0.0000      7.6153      0.9585
   293.7500     87.9174      0.0000      7.6268      0.9786
   294.0000     85.5548      0.0000      7.6221      0.9985
   294.2500     82.6006      0.0000      7.6359      1.0202
   294.5000     79.0778      0.0000      7.6893      1.0452
   294.7500     75.7970      0.0000      7.7834      1.0737
   295.0000     73.6801      0.0000      7.9047      1.0999
   295.2500     72.9230      0.0000      8.0319      1.1116
   295.5000     72.7694      0.0000      8.1393      1.1007
   295.7500     72.0543      0.0000      8.2040      1.0737
   296.0000     70.2349      0.0000      8.2165      1.0504
   296.2500     68.1313      0.0000      8.1822      1.0500
   296.5000     67.5137      0.0000      8.1092      1.0766
   296.7500     69.7244      0.0000      8.0047      1.1156
   297.0000     74.5810      0.0000      7.8886      1.1453
