~Version Information
VERS.                      2.0: CWLS Log ASCII Standard - VERSION 2.0
WRAP.                       NO: One line per depth step
~Well Information Block
STRT.FT               550.0000: 
STOP.FT              2042.5000: 
STEP.FT                 0.1000: 
NULL.                -999.2500: 
COMP.          Petrogulf Corporation: COMPANY
WELL.          Robinson 15-12V: WELL
FLD.           Purgatorie River: FIELD
LOC.           1788' FNL & 466' FWL: LOCATION
PROV.                 Colorado: PROVINCE
CNTY.               Las Animas: COUNTRY
SRVC.                Patterson: SERVICE COMPANY
DATE.          Mon Sep 12 10:04:59 2005: LOG DATE
UWI.                          : UNIQUE WELL ID
~Curve Information Block
DEPT.FT            0 000 00 00: Depth
DCAL.in                       : CDL Caliper
RHOB.g/cc                     : CDL Bulk Density
RHOC.g/cc                     : CDL Density Correction
DPOR.pu                       : CDL Density Porosity
GR.GAPI                       : Gamma Ray
NPOR.pu                       : Neutron Porosity
~Parameter Information Block
~A  Depth       DCAL        RHOB        RHOC        DPOR         GR         NPOR    
# ...
   838.0000      8.1507      2.4202      0.0426     13.9260    191.5060     24.5872
   838.1000      8.1507      2.4315      0.0565     13.2414    187.2041     24.7811
   838.2000      8.1507      2.4611      0.0418     11.4460    181.6192     24.9009
   838.3000      8.1427      2.4978      0.0751      9.2242    178.7472     24.8982
   838.4000      8.1427      2.5238      0.1160      7.6459    177.7015     24.8844
   838.5000      8.1596      2.5377      0.0703      6.8031    176.0585     24.9357
   838.6000      8.1596      2.5534      0.1040      5.8563    172.9762     24.9820
   838.7000      8.1596      2.5710      0.0975      4.7881    168.5880     24.8970
   838.8000      8.1643      2.5775      0.1104      4.3924    164.4671     24.6937
   838.9000      8.1643      2.5609      0.1477      5.3997    162.2734     24.6668
   839.0000      8.1525      2.5198      0.0486      7.8904    162.3310     24.9772
   839.1000      8.1525      2.4738     -0.0584     10.6818    162.4113     25.4481
   839.2000      8.1525      2.4457     -0.0330     12.3846    159.7870     25.8019
   839.3000      8.1611      2.4348     -0.0121     13.0437    154.5074     25.7616
   839.4000      8.1611      2.4182     -0.0404     14.0497    148.9516     25.3291
   839.5000      8.1781      2.3767     -0.0463     16.5632    145.9190     24.8464
   839.6000      8.1781      2.3205     -0.0445     19.9719    147.9656     24.5357
   839.7000      8.1781      2.2834     -0.0521     22.2159    153.0137     24.2284
   839.8000      8.1826      2.2831     -0.0288     22.2350    155.3528     23.6798
   839.9000      8.1826      2.2968      0.0383     21.4082    153.4692     22.8730
   840.0000      8.1829      2.3006      0.0163     21.1743    149.4638     22.0184
   840.1000      8.1829      2.2977      0.1239     21.3510    146.2064     21.2145
   840.2000      8.1829      2.2767      0.2266     22.6221    144.4734     20.2683
   840.3000      8.2182      2.2159      0.1976     26.3063    142.8668     19.1280
   840.4000      8.2182      2.1259      0.1908     31.7641    140.2869     18.0314
   840.5000      8.2158      2.0196      0.3091     38.2032    135.1778     17.0511
   840.6000      8.2158      1.8958      0.1176     45.7063    128.4149     16.1115
   840.7000      8.2158      1.7769      0.0122     52.9171    124.0641     15.3274
   840.8000      8.2378      1.6796      0.0419     58.8104    123.1550     14.7937
   840.9000      8.2378      1.5888      0.0320     64.3157    122.1313     14.4273
   841.0000      8.3524      1.5061      0.0105     69.3251    118.6965     14.0473
   841.1000      8.3524      1.4633      0.0400     71.9223    114.6496     13.6002
   841.2000      8.3524      1.4769      0.1205     71.0989    113.1018     13.5172
   841.3000      8.6763      1.5378      0.1335     67.4090    114.5240     14.1617
   841.4000      8.6763      1.6271      0.1798     61.9930    115.8775     15.0885
   841.5000      8.7303      1.7159      0.1937     56.6135    114.9261     15.8830
   841.6000      8.7303      1.7779      0.1953     52.8529    113.7502     16.8369
   841.7000      8.7303      1.8117      0.2215     50.8050    115.7314     18.0789
   841.8000      8.4109      1.8399      0.2109     49.0958    120.7058     19.2400
   841.9000      8.4109      1.8848      0.2494     46.3786    125.5280     20.0000
   842.0000      8.5032      1.9426      0.2342     42.8734    128.4132     20.3793
   842.1000      8.5032      1.9851      0.1636     40.2960    129.8119     20.5032
   842.2000      8.5032      1.9810      0.1028     40.5455    129.8786     20.5375
   842.3000      8.3011      1.9212      0.0515     44.1715    127.0929     20.7181
   842.4000      8.3011      1.8304     -0.0290     49.6729    122.8197     20.8951
   842.5000      8.2993      1.7539     -0.0552     54.3113    121.0023     20.8491
   842.6000      8.2993      1.7143      0.0419     56.7084    121.0285     20.8287
   842.7000      8.2993      1.6914      0.0485     58.0944    119.9197     20.9233
   842.8000      8.3289      1.6615      0.0228     59.9084    117.6838     20.6792
   842.9000      8.3289      1.6196      0.0146     62.4455    116.0180     19.9271
   843.0000      8.3534      1.5685     -0.0116     65.5474    115.4728     18.9422
   843.1000      8.3534      1.5120      0.0463     68.9697    114.1782     17.9682
   843.2000      8.3534      1.4524      0.0675     72.5809    110.8091     17.0655
   843.3000      8.3976      1.3992      0.0098     75.8055    106.3399     16.0487
   843.4000      8.3976      1.3702      0.0705     77.5646    103.2541     14.8781
   843.5000      8.5603      1.3705      0.0883     77.5437    101.4004     13.9112
   843.6000      8.5603      1.3879      0.1440     76.4920     97.7792     13.3221
   843.7000      8.5603      1.4073      0.1791     75.3154     93.0989     12.9639
   843.8000      8.9638      1.4226      0.2022     74.3871     90.3858     12.8297
   843.9000      8.9638      1.4316      0.2586     73.8408     89.5319     12.9321
   844.0000      9.1661      1.4331      0.2742     73.7538     89.3210     12.9055
   844.1000      9.1661      1.4374      0.2340     73.4918     88.4258     12.4760
   844.2000      9.1661      1.4507      0.2648     72.6853     85.7709     11.9062
   844.3000      8.9428      1.4512      0.2530     72.6537     83.5088     11.3896
   844.4000      8.9428      1.4271      0.1142     74.1157     83.8091     10.9037
   844.5000      8.6921      1.4047      0.1564     75.4702     86.1633     10.5013
   844.6000      8.6921      1.4088      0.2073     75.2257     89.5992     10.1431
   844.7000      8.6921      1.4369      0.2616     73.5183     92.2829      9.7756
   844.8000      8.8787      1.4795      0.2891     70.9401     92.4972      9.5583
   844.9000      8.8787      1.5306      0.3119     67.8410     93.2923      9.7579
   845.0000      8.9034      1.5844      0.2896     64.5811     98.1074     10.5523
   845.1000      8.9034      1.6386      0.2079     61.2979    105.4364     11.9192
   845.2000      8.9034      1.6876      0.2083     58.3259    112.1528     13.6512
   845.3000      8.7189      1.7182      0.2006     56.4741    116.5726     15.5831
   845.4000      8.7189      1.7268      0.2039     55.9512    120.8798     17.5770
   845.5000      8.5803      1.7205      0.2355     56.3327    126.4012     19.2980
   845.6000      8.5803      1.6992      0.1914     57.6269    127.6051     20.4000
   845.7000      8.5803      1.6499      0.1677     60.6100    121.2175     20.7034
   845.8000      8.4830      1.5636      0.0102     65.8441    111.6219     20.1699
   845.9000      8.4830      1.4544     -0.0124     72.4613    104.0811     18.9759
   846.0000      8.4059      1.3551     -0.0441     78.4777     99.6884     17.4694
   846.1000      8.4059      1.2914      0.0537     82.3422     96.6088     15.7516
   846.2000      8.4059      1.2574      0.2177     84.4013     95.0860     13.8474
   846.3000      8.5683      1.2359      0.2614     85.7037     95.3003     11.9941
   846.4000      8.5683      1.2288      0.2650     86.1332     96.2883     10.3285
   846.5000      8.8608      1.2484      0.2661     84.9428     97.2641      8.9689
   846.6000      8.8608      1.3018      0.2676     81.7064     96.8047      8.2079
   846.7000      8.8608      1.3872      0.3017     76.5352     95.2217      8.1843
   846.8000      8.8221      1.4954      0.3469     69.9750     95.2535      8.6718
   846.9000      8.8221      1.6158      0.3886     62.6818     99.0431      9.4797
   847.0000      8.7845      1.7293      0.4445     55.7988    105.3932     10.8476
   847.1000      8.7845      1.8108      0.4493     50.8627    111.9369     12.9204
   847.2000      8.7845      1.8591      0.3602     47.9345    118.1134     15.1391
   847.3000      8.6437      1.9030      0.2650     45.2713    123.1659     17.1007
   847.4000      8.6437      1.9572      0.3058     41.9856    127.6498     19.0831
   847.5000      8.4149      2.0070      0.2670     38.9695    134.7869     21.0058
