~Version Information
VERS.                      2.0: CWLS Log ASCII Standard - VERSION 2.0
WRAP.                       NO: One line per depth step
~Well Information Block
STRT.FT               682.0000: 
STOP.FT              2190.5000: 
STEP.FT                 0.1000: 
NULL.                -999.2500: 
COMP.          Pioneer Natural Resources: COMPANY
WELL.               King 22-13: WELL
FLD.           Purgatoire River: FIELD
LOC.           2419' FNL & 1806' FWL----: LOCATION
PROV.                 Colorado: PROVINCE
CNTY.               Las Animas: COUNTRY
SRVC.                Patterson: SERVICE COMPANY
DATE.          Fri Apr 01 07:38:12 2005: LOG DATE
UWI.           05 071 08318 00: UNIQUE WELL ID
~Curve Information Block
DEPT.FT            0 000 00 00: Depth
DCAL.in                       : CDL Caliper
RHOB.g/cc                     : CDL Bulk Density
RHOC.g/cc                     : CDL Density Correction
DPOR.pu                       : CDL Density Porosity
NPOR.pu                       : Neutron Porosity
GR.GAPI                       : Gamma Ray
~Parameter Information Block
~A  Depth       DCAL        RHOB        RHOC        DPOR        NPOR         GR     
# ...
  1872.4000      8.0367      2.5673      0.0606      5.0141     23.4828    101.5149
  1872.5000      8.0352      2.5378      0.0783      6.7988     23.8278    101.9370
  1872.6000      8.0352      2.5098      0.0273      8.4998     24.6924    101.2372
  1872.7000      8.0352      2.4843      0.0546     10.0425     25.8111     96.3210
  1872.8000      8.0327      2.4377     -0.0047     12.8686     26.8286     89.3915
  1872.9000      8.0327      2.3584     -0.0318     17.6732     27.7585     86.4064
  1873.0000      8.0321      2.2627     -0.0674     23.4714     28.3275     87.8353
  1873.1000      8.0321      2.1758     -0.0943     28.7399     28.5221     87.3496
  1873.2000      8.0321      2.1138     -0.1004     32.4983     29.2003     84.8103
  1873.3000      8.0329      2.0739     -0.0636     34.9172     30.5965     83.2542
  1873.4000      8.0329      2.0434     -0.0532     36.7622     31.8538     78.8355
  1873.5000      8.0336      2.0137     -0.0302     38.5619     32.5854     70.7462
  1873.6000      8.0336      1.9721      0.0526     41.0873     33.1888     64.7754
  1873.7000      8.0336      1.9028      0.0880     45.2859     33.5730     63.0914
  1873.8000      8.0376      1.8146      0.0583     50.6317     33.5288     64.1700
  1873.9000      8.0376      1.7380      0.0200     55.2719     33.5534     67.7319
  1874.0000      8.0394      1.6904      0.0027     58.1578     33.8566     73.3000
  1874.1000      8.0394      1.6667     -0.0252     59.5943     34.0842     76.0716
  1874.2000      8.0394      1.6619     -0.0313     59.8852     33.9280     73.7776
  1874.3000      8.0341      1.6764      0.0045     59.0032     33.6267     71.0680
  1874.4000      8.0341      1.7077      0.0885     57.1090     33.6965     72.0325
  1874.5000      8.0415      1.7560      0.1039     54.1788     33.9908     77.2468
  1874.6000      8.0415      1.8214      0.1854     50.2192     34.0868     82.4608
  1874.7000      8.0415      1.8901      0.2134     46.0516     33.8826     83.7718
  1874.8000      8.0830      1.9490      0.2096     42.4818     33.0932     86.3999
  1874.9000      8.0830      1.9986      0.2005     39.4787     32.0431     94.2941
  1875.0000      8.1325      2.0457      0.1752     36.6256     31.4855    102.3795
  1875.1000      8.1325      2.0974      0.0969     33.4911     31.3407    105.3918
  1875.2000      8.1325      2.1561      0.0802     29.9362     30.9507    104.2768
  1875.3000      8.1256      2.2147      0.0512     26.3792     29.9675    106.2793
  1875.4000      8.1256      2.2666      0.0286     23.2333     28.6854    114.1011
  1875.5000      8.0750      2.3050      0.0603     20.9108     27.6473    121.3627
  1875.6000      8.0750      2.3229      0.0755     19.8233     27.2535    124.8295
  1875.7000      8.0750      2.3257      0.0968     19.6551     27.4614    128.7530
  1875.8000      8.0335      2.3264      0.0709     19.6121     27.8747    132.7598
  1875.9000      8.0335      2.3339      0.0724     19.1556     28.3348    132.5504
  1876.0000      8.0134      2.3501      0.0789     18.1779     28.8895    127.3660
  1876.1000      8.0134      2.3752      0.1023     16.6558     29.1284    118.0447
  1876.2000      8.0134      2.4155      0.0447     14.2148     28.6834    112.7788
  1876.3000      8.0071      2.4699      0.1435     10.9175     28.1974    119.1465
  1876.4000      8.0071      2.5105      0.1265      8.4552     28.1036    129.4447
  1876.5000      8.0064      2.5139      0.0938      8.2503     27.8604    133.9337
  1876.6000      8.0064      2.4938      0.0417      9.4676     27.2033    136.5533
  1876.7000      8.0064      2.4783      0.0249     10.4055     26.5536    140.2582
  1876.8000      8.0074      2.4754      0.0424     10.5801     26.4452    140.3157
  1876.9000      8.0074      2.4810     -0.0018     10.2413     26.8727    136.3083
  1877.0000      8.0080      2.4965      0.0116      9.3050     27.0848    131.3552
  1877.1000      8.0080      2.5157      0.0759      8.1410     27.1760    132.0632
  1877.2000      8.0080      2.5284      0.0523      7.3723     27.7734    139.7215
  1877.3000      8.0096      2.5342      0.0564      7.0161     28.1409    143.7242
  1877.4000      8.0096      2.5370      0.0221      6.8476     27.5017    139.9212
  1877.5000      8.0141      2.5370      0.0621      6.8513     26.6237    135.8378
  1877.6000      8.0141      2.5254      0.0883      7.5534     26.2726    139.7270
  1877.7000      8.0141      2.5021      0.0274      8.9650     26.3086    148.5079
  1877.8000      8.0165      2.4864      0.0129      9.9154     26.5465    152.3733
  1877.9000      8.0165      2.4896      0.0419      9.7220     26.7163    151.4779
  1878.0000      8.0125      2.5052      0.0140      8.7777     26.6346    149.3814
  1878.1000      8.0125      2.5215      0.0830      7.7867     26.3210    143.1723
  1878.2000      8.0125      2.5263      0.0669      7.4998     25.7280    137.4144
  1878.3000      8.0078      2.5152      0.0639      8.1690     25.1301    139.5559
  1878.4000      8.0078      2.4958      0.0456      9.3432     24.9337    142.8126
  1878.5000      8.0061      2.4885     -0.0143      9.7894     25.2503    141.8630
  1878.6000      8.0061      2.5079      0.0239      8.6138     25.8496    140.2481
  1878.7000      8.0061      2.5323      0.0892      7.1324     26.3260    139.9984
  1878.8000      8.0060      2.5345      0.0321      6.9999     26.4632    140.4217
  1878.9000      8.0060      2.5261      0.0088      7.5109     26.2189    138.2456
  1879.0000      8.0059      2.5296      0.0086      7.2966     25.5652    131.7541
  1879.1000      8.0059      2.5413      0.0474      6.5850     24.7426    124.9962
  1879.2000      8.0059      2.5447      0.0535      6.3844     24.0873    121.9393
  1879.3000      8.0054      2.5396      0.0247      6.6882     23.9480    122.0905
  1879.4000      8.0054      2.5330      0.0682      7.0890     24.5396    123.3021
  1879.5000      8.0054      2.5213      0.0390      7.8002     25.3070    123.1362
  1879.6000      8.0054      2.5137      0.0439      8.2607     25.7186    122.2741
  1879.7000      8.0054      2.5235      0.0213      7.6642     25.7204    124.5281
  1879.8000      8.0062      2.5359      0.0729      6.9174     25.5243    125.6006
  1879.9000      8.0062      2.5360      0.0115      6.9073     25.6407    118.9631
  1880.0000      8.0065      2.5384      0.0144      6.7638     26.1138    114.0470
  1880.1000      8.0065      2.5445      0.0570      6.3917     26.4601    119.6901
  1880.2000      8.0065      2.5386      0.0758      6.7494     26.4249    127.6659
  1880.3000      8.0053      2.5262      0.0289      7.5056     26.3689    131.7970
  1880.4000      8.0053      2.5244      0.0395      7.6127     26.5463    134.8143
  1880.5000      8.0039      2.5289      0.0615      7.3396     26.7801    137.0790
  1880.6000      8.0039      2.5245      0.0642      7.6087     26.9010    138.6481
  1880.7000      8.0039      2.5151      0.0526      8.1731     26.5923    141.4780
  1880.8000      8.0048      2.5144      0.0236      8.2169     25.9596    143.5840
  1880.9000      8.0048      2.5197      0.0192      7.8997     25.5459    141.6505
  1881.0000      8.0072      2.5195      0.0056      7.9066     25.4451    137.2063
  1881.1000      8.0072      2.5117      0.0377      8.3788     25.7242    135.6751
  1881.2000      8.0072      2.4998      0.0394      9.1014     26.3016    139.7761
  1881.3000      8.0084      2.4931     -0.0033      9.5093     26.8698    143.6043
  1881.4000      8.0084      2.5001      0.0143      9.0864     27.2399    142.0265
  1881.5000      8.0081      2.5157      0.0380      8.1386     27.4222    137.1783
  1881.6000      8.0081      2.5237      0.0674      7.6535     27.5405    134.9467
  1881.7000      8.0081      2.5054      0.0496      8.7633     27.5579    139.1902
  1881.8000      8.0066      2.4585      0.0014     11.6084     27.4254    148.3233
  1881.9000      8.0066      2.4100     -0.0102     14.5463     27.3728    158.0017
