~Version Information
VERS.                      2.0: CWLS Log ASCII Standard - VERSION 2.0
WRAP.                       NO: One line per depth step
~Well Information Block
STRT.FT               -10.0000: 
STOP.FT              2544.2500: 
STEP.FT                 0.2500: 
NULL.                -999.2500: 
COMP.          Pioneer Natural Resources: COMPANY
WELL.            Cortina 23-25: WELL
FLD.           Purgatorie River: FIELD
LOC.           2344' FWL  & 2526' FSL------: LOCATION
PROV.                       CO: PROVINCE
CNTY.               Las Animas: COUNTRY
SRVC.          Patterson Wireline: SERVICE COMPANY
DATE.          Fri Apr 01 11:50:55 2005: LOG DATE
UWI.           05 071 08340 00: UNIQUE WELL ID
~Curve Information Block
DEPT.FT            0 000 00 00: Depth
CCL.                          : Casing Collar Locator
TT3.usec                      : CBL 3' Travel Time
AMP3.mV                       : CBL 3' Amplitude
GR.GAPI                       : Gamma Ray
~Parameter Information Block
~A  Depth       CCL         TT3         AMP3         GR     
# ...
   492.5000      0.0000    862.4612      5.9656     95.8685
   492.7500      0.0000    858.8185      5.9743     86.5554
   493.0000      0.0000    854.3721      5.9906     80.9035
   493.2500      0.0000    849.2762      6.0460     79.9922
   493.5000      0.0000    845.1583      6.1519     82.2431
   493.7500      0.0000    843.8006      6.2925     85.2775
   494.0000      0.0000    844.8193      6.4375     87.6236
   494.2500      0.0000    845.9421      6.5605     89.0451
   494.5000      0.0000    846.0605      6.6505     89.6319
   494.7500      0.0000    846.7219      6.7122     89.1311
   495.0000      0.0000    849.9935      6.7615     87.3611
   495.2500      0.0000    855.9185      6.8172     84.7709
   495.5000      0.0000    862.4973      6.8914     82.2549
   495.7500      0.0000    867.1102      6.9833     80.9497
   496.0000      0.0000    867.1899      7.0840     82.4585
   496.2500      0.0000    860.2792      7.1845     88.4448
   496.5000      0.0000    845.1528      7.2721     99.2854
   496.7500      0.0000    824.1634      7.3171    113.4706
   497.0000      0.0000    804.1287      7.2742    128.5428
   497.2500      0.0000    792.9700      7.1201    142.0138
   497.5000      0.0000    793.9480      6.8955    151.3769
   497.7500      0.0000    803.2285      6.6929    154.6592
   498.0000      0.0000    813.2090      6.5883    152.0369
   498.2500      0.0000    817.8760      6.5833    146.3866
   498.5000      2.0000    815.9114      6.6129    141.4709
   498.7500      2.0000    810.8989      6.6038    139.6806
   499.0000      0.0000    808.9361      6.5297    141.4278
   499.2500      0.0000    814.1284      6.4408    145.6877
   499.5000      0.0000    825.3396      6.4505    150.6548
   499.7500      0.0000    837.7150      6.6642    154.6335
   500.0000      0.0000    847.2219      7.0766    156.8068
   500.2500      0.0000    853.2363      7.5457    157.1458
   500.5000      0.0000    857.2982      7.8960    155.9639
   500.7500      0.0000    860.6671      8.0462    153.8815
   501.0000      0.0000    863.4880      8.0275    151.6781
   501.2500      0.0000    865.4760      7.9171    149.5628
   501.5000      0.0000    866.5340      7.7859    146.8934
   501.7500      0.0000    866.7092      7.6857    143.1822
   502.0000      0.0000    865.8657      7.6444    139.0665
   502.2500      0.0000    863.5444      7.6599    135.6416
   502.5000      0.0000    859.2263      7.7010    133.0680
   502.7500      0.0000    852.9646      7.7239    130.5487
   503.0000      0.0000    845.8177      7.6987    127.6218
   503.2500      0.0000    839.4277      7.6333    124.7036
   503.5000      0.0000    834.9954      7.5699    122.2620
   503.7500      0.0000    832.6488      7.5541    120.0595
   504.0000      0.0000    831.7051      7.6025    117.4414
   504.2500      0.0000    831.3549      7.6949    114.0449
   504.5000      0.0000    831.0936      7.7919    110.0470
   504.7500      0.0000    830.7236      7.8601    105.8614
   505.0000      0.0000    830.2014      7.8845    101.8876
   505.2500      0.0000    829.5832      7.8649     98.7019
   505.5000      0.0000    829.0130      7.8047     97.1618
   505.7500      0.0000    828.6240      7.7080     97.9020
   506.0000      0.0000    828.4402      7.5878    100.9093
   506.2500      0.0000    828.4354      7.4723    105.9343
   506.5000      0.0000    828.6501      7.3922    113.1886
   506.7500      0.0000    829.1662      7.3554    123.1391
   507.0000      0.0000    829.9526      7.3389    135.3035
   507.2500      0.0000    830.7945      7.3137    147.5001
   507.5000      0.0000    831.4240      7.2758    156.7800
   507.7500      0.0000    831.7313      7.2447    161.3033
   508.0000      0.0000    831.8275      7.2326    161.3720
   508.2500      0.0000    831.8983      7.2269    158.8043
   508.5000      0.0000    832.0284      7.2079    155.4432
   508.7500      0.0000    832.2119      7.1755    152.0203
   509.0000      0.0000    832.5214      7.1481    148.1676
   509.2500      0.0000    833.2449      7.1376    143.4741
   509.5000      0.0000    834.7726      7.1363    138.3611
   509.7500      0.0000    837.1464      7.1312    133.8367
   510.0000      0.0000    839.5974      7.1214    130.6911
   510.2500      0.0000    840.7616      7.1144    129.0977
   510.5000      0.0000    839.6299      7.1119    128.8951
   510.7500      0.0000    836.2492      7.1114    130.1356
   511.0000      0.0000    831.5088      7.1130    132.9868
   511.2500      0.0000    826.5834      7.1145    136.8186
   511.5000      0.0000    822.6139      7.1056    139.9543
   511.7500      0.0000    820.3508      7.0792    140.9794
   512.0000      0.0000    819.6811      7.0433    139.9862
   512.2500      0.0000    819.5886      7.0112    138.1568
   512.5000      0.0000    818.8041      6.9867    136.5870
   512.7500      0.0000    816.6004      6.9687    135.8378
   513.0000      0.0000    813.0770      6.9629    136.0490
   513.2500      0.0000    808.9558      6.9767    136.9156
   513.5000      0.0000    805.1783      7.0055    137.7947
   513.7500      0.0000    802.4297      7.0343    138.2780
   514.0000      0.0000    800.8137      7.0485    138.7070
   514.2500      0.0000    799.9785      7.0412    139.8961
   514.5000      0.0000    799.5170      7.0172    142.1809
   514.7500      0.0000    799.2352      6.9940    144.7401
   515.0000      0.0000    799.1254      6.9895    145.9053
   515.2500      0.0000    799.2035      7.0065    144.1207
   515.5000      0.0000    799.4038      7.0317    138.6671
   515.7500      0.0000    799.5968      7.0484    129.9574
   516.0000      0.0000    799.6773      7.0469    119.4702
   516.2500      0.0000    799.6076      7.0282    108.9884
   516.5000      0.0000    799.4022      7.0000     99.5900
   516.7500      0.0000    799.0735      6.9671     91.5316
   517.0000      0.0000    798.5652      6.9285     84.8637
   517.2500      0.0000    797.6855      6.8830     79.7009
   517.5000      0.0000    796.1534      6.8366     76.0415
   517.7500      0.0000    793.8516      6.8043     73.7203
   518.0000      0.0000    791.1682      6.8040     72.5291
   518.2500      0.0000    789.0231      6.8389     72.1460
   518.5000      0.0000    788.3648      6.8898     72.1535
   518.7500      0.0000    789.5101      6.9275     72.4924
   519.0000      0.0000    791.9045      6.9342     73.8171
   519.2500      0.0000    794.4898      6.9124     76.9944
   519.5000      0.0000    796.3776      6.8800     82.1978
   519.7500      0.0000    797.2814      6.8557     88.6902
   520.0000      0.0000    797.3855      6.8447     95.3130
   520.2500      0.0000    796.8646      6.8389    100.9405
   520.5000      0.0000    795.4715      6.8291    104.6375
   520.7500      0.0000    792.4656      6.8155    105.8544
   521.0000      0.0000    787.0605      6.8081    104.6960
   521.2500      0.0000    779.2665      6.8163    101.9129
   521.5000      0.0000    770.4364      6.8363     98.5278
   521.7500      0.0000    762.7325      6.8534     95.4221
   522.0000      0.0000    757.8896      6.8576     92.9701
   522.2500      0.0000    756.4300      6.8517     90.8487
   522.5000      0.0000    757.7413      6.8451     88.5409
   522.7500      0.0000    760.5892      6.8448     86.3836
   523.0000      0.0000    763.8428      6.8481     85.8243
   523.2500      0.0000    767.1155      6.8432     88.0242
   523.5000      0.0000    770.4468      6.8185     92.2822
   523.7500      0.0000    773.1354      6.7727     96.4103
   524.0000      0.0000    773.5237      6.7149     98.7376
   524.2500      0.0000    770.5297      6.6568     99.3212
   524.5000      0.0000    765.0718      6.6055     99.1983
   524.7500      0.0000    759.5270      6.5653     98.9810
   525.0000      0.0000    755.9849      6.5437     98.4414
   525.2500      0.0000    755.2131      6.5479     97.1126
   525.5000      0.0000    756.7725      6.5744     94.9318
   525.7500      0.0000    759.5302      6.6065     92.2866
