~Version Information
 VERS.                      2.0: CWLS Log ASCII Standard - VERSION 2.0
 WRAP.                       NO: One line per depth step
 ~Well Information Block
 STRT.FT               762.3000: 
 STOP.FT              2573.7000: 
 STEP.FT                 0.1000: 
 NULL.                -999.2500: 
 COMP.          Petrogulf Corporation: COMPANY
 WELL.               J&P 12-33V: WELL
 FLD.           Purgatorie River: FIELD
 LOC.           2005' FSL & 1928' FEL: LOCATION
 CNTY.               Las Animas: COUNTY
 SRVC.                         : SERVICE COMPANY
 DATE.          Sat Aug 28 11:34:36 2004: LOG DATE
 UWI.           05 071 08092 00: UNIQUE WELL ID
 STAT.                 Colorado: STATE
 PROV.                         :Province
 ~Curve Information Block
 DEPT.FT            0 000 00 00: Depth
 GR.GAPI                       : Gamma Ray
 DCAL.in                       : CDL Caliper
 DPOR.pu                       : CDL Density Porosity
 NPOR.pu                       : Neutron Porosity
 RHOB.g/cc                     : CDL Bulk Density
 RHOC.g/cc                     : CDL Density Correction
 ~Parameter Information Block
 ~A  Depth        GR         DCAL        DPOR        NPOR        RHOB        RHOC    
# ...
  2211.9000     74.2667      7.6052      7.8847     23.9223      2.5199      0.0503
  2212.0000     79.3423      7.6067      8.4112     24.2921      2.5112      0.0347
  2212.1000     80.2773      7.6067      8.7282     24.5077      2.5060      0.0652
  2212.2000     80.6787      7.6067      8.8308     25.1686      2.5043      0.0210
  2212.3000     83.6797      7.5903      8.2428     25.7434      2.5140      0.0637
  2212.4000     88.8522      7.5903      7.0249     25.7155      2.5341      0.0750
  2212.5000     90.1917      7.6064      5.7988     25.2325      2.5543      0.0966
  2212.6000     84.9229      7.6064      5.4573     24.3380      2.5600      0.1053
  2212.7000     81.0578      7.6064      6.4874     23.2900      2.5430      0.0838
  2212.8000     82.2667      7.6111      8.0813     22.6009      2.5167      0.0724
  2212.9000     84.4118      7.6111      9.0404     22.2856      2.5008      0.0696
  2213.0000     84.3067      7.6108      9.3082     21.8705      2.4964      0.0653
  2213.1000     81.3414      7.6108      9.2026     21.2061      2.4982      0.0375
  2213.2000     81.0305      7.6108      8.6852     20.5838      2.5067      0.0801
  2213.3000     89.8724      7.6077      8.2160     20.3262      2.5144      0.0776
  2213.4000    105.1569      7.6077      8.5227     20.7370      2.5094      0.0794
  2213.5000    116.6272      7.5948      9.7819     21.8839      2.4886      0.0746
  2213.6000    115.7467      7.5948     11.2925     23.1965      2.4637      0.0533
  2213.7000    108.8978      7.5948     12.0107     23.9333      2.4518      0.0437
  2213.8000    107.5063      7.6093     11.6955     23.9301      2.4570      0.0510
  2213.9000    105.3052      7.6093     10.6868     23.4696      2.4737      0.0215
  2214.0000     92.2856      7.6238      9.2576     22.9134      2.4972      0.0775
  2214.1000     77.4729      7.6238      7.7521     22.5879      2.5221      0.1076
  2214.2000     75.3237      7.6238      6.4381     22.3036      2.5438      0.0838
  2214.3000     85.4484      7.6203      5.2084     21.7838      2.5641      0.0858
  2214.4000     95.8872      7.6203      3.7160     21.4523      2.5887      0.0917
  2214.5000     97.7821      7.5993      2.1803     21.6215      2.6140      0.1154
  2214.6000     92.7925      7.5993      1.6477     22.3391      2.6228      0.1059
  2214.7000     88.7705      7.5993      2.7742     23.3344      2.6042      0.0951
  2214.8000     88.4725      7.5702      5.1059     23.7411      2.5658      0.0740
  2214.9000     89.0261      7.5702      7.3675     23.4661      2.5284      0.0459
  2215.0000     89.0814      7.5677      8.4251     23.3531      2.5110      0.0339
  2215.1000     86.5674      7.5677      8.3481     23.5535      2.5123      0.0468
  2215.2000     83.6370      7.5677      7.7527     23.4853      2.5221      0.0206
  2215.3000     82.4097      7.5732      6.8794     23.0329      2.5365      0.0431
  2215.4000     80.4207      7.5732      6.0989     22.2776      2.5494      0.0718
  2215.5000     79.5805      7.6090      5.5404     21.4725      2.5586      0.0517
  2215.6000     79.4828      7.6090      5.2634     21.4865      2.5632      0.0749
  2215.7000     76.4859      7.6090      5.7601     22.1792      2.5550      0.0543
  2215.8000     73.3373      7.6255      6.5687     22.5755      2.5416      0.0333
  2215.9000     74.5772      7.6255      6.6783     22.5517      2.5398      0.0366
  2216.0000     79.1635      7.6223      6.3492     22.4540      2.5452      0.0559
  2216.1000     81.6877      7.6223      6.6150     22.2686      2.5409      0.0084
  2216.2000     80.4143      7.6223      7.8881     21.7611      2.5198      0.0238
  2216.3000     79.0241      7.6190      9.6556     21.2971      2.4907      0.0185
  2216.4000     78.2737      7.6190     10.7338     21.1654      2.4729      0.0068
  2216.5000     78.5962      7.6259     10.4767     21.5226      2.4771      0.0015
  2216.6000     82.9536      7.6259      9.6852     22.5446      2.4902      0.0682
  2216.7000     89.6356      7.6259      9.2154     23.4132      2.4979      0.0409
  2216.8000     92.6939      7.6285      8.6073     23.0101      2.5080      0.0416
  2216.9000     89.6651      7.6285      7.6764     22.0011      2.5233      0.0916
  2217.0000     86.0882      7.6179      7.4166     21.9376      2.5276      0.0717
  2217.1000     88.6729      7.6179      7.9364     22.5610      2.5190      0.0037
  2217.2000     95.7800      7.6179      8.3770     22.8401      2.5118      0.0741
  2217.3000     99.5352      7.6272      8.6287     23.0316      2.5076      0.0405
  2217.4000     97.0493      7.6272      8.9771     23.5874      2.5019      0.0439
  2217.5000     94.2965      7.6284      9.4254     24.1189      2.4945      0.0368
  2217.6000     93.2190      7.6284      9.6062     24.1530      2.4915      0.0386
  2217.7000     89.6466      7.6284      9.5158     23.7692      2.4930      0.0715
  2217.8000     84.6508      7.6272      9.5580     23.2722      2.4923      0.0322
  2217.9000     83.0175      7.6272      9.2852     22.5615      2.4968      0.0476
  2218.0000     83.7445      7.6152      8.1950     21.3245      2.5148      0.0712
  2218.1000     83.6074      7.6152      7.0558     19.8895      2.5336      0.0454
  2218.2000     83.6780      7.6152      6.8484     19.3291      2.5370      0.0695
  2218.3000     84.9496      7.6272      7.4825     20.0016      2.5265      0.0354
  2218.4000     81.7108      7.6272      8.1581     20.8369      2.5154      0.0414
  2218.5000     70.8253      7.6283      8.6923     21.2132      2.5066      0.0186
  2218.6000     63.5768      7.6283      9.2322     21.5942      2.4977      0.0493
  2218.7000     68.6199      7.6283      9.0394     22.0749      2.5008      0.0088
  2218.8000     77.5972      7.6268      7.7086     22.4290      2.5228      0.0693
  2218.9000     81.3057      7.6268      6.3132     22.5870      2.5458      0.1221
  2219.0000     81.2720      7.6167      5.3060     22.5202      2.5625      0.1284
  2219.1000     78.3467      7.6167      4.0624     22.4362      2.5830      0.1287
  2219.2000     70.5603      7.6167      2.7750     22.5387      2.6042      0.1607
  2219.3000     62.1334      7.5807      2.2492     22.5451      2.6129      0.1109
  2219.4000     56.7087      7.5807      2.5299     22.2301      2.6083      0.1067
  2219.5000     54.1463      7.5815      3.1602     21.7460      2.5979      0.0526
  2219.6000     54.7356      7.5815      3.7291     21.3275      2.5885      0.0394
  2219.7000     59.1728      7.5815      4.0376     20.9622      2.5834      0.0582
  2219.8000     64.6261      7.6185      4.0129     20.6945      2.5838      0.0343
  2219.9000     65.4906      7.6185      3.4214     20.4595      2.5935      0.0478
  2220.0000     61.6840      7.6264      2.3900     20.1304      2.6106      0.0681
  2220.1000     58.0731      7.6264      1.8556     19.9554      2.6194      0.1046
  2220.2000     55.9821      7.6264      2.9279     20.2887      2.6017      0.1156
  2220.3000     55.5786      7.6117      5.5401     20.7743      2.5586      0.0790
  2220.4000     58.2463      7.6117      7.9288     20.9149      2.5192      0.0217
  2220.5000     62.9777      7.6103      8.3787     21.0542      2.5118      0.0312
  2220.6000     65.1774      7.6103      7.2975     21.4542      2.5296      0.0817
  2220.7000     63.6593      7.6103      6.4108     21.8117      2.5442      0.1119
  2220.8000     64.1449      7.6119      6.5919     22.2528      2.5412      0.0789
  2220.9000     70.3652      7.6119      7.3670     23.3129      2.5284      0.0719
  2221.0000     78.8802      7.6292      7.8753     24.2973      2.5201      0.0558
  2221.1000     83.7444      7.6292      7.7111     23.8821      2.5228      0.1195
  2221.2000     82.2624      7.6292      7.0197     22.3547      2.5342      0.1056
  2221.3000     78.5062      7.6365      5.9811     21.4244      2.5513      0.1167
  2221.4000     77.0779      7.6365      5.1892     21.9257      2.5644      0.1414
