~Version Information
VERS.                      2.0: CWLS Log ASCII Standard - VERSION 2.0
WRAP.                       NO: One line per depth step
~Well Information Block
STRT.FT                -8.2500: 
STOP.FT              1119.7500: 
STEP.FT                 0.2500: 
NULL.                -999.2500: 
COMP.          Pioneer Natural Resources: COMPANY
WELL.             Linda T 32-3: WELL
FLD.           Purgatorie River: FIELD
LOC.           1350' FNL & 2290' FEL------: LOCATION
PROV.                       CO: PROVINCE
CNTY.               Las Animas: COUNTRY
SRVC.                         : SERVICE COMPANY
DATE.          Thu Feb 10 08:20:40 2005: LOG DATE
UWI.          005 071 08215   : UNIQUE WELL ID
~Curve Information Block
DEPT.FT            0 000 00 00: Depth
CCL.                          : Casing Collar Locator
TT3.usec                      : CBL 3' Travel Time
AMP3.mV                       : CBL 3' Amplitude
GR.GAPI                       : Gamma Ray
~Parameter Information Block
~A  Depth       CCL         TT3         AMP3         GR     
# ...
   728.7500      0.0000    722.0311      6.5870     93.6159
   729.0000      0.0000    728.4291      6.5857     88.1267
   729.2500      0.0000    732.5084      6.5569     86.8876
   729.5000      0.0000    734.0446      6.5279     89.7317
   729.7500      0.0000    733.6517      6.5429     94.5496
   730.0000      0.0000    732.1704      6.6284     98.2486
   730.2500      0.0000    730.6342      6.7694     98.6541
   730.5000      0.0000    730.0868      6.9185     95.6244
   730.7500      0.0000    730.8516      7.0264     90.2767
   731.0000      0.0000    732.1137      7.0708     83.7608
   731.2500      0.0000    732.6183      7.0607     77.3032
   731.5000      0.0000    731.8825      7.0191     72.6550
   731.7500      0.0000    730.6926      6.9579     71.2567
   732.0000      0.0000    730.3552      6.8727     73.0009
   732.2500      0.0000    731.3285      6.7629     76.6461
   732.5000      0.0000    732.5745      6.6517     81.3271
   732.7500      0.0000    732.3532      6.5825     87.0671
   733.0000      0.0000    729.7574      6.5960     93.9681
   733.2500      0.0000    725.7123      6.7043    101.4378
   733.5000      0.0000    722.5872      6.8718    108.2971
   733.7500      0.0000    722.4723      7.0226    113.4712
   734.0000      0.0000    725.5076      7.0804    116.3039
   734.2500      0.0000    729.9479      7.0153    116.2746
   734.5000      0.0000    733.7857      6.8530    113.2064
   734.7500      0.0000    736.0473      6.6481    108.2801
   735.0000      0.0000    736.8461      6.4562    104.0151
   735.2500      0.0000    736.9011      6.3254    102.2955
   735.5000      0.0000    737.0281      6.2877    102.6891
   735.7500      0.0000    737.3719      6.3434    103.2289
   736.0000      0.0000    736.8684      6.4595    102.7406
   736.2500      0.0000    734.1703      6.5891    102.1820
   736.5000      0.0000    729.5418      6.6938    103.4177
   736.7500      0.0000    725.2734      6.7536    106.5995
   737.0000      0.0000    723.6472      6.7729    109.3666
   737.2500      0.0000    724.7847      6.7779    109.2094
   737.5000      0.0000    726.9678      6.7966    106.2648
   737.7500      0.0000    728.7952      6.8337    103.1656
   738.0000      0.0000    730.3495      6.8651    102.3354
   738.2500      0.0000    732.2928      6.8597    104.2498
   738.5000      0.0000    734.5959      6.8061    108.2520
   738.7500      0.0000    736.4864      6.7225    113.6914
   739.0000      0.0000    737.1653      6.6417    119.4063
   739.2500      0.0000    736.2696      6.5823    122.9363
   739.5000      0.0000    734.0832      6.5345    121.6628
   739.7500      0.0000    731.6515      6.4751    115.1369
   740.0000      0.0000    730.2775      6.3944    105.8445
   740.2500      0.0000    730.2928      6.2991     97.5968
   740.5000      0.0000    730.3854      6.1974     93.3296
   740.7500      0.0000    728.6249      6.0955     93.8885
   741.0000      0.0000    724.3413      6.0099     97.8490
   741.2500      0.0000    718.8473      5.9643    102.2762
   741.5000      0.0000    714.1505      5.9690    104.4565
   741.7500      0.0000    711.0245      6.0105    103.4524
   742.0000      0.0000    708.6196      6.0709     99.9673
   742.2500      0.0000    705.9171      6.1491     95.0551
   742.5000      0.0000    703.0402      6.2519     89.5198
   742.7500      0.0000    700.9496      6.3653     84.3932
   743.0000      0.0000    700.3824      6.4461     81.1806
   743.2500      0.0000    701.3946      6.4524     81.1655
   743.5000      0.0000    703.3315      6.3905     84.3740
   743.7500      0.0000    704.4858      6.3269     89.1055
   744.0000      0.0000    701.5995      6.3471     92.7306
   744.2500      0.0000    689.9003      6.4902     93.6100
   744.5000      0.0000    664.7577      6.7161     92.4427
   744.7500      0.0000    625.4838      6.9384     91.3414
   745.0000      0.0000    578.8204      7.0914     91.6231
   745.2500      0.0000    537.1882      7.1656     92.9562
   745.5000      0.0000    511.5041      7.1840     94.3622
   745.7500      0.0000    505.2096      7.1586     95.2237
   746.0000      0.0000    514.6069      7.0783     95.2669
   746.2500      0.0000    533.0732      6.9276     94.3958
   746.5000      0.0000    554.1243      6.7081     93.0931
   746.7500      0.0000    571.9342      6.4448     92.6526
   747.0000      0.0000    582.3057      6.1846     94.2718
   747.2500      0.0000    585.2707      5.9835     97.5791
   747.5000      0.0000    585.1078      5.8768    100.4439
   747.7500      0.0000    585.9161      5.8483    100.6516
   748.0000      0.0000    588.9396      5.8233     97.6588
   748.2500      0.0000    595.3782      5.7087     92.7405
   748.5000      0.0000    608.3437      5.4759     87.9955
   748.7500      0.0000    629.2850      5.2100     85.2913
   749.0000      0.0000    654.8270      5.0486     85.4091
   749.2500      0.0000    679.3674      5.0624     87.6866
   749.5000      0.0000    699.3520      5.2073     90.7026
   749.7500      2.0000    713.4318      5.3800     93.4184
   750.0000      2.0000    719.8351      5.4921     95.4145
   750.2500      0.0000    716.4414      5.5047     96.2705
   750.5000      0.0000    705.0594      5.4387     95.4563
   750.7500      0.0000    693.6005      5.3681     93.0602
   751.0000      0.0000    690.0527      5.3757     90.1866
   751.2500      0.0000    693.3303      5.4961     88.2428
   751.5000      0.0000    692.3279      5.7113     87.7507
   751.7500      0.0000    675.0634      5.9911     87.8037
   752.0000      0.0000    638.9705      6.3075     86.7391
   752.2500      0.0000    593.7370      6.6102     83.4778
   752.5000      0.0000    554.5602      6.8238     78.4164
   752.7500      0.0000    531.2205      6.8919     73.1438
   753.0000      0.0000    522.4723      6.8184     69.2978
   753.2500      0.0000    519.9634      6.6652     67.5943
   753.5000      0.0000    516.6598      6.5158     67.5558
   753.7500      0.0000    512.4745      6.4312     67.7546
   754.0000      0.0000    513.6906      6.4275     66.6093
   754.2500      0.0000    527.0499      6.4841     63.5003
   754.5000      0.0000    552.7526      6.5657     59.1465
   754.7500      0.0000    581.6747      6.6333     54.9161
   755.0000      0.0000    599.8038      6.6462     52.0998
   755.2500      0.0000    598.1287      6.5745     51.6668
   755.5000      0.0000    579.9454      6.4212     53.8925
   755.7500      0.0000    557.6346      6.2310     57.7648
   756.0000      0.0000    541.9893      6.0698     61.3225
   756.2500      0.0000    536.1548      5.9870     63.1906
   756.5000      0.0000    538.6277      5.9931     63.5678
   756.7500      0.0000    548.0500      6.0717     63.3175
   757.0000      0.0000    562.9680      6.2052     62.4787
   757.2500      0.0000    579.1509      6.3826     60.2160
   757.5000      0.0000    590.5453      6.5886     56.1410
   757.7500      0.0000    594.5068      6.7934     51.1879
   758.0000      0.0000    595.8081      6.9567     46.9586
   758.2500      0.0000    603.8736      7.0430     44.4037
   758.5000      0.0000    623.7725      7.0383     43.4510
   758.7500      0.0000    650.0121      6.9563     43.8134
   759.0000      0.0000    671.6373      6.8334     45.5467
   759.2500      0.0000    683.6102      6.7185     48.5568
   759.5000      0.0000    690.4731      6.6572     52.1150
   759.7500      0.0000    698.7296      6.6728     55.3375
   760.0000      0.0000    709.1511      6.7556     57.9228
   760.2500      0.0000    718.0083      6.8747     60.0354
   760.5000      0.0000    722.6871      6.9972     61.6139
   760.7500      0.0000    723.7592      7.1005     62.1757
   761.0000      0.0000    722.9045      7.1747     61.2860
   761.2500      0.0000    721.0605      7.2219     58.8725
   761.5000      0.0000    718.6813      7.2497     55.0664
   761.7500      0.0000    716.6948      7.2642     50.2021
   762.0000      0.0000    716.5146      7.2696     45.2508
