~Version Information
 VERS.                                  2.0 : CWLS LAS VERSION
 WRAP.                                   NO : WRAPING MODE
 SWARE .                 MController 2.5.0N : SOFTWARE VERSION
~Well Information
 WELL.                       Guajardo 24-18 : WELL
 COMP.    Pioneer Natural Resources USA Inc : COMPANY
 FLD.                      Purgatoire River : FIELD
 LOC.                SE/SW Sec 18 T32S R65W : LOCATION
 DATE.                           8/4-5/2005 : DATE(S) LOGGED
 SRVC.       BLANCO Geological Services LLC : SERVICE COMPANY
 STAT.                                   CO : STATE
 CNTY.                           Las Animas : COUNTY
 CTRY.                                  USA : COUNTRY
 API.                       05-071-08377-00 : API NUMBER
 STRT.FT                             541.00 : START DEPTH
 STOP.FT                            1855.00 : STOP DEPTH
 STEP.FT                               1.00 : DEPTH INCREMENT
 NULL.                                -9999 : NULL VALUE
~Curve information
 DEPTH.FT                                   :
 ROP.MIN/FT                                 :
 GAS.UNITS                                  :
~ASCII Log data
# ...
      1341.0         0.27         65.6 
      1342.0         0.27         75.2 
      1343.0         0.43         89.2 
      1344.0         0.20         98.3 
      1345.0         0.17        101.8 
      1346.0         0.40         95.1 
      1347.0         0.20         91.0 
      1348.0         0.07         90.0 
      1349.0         0.30         86.4 
      1350.0         0.20         80.3 
      1351.0         0.40         71.1 
      1352.0         0.20         70.0 
      1353.0         0.42         69.8 
      1354.0         0.50         89.3 
      1355.0         0.17         90.4 
      1356.0         0.40         81.0 
      1357.0         0.37         72.6 
      1358.0         0.10         71.6 
      1359.0         0.40         69.9 
      1360.0         0.30         69.8 
      1361.0         0.20         69.1 
      1362.0         0.30         68.2 
      1363.0         0.20         67.4 
      1364.0         0.42         67.0 
      1365.0         0.10         67.5 
      1366.0         0.40         70.1 
      1367.0         0.10         70.3 
      1368.0         0.40         70.6 
      1369.0         0.10         70.3 
      1370.0         0.20         69.9 
      1371.0         0.30         73.5 
      1372.0         0.40         75.9 
      1373.0         0.10         76.0 
      1374.0         0.20         77.8 
      1375.0         0.37         89.3 
      1376.0         0.10         91.2 
      1377.0         0.10         91.9 
      1378.0         0.32         89.3 
      1379.0         0.10         88.4 
      1380.0         0.30         86.5 
      1381.0         0.10         86.2 
      1382.0         0.30         85.8 
      1383.0         0.20         85.9 
      1384.0         0.30         86.5 
      1385.0         0.10         86.6 
      1386.0         0.30         85.9 
      1387.0         0.30         82.4 
      1388.0         0.30         80.6 
      1389.0         0.10         80.8 
      1390.0         0.30         81.6 
      1391.0         0.10         81.5 
      1392.0         0.35         79.8 
      1393.0         0.10         79.3 
      1394.0         0.10         78.7 
      1395.0         0.30         77.9 
      1396.0         0.20         77.2 
      1397.0         0.30         76.9 
      1398.0         0.10         77.4 
      1399.0         0.30         80.5 
      1400.0         0.10         81.1 
      1401.0         0.30         80.0 
      1402.0         0.10         78.7 
      1403.0         0.10         77.5 
      1404.0         0.20         75.4 
      1405.0         0.30         74.8 
      1406.0         0.30         76.5 
      1407.0         0.20         78.7 
      1408.0         0.10         80.2 
      1409.0         0.42         84.6 
      1410.0         0.30         86.1 
      1411.0         0.10         87.0 
      1412.0         0.20         90.1 
      1413.0         0.40         91.8 
      1414.0         0.30         85.6 
      1415.0         0.10         83.6 
      1416.0         0.10         81.8 
      1417.0         0.27         78.2 
      1418.0         0.30         75.8 
      1419.0         0.10         75.0 
      1420.0         0.10         74.3 
      1421.0         0.40         73.9 
      1422.0         0.10         74.0 
      1423.0         0.20         74.3 
      1424.0         0.32         73.7 
      1425.0         0.30         72.9 
      1426.0         0.10         72.4 
      1427.0         0.10         71.9 
      1428.0         0.20         71.6 
      1429.0         0.40         73.9 
      1430.0         0.10         74.6 
      1431.0         0.30         74.5 
      1432.0         0.10         73.6 
      1433.0         0.20         72.5 
      1434.0         0.20         74.1 
      1435.0         0.30         81.0 
      1436.0         0.20         83.7 
      1437.0         0.20         82.4 
      1438.0         0.20         77.3 
      1439.0         0.22         71.2 
      1440.0         0.10         69.2 
      1441.0         0.40         66.1 
      1442.0         0.10         66.1 
      1443.0         0.40         64.8 
      1444.0         0.10         64.4 
      1445.0         0.10         64.1 
      1446.0         0.40         65.6 
      1447.0         0.10         67.3 
      1448.0         0.10         69.6 
      1449.0         0.07         71.0 
      1450.0         0.40         74.9 
      1451.0         0.40         71.7 
      1452.0         0.10         70.5 
      1453.0         0.42         66.7 
      1454.0         0.10         66.2 
      1455.0         0.40         64.4 
      1456.0         0.10         64.4 
      1457.0         0.10         64.4 
      1458.0         0.57         89.7 
      1459.0         0.27        106.2 
      1460.0         0.40         98.5 
      1461.0         0.63         80.1 
      1462.0         0.50         75.0 
      1463.0         0.22         75.4 
      1464.0         0.40         73.3 
      1465.0         0.40         70.0 
      1466.0         0.20         69.1 
      1467.0         0.20         68.6 
      1468.0         0.10         68.4 
      1469.0         0.50         66.6 
      1470.0         0.10         65.9 
      1471.0         0.40         63.0 
      1472.0         0.10         62.4 
      1473.0         0.30         62.6 
      1474.0         0.10         63.2 
      1475.0         0.30         65.6 
      1476.0         0.32         66.6 
      1477.0         0.40         68.7 
      1478.0         0.10         69.9 
      1479.0         0.10         70.5 
      1480.0         0.20         69.9 
      1481.0         0.20         67.1 
      1482.0         0.40         61.5 
      1483.0         0.20         60.2 
      1484.0         0.30         59.4 
      1485.0         0.40         59.4 
      1486.0         0.20         60.5 
      1487.0         0.40         63.2 
      1488.0         0.10         63.1 
      1489.0         0.10         62.7 
      1490.0         0.10         62.2 
      1491.0         0.32         60.9 
      1492.0         0.20         60.7 
      1493.0         0.30         59.8 
      1494.0         0.10         59.2 
      1495.0         0.10         58.4 
      1496.0         0.30         57.7 
      1497.0         0.10         58.1 
      1498.0         0.30         60.6 
      1499.0         0.10         61.8 
      1500.0         0.20         64.9 
      1501.0         0.07         65.9 
      1502.0         0.20         68.6 
      1503.0         0.30         70.6 
      1504.0         0.10         71.1 
      1505.0         0.10         71.5 
      1506.0         0.10         71.8 
      1507.0         0.40         68.9 
      1508.0         0.12         67.4 
      1509.0         0.20         65.0 
      1510.0         0.30         65.4 
      1511.0         0.10         66.4 
      1512.0         0.30         71.1 
      1513.0         0.20         74.8 
      1514.0         0.30         77.5 
      1515.0         0.40         77.6 
      1516.0         0.40         75.8 
      1517.0         0.10         75.0 
      1518.0         0.30         76.9 
      1519.0         0.20         79.6 
      1520.0         0.10         79.9 
      1521.0         0.10         79.7 
      1522.0         0.10         79.2 
      1523.0         0.32         78.1 
      1524.0         0.10         76.3 
      1525.0         0.10         74.0 
      1526.0         0.20         70.7 
      1527.0         0.20         69.5 
      1528.0         0.20         70.3 
      1529.0         0.10         71.5 
      1530.0         0.20         72.9 
      1531.0         0.30         71.5 
      1532.0         0.10         70.9 
      1533.0         0.10         70.1 
      1534.0         0.30         68.4 
      1535.0         0.10         68.4 
      1536.0         0.10         68.6 
      1537.0         0.30         68.6 
      1538.0         0.30         67.9 
      1539.0         0.10         66.9 
      1540.0         0.30         60.6 
