~Version Information
VERS.                      2.0: CWLS Log ASCII Standard - VERSION 2.0
WRAP.                       NO: One line per depth step
~Well Information Block
STRT.FT                -3.5000: 
STOP.FT              1841.0000: 
STEP.FT                 0.2500: 
NULL.                -999.2500: 
COMP.          Pioneer Natural Resources: COMPANY
WELL.          Corkscrew 33-12 Tr: WELL
FLD.           Purgatorie River: FIELD
LOC.           1870' FSL  & 1706' FEL--------: LOCATION
PROV.                       CO: PROVINCE
CNTY.               Las Animas: COUNTRY
SRVC.          Patterson Wireline: SERVICE COMPANY
DATE.          Mon Apr 04 10:07:45 2005: LOG DATE
UWI.           05 071 08295 00: UNIQUE WELL ID
~Curve Information Block
DEPT.FT            0 000 00 00: Depth
CCL.                          : Casing Collar Locator
TT3.usec                      : CBL 3' Travel Time
AMP3.mV                       : CBL 3' Amplitude
GR.GAPI                       : Gamma Ray
~Parameter Information Block
~A  Depth       CCL         TT3         AMP3         GR     
# ...
   465.5000      0.0000    824.5748      6.8059     75.0867
   465.7500      0.0000    825.4712      6.8205     81.7750
   466.0000      0.0000    825.7615      6.8654     88.0888
   466.2500      0.0000    813.9670      6.9307     93.0018
   466.5000      0.0000    786.0895      6.9957     95.5275
   466.7500      0.0000    750.3625      7.0325     94.9577
   467.0000      0.0000    721.4976      7.0190     91.7510
   467.2500      0.0000    709.0018      6.9510     87.5832
   467.5000      0.0000    711.0696      6.8441     84.0797
   467.7500      0.0000    719.1779      6.7269     81.7599
   468.0000      0.0000    726.3610      6.6272     80.3917
   468.2500      0.0000    730.4662      6.5600     79.8285
   468.5000      0.0000    732.2570      6.5232     79.9403
   468.7500      0.0000    732.9148      6.5029     80.0390
   469.0000      0.0000    733.1526      6.4811     79.1550
   469.2500      0.0000    733.2609      6.4421     77.1453
   469.5000      0.0000    733.1816      6.3745     75.1825
   469.7500      0.0000    732.5181      6.2721     74.7732
   470.0000      0.0000    730.7612      6.1378     76.2598
   470.2500      0.0000    727.9294      5.9850     78.5022
   470.5000      0.0000    725.0584      5.8303     80.0991
   470.7500      0.0000    723.7342      5.6848     80.5809
   471.0000      0.0000    724.7944      5.5552     80.3670
   471.2500      0.0000    727.5889      5.4509     80.2748
   471.5000      0.0000    730.6854      5.3847     81.2336
   471.7500      0.0000    733.0845      5.3629     83.6216
   472.0000      0.0000    734.6152      5.3779     86.6290
   472.2500      0.0000    735.4836      5.4099     88.8240
   472.5000      0.0000    735.7859      5.4378     89.4582
   472.7500      0.0000    735.3850      5.4488     88.9912
   473.0000      0.0000    734.0742      5.4421     88.4531
   473.2500      0.0000    731.7623      5.4248     88.4338
   473.5000      0.0000    728.4408      5.4026     88.5622
   473.7500      0.0000    723.4840      5.3755     87.9336
   474.0000      0.0000    714.8274      5.3413     86.2822
   474.2500      0.0000    699.5190      5.3020     84.7977
   474.5000      0.0000    675.8112      5.2636     85.5504
   474.7500      0.0000    644.5654      5.2322     89.8472
   475.0000      0.0000    608.8604      5.2108     97.0830
   475.2500      0.0000    573.2751      5.1997    105.2242
   475.5000      0.0000    543.0469      5.1989    112.2410
   475.7500      0.0000    521.9031      5.2094    117.0200
   476.0000      0.0000    510.0490      5.2322    119.3408
   476.2500      0.0000    504.7946      5.2680    119.6656
   476.5000      0.0000    502.9557      5.3149    119.0912
   476.7500      0.0000    502.4466      5.3623    119.0155
   477.0000      0.0000    502.4897      5.3919    120.3460
   477.2500      0.0000    503.3471      5.3881    122.8019
   477.5000      0.0000    506.1634      5.3509    124.9485
   477.7500      0.0000    512.4688      5.2938    125.1281
   478.0000      0.0000    522.9626      5.2289    122.7899
   478.2500      0.0000    536.6106      5.1583    119.0914
   478.5000      0.0000    551.9889      5.0834    116.0518
   478.7500      0.0000    569.6776      5.0191    114.9031
   479.0000      0.0000    591.4595      4.9949    115.1663
   479.2500      0.0000    616.5722      5.0335    115.2797
   479.5000      0.0000    641.0390      5.1252    114.0821
   479.7500      0.0000    661.6267      5.2268    111.7019
   480.0000      0.0000    678.5245      5.2926    109.1745
   480.2500      0.0000    693.4512      5.3079    107.5033
   480.5000      0.0000    706.5650      5.2942    107.2089
   480.7500      0.0000    715.5191      5.2854    108.4982
   481.0000      0.0000    716.3322      5.3012    111.2949
   481.2500      0.0000    704.9938      5.3333    114.8028
   481.5000      0.0000    679.8736      5.3509    117.4184
   481.7500      0.0000    644.0073      5.3261    117.7743
   482.0000      0.0000    604.6825      5.2600    116.1566
   482.2500      0.0000    569.6052      5.1863    114.5259
   482.5000      0.0000    543.2174      5.1448    114.6624
   482.7500      0.0000    526.7928      5.1508    116.3113
   483.0000      0.0000    521.1329      5.1890    117.4376
   483.2500      0.0000    527.9509      5.2328    116.3068
   483.5000      0.0000    547.7551      5.2648    113.1584
   483.7500      0.0000    576.1299      5.2819    109.9955
   484.0000      0.0000    603.5295      5.2889    108.8962
   484.2500      0.0000    621.4725      5.2929    110.1051
   484.5000      0.0000    629.6304      5.2964    111.4170
   484.7500      0.0000    635.3330      5.2948    109.9211
   485.0000      0.0000    645.9351      5.2817    104.8159
   485.2500      0.0000    662.4349      5.2562     98.0852
   485.5000      0.0000    679.6286      5.2243     92.2253
   485.7500      0.0000    690.5021      5.1932     87.9438
   486.0000      0.0000    690.3951      5.1659     84.2180
   486.2500      0.0000    679.1990      5.1473     79.9917
   486.5000      0.0000    661.5121      5.1611     75.6183
   486.7500      0.0000    644.1719      5.2561     72.7771
   487.0000      0.0000    633.0708      5.4694     72.8310
   487.2500      0.0000    632.9372      5.7685     75.2749
   487.5000      0.0000    648.3300      6.0577     77.9882
   487.7500      0.0000    680.7019      6.2603     78.8881
   488.0000      0.0000    724.1429      6.3735     77.2086
   488.2500      0.0000    767.9316      6.4322     73.6353
   488.5000      0.0000    804.1991      6.4541     69.7063
   488.7500      0.0000    830.4860      6.4438     66.9048
   489.0000      0.0000    844.6423      6.4197     65.8373
   489.2500      0.0000    841.4487      6.4173     66.0600
   489.5000      0.0000    818.3461      6.4702     66.7460
   489.7500      0.0000    782.8900      6.5840     67.5031
   490.0000      0.0000    750.3599      6.7094     68.4097
   490.2500      0.0000    733.9179      6.7564     69.4208
   490.5000      0.0000    738.1639      6.6703     70.1078
   490.7500      0.0000    758.9283      6.4898     69.9980
   491.0000      0.0000    786.3567      6.3058     68.8839
   491.2500      0.0000    810.2059      6.1777     66.7098
   491.5000      0.0000    825.1446      6.1125     63.5234
   491.7500      0.0000    831.8308      6.1017     59.9161
   492.0000      0.0000    833.5995      6.1432     57.1915
   492.2500      0.0000    832.9841      6.2295     56.4540
   492.5000      0.0000    830.5203      6.3344     57.4735
   492.7500      0.0000    825.2656      6.4235     58.7292
   493.0000      0.0000    816.2759      6.4772     58.6109
   493.2500      0.0000    804.3779      6.5009     56.6600
   493.5000      0.0000    792.7684      6.5137     53.9146
   493.7500      0.0000    785.4298      6.5317     52.0593
   494.0000      0.0000    784.8855      6.5596     52.0384
   494.2500      0.0000    791.2265      6.5935     53.4755
   494.5000      0.0000    802.3112      6.6320     55.3326
   494.7500      0.0000    814.6605      6.6819     56.7607
   495.0000      0.0000    825.2675      6.7506     57.2544
   495.2500      0.0000    833.1567      6.8324     56.4886
   495.5000      0.0000    839.0270      6.9070     54.4751
   495.7500      0.0000    843.7374      6.9554     51.8719
   496.0000      0.0000    847.6669      6.9751     49.9017
   496.2500      0.0000    851.0159      6.9831     49.6390
   496.5000      0.0000    853.5659      7.0076     51.0903
   496.7500      0.0000    854.0476      7.0683     53.0534
   497.0000      0.0000    851.0262      7.1565     54.2641
   497.2500      0.0000    845.1254      7.2364     54.7733
   497.5000      0.0000    839.7146      7.2673     55.9379
   497.7500      0.0000    838.4155      7.2270     58.8386
   498.0000      0.0000    841.7275      7.1218     62.7256
   498.2500      0.0000    846.4742      6.9844     65.3021
   498.5000      0.0000    848.8253      6.8577     64.7169
   498.7500      0.0000    847.4124      6.7702     61.1391
