~Version Information
VERS.                      2.0: CWLS Log ASCII Standard - VERSION 2.0
WRAP.                       NO: One line per depth step
~Well Information Block
STRT.FT                -2.2500: 
STOP.FT              1676.7500: 
STEP.FT                 0.2500: 
NULL.                -999.2500: 
COMP.          Pioneer Natural Resources: COMPANY
WELL.              Patten 22-2: WELL
FLD.           Purgatoire River: FIELD
LOC.           2157' FNL & 1528' FWL: LOCATION
PROV.                 Colorado: PROVINCE
CNTY.               Las Animas: COUNTRY
SRVC.                Patterson: SERVICE COMPANY
DATE.          Tue Dec 14 11:45:47 2004: LOG DATE
UWI.           05 071 08168 00: UNIQUE WELL ID
~Curve Information Block
DEPT.FT            0 000 00 00: Depth
GR.GAPI                       : Gamma Ray
CCL.                          : Casing Collar Locator
TT3.usec                      : CBL 3' Travel Time
AMP3.mV                       : CBL 3' Amplitude
~Parameter Information Block
~A  Depth        GR         CCL         TT3         AMP3    
# ...
  1639.2500     81.6569      0.0000    670.8115      3.6803
  1639.5000     85.5065      0.0000    674.4945      3.6361
  1639.7500     87.0377      0.0000    679.3163      3.5600
  1640.0000     86.5363      0.0000    683.7349      3.4753
  1640.2500     85.2918      0.0000    686.8521      3.4099
  1640.5000     84.7579      0.0000    688.7269      3.3812
  1640.7500     85.6544      0.0000    690.3336      3.3865
  1641.0000     87.5652      0.0000    693.0710      3.4043
  1641.2500     89.2759      0.0000    697.9540      3.4075
  1641.5000     89.7145      0.0000    704.6847      3.3775
  1641.7500     88.9108      0.0000    711.3054      3.3114
  1642.0000     88.0971      0.0000    715.1807      3.2204
  1642.2500     88.6686      0.0000    714.7158      3.1256
  1642.5000     90.9726      0.0000    709.9139      3.0524
  1642.7500     94.1551      0.0000    701.5444      3.0206
  1643.0000     97.0745      0.0000    690.9052      3.0322
  1643.2500     99.2131      0.0000    680.3130      3.0713
  1643.5000    100.7480      0.0000    672.0441      3.1190
  1643.7500    101.7626      0.0000    666.3971      3.1650
  1644.0000    101.4290      0.0000    662.1447      3.2056
  1644.2500     98.3963      0.0000    658.7390      3.2351
  1644.5000     92.4244      0.0000    656.7077      3.2466
  1644.7500     85.4031      0.0000    656.2216      3.2383
  1645.0000     80.2998      0.0000    656.5480      3.2166
  1645.2500     79.0124      0.0000    656.8641      3.1917
  1645.5000     81.2013      0.0000    656.8089      3.1701
  1645.7500     84.8943      0.0000    656.2602      3.1497
  1646.0000     87.9955      0.0000    655.0752      3.1245
  1646.2500     89.4411      0.0000    653.3290      3.0946
  1646.5000     89.3773      0.0000    651.6547      3.0690
  1646.7500     88.5960      0.0000    650.9562      3.0580
  1647.0000     87.7568      0.0000    651.4995      3.0637
  1647.2500     86.9342      0.0000    652.5069      3.0798
  1647.5000     85.9789      0.0000    652.9949      3.0994
  1647.7500     85.2624      0.0000    652.9236      3.1209
  1648.0000     85.5554      0.0000    653.2059      3.1473
  1648.2500     87.0200      0.0000    654.5890      3.1790
  1648.5000     88.8817      0.0000    656.8820      3.2106
  1648.7500     90.3831      0.0000    659.4163      3.2336
  1649.0000     91.5821      0.0000    661.9788      3.2433
  1649.2500     92.9068      0.0000    664.9403      3.2448
  1649.5000     94.4448      0.0000    668.3801      3.2476
  1649.7500     96.1185      0.0000    671.2732      3.2568
  1650.0000     98.1277      0.0000    671.9986      3.2698
  1650.2500    100.6123      0.0000    669.9238      3.2816
  1650.5000    102.9327      0.0000    666.1741      3.2890
  1650.7500    103.8472      0.0000    662.5593      3.2908
  1651.0000    102.6010      0.0000    660.0551      3.2868
  1651.2500     99.6098      0.0000    658.5369      3.2784
  1651.5000     96.0167      0.0000    657.5383      3.2683
  1651.7500     92.6731      0.0000    656.8151      3.2600
  1652.0000     89.5580      0.0000    656.2372      3.2557
  1652.2500     86.2763      0.0000    655.3903      3.2557
  1652.5000     83.0596      0.0000    653.4726      3.2577
  1652.7500     80.8579      0.0000    649.7993      3.2590
  1653.0000     80.1958      0.0000    644.6929      3.2600
  1653.2500     80.2971      0.0000    639.8796      3.2620
  1653.5000     79.7335      0.0000    637.6102      3.2633
  1653.7500     77.7847      0.0000    638.9697      3.2585
  1654.0000     74.9426      0.0000    643.0004      3.2443
  1654.2500     72.2630      0.0000    647.5687      3.2248
  1654.5000     70.5448      0.0000    651.0115      3.2111
  1654.7500     70.1177      0.0000    652.9376      3.2122
  1655.0000     71.0129      0.0000    653.8170      3.2290
  1655.2500     72.9795      0.0000    654.2406      3.2552
  1655.5000     75.4086      0.0000    654.5688      3.2845
  1655.7500     77.5404      0.0000    654.9507      3.3143
  1656.0000     78.8756      0.0000    655.4213      3.3437
  1656.2500     79.4128      0.0000    655.9431      3.3709
  1656.5000     79.5563      0.0000    656.4241      3.3931
  1656.7500     79.8369      0.0000    656.7628      3.4102
  1657.0000     80.5963      0.0000    656.9243      3.4273
  1657.2500     81.7114      0.0000    656.9728      3.4487
  1657.5000     82.5715      0.0000    657.0115      3.4713
  1657.7500     82.5775      0.0000    657.0856      3.4840
  1658.0000     81.8515      0.0000    657.1431      3.4764
  1658.2500     81.2871      0.0000    657.0784      3.4479
  1658.5000     81.6828      0.0000    656.8122      3.4094
  1658.7500     82.9396      0.0000    656.3514      3.3769
  1659.0000     84.3815      0.0000    655.7937      3.3610
  1659.2500     85.6410      0.0000    655.2706      3.3609
  1659.5000     86.7555      0.0000    654.8691      3.3670
  1659.7500     87.5073      0.0000    654.5961      3.3689
  1660.0000     87.3400      0.0000    654.3875      3.3618
  1660.2500     86.1360      0.0000    654.1162      3.3473
  1660.5000     84.5352      0.0000    653.5573      3.3295
  1660.7500     83.1555      0.0000    652.4349      3.3125
  1661.0000     81.9950      0.0000    650.7277      3.2986
  1661.2500     81.0261      0.0000    649.0256      3.2909
  1661.5000     80.8578      0.0000    648.3173      3.2921
  1661.7500     82.0940      0.0000    649.0899      3.3011
  1662.0000     84.3016      0.0000    650.6874      3.3100
  1662.2500     86.2238      0.0000    651.2186      3.3072
  1662.5000     86.9833      0.0000    646.9068      3.2829
  1662.7500     86.7590      0.0000    630.0073      3.2317
  1663.0000     86.2731      0.0000    587.9149      3.1497
  1663.2500     85.8057      0.0000    508.7278      3.0350
  1663.5000     85.0072      0.0000    393.3398      2.8929
  1663.7500     83.7908      0.0000    262.5351      2.7430
  1664.0000     83.1064      0.0000    147.0809      2.6138
  1664.2500     84.3866      0.0000     67.7230      2.5251
  1664.5000     88.1812      0.0000     25.2428      2.4772
  1664.7500     93.4903      0.0000      7.5335      2.4570
  1665.0000     98.4186      0.0000      1.7839      2.4504
  1665.2500    101.3263      0.0000      0.3302      2.4487
  1665.5000    101.5827      0.0000      0.0439      2.4483
  1665.7500     99.7866      0.0000   -999.2500   -999.2500
  1666.0000     97.5491      0.0000   -999.2500   -999.2500
  1666.2500     96.5686      0.0000   -999.2500   -999.2500
  1666.5000     97.2170      0.0000   -999.2500   -999.2500
  1666.7500     98.0061      0.0000   -999.2500   -999.2500
  1667.0000     96.8425      0.0000   -999.2500   -999.2500
  1667.2500     92.9445      0.0000   -999.2500   -999.2500
  1667.5000     87.6316      0.0000   -999.2500   -999.2500
  1667.7500     83.4014      0.0000   -999.2500   -999.2500
  1668.0000     82.0621      0.0000   -999.2500   -999.2500
  1668.2500     83.4211      0.0000   -999.2500   -999.2500
  1668.5000     85.8206      0.0000   -999.2500   -999.2500
  1668.7500     87.9155      0.0000   -999.2500   -999.2500
  1669.0000     89.7234      0.0000   -999.2500   -999.2500
  1669.2500     92.0356      0.0000   -999.2500   -999.2500
  1669.5000     95.2405      0.0000   -999.2500   -999.2500
  1669.7500     98.7940      0.0000   -999.2500   -999.2500
  1670.0000    101.6144      0.0000   -999.2500   -999.2500
  1670.2500    102.9355      0.0000   -999.2500   -999.2500
  1670.5000    102.8358      0.0000   -999.2500   -999.2500
  1670.7500    102.0219      0.0000   -999.2500   -999.2500
  1671.0000    101.2830   -999.2500   -999.2500   -999.2500
  1671.2500    101.1574   -999.2500   -999.2500   -999.2500
  1671.5000    101.6470   -999.2500   -999.2500   -999.2500
  1671.7500    101.9469   -999.2500   -999.2500   -999.2500
  1672.0000    100.7766   -999.2500   -999.2500   -999.2500
  1672.2500     97.3801   -999.2500   -999.2500   -999.2500
  1672.5000     91.9390   -999.2500   -999.2500   -999.2500
