~Version Information
VERS.                      2.0: CWLS Log ASCII Standard - VERSION 2.0
WRAP.                       NO: One line per depth step
~Well Information Block
STRT.FT                -4.2500: 
STOP.FT              2500.7500: 
STEP.FT                 0.2500: 
NULL.                -999.2500: 
COMP.          Pioneer Natural Resources: COMPANY
WELL.          Cock-a-doodle-doo 44-27: WELL
FLD.           Purgatoire River: FIELD
LOC.           163' FSL & 54' FEL--: LOCATION
PROV.                 Colorado: PROVINCE
CNTY.               Las Animas: COUNTRY
SRVC.                Patterson: SERVICE COMPANY
DATE.          Wed Jul 06 10:56:34 2005: LOG DATE
UWI.                071 08429 : UNIQUE WELL ID
~Curve Information Block
DEPT.FT            0 000 00 00: Depth
CCL.                          : Casing Collar Locator
TT3.usec                      : CBL 3' Travel Time
AMP3.mV                       : CBL 3' Amplitude
GR.GAPI                       : Gamma Ray
~Parameter Information Block
~A  Depth       CCL         TT3         AMP3         GR     
# ...
   665.7500      0.0000    677.6199     10.9978    128.9801
   666.0000      0.0000    677.9728     10.9460    136.9124
   666.2500      0.0000    680.2494     10.9074    144.1252
   666.5000      0.0000    685.0712     10.8938    147.8282
   666.7500      0.0000    691.0632     10.9129    145.9432
   667.0000      0.0000    696.1055     10.9759    138.8574
   667.2500      0.0000    699.0770     11.0979    129.3907
   667.5000      0.0000    699.9578     11.2837    120.6311
   667.7500      0.0000    698.4696     11.5186    113.9612
   668.0000      0.0000    692.5839     11.7772    109.1330
   668.2500      0.0000    678.3779     12.0393    105.5606
   668.5000      0.0000    652.7488     12.2923    103.0244
   668.7500      0.0000    618.6324     12.5220    101.4423
   669.0000      0.0000    587.7486     12.7105    100.8130
   669.2500      0.0000    575.0722     12.8476    101.4296
   669.5000      0.0000    587.5699     12.9439    103.3710
   669.7500      0.0000    618.2724     13.0274    105.7046
   670.0000      0.0000    652.2211     13.1210    107.1126
   670.2500      0.0000    677.6406     13.2123    107.6154
   670.5000      0.0000    691.3146     13.2521    108.8929
   670.7500      0.0000    695.8634     13.1931    112.3900
   671.0000      0.0000    694.9357     13.0329    117.5027
   671.2500      0.0000    691.1501     12.8105    122.0490
   671.5000      0.0000    686.3677     12.5666    124.2525
   671.7500      0.0000    682.0530     12.3175    123.9426
   672.0000      0.0000    679.0154     12.0677    122.1830
   672.2500      0.0000    677.2900     11.8365    120.2218
   672.5000      0.0000    676.4795     11.6637    118.7196
   672.7500      0.0000    676.1816     11.5861    117.6488
   673.0000      0.0000    676.1285     11.6038    116.8410
   673.2500      0.0000    676.1426     11.6671    116.5741
   673.5000      0.0000    676.1117     11.7022    117.4591
   673.7500      0.0000    676.0103     11.6599    119.6652
   674.0000      0.0000    675.8799     11.5441    122.5585
   674.2500      0.0000    675.7546     11.3964    125.3960
   674.5000      0.0000    675.5843     11.2606    128.0913
   674.7500      0.0000    675.2010     11.1692    130.8354
   675.0000      0.0000    674.2951     11.1526    133.0984
   675.2500      0.0000    672.5215     11.2352    133.5221
   675.5000      0.0000    669.9429     11.4140    131.0376
   675.7500      0.0000    667.5306     11.6523    125.9375
   676.0000      0.0000    666.9477     11.8967    119.7010
   676.2500      0.0000    669.4538     12.0997    113.7730
   676.5000      0.0000    674.9771     12.2398    108.6685
   676.7500      0.0000    682.2062     12.3331    104.2732
   677.0000      0.0000    689.3395     12.4246    100.6921
   677.2500      0.0000    694.6744     12.5576     98.3684
   677.5000      0.0000    696.7704     12.7427     97.3236
   677.7500      0.0000    694.2096     12.9447     96.7274
   678.0000      0.0000    685.6475     13.1007     95.5207
   678.2500      0.0000    671.2319     13.1588     93.0772
   678.5000      0.0000    654.2570     13.1092     88.9261
   678.7500      0.0000    639.8906     12.9833     82.5537
   679.0000      0.0000    631.0993     12.8267     74.2711
   679.2500      0.0000    626.5615     12.6699     65.9440
   679.5000      0.0000    622.4983     12.5212     60.2246
   679.7500      0.0000    615.8026     12.3781     58.8245
   680.0000      0.0000    607.5611     12.2439     61.2916
   680.2500      0.0000    605.0690     12.1331     65.3341
   680.5000      0.0000    616.6746     12.0613     68.6928
   680.7500      0.0000    642.1024     12.0317     71.0379
   681.0000      0.0000    670.9335     12.0288     73.9840
   681.2500      0.0000    692.0742     12.0224     79.1595
   681.5000      0.0000    701.8976     11.9809     86.4649
   681.7500      0.0000    703.1014     11.8890     94.3254
   682.0000      0.0000    699.8780     11.7581    101.2130
   682.2500      0.0000    695.6935     11.6218    106.3501
   682.5000      0.0000    692.8564     11.5170    109.0712
   682.7500      0.0000    692.1074     11.4642    108.3678
   683.0000      0.0000    692.9467     11.4572    103.6758
   683.2500      0.0000    694.9295     11.4699     95.8956
   683.5000      0.0000    698.5662     11.4775     87.2600
   683.7500      0.0000    705.3566     11.4754     80.1847
   684.0000      0.0000    716.8680     11.4792     76.0488
   684.2500      0.0000    732.1190     11.5063     74.5863
   684.5000      0.0000    744.7172     11.5690     74.3036
   684.7500      0.0000    744.5504     11.6857     73.6389
   685.0000      0.0000    725.5610     11.8817     71.9233
   685.2500      0.0000    692.8937     12.1418     69.6370
   685.5000      0.0000    661.8236     12.3473     68.0180
   685.7500      0.0000    648.9633     12.2896     68.1796
   686.0000      0.0000    662.3510     11.8180     70.1111
   686.2500      0.0000    696.8563     11.0083     72.3198
   686.5000      0.0000    737.3951     10.1438     72.6346
   686.7500      0.0000    767.7023      9.4952     69.7640
   687.0000      0.0000    779.5782      9.1388     64.4520
   687.2500     -2.0000    776.2509      8.9830     59.1767
   687.5000      2.0000    766.0623      8.9025     56.5027
   687.7500      0.0000    752.6187      8.8345     57.5005
   688.0000      0.0000    732.9657      8.8083     61.7637
   688.2500      0.0000    705.0586      8.9229     68.9036
   688.5000      0.0000    673.2952      9.2678     79.4676
   688.7500      0.0000    645.2463      9.8389     93.5590
   689.0000      0.0000    625.7479     10.5383    108.5015
   689.2500      0.0000    616.5104     11.2382    119.0201
   689.5000      0.0000    618.7487     11.8322    121.0501
   689.7500      0.0000    631.8415     12.2647    115.5773
   690.0000      0.0000    650.5457     12.5438    108.0974
   690.2500      0.0000    667.5391     12.7103    104.1281
   690.5000      0.0000    678.5814     12.7868    105.5318
   690.7500      0.0000    683.5973     12.7684    110.6856
   691.0000      0.0000    684.3276     12.6589    116.9198
   691.2500      0.0000    682.8145     12.4990    122.3841
   691.5000      0.0000    681.1582     12.3516    126.3968
   691.7500      0.0000    680.9738     12.2646    128.9887
   692.0000      0.0000    682.7354     12.2500    130.4983
   692.2500      0.0000    685.9103     12.2948    131.3377
   692.5000      0.0000    689.6085     12.3775    131.6493
   692.7500      0.0000    693.0112     12.4702    131.1262
   693.0000      0.0000    695.3527     12.5383    129.5400
   693.2500      0.0000    695.9662     12.5539    127.4989
   693.5000      0.0000    694.6719     12.5117    126.2746
   693.7500      0.0000    692.1840     12.4272    126.7020
   694.0000      0.0000    689.9205     12.3224    128.4336
   694.2500      0.0000    689.0496     12.2152    130.2787
   694.5000      0.0000    689.6650     12.1162    131.2258
   694.7500      0.0000    691.0967     12.0295    131.4031
   695.0000      0.0000    692.8357     11.9552    132.2534
   695.2500      0.0000    694.7707     11.8896    135.3582
   695.5000      0.0000    696.7349     11.8235    140.5966
   695.7500      0.0000    698.3719     11.7481    145.6941
   696.0000      0.0000    699.4647     11.6674    147.9444
   696.2500      0.0000    700.0966     11.6014    146.4159
   696.5000      0.0000    700.4637     11.5682    142.6008
   696.7500      0.0000    700.6777     11.5668    139.1638
   697.0000      0.0000    700.7598     11.5827    137.9871
   697.2500      0.0000    700.7300     11.6115    139.2487
   697.5000      0.0000    700.6426     11.6691    142.1151
   697.7500      0.0000    700.5515     11.7750    145.6061
   698.0000      0.0000    700.4669     11.9241    148.2329
   698.2500      0.0000    700.3563     12.0812    147.6127
   698.5000      0.0000    700.1732     12.2044    142.0074
   698.7500      0.0000    699.8913     12.2730    132.6053
   699.0000      0.0000    699.5340     12.2927    123.3455
