~Version Information
VERS.                      2.0: CWLS Log ASCII Standard - VERSION 2.0
WRAP.                       NO: One line per depth step
~Well Information Block
STRT.FT               472.0000: 
STOP.FT              2641.5000: 
STEP.FT                 0.1000: 
NULL.                -999.2500: 
COMP.          Pioneer Natural Resources: COMPANY
WELL.              Wagner 13-9: WELL
FLD.           Purgatoire River: FIELD
LOC.           1819' FSL & 1111' FWL: LOCATION
PROV.                 Colorado: PROVINCE
CNTY.               Las Animas: COUNTRY
SRVC.                Patterson: SERVICE COMPANY
DATE.          Tue Apr 19 08:56:38 2005: LOG DATE
UWI.           05 071 08302 00: UNIQUE WELL ID
~Curve Information Block
DEPT.FT            0 000 00 00: Depth
DCAL.in                       : CDL Caliper
RHOB.g/cc                     : CDL Bulk Density
RHOC.g/cc                     : CDL Density Correction
DPOR.pu                       : CDL Density Porosity
GR.GAPI                       : Gamma Ray
NPOR.pu                       : Neutron Porosity
~Parameter Information Block
~A  Depth       DCAL        RHOB        RHOC        DPOR         GR         NPOR    
   472.0000      1.6508      2.2081      0.0526     26.7790     52.0248     18.4634
   472.1000      1.6508      2.2170      0.0722     26.2415     53.3925     18.4735
   472.2000      1.6508      2.2294      0.0715     25.4918     53.8563     18.7498
   472.3000      1.6515      2.2362      0.1247     25.0807     53.1235     18.7406
   472.4000      1.6515      2.2306      0.0812     25.4164     52.9461     18.1139
   472.5000      1.6560      2.2125      0.0943     26.5156     55.6768     17.6911
   472.6000      1.6560      2.1851      0.0745     28.1783     62.1994     18.0322
   472.7000      1.6560      2.1635      0.0204     29.4834     67.2780     18.7685
   472.8000      1.6586      2.1667      0.0651     29.2911     68.5319     19.7701
   472.9000      1.6586      2.1879      0.0854     28.0057     71.5329     20.9101
   473.0000      1.6520      2.2034      0.1018     27.0664     76.0905     21.5013
   473.1000      1.6520      2.1989      0.0843     27.3387     77.8934     21.3457
   473.2000      1.6520      2.1845      0.0128     28.2128     78.8988     21.0393
   473.3000      1.6460      2.1834      0.0547     28.2802     81.9110     21.0674
   473.4000      1.6460      2.2020      0.0453     27.1532     83.8497     21.2446
   473.5000      1.6483      2.2271      0.0764     25.6278     80.6905     21.0167
   473.6000      1.6483      2.2431      0.0793     24.6610     75.4010     20.5831
   473.7000      1.6483      2.2427      0.1036     24.6853     74.9003     20.4665
   473.8000      1.6517      2.2317      0.0894     25.3521     76.9668     20.6373
   473.9000      1.6517      2.2276      0.0585     25.6004     74.5355     20.6762
   474.0000      1.6521      2.2388      0.0860     24.9199     70.1813     20.1067
   474.1000      1.6521      2.2500      0.0957     24.2437     68.3672     19.1091
   474.2000      1.6521      2.2420      0.1186     24.7282     69.1607     18.8745
   474.3000      1.6512      2.2246      0.0431     25.7795     73.8010     19.7962
   474.4000      1.6512      2.2265      0.0937     25.6641     80.0641     20.3984
   474.5000      1.6505      2.2447      0.1226     24.5646     81.9515     20.1479
   474.6000      1.6505      2.2468      0.1069     24.4345     81.1491     20.1991
   474.7000      1.6505      2.2271      0.0340     25.6305     82.8487     20.6697
   474.8000      1.6502      2.2128      0.0372     26.4951     86.8990     20.5710
   474.9000      1.6502      2.2146      0.0723     26.3879     91.4871     19.6442
   475.0000      1.6502      2.2191      0.0891     26.1154     94.0115     19.1677
   475.1000      1.6502      2.2195      0.0874     26.0902     94.8972     19.8537
   475.2000      1.6502      2.2179      0.0719     26.1862     98.4590     20.7577
   475.3000      1.6507      2.2146      0.0596     26.3853    103.7169     21.3139
   475.4000      1.6507      2.2092      0.0795     26.7123    105.3546     21.8306
   475.5000      1.6519      2.2001      0.0651     27.2666    102.6173     22.3958
   475.6000      1.6519      2.1857      0.0412     28.1418     96.9958     23.0027
   475.7000      1.6519      2.1731      0.0185     28.9003     90.4170     23.2420
   475.8000      1.6544      2.1704      0.0468     29.0692     86.2720     22.9414
   475.9000      1.6544      2.1752      0.0350     28.7772     86.0923     22.7083
   476.0000      1.6563      2.1834      0.0523     28.2790     89.1108     22.9131
   476.1000      1.6563      2.1909      0.0740     27.8229     92.7706     23.4550
   476.2000      1.6563      2.1960      0.0274     27.5171     92.9660     23.6187
   476.3000      1.6545      2.2051      0.0430     26.9649     90.5984     22.8453
   476.4000      1.6545      2.2187      0.0948     26.1364     90.9987     21.7577
   476.5000      1.6526      2.2265      0.0789     25.6639     93.6759     21.4052
   476.6000      1.6526      2.2294      0.0616     25.4937     94.1787     21.3224
   476.7000      1.6526      2.2356      0.0918     25.1155     89.3255     20.4528
   476.8000      1.6516      2.2397      0.0854     24.8681     80.2054     19.5720
   476.9000      1.6516      2.2361      0.0352     25.0877     72.3869     20.0765
   477.0000      1.6505      2.2316      0.0305     25.3552     70.2500     21.3335
   477.1000      1.6505      2.2276      0.1049     25.6010     72.7188     21.4497
   477.2000      1.6505      2.2205      0.0415     26.0324     74.7141     20.1584
   477.3000      1.6504      2.2171      0.0774     26.2374     74.4770     18.8438
   477.4000      1.6504      2.2198      0.0406     26.0722     76.8643     18.6485
   477.5000      1.6511      2.2174      0.0834     26.2196     83.7107     19.3891
   477.6000      1.6511      2.2085      0.0330     26.7584     89.8225     19.9263
   477.7000      1.6511      2.2082      0.0648     26.7779     91.2085     19.5413
   477.8000      1.6511      2.2148      0.0906     26.3763     86.5092     18.9857
   477.9000      1.6511      2.2138      0.0721     26.4385     75.7872     18.9606
   478.0000      1.6505      2.2035      0.0523     27.0578     65.1915     19.3862
   478.1000      1.6505      2.1882      0.0766     27.9885     61.8019     20.0866
   478.2000      1.6505      2.1724      0.0147     28.9457     63.6010     20.2751
   478.3000      1.6499      2.1688      0.0380     29.1644     64.2846     19.0705
   478.4000      1.6499      2.1827      0.0490     28.3183     62.7109     17.5724
   478.5000      1.6490      2.2046      0.1103     26.9925     61.7221     17.3215
   478.6000      1.6490      2.2259      0.0591     25.7013     61.0482     17.9289
   478.7000      1.6490      2.2434      0.0795     24.6423     58.1090     18.3759
   478.8000      1.6478      2.2443      0.1259     24.5890     55.3748     18.3393
   478.9000      1.6478      2.2236      0.0519     25.8436     56.2219     18.1352
   479.0000      1.6468      2.1977      0.0280     27.4145     60.0151     18.1919
   479.1000      1.6468      2.1796      0.0251     28.5062     64.2070     18.1907
   479.2000      1.6468      2.1736      0.0211     28.8729     64.6220     17.9701
   479.3000      1.6486      2.1845      0.0087     28.2113     60.6655     17.7446
   479.4000      1.6486      2.2095      0.0902     26.6956     59.3078     17.4430
   479.5000      1.6511      2.2315      0.0680     25.3615     64.5931     17.3752
   479.6000      1.6511      2.2428      0.0821     24.6785     73.2490     17.8977
   479.7000      1.6511      2.2510      0.0988     24.1824     81.3922     18.6222
   479.8000      1.6516      2.2603      0.0754     23.6180     85.7116     18.9684
   479.9000      1.6516      2.2678      0.0923     23.1653     83.7485     19.0389
   480.0000      1.6512      2.2732      0.0709     22.8362     79.4256     18.9957
   480.1000      1.6512      2.2726      0.1341     22.8727     79.9711     18.4737
   480.2000      1.6512      2.2563      0.0746     23.8577     83.1540     17.7851
   480.3000      1.6511      2.2362      0.0449     25.0767     81.0535     18.0014
   480.4000      1.6511      2.2343      0.0408     25.1932     74.1589     18.9077
   480.5000      1.6510      2.2479      0.0957     24.3726     68.0471     19.2212
   480.6000      1.6510      2.2553      0.1032     23.9205     66.2505     18.5896
   480.7000      1.6510      2.2451      0.0701     24.5396     68.2134     17.7652
   480.8000      1.6509      2.2243      0.0649     25.7997     71.2524     17.3209
   480.9000      1.6509      2.2073      0.0573     26.8331     74.1442     17.0616
   481.0000      1.6516      2.2021      0.0335     27.1435     77.3020     17.0802
   481.1000      1.6516      2.2057      0.0508     26.9255     78.5713     17.5819
   481.2000      1.6516      2.2089      0.0441     26.7309     76.7521     17.7046
   481.3000      1.6529      2.2029      0.0539     27.0964     75.0509     16.8218
   481.4000      1.6529      2.1910      0.0039     27.8155     74.6403     15.8496
   481.5000      1.6537      2.1947     -0.0016     27.5932     73.3726     15.6570
