~Version Information
 VERS.                      2.0: CWLS Log ASCII Standard - VERSION 2.0
 WRAP.                       NO: One line per depth step
 ~Well Information Block
 STRT.FT               887.5000: 
 STOP.FT              2605.5000: 
 STEP.FT                 0.2500: 
 NULL.                -999.2500: 
 COMP.          Petrogulf Corporation: COMPANY
 WELL.               YWAM 7-23V: WELL
 FLD.           Purgatorie River: FIELD
 LOC.           230' FSL & 225' FWL: LOCATION
 CNTY.               Las Animas: COUNTY
 SRVC.                         : SERVICE COMPANY
 DATE.          Sat Oct 30 08:34:45 2004: LOG DATE
 UWI.           05 071 08227 00: UNIQUE WELL ID
 STAT.                 Colorado: STATE
 PROV.                         :Province
 ~Curve Information Block
 DEPT.FT            0 000 00 00: Depth
 SP.mV                         : DIL Spontaneous Potential
 RILD.Ohm-m                    : DIL Deep Resistivity
 RILM.Ohm-m                    : DIL Medium Resistivity
 RLL3.Ohm-m                    : DIL Shallow Resistivity
 GR.GAPI                       : Gamma Ray
 ~Parameter Information Block
 ~A  Depth        SP         RILD        RILM        RLL3         GR     
# ...
  1475.5000   -168.4020     13.2141     13.4719     17.4686    149.1203
  1475.7500   -167.3845     13.4926     13.8522     18.2670    150.7561
  1476.0000   -166.7512     13.7688     14.2652     19.2289    150.3523
  1476.2500   -166.5950     14.0471     14.7060     20.2619    147.9982
  1476.5000   -166.9368     14.3336     15.1699     21.2499    141.4667
  1476.7500   -167.7248     14.6339     15.6541     22.0943    135.5569
  1477.0000   -168.8458     14.9515     16.1576     22.7627    126.1111
  1477.2500   -170.1404     15.2864     16.6808     23.3198    120.8811
  1477.5000   -171.4231     15.6349     17.2238     23.9195    116.4693
  1477.7500   -172.5025     15.9893     17.7822     24.7519    115.6966
  1478.0000   -173.1997     16.3385     18.3455     25.9588    115.6587
  1478.2500   -173.3827     16.6686     18.8957     27.5512    114.9433
  1478.5000   -172.9832     16.9645     19.4085     29.3663    111.8105
  1478.7500   -172.0265     17.2115     19.8574     31.0921    108.8895
  1479.0000   -170.6302     17.3979     20.2191     32.3549    105.1989
  1479.2500   -168.9987     17.5164     20.4788     32.8401    104.0444
  1479.5000   -167.3799     17.5661     20.6315     32.3996    104.4362
  1479.7500   -166.0064     17.5511     20.6808     31.1035    105.7625
  1480.0000   -165.0454     17.4800     20.6341     29.2152    108.9498
  1480.2500   -164.5471     17.3628     20.4976     27.1037    111.8786
  1480.5000   -164.4420     17.2091     20.2737     25.1292    117.4507
  1480.7500   -164.5673     17.0265     19.9622     23.5435    121.6424
  1481.0000   -164.7220     16.8201     19.5639     22.4371    127.5619
  1481.2500   -164.7254     16.5932     19.0857     21.7450    130.5719
  1481.5000   -164.4698     16.3488     18.5444     21.3014    133.0603
  1481.7500   -163.9375     16.0902     17.9658     20.9180    133.5195
  1482.0000   -163.1904     15.8228     17.3818     20.4546    133.4404
  1482.2500   -162.3333     15.5539     16.8252     19.8601    133.6686
  1482.5000   -161.4721     15.2928     16.3247     19.1720    135.3242
  1482.7500   -160.6768     15.0495     15.9012     18.4833    137.1488
  1483.0000   -159.9641     14.8339     15.5674     17.8952    139.7390
  1483.2500   -159.2985     14.6545     15.3276     17.4790    140.7319
  1483.5000   -158.6128     14.5179     15.1792     17.2605    141.0836
  1483.7500   -157.8452     14.4276     15.1144     17.2278    140.9915
  1484.0000   -156.9697     14.3845     15.1218     17.3523    140.9592
  1484.2500   -156.0224     14.3870     15.1875     17.6062    140.9949
  1484.5000   -155.1028     14.4318     15.2976     17.9684    140.5108
  1484.7500   -154.3517     14.5144     15.4392     18.4178    139.2647
  1485.0000   -153.9160     14.6313     15.6026     18.9220    135.1886
  1485.2500   -153.9036     14.7794     15.7834     19.4372    130.9945
  1485.5000   -154.3492     14.9578     15.9827     19.9281    123.8824
  1485.7500   -155.2027     15.1668     16.2072     20.4111    120.0944
  1486.0000   -156.3418     15.4074     16.4686     21.0090    118.2428
  1486.2500   -157.6066     15.6797     16.7814     22.0039    120.0588
  1486.5000   -158.8407     15.9812     17.1601     23.8620    126.3268
  1486.7500   -159.9265     16.3055     17.6161     27.2027    131.5440
  1487.0000   -160.8076     16.6412     18.1552     32.6949    138.3128
  1487.2500   -161.4932     16.9732     18.7742     40.8791    140.7877
  1487.5000   -162.0371     17.2849     19.4578     51.9389    139.8138
  1487.7500   -162.5173     17.5618     20.1773     65.4818    135.5043
  1488.0000   -163.0125     17.7967     20.8918     80.4174    123.8337
  1488.2500   -163.5786     17.9917     21.5526     95.0166    113.8144
  1488.5000   -164.2424     18.1587     22.1131    107.1924     98.8763
  1488.7500   -164.9917     18.3167     22.5399    114.9626     90.8412
  1489.0000   -165.7747     18.4868     22.8236    116.9673     83.4334
  1489.2500   -166.5041     18.6867     22.9821    112.8728     81.9367
  1489.5000   -167.0641     18.9261     23.0557    103.5108     84.8586
  1489.7500   -167.3365     19.2032     23.0986     90.6983     89.8201
  1490.0000   -167.2328     19.5044     23.1666     76.7996     99.9495
  1490.2500   -166.7278     19.8059     23.3093     64.1826    106.9837
  1490.5000   -165.8841     20.0775     23.5651     54.7357    115.5256
  1490.7500   -164.8467     20.2898     23.9587     49.5576    118.9367
  1491.0000   -163.8194     20.4205     24.5006     48.8517    119.9320
  1491.2500   -163.0127     20.4605     25.1847     51.9912    117.7891
  1491.5000   -162.5963     20.4156     25.9857     57.7086    110.5875
  1491.7500   -162.6581     20.3045     26.8558     64.3678    103.5532
  1492.0000   -163.1867     20.1533     27.7237     70.2887     91.2870
  1492.2500   -164.0791     19.9884     28.4962     74.0768     83.4455
  1492.5000   -165.1674     19.8302     29.0695     74.8840     74.8395
  1492.7500   -166.2467     19.6887     29.3479     72.5303     72.1794
  1493.0000   -167.1110     19.5617     29.2667     67.4508     72.8618
  1493.2500   -167.5774     19.4354     28.8100     60.4942     75.8985
  1493.5000   -167.5229     19.2895     28.0135     52.6554     83.5898
  1493.7500   -166.9015     19.1014     26.9529     44.8355     90.4373
  1494.0000   -165.7584     18.8534     25.7218     37.6960    101.8373
  1494.2500   -164.2188     18.5381     24.4121     31.6151    109.0327
  1494.5000   -162.4671     18.1598     23.1005     26.7213    118.4039
  1494.7500   -160.7073     17.7323     21.8441     22.9640    124.2683
  1495.0000   -159.1270     17.2750     20.6811     20.1888    133.5932
  1495.2500   -157.8688     16.8076     19.6347     18.1987    139.7856
  1495.5000   -157.0210     16.3467     18.7168     16.8002    146.7776
  1495.7500   -156.6193     15.9047     17.9326     15.8315    148.8029
  1496.0000   -156.6569     15.4905     17.2821     15.1782    148.0877
  1496.2500   -157.0942     15.1106     16.7619     14.7769    146.2581
  1496.5000   -157.8651     14.7707     16.3660     14.6098    143.5451
  1496.7500   -158.8863     14.4768     16.0860     14.6958    142.3495
  1497.0000   -160.0574     14.2345     15.9100     15.0760    141.2984
  1497.2500   -161.2731     14.0485     15.8227     15.7929    140.5462
  1497.5000   -162.4356     13.9211     15.8039     16.8646    138.3452
  1497.7500   -163.4637     13.8514     15.8289     18.2565    135.9197
  1498.0000   -164.3014     13.8337     15.8695     19.8610    131.2162
  1498.2500   -164.9191     13.8581     15.8966     21.4963    127.8730
  1498.5000   -165.3109     13.9106     15.8840     22.9316    123.4775
  1498.7500   -165.4877     13.9747     15.8141     23.9358    121.3975
  1499.0000   -165.4783     14.0337     15.6810     24.3356    120.0692
  1499.2500   -165.3159     14.0730     15.4919     24.0627    120.6304
  1499.5000   -165.0410     14.0821     15.2646     23.1724    124.0017
  1499.7500   -164.6889     14.0553     15.0225     21.8303    127.9050
  1500.0000   -164.2788     13.9914     14.7885     20.2741    135.4195
  1500.2500   -163.8119     13.8922     14.5803     18.7643    140.6442
  1500.5000   -163.2754     13.7607     14.4066     17.5386    147.1007
  1500.7500   -162.6524     13.6002     14.2658     16.7720    149.7628
  1501.0000   -161.9416     13.4136     14.1462     16.5477    150.8688
  1501.2500   -161.1708     13.2031     14.0278     16.8399    149.7803
  1501.5000   -160.4050     12.9711     13.8861     17.5129    145.8191
  1501.7500   -159.7322     12.7202     13.6974     18.3445    142.0785
  1502.0000   -159.2458     12.4543     13.4443     19.0763    136.2785
  1502.2500   -159.0146     12.1779     13.1206     19.4776    133.4002
  1502.5000   -159.0654     11.8960     12.7321     19.4065    131.9578
  1502.7500   -159.3685     11.6140     12.2952     18.8424    132.9304
  1503.0000   -159.8456     11.3366     11.8317     17.8795    136.2159
  1503.2500   -160.3916     11.0671     11.3634     16.6858    139.0620
