~Version Information
 VERS.                                  2.0 : CWLS LAS VERSION
 WRAP.                                   NO : WRAPING MODE
 SWARE .                 MController 2.5.0J : SOFTWARE VERSION
~Well Information
 WELL.                  Great Plains 22-21V : WELL
 COMP.                Petrogulf Corporation : COMPANY
 FLD.                      Purgatoire River : FIELD
 LOC.                NE/NW Sec 22 T33S R67W : LOCATION
 DATE.                          08/29-30/05 : DATE(S) LOGGED
 SRVC.       Blanco Geological Services LLC : SERVICE COMPANY
 STAT.                                   CO : STATE
 CNTY.                           Las Animas : COUNTY
 CTRY.                                  USA : COUNTRY
 API.                       05-071-08346-00 : API NUMBER
 STRT.FT                              -2.00 : START DEPTH
 STOP.FT                            2090.00 : STOP DEPTH
 STEP.FT                               1.00 : DEPTH INCREMENT
 NULL.                                -9999 : NULL VALUE
~Curve information
 DEPTH.FT                                   :
 ROP.MIN/FT                                 :
 GAS.UNITS                                  :
~ASCII Log data
# ...
       398.0         0.45         17.9 
       399.0         0.40         18.5 
       400.0         0.27         17.2 
       401.0         0.30         16.4 
       402.0         0.23         15.5 
       403.0         0.20         15.9 
       404.0         0.13         16.0 
       405.0         0.13         15.8 
       406.0         0.10         16.0 
       407.0         0.10         15.4 
       408.0         0.10         15.4 
       409.0         0.23         16.2 
       410.0         0.20         16.3 
       411.0         0.27         16.3 
       412.0         0.28         16.3 
       413.0         0.37         16.3 
       414.0         0.20         16.4 
       415.0         0.27         16.3 
       416.0         2.68         17.8 
       417.0         0.27         16.7 
       418.0         0.37         16.7 
       419.0         0.30         16.6 
       420.0         0.37         17.0 
       421.0         0.33         16.8 
       422.0         0.33         16.7 
       423.0         0.33         16.6 
       424.0         0.32         16.9 
       425.0         9.95         43.6 
       426.0         0.20         16.9 
       427.0         0.20         16.7 
       428.0         0.27         16.5 
       429.0         0.23         16.8 
       430.0         0.20         16.7 
       431.0         0.30         17.0 
       432.0         0.33         17.1 
       433.0         0.30         17.1 
       434.0         0.30         17.0 
       435.0         0.27         17.1 
       436.0         0.37         16.8 
       437.0         0.35         17.3 
       438.0         0.33         17.4 
       439.0         0.33         17.4 
       440.0         0.30         17.9 
       441.0         0.33         20.8 
       442.0         0.33         26.3 
       443.0         0.33         29.3 
       444.0         0.40         32.2 
       445.0         0.43         41.2 
       446.0         1.98         44.6 
       447.0         0.33         17.5 
       448.0         0.40         17.8 
       449.0         0.53         18.6 
       450.0         0.42         19.0 
       451.0         0.37         19.0 
       452.0         0.63         19.7 
       453.0         0.27         20.0 
       454.0         0.30         19.8 
       455.0         0.47         19.6 
       456.0         0.23         19.8 
       457.0         0.17         19.8 
       458.0         0.27         19.7 
       459.0         0.33         19.5 
       460.0         0.28         19.6 
       461.0         0.33         20.3 
       462.0         0.27         22.5 
       463.0         0.30         24.7 
       464.0         0.27         25.1 
       465.0         0.23         25.0 
       466.0         0.20         24.2 
       467.0         0.20         23.3 
       468.0         0.20         22.5 
       469.0         0.13         21.3 
       470.0         0.10         21.6 
       471.0         0.23         21.1 
       472.0         0.23         21.8 
       473.0         0.30         25.3 
       474.0         0.35         31.8 
       475.0         0.33         42.1 
       476.0         2.07         64.0 
       477.0         0.23         20.6 
       478.0         0.30         20.7 
       479.0         0.25         20.5 
       480.0         0.40         20.0 
       481.0         0.33         20.2 
       482.0         0.27         20.0 
       483.0         0.30         20.2 
       484.0         0.37         20.3 
       485.0         0.30         20.4 
       486.0         0.30         20.5 
       487.0         0.30         20.7 
       488.0         0.30         20.8 
       489.0         0.28         20.8 
       490.0         0.30         21.2 
       491.0         0.30         20.9 
       492.0         0.30         21.4 
       493.0         0.33         21.0 
       494.0         0.27         21.7 
       495.0         0.23         21.9 
       496.0         0.23         21.6 
       497.0         0.27         21.0 
       498.0         0.27         20.8 
       499.0         0.27         20.7 
       500.0         0.20         19.6 
       501.0         0.20         19.9 
       502.0         0.22         20.2 
       503.0         0.20         21.9 
       504.0         0.33         26.1 
       505.0         0.37         32.5 
       506.0         2.32         64.4 
       507.0         0.23         21.0 
       508.0         0.30         20.7 
       509.0         0.30         20.7 
       510.0         0.43         20.6 
       511.0         0.37         21.6 
       512.0         0.33         23.4 
       513.0         0.33         25.3 
       514.0         0.33         26.5 
       515.0         0.37         26.2 
       516.0         0.35         26.2 
       517.0         0.27         26.9 
       518.0         0.30         28.1 
       519.0         0.30         28.0 
       520.0         0.30         26.8 
       521.0         0.40         29.1 
       522.0         0.27         33.3 
       523.0         0.27         39.7 
       524.0         0.37         45.7 
       525.0         0.17         47.6 
       526.0         0.20         49.5 
       527.0         0.25         51.2 
       528.0         0.27         53.4 
       529.0         0.33         55.9 
       530.0         0.30         57.3 
       531.0         0.30         56.9 
       532.0         0.20         60.1 
       533.0         0.20         66.6 
       534.0         0.27         77.7 
       535.0         0.37        140.7 
       536.0         2.42        238.2 
       537.0         0.40         86.7 
       538.0         0.40         87.6 
       539.0         0.50         90.6 
       540.0         0.50         92.1 
       541.0         0.45         93.3 
       542.0         0.30         92.7 
       543.0         0.40         91.3 
       544.0         0.27         91.5 
       545.0         0.37         91.9 
       546.0         0.23         92.2 
       547.0         0.30         92.9 
       548.0         0.30         92.8 
       549.0         0.30         91.3 
       550.0         0.27         88.7 
       551.0         0.28         86.7 
       552.0         0.30         85.7 
       553.0         0.43         85.1 
       554.0         0.40         83.7 
       555.0         0.33         82.9 
       556.0         0.30         82.5 
       557.0         0.30         82.1 
       558.0         0.30         80.6 
       559.0         0.30         79.9 
       560.0         0.33         79.9 
       561.0         0.32         78.6 
       562.0         0.37         74.9 
       563.0         0.30         87.0 
       564.0         0.33        104.1 
       565.0         0.30        211.0 
       566.0         2.08        237.2 
       567.0         0.37         75.3 
       568.0         0.30         74.6 
       569.0         0.37         74.1 
       570.0         0.37         73.6 
       571.0         0.33         73.6 
       572.0         0.30         74.3 
       573.0         0.37         74.8 
       574.0         0.30         75.6 
       575.0         0.33         75.9 
       576.0         0.32         75.2 
       577.0         0.30         75.2 
       578.0         0.33         75.1 
       579.0         0.33         74.5 
       580.0         0.40         74.2 
       581.0         0.50         73.5 
       582.0         0.37         73.0 
       583.0         0.40         72.5 
       584.0         0.42         71.7 
       585.0         0.40         71.4 
       586.0         0.47         72.8 
       587.0         0.37         73.2 
       588.0         0.30         73.2 
       589.0         0.33         72.7 
       590.0         0.30         72.5 
       591.0         0.27         67.7 
       592.0         0.30         71.6 
       593.0         0.27         82.5 
       594.0         0.32         96.7 
       595.0         0.27        170.8 
       596.0         3.15        254.1 
       597.0         0.33         69.1 
