~Version Information
VERS.                      2.0: CWLS Log ASCII Standard - VERSION 2.0
WRAP.                       NO: One line per depth step
~Well Information Block
STRT.FT               390.0000: 
STOP.FT              2768.7000: 
STEP.FT                 0.1000: 
NULL.                -999.2500: 
COMP.          Pioneer Natural Resources: COMPANY
WELL.              Lynch 43-30: WELL
FLD.           Purgatoire River: FIELD
LOC.           1438' FSL & 429' FEL: LOCATION
PROV.                 Colorado: PROVINCE
CNTY.               Las Animas: COUNTRY
SRVC.                Patterson: SERVICE COMPANY
DATE.          Wed Oct 27 08:22:00 2004: LOG DATE
UWI.           05 071 08170 00: UNIQUE WELL ID
~Curve Information Block
DEPT.FT            0 000 00 00: Depth
DCAL.in                       : CDL Caliper
DPOR.pu                       : CDL Density Porosity
NPOR.pu                       : Neutron Porosity
RHOB.g/cc                     : CDL Bulk Density
RHOC.g/cc                     : CDL Density Correction
GR.GAPI                       : Gamma Ray
~Parameter Information Block
~A  Depth       DCAL        DPOR        NPOR        RHOB        RHOC         GR     
# ...
  2751.6000      7.8849     12.4429     19.9014      2.4447      0.0108      0.0097
  2751.7000      7.8849     12.7579     19.2404      2.4395     -0.0045      0.0000
  2751.8000      7.8831     12.4265     18.3882      2.4450      0.0144   -999.2500
  2751.9000      7.8831     11.6041     17.3017      2.4585     -0.0035   -999.2500
  2752.0000      7.8840     10.3477     16.3014      2.4793      0.0456   -999.2500
  2752.1000      7.8840      9.2458     16.0083      2.4974      0.0726   -999.2500
  2752.2000      7.8840      8.9534     16.5564      2.5023      0.0580   -999.2500
  2752.3000      7.8845      9.1271     17.5430      2.4994      0.0292   -999.2500
  2752.4000      7.8845      9.1195     18.3659      2.4995      0.0233   -999.2500
  2752.5000      7.8875      9.1849     18.5911      2.4984      0.0815   -999.2500
  2752.6000      7.8875      9.7068     18.3321      2.4898      0.0521   -999.2500
  2752.7000      7.8875     10.3129     18.1616      2.4798      0.0588   -999.2500
  2752.8000      7.8865     10.7018     18.7267      2.4734      0.0370   -999.2500
  2752.9000      7.8865     11.1403     19.8316      2.4662      0.0649   -999.2500
  2753.0000      7.8669     12.2800     20.5178      2.4474      0.0443   -999.2500
  2753.1000      7.8669     14.8897     20.3885      2.4043      0.0088   -999.2500
  2753.2000      7.8669     19.1872     19.9349      2.3334     -0.0387   -999.2500
  2753.3000      7.7860     23.8131     20.0292      2.2571     -0.0785   -999.2500
  2753.4000      7.7860     26.7276     20.8117      2.2090     -0.0753   -999.2500
  2753.5000      7.6271     27.1424     21.3166      2.2022     -0.0688   -999.2500
  2753.6000      7.6271     25.5972     21.3586      2.2276     -0.0375   -999.2500
  2753.7000      7.6271     22.9200     21.5787      2.2718      0.0149   -999.2500
  2753.8000      7.5147     19.4176     21.8712      2.3296      0.0864   -999.2500
  2753.9000      7.5147     15.3066     21.6852      2.3974      0.1370   -999.2500
  2754.0000      7.5345     11.5448     20.8689      2.4595      0.1786   -999.2500
  2754.1000      7.5345      9.1226     20.0150      2.4995      0.1812   -999.2500
  2754.2000      7.5345      7.9391     19.7496      2.5190      0.1569   -999.2500
  2754.3000      7.6157      7.4886     20.0047      2.5264      0.1628   -999.2500
  2754.4000      7.6157      7.5801     20.4818      2.5249      0.1485   -999.2500
  2754.5000      7.6934      7.9245     21.0670      2.5192      0.1348   -999.2500
  2754.6000      7.6934      8.3137     21.5605      2.5128      0.1182   -999.2500
  2754.7000      7.6934      8.6587     21.7514      2.5071      0.1278   -999.2500
  2754.8000      7.7607      8.6827     21.6935      2.5067      0.0835   -999.2500
  2754.9000      7.7607      8.1383     21.3854      2.5157      0.1137   -999.2500
  2755.0000      7.8274      7.1315     20.7246      2.5323      0.0977   -999.2500
  2755.1000      7.8274      6.0828     20.1903      2.5496      0.1323   -999.2500
  2755.2000      7.8274      5.5802     20.3214      2.5579      0.1077   -999.2500
  2755.3000      7.9205      5.6323     20.7833      2.5571      0.0869   -999.2500
  2755.4000      7.9205      5.5706     20.7889      2.5581      0.0851   -999.2500
  2755.5000      8.0344      4.9786     20.4806      2.5679      0.1109   -999.2500
  2755.6000      8.0344      3.9347     20.6895      2.5851      0.0864   -999.2500
  2755.7000      8.0344      3.1101     21.5286      2.5987      0.1217   -999.2500
  2755.8000      8.1041      3.6201     22.3993      2.5903      0.0880   -999.2500
  2755.9000      8.1041      5.4600     22.7982      2.5599      0.0653   -999.2500
  2756.0000      8.1188      7.1736     22.6845      2.5316     -0.0134   -999.2500
  2756.1000      8.1188      8.3881     22.5072      2.5116      0.0503   -999.2500
  2756.2000      8.1188     10.0518     24.5635      2.4841     -0.0113   -999.2500
  2756.3000      8.1177     11.4712     31.8810      2.4607     -0.0090   -999.2500
  2756.4000      8.1177     11.5376     42.3057      2.4596      0.0088   -999.2500
  2756.5000      8.1177     11.0747     49.6209      2.4673      0.0489   -999.2500
  2756.6000      8.1177     10.9617     52.3124      2.4691     -0.0053   -999.2500
  2756.7000      8.1177     10.8565     52.8440      2.4709      0.0525   -999.2500
  2756.8000      8.1183     10.6475     52.9000      2.4743      0.0131   -999.2500
  2756.9000      8.1183     10.7665     52.9031      2.4724      0.0669   -999.2500
  2757.0000      8.1173     11.3826   -999.2500      2.4622      0.0292   -999.2500
  2757.1000      8.1173     12.0670   -999.2500      2.4509      0.0490   -999.2500
  2757.2000      8.1173     12.4564   -999.2500      2.4445      0.0396   -999.2500
  2757.3000      7.9168     12.5787   -999.2500      2.4425      0.0335   -999.2500
  2757.4000      7.9168     12.6335   -999.2500      2.4415      0.0305   -999.2500
  2757.5000      7.9244     12.6404   -999.2500      2.4414      0.0199   -999.2500
  2757.6000      7.9244     12.5779   -999.2500      2.4425      0.0303   -999.2500
  2757.7000      7.9244     12.4982   -999.2500      2.4438      0.0400   -999.2500
  2757.8000      7.9602     11.9044   -999.2500      2.4536     -0.0076   -999.2500
  2757.9000      7.9602     10.4854   -999.2500      2.4770      0.1028   -999.2500
  2758.0000      8.0105      9.1120   -999.2500      2.4997      0.0725   -999.2500
  2758.1000      8.0105      8.1256   -999.2500      2.5159      0.0490   -999.2500
  2758.2000      8.0105      7.5888   -999.2500      2.5248      0.0989   -999.2500
  2758.3000      7.9890      8.4345   -999.2500      2.5108      0.0676   -999.2500
  2758.4000      7.9890     10.4186   -999.2500      2.4781      0.0270   -999.2500
  2758.5000      7.8910     11.9480   -999.2500      2.4529      0.0085   -999.2500
  2758.6000      7.8910     12.4538   -999.2500      2.4445      0.0095   -999.2500
  2758.7000      7.8910     12.5903   -999.2500      2.4423      0.0137   -999.2500
  2758.8000      7.8243     12.9356   -999.2500      2.4366      0.0091   -999.2500
  2758.9000      7.8243     13.6070   -999.2500      2.4255     -0.0083   -999.2500
  2759.0000      7.8069     13.9091   -999.2500      2.4205     -0.0732   -999.2500
  2759.1000      7.8069     12.8748   -999.2500      2.4376     -0.0213   -999.2500
  2759.2000      7.8069     11.1827   -999.2500      2.4655      0.0137   -999.2500
  2759.3000      7.8034     10.0196   -999.2500      2.4847     -0.0112   -999.2500
  2759.4000      7.8034      9.0286   -999.2500      2.5010     -0.0024   -999.2500
  2759.5000      7.7998      7.8087   -999.2500      2.5212      0.0709   -999.2500
  2759.6000      7.7998      6.9589   -999.2500      2.5352      0.0423   -999.2500
  2759.7000      7.7998      6.8719   -999.2500      2.5366      0.0501   -999.2500
  2759.8000      7.7973      7.2870   -999.2500      2.5298      0.0510   -999.2500
  2759.9000      7.7973      7.2176   -999.2500      2.5309     -0.0007   -999.2500
  2760.0000      7.8012      6.3126   -999.2500      2.5458      0.0394   -999.2500
  2760.1000      7.8012      6.0824   -999.2500      2.5496      0.0859   -999.2500
  2760.2000      7.8012      7.3757   -999.2500      2.5283      0.0164   -999.2500
  2760.3000      7.8052      8.7944   -999.2500      2.5049     -0.0021   -999.2500
  2760.4000      7.8052      9.1580   -999.2500      2.4989      0.0302   -999.2500
  2760.5000      7.8052      8.4201   -999.2500      2.5111      0.0222   -999.2500
  2760.6000      7.8052      6.9273   -999.2500      2.5357      0.0237   -999.2500
  2760.7000      7.8052      5.6921   -999.2500      2.5561      0.0773   -999.2500
  2760.8000      7.8046      5.3749   -999.2500      2.5613      0.0397   -999.2500
  2760.9000      7.8046      5.0735   -999.2500      2.5663      0.0105   -999.2500
  2761.0000      7.8052      3.9373   -999.2500      2.5850      0.0596   -999.2500
  2761.1000      7.8052      2.3865   -999.2500      2.6106      0.0938   -999.2500
