~Version Information
 VERS.                                  2.0 : CWLS LAS VERSION
 WRAP.                                   NO : WRAPING MODE
 SWARE .                 MController 2.5.0J : SOFTWARE VERSION
~Well Information
 WELL.                      Peregrine 12-20 : WELL
 COMP.    Pioneer Natural Resources USA Inc : COMPANY
 FLD.                      Purgatoire River : FIELD
 LOC.               SW/NW Sec 20 T34S R65W  : LOCATION
 DATE.                             07/14/05 : DATE(S) LOGGED
 SRVC.       BLANCO Geological Services LLC : SERVICE COMPANY
 STAT.                                   CO : STATE
 CNTY.                           Las Animas : COUNTY
 CTRY.                                  USA : COUNTRY
 API.                       05-071-08428-00 : API NUMBER
 STRT.FT                             226.00 : START DEPTH
 STOP.FT                            1645.00 : STOP DEPTH
 STEP.FT                               1.00 : DEPTH INCREMENT
 NULL.                                -9999 : NULL VALUE
~Curve information
 DEPTH.FT                                   :
 ROP.MIN/FT                                 :
 GAS.UNITS                                  :
~ASCII Log data
       226.0     -9999.00          2.3 
       227.0         7.58          2.9 
       228.0         0.23          2.4 
       229.0         1.40          4.2 
       230.0         0.10          4.3 
       231.0         0.07          4.2 
       232.0         0.10          3.9 
       233.0         0.10          3.9 
       234.0         0.10          4.3 
       235.0         0.10          4.0 
       236.0         0.33          4.3 
       237.0         0.10          3.9 
       238.0         0.22          4.1 
       239.0         0.13          4.3 
       240.0         0.10          4.8 
       241.0         0.10          4.6 
       242.0         0.13          5.1 
       243.0         1.43          7.5 
       244.0         0.30          7.8 
       245.0         0.30          8.1 
       246.0         0.17          7.7 
       247.0         0.17          7.7 
       248.0         0.18          8.0 
       249.0         0.17          8.2 
       250.0         0.13          8.3 
       251.0         0.13          8.0 
       252.0         0.10          7.7 
       253.0         0.23          8.0 
       254.0         0.30          8.5 
       255.0         0.10          8.1 
       256.0         0.40          8.5 
       257.0         0.10          7.8 
       258.0         0.13          8.4 
       259.0         0.30          8.1 
       260.0         0.10          8.0 
       261.0         0.10          8.5 
       262.0         0.10          8.2 
       263.0         0.40          8.8 
       264.0         0.10          8.3 
       265.0         1.35         86.5 
       266.0         0.20        100.1 
       267.0         0.20         91.8 
       268.0         0.30         64.1 
       269.0         0.20         32.5 
       270.0         0.20         21.0 
       271.0         0.13         15.1 
       272.0         0.17         11.3 
       273.0         0.13          9.1 
       274.0         0.10          9.2 
       275.0         0.13          8.0 
       276.0         0.17          7.5 
       277.0         0.13          7.2 
       278.0         0.18          7.6 
       279.0         0.27          7.5 
       280.0         0.13          7.9 
       281.0         0.17          8.0 
       282.0         0.13          7.8 
       283.0         0.17          8.0 
       284.0         0.27          8.6 
       285.0         0.23          8.5 
       286.0         0.20          8.5 
       287.0         0.17          8.5 
       288.0         0.17          8.4 
       289.0         0.17          8.8 
       290.0         0.20         10.7 
       291.0         0.17         15.3 
       292.0         0.17         41.4 
       293.0         0.20         82.8 
       294.0         0.23         88.0 
       295.0         0.22         76.7 
       296.0         0.90         49.9 
       297.0         0.17         11.9 
       298.0         0.27         11.1 
       299.0         0.23          9.6 
       300.0         0.23          9.4 
       301.0         0.17          8.8 
       302.0         0.17          9.0 
       303.0         0.17          8.5 
       304.0         0.13          8.9 
       305.0         0.13          8.8 
       306.0         0.20          9.2 
       307.0         0.13          8.6 
       308.0         0.13          8.7 
       309.0         0.13          8.7 
       310.0         0.28          8.9 
       311.0         0.17          9.1 
       312.0         0.17          9.3 
       313.0         0.23          9.2 
       314.0         0.23          9.2 
       315.0         0.20          9.5 
       316.0         0.23          9.5 
       317.0         0.17          9.7 
       318.0         0.17          9.5 
       319.0         0.13          9.7 
       320.0         0.13          9.6 
       321.0         0.13         10.7 
       322.0         0.23         13.3 
       323.0         0.13         14.3 
       324.0         0.23         19.4 
       325.0         0.23         34.6 
       326.0         1.52        228.0 
       327.0         0.10         42.5 
       328.0         0.20         33.9 
       329.0         0.10         22.6 
       330.0         0.20         19.6 
       331.0         0.13         14.1 
       332.0         0.17         11.7 
       333.0         0.17         10.5 
       334.0         0.20          9.8 
       335.0         0.17          8.6 
       336.0         0.20          9.1 
       337.0         0.30          9.0 
       338.0         0.25          8.9 
       339.0         0.23          8.3 
       340.0         0.27          8.6 
       341.0         0.23          8.6 
       342.0         0.27          8.6 
       343.0         0.27          8.4 
       344.0         0.23          8.8 
       345.0         0.20          9.0 
       346.0         0.20          9.1 
       347.0         0.27          9.1 
       348.0         0.30         10.2 
       349.0         0.23         13.2 
       350.0         0.25         18.6 
       351.0         0.20         25.0 
       352.0         0.23         52.2 
       353.0         0.27        107.6 
       354.0         0.27        114.5 
       355.0         1.30         94.8 
       356.0         0.10         11.1 
       357.0         0.07         10.3 
       358.0         0.20         10.2 
       359.0         0.20          9.6 
       360.0         0.15          8.9 
       361.0         0.13          9.1 
       362.0         0.17          8.8 
       363.0         0.13          8.9 
       364.0         0.13          8.6 
       365.0         0.10          8.8 
       366.0         0.10          8.3 
       367.0         0.10          8.4 
       368.0         0.17          8.7 
       369.0         0.13          8.3 
       370.0         0.13          8.8 
       371.0         0.17          8.8 
       372.0         0.13          9.1 
       373.0         0.17          9.3 
       374.0         0.13          8.9 
       375.0         0.13          9.4 
       376.0         0.17          9.5 
       377.0         0.17          9.1 
       378.0         0.17          9.9 
       379.0         0.13         10.5 
       380.0         0.13         12.2 
       381.0         0.17         16.7 
       382.0         0.15         32.9 
       383.0         0.10         49.1 
       384.0         0.17         57.8 
       385.0         0.20         56.2 
       386.0         0.93         44.0 
       387.0         0.17         10.1 
       388.0         0.23          9.6 
       389.0         0.20          9.9 
       390.0         0.23         10.6 
       391.0         0.23         10.9 
       392.0         0.20         11.0 
       393.0         0.17         11.0 
       394.0         0.20         11.8 
       395.0         0.18         12.2 
       396.0         0.20         12.1 
       397.0         0.20         11.7 
       398.0         0.27         12.0 
       399.0         0.30         12.2 
       400.0         0.20         11.8 
       401.0         0.17         11.7 
       402.0         0.20         10.4 
       403.0         0.20         10.5 
       404.0         0.20         10.7 
       405.0         0.20         10.8 
       406.0         0.20         10.0 
       407.0         0.27          9.6 
       408.0         0.13          9.1 
       409.0         0.13          9.5 
       410.0         0.13          9.7 
       411.0         0.10         10.2 
       412.0         0.15         14.0 
       413.0         0.13         17.6 
       414.0         0.17         36.4 
       415.0         0.17         64.3 
       416.0         1.60         69.1 
       417.0         0.30         11.5 
       418.0         0.27         11.3 
       419.0         0.23         11.9 
       420.0         0.20         12.2 
       421.0         0.17         12.3 
       422.0         0.22         12.2 
       423.0         0.23         11.7 
       424.0         0.17         11.3 
       425.0         0.17         11.9 
