~Version Information
VERS.                      2.0: CWLS Log ASCII Standard - VERSION 2.0
WRAP.                       NO: One line per depth step
~Well Information Block
STRT.FT                15.0000: 
STOP.FT              2556.5000: 
STEP.FT                 0.2500: 
NULL.                -999.2500: 
COMP.          Pioneer Natural Resources: COMPANY
WELL.              Quack 22-24: WELL
FLD.           Purgatoire River: FIELD
LOC.           2492' FNL & 2459' FWL: LOCATION
PROV.                 Colorado: PROVINCE
CNTY.               Las Animas: COUNTRY
SRVC.                Patterson: SERVICE COMPANY
DATE.          Tue Jul 26 07:02:30 2005: LOG DATE
UWI.           05 071 08402 00: UNIQUE WELL ID
~Curve Information Block
DEPT.FT            0 000 00 00: Depth
GR.GAPI                       : Gamma Ray
CCL.                          : Casing Collar Locator
TT3.usec                      : CBL 3' Travel Time
AMP3.mV                       : CBL 3' Amplitude
~Parameter Information Block
~A  Depth        GR         CCL         TT3         AMP3    
# ...
   685.0000    138.4919      0.0000    690.4188     18.4079
   685.2500    137.6870      0.0000    693.5165     18.4350
   685.5000    134.5839      0.0000    699.9507     18.4770
   685.7500    129.2695      0.0000    708.1100     18.5279
   686.0000    122.6597      0.0000    715.3138     18.5763
   686.2500    115.6321      0.0000    719.8632     18.6065
   686.5000    108.8507      0.0000    721.6752     18.5901
   686.7500    103.4988      0.0000    721.2191     18.4833
   687.0000    101.6823      0.0000    718.8383     18.2471
   687.2500    105.2422      0.0000    715.5851     17.8826
   687.5000    113.6983      0.0000    713.6271     17.4443
   687.7500    123.6451      0.0000    714.7161     17.0066
   688.0000    130.6262      0.0000    718.8192     16.6100
   688.2500    131.9204      0.0000    724.7479     16.2411
   688.5000    127.9915      0.0000    731.1617     15.8620
   688.7500    121.7755      0.0000    736.4111     15.4546
   689.0000    116.5755      0.0000    738.5909     15.0386
   689.2500    114.1153      0.0000    736.9337     14.6567
   689.5000    114.1124      0.0000    732.7538     14.3390
   689.7500    115.3040      0.0000    728.2036     14.0754
   690.0000    116.5312      0.0000    724.2435     13.8221
   690.2500    116.9643      0.0000    720.0655     13.5395
   690.5000    115.9856      0.0000    714.2213     13.2197
   690.7500    113.3627      0.0000    706.1881     12.8750
   691.0000    109.3984      0.0000    697.0865     12.5115
   691.2500    104.6316      0.0000    688.9583     12.1362
   691.5000     99.4609      0.0000    683.2980     11.7859
   691.7500     94.1659      0.0000    680.2941     11.5257
   692.0000     89.1753      0.0000    679.3334     11.4024
   692.2500     85.1365      0.0000    679.9314     11.4018
   692.5000     82.5618      0.0000    682.1652     11.4522
   692.7500     81.3675      0.0000    686.2983     11.4711
   693.0000     80.9321      0.0000    691.9771     11.4151
   693.2500     80.7616      0.0000    697.9811     11.2929
   693.5000     81.0501      0.0000    703.0995     11.1357
   693.7500     82.4199      0.0000    707.0947     10.9619
   694.0000     84.9738      0.0000    710.3683     10.7770
   694.2500     87.7501      0.0000    712.9346     10.5914
   694.5000     89.3471      0.0000    714.3042     10.4216
   694.7500     89.0209      0.0000    714.2692     10.2715
   695.0000     87.0429      0.0000    713.3223     10.1215
   695.2500     84.2368      0.0000    712.2746      9.9385
   695.5000     81.5451      0.0000    711.6758      9.6966
   695.7500     79.8547      0.0000    711.5831      9.3944
   696.0000     79.6763      0.0000    711.7023      9.0554
   696.2500     80.7697      0.0000    711.6743      8.7131
   696.5000     82.2750      0.0000    711.2916      8.3909
   696.7500     83.4313      0.0000    710.5552      8.0989
   697.0000     84.2262      0.0000    709.6600      7.8436
   697.2500     85.2282      0.0000    708.9793      7.6350
   697.5000     86.6949      0.0000    709.0162      7.4801
   697.7500     88.0327      0.0000    710.0988      7.3680
   698.0000     88.2895      0.0000    711.7185      7.2576
   698.2500     87.0336      0.0000    712.1661      7.0837
   698.5000     84.6990      0.0000    709.7736      6.7977
   698.7500     82.3292      0.0000    705.5055      6.4263
   699.0000     81.1115      0.0000    703.5901      6.0757
   699.2500     81.8255      0.0000    707.7202      5.8398
   699.5000     84.2402      0.0000    716.4516      5.7141
   699.7500     86.8793      0.0000    724.1141      5.6333
   700.0000     87.8177      0.0000    726.9221      5.5689
   700.2500     86.2457      0.0000    726.5919      5.5439
   700.5000     83.3133      0.0000    726.9355      5.5684
   700.7500     81.1691     -2.2197    728.3774      5.6092
   701.0000     81.0426     -2.5511    727.6343      5.6257
   701.2500     82.1942      0.0000    722.2883      5.6287
   701.5000     82.5895      0.0000    713.8913      5.7078
   701.7500     80.6681      0.0000    706.3465      5.9770
   702.0000     76.7393      0.0000    702.5510      6.4545
   702.2500     72.6736      0.0000    702.9765      7.0099
   702.5000     70.0914      0.0000    706.6689      7.4727
   702.7500     69.0550      0.0000    712.8495      7.7783
   703.0000     68.6984      0.0000    721.1299      7.9774
   703.2500     68.6437      0.0000    730.1956      8.1404
   703.5000     69.3299      0.0000    737.1429      8.2945
   703.7500     71.2635      0.0000    739.2800      8.4352
   704.0000     74.2848      0.0000    736.8351      8.5571
   704.2500     77.2653      0.0000    733.2021      8.6670
   704.5000     78.4751      0.0000    732.2067      8.7741
   704.7500     76.8297      0.0000    735.5137      8.8764
   705.0000     73.0522      0.0000    742.5831      8.9587
   705.2500     69.2359      0.0000    751.6816      9.0066
   705.5000     67.1460      0.0000    759.8593      9.0226
   705.7500     67.1589      0.0000    763.1671      9.0328
   706.0000     68.5937      0.0000    758.8350      9.0768
   706.2500     70.4264      0.0000    747.5923      9.1874
   706.5000     71.6242      0.0000    733.4136      9.3789
   706.7500     71.4362      0.0000    721.0656      9.6526
   707.0000     69.8234      0.0000    713.8539     10.0081
   707.2500     67.4934      0.0000    712.5958     10.4461
   707.5000     65.4019      0.0000    715.4611     10.9614
   707.7500     64.2430      0.0000    718.9385     11.5391
   708.0000     64.2722      0.0000    720.1505     12.1607
   708.2500     65.3542      0.0000    718.9579     12.8142
   708.5000     67.0566      0.0000    718.1423     13.4942
   708.7500     68.6529      0.0000    721.6509     14.1907
   709.0000     69.1908      0.0000    731.8292     14.8863
   709.2500     68.0290      0.0000    746.5721     15.5710
   709.5000     65.5460      0.0000    758.5911     16.2514
   709.7500     63.0703      0.0000    758.6217     16.9338
   710.0000     61.8952      0.0000    741.4166     17.5987
   710.2500     62.4283      0.0000    710.7418     18.1971
   710.5000     64.3053      0.0000    679.4406     18.6758
   710.7500     67.2257      0.0000    662.3192     19.0101
   711.0000     71.6116      0.0000    665.4454     19.2154
   711.2500     78.4192      0.0000    681.9167     19.3341
   711.5000     88.2088      0.0000    698.8126     19.4124
   711.7500    100.4058      0.0000    707.0490     19.4854
   712.0000    113.5450      0.0000    704.7960     19.5757
   712.2500    126.1331      0.0000    695.1110     19.6931
   712.5000    137.0887      0.0000    682.6060     19.8364
   712.7500    145.6228      0.0000    670.3109     20.0043
   713.0000    151.2458      0.0000    657.8174     20.2012
   713.2500    153.9724      0.0000    643.7775     20.4204
   713.5000    154.3329      0.0000    631.3918     20.6294
   713.7500    153.2791      0.0000    628.6594     20.7925
   714.0000    152.0772      0.0000    640.5330     20.8970
   714.2500    151.8057      0.0000    662.9072     20.9397
   714.5000    152.4727      0.0000    686.7579     20.8998
   714.7500    152.6815      0.0000    706.3308     20.7530
   715.0000    150.6749      0.0000    721.1334     20.5175
   715.2500    145.9996      0.0000    732.0728     20.2760
   715.5000    139.9531      0.0000    738.9863     20.1437
   715.7500    134.3342      0.0000    742.8448     20.2035
   716.0000    129.8397      0.0000    747.6398     20.4644
   716.2500    125.5262      0.0000    756.0944     20.8880
   716.5000    119.8911      0.0000    762.5580     21.4619
   716.7500    112.9775      0.0000    752.2341     22.2370
   717.0000    107.3648      0.0000    710.0201     23.2865
   717.2500    106.2788      0.0000    633.1035     24.6422
   717.5000    110.4551      0.0000    536.7020     26.2881
   717.7500    117.2961      0.0000    445.5355     28.1961
   718.0000    123.1312      0.0000    377.5704     30.3279
   718.2500    125.9258      0.0000    335.8676     32.5901
