~Version Information
VERS.                      2.0: CWLS Log ASCII Standard - VERSION 2.0
WRAP.                       NO: One line per depth step
~Well Information Block
STRT.FT                -7.5000: 
STOP.FT              2226.0000: 
STEP.FT                 0.2500: 
NULL.                -999.2500: 
COMP.          Pioneer Natural Resources: COMPANY
WELL.              Tonto 42-23: WELL
FLD.           Purgatorie River: FIELD
LOC.           2217' FNL & 423' FEL----: LOCATION
PROV.                       CO: PROVINCE
CNTY.               Las Animas: COUNTRY
SRVC.          Patterson Wireline: SERVICE COMPANY
DATE.          Fri Apr 22 11:40:07 2005: LOG DATE
UWI.           05 071 08335 00: UNIQUE WELL ID
~Curve Information Block
DEPT.FT            0 000 00 00: Depth
CCL.                          : Casing Collar Locator
TT3.usec                      : CBL 3' Travel Time
AMP3.mV                       : CBL 3' Amplitude
GR.GAPI                       : Gamma Ray
~Parameter Information Block
~A  Depth       CCL         TT3         AMP3         GR     
# ...
  2203.5000      0.0000    411.9991      2.6696     58.3875
  2203.7500      0.0000    411.7032      2.6648     60.0953
  2204.0000      0.0000    411.4554      2.6548     63.2690
  2204.2500      0.0000    411.2907      2.6512     67.4929
  2204.5000      0.0000    411.1806      2.6658     72.1173
  2204.7500      0.0000    411.0363      2.6993     76.2480
  2205.0000      0.0000    410.7492      2.7416     79.2571
  2205.2500      0.0000    410.2310      2.7838     81.1921
  2205.5000      0.0000    409.4363      2.8251     82.6421
  2205.7500      0.0000    408.3723      2.8679     84.1203
  2206.0000      0.0000    407.0786      2.9079     85.4891
  2206.2500      0.0000    405.5357      2.9304     86.0532
  2206.5000      0.0000    403.4665      2.9186     85.4073
  2206.7500      0.0000    400.1821      2.8688     84.2293
  2207.0000      0.0000    394.8488      2.8012     83.9756
  2207.2500      0.0000    387.2705      2.7510     85.5458
  2207.5000      0.0000    378.4700      2.7396     88.4253
  2207.7500      0.0000    370.2259      2.7567     91.3383
  2208.0000      0.0000    363.8839      2.7770     93.4397
  2208.2500      0.0000    359.6763      2.7898     94.6096
  2208.5000      0.0000    357.0549      2.8069     94.9979
  2208.7500      0.0000    355.3776      2.8391     94.7674
  2209.0000      0.0000    354.2356      2.8745     94.0742
  2209.2500      0.0000    353.4005      2.8884     92.8662
  2209.5000      0.0000    352.7178      2.8715     90.7883
  2209.7500      0.0000    352.1166      2.8386     87.5397
  2210.0000      0.0000    351.6906      2.8064     83.4148
  2210.2500      0.0000    351.7764      2.7733     79.5195
  2210.5000      0.0000    353.0140      2.7272     77.2769
  2210.7500      0.0000    356.2994      2.6664     77.3842
  2211.0000      0.0000    362.3982      2.6039     79.2404
  2211.2500      0.0000    371.2339      2.5542     81.3840
  2211.5000      0.0000    381.4883      2.5235     82.2052
  2211.7500      0.0000    391.1901      2.5114     80.1932
  2212.0000      0.0000    398.9182      2.5172     74.0480
  2212.2500      0.0000    404.4553      2.5430     63.1618
  2212.5000      0.0000    408.6251      2.5932     48.3617
  2212.7500      0.0000    412.9998      2.6670     32.2316
  2213.0000      0.0000    419.9238      2.7496     18.1660
  2213.2500      0.0000    431.8232      2.8117      8.4538
  2213.5000      0.0000    448.6071      2.8245      3.1909
  2213.7500      0.0000    465.2264      2.7778      0.9643
  2214.0000      0.0000    474.2390      2.6903      0.2308
  2214.2500      0.0000    473.4144      2.6046      0.0432
  2214.5000      0.0000    469.5151      2.5679      0.0060
  2214.7500      0.0000    471.7282      2.6060      0.0000
  2215.0000      0.0000    482.3523      2.7066   -999.2500
  2215.2500      0.0000    496.5812      2.8276   -999.2500
  2215.5000      0.0000    510.3017      2.9179   -999.2500
  2215.7500      0.0000    523.9939      2.9404   -999.2500
  2216.0000      0.0000    538.3037      2.8939   -999.2500
  2216.2500      0.0000    549.5146      2.8193   -999.2500
  2216.5000      0.0000    551.7943      2.7743   -999.2500
  2216.7500      0.0000    542.7368      2.7863   -999.2500
  2217.0000      0.0000    523.5133      2.8202   -999.2500
  2217.2500      0.0000    491.1597      2.7933   -999.2500
  2217.5000      0.0000    434.6197      2.6282   -999.2500
  2217.7500      0.0000    346.3045      2.3087   -999.2500
  2218.0000      0.0000    237.6783      1.9013   -999.2500
  2218.2500      0.0000    135.9679      1.5181   -999.2500
  2218.5000      0.0000     63.4580      1.2437   -999.2500
  2218.7500      0.0000     23.8314      1.0924   -999.2500
  2219.0000      0.0000      7.1372      1.0280   -999.2500
  2219.2500      0.0000      1.6933      1.0067   -999.2500
  2219.5000      0.0000      0.3147      1.0013   -999.2500
  2219.7500      0.0000      0.0411      1.0002   -999.2500
  2220.0000      0.0000   -999.2500   -999.2500   -999.2500
  2220.2500      0.0000   -999.2500   -999.2500   -999.2500
  2220.5000      0.0000   -999.2500   -999.2500   -999.2500
  2220.7500      0.0000   -999.2500   -999.2500   -999.2500
  2221.0000      0.0000   -999.2500   -999.2500   -999.2500
  2221.2500      0.0000   -999.2500   -999.2500   -999.2500
  2221.5000      0.0000   -999.2500   -999.2500   -999.2500
  2221.7500      0.0000   -999.2500   -999.2500   -999.2500
  2222.0000      0.0000   -999.2500   -999.2500   -999.2500
  2222.2500      0.0000   -999.2500   -999.2500   -999.2500
  2222.5000      0.0000   -999.2500   -999.2500   -999.2500
  2222.7500      0.0000   -999.2500   -999.2500   -999.2500
  2223.0000      0.0000   -999.2500   -999.2500   -999.2500
  2223.2500      0.0000   -999.2500   -999.2500   -999.2500
  2223.5000      0.0000   -999.2500   -999.2500   -999.2500
  2223.7500      0.0000   -999.2500   -999.2500   -999.2500
  2224.0000      0.0000   -999.2500   -999.2500   -999.2500
  2224.2500      0.0000   -999.2500   -999.2500   -999.2500
  2224.5000      0.0000   -999.2500   -999.2500   -999.2500
  2224.7500      0.0000   -999.2500   -999.2500   -999.2500
  2225.0000      0.0000   -999.2500   -999.2500   -999.2500
  2225.2500      0.0000   -999.2500   -999.2500   -999.2500
  2225.5000   -999.2500   -999.2500   -999.2500   -999.2500
  2225.7500   -999.2500   -999.2500   -999.2500   -999.2500
  2226.0000   -999.2500   -999.2500   -999.2500   -999.2500
