~Version Information
VERS.                      2.0: CWLS Log ASCII Standard - VERSION 2.0
WRAP.                       NO: One line per depth step
~Well Information Block
STRT.FT                -8.2500: 
STOP.FT              1119.7500: 
STEP.FT                 0.2500: 
NULL.                -999.2500: 
COMP.          Pioneer Natural Resources: COMPANY
WELL.             Linda T 32-3: WELL
FLD.           Purgatorie River: FIELD
LOC.           1350' FNL & 2290' FEL------: LOCATION
PROV.                       CO: PROVINCE
CNTY.               Las Animas: COUNTRY
SRVC.                         : SERVICE COMPANY
DATE.          Thu Feb 10 08:20:40 2005: LOG DATE
UWI.          005 071 08215   : UNIQUE WELL ID
~Curve Information Block
DEPT.FT            0 000 00 00: Depth
CCL.                          : Casing Collar Locator
TT3.usec                      : CBL 3' Travel Time
AMP3.mV                       : CBL 3' Amplitude
GR.GAPI                       : Gamma Ray
~Parameter Information Block
~A  Depth       CCL         TT3         AMP3         GR     
# ...
   125.7500      0.0000    267.4753     62.0721     88.5618
   126.0000      0.0000    267.4411     62.1053     90.2330
   126.2500      0.0000    267.4089     62.1567     91.6687
   126.5000      0.0000    267.3831     62.2305     92.6901
   126.7500      0.0000    267.3706     62.3179     93.0846
   127.0000      0.0000    267.3770     62.3945     93.0675
   127.2500      0.0000    267.3980     62.4391     93.2759
   127.5000      0.0000    267.4205     62.4492     94.1578
   127.7500      0.0000    267.4323     62.4377     95.3331
   128.0000      0.0000    267.4320     62.4206     95.6080
   128.2500      0.0000    267.4256     62.4099     93.8315
   128.5000      0.0000    267.4184     62.4104     89.9869
   128.7500      0.0000    267.4104     62.4151     85.4574
   129.0000      0.0000    267.4001     62.4081     82.3589
   129.2500      0.0000    267.3875     62.3768     82.6363
   129.5000      0.0000    267.3742     62.3214     87.0810
   129.7500      0.0000    267.3596     62.2512     94.5361
   130.0000      0.0000    267.3421     62.1746    102.4056
   130.2500      0.0000    267.3225     62.0886    108.4739
   130.5000      0.0000    267.3080     61.9572    112.0281
   130.7500      0.0000    267.3143     61.6624    113.1950
   131.0000      0.0000    267.3724     60.9462    112.0309
   131.2500      0.0000    267.5524     59.4118    108.6982
   131.5000      0.0000    267.9875     56.7347    103.8463
   131.7500      0.0000    268.8427     53.0462     98.3162
   132.0000      0.0000    270.2010     49.0390     92.8858
   132.2500      0.0000    271.9353     45.4707     88.3119
   132.5000      0.0000    273.6985     42.6162     85.0124
   132.7500      0.0000    275.0886     40.4036     82.7702
   133.0000      0.0000    275.8855     38.8646     81.2312
   133.2500      0.0000    276.1605     38.1053     80.3629
   133.5000      0.0000    276.1979     37.9794     80.1045
   133.7500      2.0000    276.3607     38.1187     80.2920
   134.0000      2.0000    277.0363     38.2482     81.3902
   134.2500      0.0000    278.5286     38.3881     84.2908
   134.5000      0.0000    280.6784     38.8440     88.7184
   134.7500      0.0000    282.4999     40.0384     92.8288
   135.0000      0.0000    282.5929     42.2210     95.0968
   135.2500      0.0000    280.3462     45.2846     95.6602
   135.5000      0.0000    276.6033     48.8945     95.0950
   135.7500      0.0000    272.8953     52.6590     92.9038
   136.0000      0.0000    270.2147     56.1123     88.3026
   136.2500      0.0000    268.6634     58.7802     81.8821
   136.5000      0.0000    267.8956     60.4577     75.4046
   136.7500      0.0000    267.5568     61.3314     70.0787
   137.0000      0.0000    267.4177     61.7749     65.6868
   137.2500      0.0000    267.3564     62.0830     61.4168
   137.5000      0.0000    267.3248     62.3696     57.1381
   137.7500      0.0000    267.3104     62.6248     53.8373
   138.0000      0.0000    267.3083     62.8202     53.0404
   138.2500      0.0000    267.3074     62.9795     55.7108
   138.5000      0.0000    267.2964     63.1593     61.2685
   138.7500      0.0000    267.2737     63.3901     67.4468
   139.0000      0.0000    267.2462     63.6553     71.5350
   139.2500      0.0000    267.2222     63.9182     72.2464
   139.5000      0.0000    267.2086     64.1505     70.1409
   139.7500      0.0000    267.2107     64.3388     66.1050
   140.0000      0.0000    267.2270     64.4818     60.3539
   140.2500      0.0000    267.2454     64.5778     53.4676
   140.5000      0.0000    267.2499     64.6040     47.2382
   140.7500      0.0000    267.2348     64.5061     43.4373
   141.0000      0.0000    267.2096     64.2240     42.3853
   141.2500      0.0000    267.1892     63.7391     43.3410
   141.5000      0.0000    267.1813     63.0948     45.5154
   141.7500      0.0000    267.1843     62.3655     48.1341
   142.0000      0.0000    267.1972     61.6101     50.1750
   142.2500      0.0000    267.2261     60.8573     50.7382
   142.5000      0.0000    267.2791     60.1230     49.7035
   142.7500      0.0000    267.3555     59.4219     47.8662
   143.0000      0.0000    267.4429     58.7648     46.2858
   143.2500      0.0000    267.5230     58.1626     45.5302
   143.5000      0.0000    267.5825     57.6395     45.7412
   143.7500      0.0000    267.6181     57.2331     47.2024
   144.0000      0.0000    267.6324     56.9760     50.1530
   144.2500      0.0000    267.6290     56.8791     53.9449
   144.5000      0.0000    267.6114     56.9323     56.9970
   144.7500      0.0000    267.5839     57.1182     57.9384
   145.0000      0.0000    267.5496     57.4258     56.5790
   145.2500      0.0000    267.5084     57.8535     53.7228
   145.5000      0.0000    267.4599     58.3953     50.3841
   145.7500      0.0000    267.4081     59.0239     47.3300
   146.0000      0.0000    267.3636     59.6869     45.0055
   146.2500      0.0000    267.3382     60.3265     43.4970
   146.5000      0.0000    267.3376     60.9071     42.5876
   146.7500      0.0000    267.3551     61.4274     42.1126
   147.0000      0.0000    267.3763     61.9064     42.3918
   147.2500      0.0000    267.3899     62.3579     44.1705
   147.5000      0.0000    267.3943     62.7726     48.0041
   147.7500      0.0000    267.3906     63.1244     53.7976
   148.0000      0.0000    267.3768     63.3930     60.8682
   148.2500      0.0000    267.3539     63.5705     68.0723
   148.5000      0.0000    267.3314     63.6531     73.9917
   148.7500      0.0000    267.3187     63.6406     77.6711
   149.0000      0.0000    267.3162     63.5424     79.2369
   149.2500      0.0000    267.3202     63.3691     79.3213
   149.5000      0.0000    267.3319     63.1210     77.9372
   149.7500      0.0000    267.3548     62.7983     74.5230
   150.0000      0.0000    267.3852     62.4211     69.2106
   150.2500      0.0000    267.4114     62.0234     63.3979
   150.5000      0.0000    267.4249     61.6185     58.6103
   150.7500      0.0000    267.4326     61.1744     55.1930
   151.0000      0.0000    267.4525     60.6379     52.5091
   151.2500      0.0000    267.4978     59.9871     49.9696
   151.5000      0.0000    267.5651     59.2487     47.4146
   151.7500      0.0000    267.6397     58.4656     44.9340
   152.0000      0.0000    267.7087     57.6667     42.9282
   152.2500      0.0000    267.7682     56.8763     42.0455
   152.5000      0.0000    267.8195     56.1234     42.4696
   152.7500      0.0000    267.8654     55.4165     43.4357
   153.0000      0.0000    267.9103     54.7187     43.8955
   153.2500      0.0000    267.9612     53.9778     43.4366
   153.5000      0.0000    268.0246     53.1825     42.2259
   153.7500      0.0000    268.1023     52.3713     40.5438
   154.0000      0.0000    268.1919     51.5903     38.9941
   154.2500      0.0000    268.2876     50.8685     38.8076
   154.5000      0.0000    268.3789     50.2344     41.1483
   154.7500      0.0000    268.4503     49.7237     45.8263
   155.0000      0.0000    268.4888     49.3509     50.9410
   155.2500      0.0000    268.4963     49.0860     54.0526
   155.5000      0.0000    268.4923     48.8702     53.9388
   155.7500      0.0000    268.5009     48.6497     51.3666
   156.0000      0.0000    268.5329     48.3919     48.0757
   156.2500      0.0000    268.5813     48.0830     45.0481
   156.5000      0.0000    268.6295     47.7244     42.1785
   156.7500      0.0000    268.6639     47.3336     39.4903
   157.0000      0.0000    268.6805     46.9362     37.7955
   157.2500      0.0000    268.6845     46.5435     37.7781
   157.5000      0.0000    268.6875     46.1323     39.0286
   157.7500      0.0000    268.7010     45.6584     40.4661
   158.0000      0.0000    268.7306     45.1012     41.4214
   158.2500      0.0000    268.7756     44.4948     41.8692
   158.5000      0.0000    268.8331     43.9082     41.9658
   158.7500      0.0000    268.9012     43.3895     41.9211
   159.0000      0.0000    268.9784     42.9248     42.2136
