~Version Information
 VERS.                                  2.0 : CWLS LAS VERSION
 WRAP.                                   NO : WRAPING MODE
 SWARE .                 MController 2.5.0J : SOFTWARE VERSION
~Well Information
 WELL.                  Great Plains 22-22R : WELL
 COMP.                Petrogulf Corporation : COMPANY
 FLD.                      Purgatoire River : FIELD
 LOC.                SE/NW Sec 22 T33S R67W : LOCATION
 DATE.                        09/08-09/2005 : DATE(S) LOGGED
 SRVC.       BLANCO Geological Services LLC : SERVICE COMPANY
 STAT.                                   CO : STATE
 CNTY.                           Las Animas : COUNTY
 CTRY.                                  USA : COUNTRY
 API.                       05-071-08028-00 : API NUMBER
 STRT.FT                              23.00 : START DEPTH
 STOP.FT                            1400.00 : STOP DEPTH
 STEP.FT                               1.00 : DEPTH INCREMENT
 NULL.                                -9999 : NULL VALUE
~Curve information
 DEPTH.FT                                   :
 ROP.MIN/FT                                 :
 GAS.UNITS                                  :
~ASCII Log data
# ...
       223.0         0.23          7.6 
       224.0         0.23          8.3 
       225.0         0.27          8.5 
       226.0         0.23          8.1 
       227.0         0.23          8.5 
       228.0         0.23          8.2 
       229.0         0.23          8.0 
       230.0         0.25          8.0 
       231.0         0.23          7.7 
       232.0         0.23          7.4 
       233.0         0.20          8.4 
       234.0         0.23          7.6 
       235.0         0.53          8.2 
       236.0        15.18          8.0 
       237.0         1.87          7.0 
       238.0         0.27          5.3 
       239.0         0.27          4.9 
       240.0         0.33          4.6 
       241.0         0.17          4.1 
       242.0         0.28          3.9 
       243.0         0.40          4.0 
       244.0         0.23          3.7 
       245.0         0.30          4.4 
       246.0         0.23          4.2 
       247.0         0.33          4.1 
       248.0         0.20          4.5 
       249.0         0.20          4.5 
       250.0         0.23          4.6 
       251.0         0.20          4.6 
       252.0         0.23          4.6 
       253.0         0.20          5.1 
       254.0         0.23          4.5 
       255.0         0.25          4.8 
       256.0         0.20          4.4 
       257.0         0.23          4.4 
       258.0         0.23          5.1 
       259.0         0.23          5.0 
       260.0         0.20          5.7 
       261.0         0.23          6.2 
       262.0         0.20          6.7 
       263.0         0.23          6.4 
       264.0         0.20          6.4 
       265.0         0.22          6.6 
       266.0         1.07          6.0 
       267.0         0.53          5.4 
       268.0         0.23          5.0 
       269.0         0.30          5.2 
       270.0         0.27          5.3 
       271.0         0.27          5.6 
       272.0         0.30          5.6 
       273.0         0.27          5.2 
       274.0         0.28          5.1 
       275.0         0.30          5.9 
       276.0         0.23          5.2 
       277.0         0.27          5.4 
       278.0         0.27          5.0 
       279.0         0.23          5.5 
       280.0         0.30          5.2 
       281.0         0.23          5.4 
       282.0         0.27          4.6 
       283.0         0.23          5.1 
       284.0         0.20          4.5 
       285.0         0.30          4.9 
       286.0         0.28          4.8 
       287.0         0.23          4.7 
       288.0         0.23          5.3 
       289.0         0.23          5.3 
       290.0         0.23          5.0 
       291.0         0.23          5.3 
       292.0         0.27          5.6 
       293.0         0.23          5.3 
       294.0         0.27          6.1 
       295.0         0.37          6.4 
       296.0         1.88          6.2 
       297.0         0.33          4.6 
       298.0         0.27          4.6 
       299.0         0.30          4.7 
       300.0         0.27          4.7 
       301.0         0.27          4.6 
       302.0         0.27          5.2 
       303.0         0.20          4.5 
       304.0         0.20          4.4 
       305.0         0.18          4.8 
       306.0         0.20          4.2 
       307.0         0.17          4.2 
       308.0         0.13          4.6 
       309.0         0.13          4.2 
       310.0         0.07          4.2 
       311.0         0.20          4.3 
       312.0         0.23          4.6 
       313.0         0.17          4.6 
       314.0         0.20          4.2 
       315.0         0.13          4.6 
       316.0         0.23          4.6 
       317.0         0.23          4.5 
       318.0         0.23          4.9 
       319.0         0.27          5.2 
       320.0         0.17          5.1 
       321.0         0.27          5.2 
       322.0         0.22          5.2 
       323.0         0.30          5.8 
       324.0         0.27          5.5 
       325.0         0.27          5.6 
       326.0         1.40          5.0 
       327.0         0.30          4.3 
       328.0         0.30          4.1 
       329.0         0.27          4.1 
       330.0         0.25          4.3 
       331.0         0.23          4.3 
       332.0         0.17          4.0 
       333.0         0.27          3.9 
       334.0         0.40          4.1 
       335.0         0.30          4.0 
       336.0         0.23          3.8 
       337.0         0.17          3.8 
       338.0         0.27          4.0 
       339.0         0.17          3.7 
       340.0         0.20          3.7 
       341.0         0.27          3.9 
       342.0         0.23          3.4 
       343.0         0.23          4.2 
       344.0         0.35          4.1 
       345.0         0.30          3.8 
       346.0         0.27          3.9 
       347.0         0.27          3.9 
       348.0         0.23          3.7 
       349.0         0.23          3.9 
       350.0         0.23          3.6 
       351.0         0.23          3.7 
       352.0         0.27          3.9 
       353.0         0.23          3.7 
       354.0         0.33          4.0 
       355.0         0.53          4.3 
       356.0         0.88          4.1 
       357.0         0.30          3.1 
       358.0         0.23          3.2 
       359.0         0.30          3.3 
       360.0         0.30          3.6 
       361.0         0.33          3.3 
       362.0         0.30          3.3 
       363.0         0.20          3.0 
       364.0         0.23          3.5 
       365.0         0.20          3.4 
       366.0         0.25          3.5 
       367.0         0.27          3.8 
       368.0         0.33          3.8 
       369.0         0.37          3.2 
       370.0         0.23          3.0 
       371.0         0.27          3.0 
       372.0         0.27          3.3 
       373.0         0.27          3.4 
       374.0         0.20          3.2 
       375.0         0.13          3.2 
       376.0         0.13          3.8 
       377.0         0.20          4.0 
       378.0         0.20          5.0 
       379.0         0.27          6.5 
       380.0         0.28          6.5 
       381.0         0.20          6.5 
       382.0         0.20          5.6 
       383.0         0.13          5.3 
       384.0         0.13          4.9 
       385.0         0.13          3.9 
       386.0         1.30          4.0 
       387.0         0.17          3.2 
       388.0         0.17          3.2 
       389.0         0.30          2.7 
       390.0         0.27          2.9 
       391.0         0.25          2.5 
       392.0         0.20          2.6 
       393.0         0.17          2.7 
       394.0         0.13          2.7 
       395.0         0.10          2.3 
       396.0         0.23          2.3 
       397.0         0.13          2.6 
       398.0         0.30          2.6 
       399.0         0.27          2.4 
       400.0         0.30          2.7 
       401.0         0.27          2.6 
       402.0         0.27          2.2 
       403.0         0.27          3.0 
       404.0         0.23          2.2 
       405.0         0.30          2.6 
       406.0         0.28          2.5 
       407.0         0.23          2.3 
       408.0         0.30          2.1 
       409.0         0.23          2.6 
       410.0         0.27          2.7 
       411.0         0.23          2.9 
       412.0         0.23          2.7 
       413.0         0.23          2.7 
       414.0         0.23          3.5 
       415.0         0.23          3.4 
       416.0         0.90          3.6 
       417.0         0.42          3.2 
       418.0         0.33          3.8 
       419.0         0.27          3.7 
       420.0         0.23          3.5 
       421.0         0.23          3.3 
       422.0         0.30          3.9 
