~Version Information
VERS.                      2.0: CWLS Log ASCII Standard - VERSION 2.0
WRAP.                       NO: One line per depth step
~Well Information Block
STRT.FT               898.0000: 
STOP.FT              2360.0000: 
STEP.FT                 0.2500: 
NULL.                -999.2500: 
COMP.          Pioneer Natural Resources: COMPANY
WELL.             Trimax 44-23: WELL
FLD.           Purgatoire River: FIELD
LOC.           527' FSL & 1064' FEL: LOCATION
PROV.                 Colorado: PROVINCE
CNTY.               Las Animas: COUNTRY
SRVC.                Patterson: SERVICE COMPANY
DATE.          Sun Mar 13 04:57:04 2005: LOG DATE
UWI.           05 071 08326 00: UNIQUE WELL ID
~Curve Information Block
DEPT.FT            0 000 00 00: Depth
SN.Ohm-m                      : IEL Short Normal
SP.mV                         : IEL Spontaneous Potential
DIR.Ohm-m                     : IEL Induction Resistivity
GR.GAPI                       : Gamma Ray
~Parameter Information Block
~A  Depth        SN          SP         DIR          GR     
# ...
  1970.0000     22.0429    -26.6369     15.3033    119.4947
  1970.2500     22.2187    -26.3115     15.4961    119.2918
  1970.5000     22.4140    -25.9974     15.7032    116.6763
  1970.7500     22.6651    -25.7587     15.9196    114.0467
  1971.0000     23.0355    -25.6453     16.1492    110.5175
  1971.2500     23.5618    -25.6577     16.4132    109.0350
  1971.5000     24.2614    -25.7291     16.7493    107.3548
  1971.7500     25.1534    -25.7453     17.1949    105.3328
  1972.0000     26.2211    -25.5966     17.7607     98.9525
  1972.2500     27.4052    -25.2276     18.4110     92.2247
  1972.5000     28.6750    -24.6520     19.0649     79.8809
  1972.7500     30.0888    -23.9282     19.6230     71.5891
  1973.0000     31.7836    -23.1175     20.0082     61.1480
  1973.2500     33.8384    -22.2607     20.1986     55.9529
  1973.5000     36.0245    -21.3832     20.2304     50.1991
  1973.7500     37.7583    -20.5160     20.1703     47.2438
  1974.0000     38.4432    -19.7042     20.0757     44.4618
  1974.2500     37.8183    -18.9899     19.9684     44.6146
  1974.5000     35.9962    -18.3890     19.8354     49.3556
  1974.7500     33.3682    -17.8856     19.6507     55.6125
  1975.0000     30.4956    -17.4427     19.3975     67.8761
  1975.2500     27.8895    -17.0169     19.0706     76.0947
  1975.5000     25.7929    -16.5731     18.6653     85.2951
  1975.7500     24.2066    -16.0975     18.1699     88.3884
  1976.0000     23.0746    -15.6008     17.5774     89.0178
  1976.2500     22.3777    -15.1091     16.9104     87.9522
  1976.5000     22.0929    -14.6503     16.2341     86.3138
  1976.7500     22.1322    -14.2439     15.6394     86.0083
  1977.0000     22.3294    -13.8993     15.2041     87.0741
  1977.2500     22.5011    -13.6182     14.9607     88.6326
  1977.5000     22.5405    -13.3960     14.8880     91.8699
  1977.7500     22.4402    -13.2225     14.9257     94.3825
  1978.0000     22.2351    -13.0818     15.0003     97.8557
  1978.2500     21.9607    -12.9549     15.0504     99.2049
  1978.5000     21.6562    -12.8226     15.0360     98.5384
  1978.7500     21.3585    -12.6663     14.9338     96.1581
  1979.0000     21.0733    -12.4686     14.7254     90.9416
  1979.2500     20.7808    -12.2180     14.3961     87.6164
  1979.5000     20.4776    -11.9154     13.9461     84.5767
  1979.7500     20.1743    -11.5753     13.4036     84.1827
  1980.0000     19.8475    -11.2163     12.8218     85.7353
  1980.2500     19.4300    -10.8524     12.2609     87.9524
  1980.5000     18.8559    -10.4912     11.7670     92.9920
  1980.7500     18.1118    -10.1356     11.3641     97.4428
  1981.0000     17.2576     -9.7829     11.0551    104.7942
  1981.2500     16.4106     -9.4254     10.8262    109.0814
  1981.5000     15.6860     -9.0541     10.6513    113.1307
  1981.7500     15.1179     -8.6671     10.4975    114.1768
  1982.0000     14.6518     -8.2737     10.3318    114.2103
  1982.2500     14.2232     -7.8892     10.1279    113.7796
  1982.5000     13.8252     -7.5285      9.8718    112.7755
  1982.7500     13.5024     -7.2042      9.5625    111.6915
  1983.0000     13.3048     -6.9271      9.2097    108.9844
  1983.2500     13.2378     -6.6998      8.8309    106.3683
  1983.5000     13.2220     -6.5109      8.4511    101.5146
  1983.7500     13.0894     -6.3362      8.1020     97.9863
  1984.0000     12.6664     -6.1470      7.8166     92.9635
  1984.2500     11.9263     -5.9191      7.6193     90.2930
  1984.5000     11.0806     -5.6365      7.5175     88.0949
  1984.7500     10.4820     -5.2931      7.4989     87.9969
  1985.0000     10.3851     -4.8967      7.5355     89.3952
  1985.2500     10.7853     -4.4705      7.5927     90.8038
  1985.5000     11.4574     -4.0496      7.6386     92.8447
  1985.7500     12.0869     -3.6703      7.6508     93.8930
  1986.0000     12.3777     -3.3576      7.6200     94.6363
  1986.2500     12.1522     -3.1147      7.5503     94.3970
  1986.5000     11.4367     -2.9203      7.4578     93.0347
  1986.7500     10.4604     -2.7390      7.3664     91.9206
  1987.0000      9.5562     -2.5409      7.3013     91.1481
  1987.2500      9.0310     -2.3172      7.2822     91.8056
  1987.5000      9.0626     -2.0827      7.3183     94.6846
  1987.7500      9.6288     -1.8683      7.4070     97.3527
  1988.0000     10.4912     -1.7108      7.5342    100.9951
  1988.2500     11.3089     -1.6407      7.6783    102.4563
  1988.5000     11.8313     -1.6726      7.8144    102.9753
  1988.7500     11.9997     -1.8024      7.9213    102.6449
  1989.0000     11.9027     -2.0157      7.9875    101.9337
  1989.2500     11.6799     -2.3006      8.0145    101.3895
  1989.5000     11.4519     -2.6513      8.0145    100.1791
  1989.7500     11.2873     -3.0582      8.0039     99.1747
  1990.0000     11.1987     -3.4946      7.9965     98.1689
  1990.2500     11.1623     -3.9141      7.9982     98.3172
  1990.5000     11.1401     -4.2650      8.0087     99.7725
  1990.7500     11.1007     -4.5153      8.0263    101.1022
  1991.0000     11.0302     -4.6702      8.0517    102.9252
  1991.2500     10.9285     -4.7655      8.0889    103.9740
  1991.5000     10.8048     -4.8445      8.1419    105.4497
  1991.7500     10.6937     -4.9326      8.2115    106.2817
  1992.0000     10.6627     -5.0263      8.2956    107.0769
  1992.2500     10.7770     -5.0992      8.3891    107.4535
  1992.5000     11.0411     -5.1220      8.4860    108.2638
  1992.7500     11.3686     -5.0805      8.5785    108.7855
  1993.0000     11.6111     -4.9802      8.6567    108.1662
  1993.2500     11.6262     -4.8377      8.7098    106.1944
  1993.5000     11.3453     -4.6667      8.7307    101.8067
  1993.7500     10.8151     -4.4719      8.7209     99.4941
  1994.0000     10.2013     -4.2542      8.6910     99.3431
  1994.2500      9.7243     -4.0193      8.6525    101.6416
  1994.5000      9.5372     -3.7819      8.6102    106.6780
  1994.7500      9.6490     -3.5618      8.5596    109.3361
  1995.0000      9.9460     -3.3746      8.4920    110.3434
  1995.2500     10.2571     -3.2276      8.4010    109.1700
  1995.5000     10.4349     -3.1218      8.2872    106.4543
  1995.7500     10.4340     -3.0572      8.1570    105.1002
  1996.0000     10.3175     -3.0341      8.0201    104.6367
  1996.2500     10.1821     -3.0509      7.8862    105.3145
  1996.5000     10.0851     -3.1047      7.7630    107.1197
  1996.7500     10.0254     -3.1937      7.6550    108.2553
  1997.0000      9.9550     -3.3171      7.5639    108.8585
  1997.2500      9.8070     -3.4720      7.4906    108.2384
  1997.5000      9.5439     -3.6527      7.4358    106.1070
  1997.7500      9.2015     -3.8528      7.4007    104.4296
  1998.0000      8.8777     -4.0685      7.3858    102.4216
  1998.2500      8.6720     -4.3007      7.3910    101.5562
  1998.5000      8.6374     -4.5566      7.4165    100.2917
  1998.7500      8.7654     -4.8485      7.4632     98.8463
  1999.0000      8.9945     -5.1894      7.5313     95.5049
  1999.2500      9.2511     -5.5846      7.6184     93.1651
  1999.5000      9.4981     -6.0256      7.7192     91.1280
  1999.7500      9.7376     -6.4890      7.8278     91.0841
  2000.0000      9.9794     -6.9408      7.9401     92.0829
  2000.2500     10.2164     -7.3447      8.0552     92.7477
  2000.5000     10.4239     -7.6713      8.1742     93.4481
  2000.7500     10.5828     -7.9101      8.3002     94.0212
  2001.0000     10.6968     -8.0766      8.4371     95.4705
  2001.2500     10.7805     -8.2122      8.5867     96.7191
  2001.5000     10.8435     -8.3681      8.7467     98.2945
  2001.7500     10.8904     -8.5794      8.9106     98.7205
  2002.0000     10.9286     -8.8450      9.0714     98.4272
  2002.2500     10.9821     -9.1325      9.2223     98.2155
  2002.5000     11.0857     -9.4055      9.3565     99.1561
  2002.7500     11.2273     -9.6459      9.4667    100.7496
  2003.0000     11.3188     -9.8567      9.5489    103.3340
  2003.2500     11.3025    -10.0517      9.6083    104.2896
