~Version Information
VERS.                      2.0: CWLS Log ASCII Standard - VERSION 2.0
WRAP.                       NO: One line per depth step
~Well Information Block
STRT.FT               580.0000: 
STOP.FT              1756.7500: 
STEP.FT                 0.2500: 
NULL.                -999.2500: 
COMP.          Pioneer Natural Resources: COMPANY
WELL.          Lookout Point 31-23 Tr: WELL
FLD.           Purgatoire River: FIELD
LOC.           541' FNL & 1786' FEL: LOCATION
PROV.                 Colorado: PROVINCE
CNTY.               Las Animas: COUNTRY
SRVC.                Patterson: SERVICE COMPANY
DATE.          Sun Jan 23 04:14:25 2005: LOG DATE
UWI.           05 071 08260 00: UNIQUE WELL ID
~Curve Information Block
DEPT.FT            0 000 00 00: Depth
DIR.Ohm-m                     : IEL Induction Resistivity
GR.GAPI                       : Gamma Ray
SN.Ohm-m                      : IEL Short Normal
SP.mV                         : IEL Spontaneous Potential
~Parameter Information Block
~A  Depth       DIR          GR          SN          SP     
# ...
  1551.5000      7.9898    159.1887      8.9066    108.1726
  1551.7500      8.0949    157.3607      8.8585    108.2758
  1552.0000      8.1880    155.6818      8.8789    108.4047
  1552.2500      8.2730    156.1693      9.0393    108.5463
  1552.5000      8.3575    159.4423      9.3540    108.7010
  1552.7500      8.4451    162.5190      9.7705    108.8851
  1553.0000      8.5326    166.4883     10.1967    109.1250
  1553.2500      8.6115    167.8226     10.5465    109.4422
  1553.5000      8.6742    167.2546     10.7731    109.8312
  1553.7500      8.7215    165.0854     10.8686    110.2399
  1554.0000      8.7646    159.0687     10.8394    110.5636
  1554.2500      8.8232    153.4081     10.6910    110.6631
  1554.5000      8.9177    143.8178     10.4428    110.4102
  1554.7500      9.0631    138.0352     10.1609    109.7426
  1555.0000      9.2654    132.4475      9.9725    108.7039
  1555.2500      9.5210    131.3866     10.0371    107.4469
  1555.5000      9.8181    133.4237     10.4752    106.1918
  1555.7500     10.1364    136.4039     11.2848    105.1571
  1556.0000     10.4466    141.6658     12.3045    104.4908
  1556.2500     10.7130    144.9688     13.2608    104.2302
  1556.5000     10.9026    149.1100     13.8886    104.3039
  1556.7500     10.9971    151.3455     14.0473    104.5692
  1557.0000     11.0026    154.1474     13.7683    104.8652
  1557.2500     10.9488    155.9248     13.2232    105.0589
  1557.5000     10.8778    158.9837     12.6511    105.0707
  1557.7500     10.8292    161.2057     12.2807    104.8797
  1558.0000     10.8303    163.5348     12.2637    104.5140
  1558.2500     10.8926    163.4290     12.6227    104.0362
  1558.5000     11.0118    159.9644     13.2387    103.5249
  1558.7500     11.1708    155.7769     13.9086    103.0549
  1559.0000     11.3447    148.0961     14.4608    102.6755
  1559.2500     11.5094    142.9572     14.8450    102.3949
  1559.5000     11.6527    136.7159     15.1300    102.1780
  1559.7500     11.7829    134.3589     15.4291    101.9598
  1560.0000     11.9280    134.2655     15.8230    101.6703
  1560.2500     12.1257    135.9870     16.3225    101.2579
  1560.5000     12.4079    138.7709     16.8804    100.7016
  1560.7500     12.7891    139.1981     17.4410    100.0076
  1561.0000     13.2619    136.4872     17.9826     99.1992
  1561.2500     13.8024    132.7953     18.5222     98.3097
  1561.5000     14.3796    125.7707     19.0982     97.3832
  1561.7500     14.9678    120.5741     19.7567     96.4797
  1562.0000     15.5544    112.1289     20.5353     95.6730
  1562.2500     16.1409    106.3265     21.4325     95.0373
  1562.5000     16.7341     98.9422     22.3822     94.6249
  1562.7500     17.3311     96.0812     23.2635     94.4485
  1563.0000     17.9084     96.0510     23.9500     94.4775
  1563.2500     18.4191     98.7437     24.3676     94.6505
  1563.5000     18.8079    105.4837     24.5243     94.8971
  1563.7500     19.0349    110.6453     24.4963     95.1585
  1564.0000     19.0969    117.7506     24.3822     95.4007
  1564.2500     19.0289    121.6661     24.2565     95.6167
  1564.5000     18.8862    126.3109     24.1438     95.8206
  1564.7500     18.7242    128.4583     24.0244     96.0368
  1565.0000     18.5872    129.3695     23.8606     96.2873
  1565.2500     18.5119    127.9568     23.6263     96.5821
  1565.5000     18.5346    123.2562     23.3284     96.9158
  1565.7500     18.6896    119.5098     23.0175     97.2742
  1566.0000     18.9906    115.1166     22.7753     97.6455
  1566.2500     19.4038    113.6467     22.6718     98.0304
  1566.5000     19.8342    113.4256     22.7103     98.4421
  1566.7500     20.1540    114.1139     22.8053     98.8945
  1567.0000     20.2666    115.6032     22.8136     99.3843
  1567.2500     20.1524    116.5667     22.6051     99.8811
  1567.5000     19.8503    117.6559     22.1257    100.3323
  1567.7500     19.4082    118.1114     21.4203    100.6825
  1568.0000     18.8620    118.5537     20.6115    100.8959
  1568.2500     18.2476    118.9725     19.8533    100.9680
  1568.5000     17.6123    120.6123     19.2740    100.9222
  1568.7500     17.0049    122.7911     18.9249    100.7956
  1569.0000     16.4573    127.4705     18.7629    100.6237
  1569.2500     15.9793    130.7579     18.6785    100.4332
  1569.5000     15.5672    134.1553     18.5514    100.2411
  1569.7500     15.2154    134.6145     18.2989    100.0585
  1570.0000     14.9204    132.4875     17.8965     99.8943
  1570.2500     14.6794    129.9622     17.3692     99.7595
  1570.5000     14.4873    126.4256     16.7693     99.6689
  1570.7500     14.3358    124.8224     16.1588     99.6403
  1571.0000     14.2138    122.6997     15.5914     99.6893
  1571.2500     14.1073    120.3720     15.0893     99.8213
  1571.5000     13.9983    114.5010     14.6384    100.0270
  1571.7500     13.8664    109.5106     14.2201    100.2846
  1572.0000     13.6926    102.6744     13.8504    100.5685
  1572.2500     13.4644     99.9741     13.5811    100.8602
  1572.5000     13.1812    100.1365     13.4608    101.1542
  1572.7500     12.8556    102.9093     13.4901    101.4571
  1573.0000     12.5088    109.4241     13.6087    101.7793
  1573.2500     12.1608    114.2788     13.7195    102.1262
  1573.5000     11.8237    121.3749     13.7341    102.4925
  1573.7500     11.5021    125.7519     13.6116    102.8631
  1574.0000     11.1994    131.0704     13.3694    103.2192
  1574.2500     10.9228    133.2224     13.0626    103.5454
  1574.5000     10.6851    134.1007     12.7513    103.8331
  1574.7500     10.5009    133.5683     12.4811    104.0779
  1575.0000     10.3831    132.1905     12.2798    104.2710
  1575.2500     10.3407    131.2805     12.1597    104.3919
  1575.5000     10.3780    130.0007     12.1199    104.4069
  1575.7500     10.4933    129.0070     12.1522    104.2795
  1576.0000     10.6783    126.8358     12.2487    103.9893
  1576.2500     10.9186    124.7923     12.4021    103.5500
  1576.5000     11.1975    120.9311     12.6014    103.0172
  1576.7500     11.5013    117.8407     12.8278    102.4790
  1577.0000     11.8220    112.3262     13.0584    102.0348
  1577.2500     12.1540    108.3616     13.2732    101.7700
  1577.5000     12.4864    103.4464     13.4627    101.7377
  1577.7500     12.7995    101.6030     13.6321    101.9520
  1578.0000     13.0702    100.7123     13.7986    102.3915
  1578.2500     13.2834    100.5544     13.9805    103.0103
  1578.5000     13.4383    100.2556     14.1842    103.7531
  1578.7500     13.5456    100.4607     14.4000    104.5684
  1579.0000     13.6208    102.5565     14.6039    105.4168
  1579.2500     13.6802    105.2818     14.7671    106.2708
  1579.5000     13.7399    110.3357     14.8723    107.1071
  1579.7500     13.8150    113.3312     14.9283    107.8993
  1580.0000     13.9175    115.4811     14.9680    108.6153
  1580.2500     14.0544    114.7780     15.0318    109.2239
  1580.5000     14.2291    111.1259     15.1502    109.7039
  1580.7500     14.4434    108.0177     15.3382    110.0511
  1581.0000     14.7002    103.9069     15.6005    110.2769
  1581.2500     15.0037    101.8431     15.9390    110.4004
  1581.5000     15.3555     99.6942     16.3554    110.4389
  1581.7500     15.7509     98.7656     16.8423    110.4006
  1582.0000     16.1789     97.3896     17.3710    110.2816
  1582.2500     16.6254     95.6355     17.8897    110.0698
  1582.5000     17.0764     90.5832     18.3406    109.7519
  1582.7500     17.5156     85.7431     18.6845    109.3243
  1583.0000     17.9171     77.7042     18.9175    108.8026
  1583.2500     18.2427     72.7181     19.0721    108.2257
  1583.5000     18.4505     66.7992     19.2060    107.6522
  1583.7500     18.5129     64.1306     19.3739    107.1485
  1584.0000     18.4340     61.7358     19.5923    106.7732
  1584.2500     18.2512     60.7364     19.8210    106.5635
  1584.5000     18.0189     59.5222     19.9837    106.5278
  1584.7500     17.7854     58.8335     20.0185    106.6465
