~Version Information
VERS.                      2.0: CWLS Log ASCII Standard - VERSION 2.0
WRAP.                       NO: One line per depth step
~Well Information Block
STRT.FT               528.0000: 
STOP.FT              2250.0000: 
STEP.FT                 0.1000: 
NULL.                -999.2500: 
COMP.          Pioneer Natural Resources: COMPANY
WELL.           Parklane 43-34: WELL
FLD.           Purgatorie River: FIELD
LOC.           1704' FSL & 1119' FEL: LOCATION
PROV.                 Colorado: PROVINCE
CNTY.               Las Animas: COUNTRY
SRVC.                         : SERVICE COMPANY
DATE.          Thu Oct 07 08:21:17 2004: LOG DATE
UWI.           05 071 08162 00: UNIQUE WELL ID
~Curve Information Block
DEPT.FT            0 000 00 00: Depth
LTEN.lb                       : Surface Line Tension
DCAL.in                       : CDL Caliper
RHOB.g/cc                     : CDL Bulk Density
RHOC.g/cc                     : CDL Density Correction
DPOR.pu                       : CDL Density Porosity
GR.GAPI                       : Gamma Ray
NPOR.pu                       : Neutron Porosity
~Parameter Information Block
~A  Depth       LTEN        DCAL        RHOB        RHOC        DPOR         GR         NPOR    
# ...
   645.6000    860.4797      7.9963      2.5823      0.0730      4.1011    106.2408     25.9282
   645.7000    860.4797      7.9963      2.6097      0.0937      2.4441    102.6752     25.5870
   645.8000    872.0216      8.0036      2.6187      0.1290      1.8944    100.1747     25.8552
   645.9000    872.0216      8.0036      2.6033      0.1260      2.8297     97.3303     26.4698
   646.0000    862.6106      8.0117      2.5638      0.1347      5.2239     91.7836     26.6190
   646.1000    862.6106      8.0117      2.5096      0.0602      8.5116     88.4862     26.0121
   646.2000    862.6106      8.0117      2.4593      0.0295     11.5552     90.7364     25.2777
   646.3000    856.1414      8.0092      2.4325     -0.0320     13.1844     93.2880     25.0355
   646.4000    856.1414      8.0092      2.4343     -0.0032     13.0742     92.3208     25.2384
   646.5000    854.1877      8.0042      2.4458      0.0495     12.3759     90.8091     25.5217
   646.6000    854.1877      8.0042      2.4517      0.0451     12.0210     93.1303     25.5213
   646.7000    854.1877      8.0042      2.4648      0.0717     11.2261     97.8930     25.3898
   646.8000    838.1459      8.0092      2.5019      0.1507      8.9784    101.5028     25.3997
   646.9000    838.1459      8.0092      2.5605      0.1909      5.4225    104.9408     25.4580
   647.0000    847.3493      8.0209      2.6246      0.2395      1.5403    108.7778     25.6739
   647.1000    847.3493      8.0209      2.6756      0.2436     -1.5533    109.3525     26.1683
   647.2000    847.3493      8.0209      2.7042      0.2321     -3.2826    108.2682     26.8111
   647.3000    850.5819      8.0313      2.7071      0.2520     -3.4634    110.5222     27.3813
   647.4000    850.5819      8.0313      2.6870      0.1979     -2.2450    113.3221     27.5727
   647.5000    855.6041      8.0334      2.6568      0.1380     -0.4121    114.0681     27.2751
   647.6000    855.6041      8.0334      2.6258      0.1038      1.4649    116.1139     26.7832
   647.7000    855.6041      8.0334      2.5970      0.0467      3.2100    117.3021     26.4855
   647.8000    864.2148      8.0303      2.5802      0.0299      4.2294    113.4120     26.3427
   647.9000    864.2148      8.0303      2.5817      0.0461      4.1408    106.5599     26.0791
   648.0000    874.1324      8.0235      2.5892      0.0917      3.6870    100.5771     25.5380
   648.1000    874.1324      8.0235      2.5882      0.0906      3.7447     98.3844     24.7611
   648.2000    874.1324      8.0235      2.5796      0.1067      4.2648     98.2841     23.9840
   648.3000    847.3647      8.0258      2.5699      0.0790      4.8538     99.0004     23.5131
   648.4000    847.3647      8.0258      2.5556      0.1182      5.7223    104.0501     23.3578
   648.5000    858.2125      8.0409      2.5286      0.0905      7.3591    111.5053     23.2472
   648.6000    858.2125      8.0409      2.5024      0.0217      8.9436    115.2123     23.0470
   648.7000    858.2125      8.0409      2.4997      0.0094      9.1111    116.0161     22.9307
   648.8000    873.9182      8.0526      2.5061      0.0741      8.7227    116.3559     22.9347
   648.9000    873.9182      8.0526      2.4838      0.0228     10.0711    113.9105     22.7004
   649.0000    879.0279      8.0618      2.4180      0.0519     14.0621    109.8161     22.0814
   649.1000    879.0279      8.0618      2.3196      0.0189     20.0223    111.0669     21.4819
   649.2000    879.0279      8.0618      2.2171      0.0035     26.2340    118.4389     21.2484
   649.3000    862.4448      8.0762      2.1432     -0.0127     30.7127    122.4623     21.3195
   649.4000    862.4448      8.0762      2.1085     -0.0096     32.8203    119.9722     21.4160
   649.5000    860.9762      8.0880      2.0955      0.0145     33.6085    118.1602     21.6399
   649.6000    860.9762      8.0880      2.0897      0.0182     33.9596    119.6890     21.9907
   649.7000    860.9762      8.0880      2.1133      0.0104     32.5300    124.0135     22.0862
   649.8000    849.2971      8.0916      2.2042      0.1895     27.0199    134.5752     22.1195
   649.9000    849.2971      8.0916      2.3462      0.4405     18.4151    151.3291     22.4270
   650.0000    865.2709      8.0914      2.4684      0.5494     11.0059    159.6903     23.1497
   650.1000    865.2709      8.0914      2.5318      0.4419      7.1665    150.5781     24.3291
   650.2000    865.2709      8.0914      2.5545      0.3836      5.7854    140.3026     25.2724
   650.3000    874.3190      8.0904      2.5577      0.3350      5.5936    138.7100     25.4516
   650.4000    874.3190      8.0904      2.5457      0.2564      6.3238    134.5469     25.3782
   650.5000    861.5574      8.0890      2.5245      0.2084      7.6050    125.4833     25.3392
   650.6000    861.5574      8.0890      2.5033      0.1581      8.8919    121.1359     25.1426
   650.7000    861.5574      8.0890      2.4850      0.1626      9.9977    121.8604     25.0701
   650.8000    914.5718      8.0882      2.4679      0.1617     11.0343    124.2227     25.2680
   650.9000    914.5718      8.0882      2.4579      0.1342     11.6404    129.1438     25.3324
   651.0000    910.4199      8.0880      2.4621      0.1635     11.3875    137.5683     25.1966
   651.1000    910.4199      8.0880      2.4748      0.1565     10.6192    145.9348     25.0717
   651.2000    910.4199      8.0880      2.4890      0.1305      9.7565    150.1170     24.7643
   651.3000    860.5388      8.0874      2.5030      0.1524      8.9117    150.4787     24.1623
   651.4000    860.5388      8.0874      2.5127      0.1189      8.3218    152.5211     23.6684
   651.5000    863.6994      8.0872      2.5138      0.1968      8.2545    157.3661     23.3536
   651.6000    863.6994      8.0872      2.5053      0.2034      8.7684    159.4339     22.8340
   651.7000    863.6994      8.0872      2.4876      0.2461      9.8430    159.9486     22.1835
   651.8000    930.7929      8.0881      2.4593      0.1780     11.5571    163.7631     21.5189
   651.9000    930.7929      8.0881      2.4221      0.1584     13.8092    169.4212     20.5628
   652.0000    896.0015      8.0894      2.3783      0.0825     16.4673    168.9495     19.3865
   652.1000    896.0015      8.0894      2.3359      0.0392     19.0359    158.3098     18.5780
   652.2000    896.0015      8.0894      2.3034      0.0735     21.0039    146.2248     18.1361
   652.3000    862.1602      8.0905      2.2780      0.0582     22.5443    138.6866     17.6140
   652.4000    862.1602      8.0905      2.2543      0.1004     23.9847    134.1322     17.1356
   652.5000    834.5141      8.0923      2.2173      0.1731     26.2263    132.9505     16.9543
   652.6000    834.5141      8.0923      2.1524      0.1051     30.1559    135.0500     16.8792
   652.7000    834.5141      8.0923      2.0653      0.1299     35.4389    134.2869     16.7570
   652.8000    817.4897      8.0948      1.9675      0.0878     41.3636    128.8713     16.6924
   652.9000    817.4897      8.0948      1.8648      0.0891     47.5868    124.8070     16.4987
   653.0000    784.0187      8.0974      1.7555      0.0687     54.2140    123.6937     15.6232
   653.1000    784.0187      8.0974      1.6414      0.0226     61.1271    120.1530     14.2054
   653.2000    784.0187      8.0974      1.5384     -0.0635     67.3698    112.5147     13.2476
   653.3000    771.9917      8.1020      1.4623     -0.0403     71.9805    107.0618     13.2026
   653.4000    771.9917      8.1020      1.4113      0.0017     75.0711    104.3483     13.6106
   653.5000    780.9407      8.1088      1.3788     -0.0294     77.0439     99.8356     13.8969
   653.6000    780.9407      8.1088      1.3693     -0.0111     77.6171     95.2149     14.0196
   653.7000    780.9407      8.1088      1.3890      0.0436     76.4225     91.9355     14.4073
   653.8000    786.9397      8.1148      1.4409      0.0107     73.2794     86.7331     15.0917
   653.9000    786.9397      8.1148      1.5210      0.0957     68.4235     82.1621     15.8624
