~Version Information
VERS.                      2.0: CWLS Log ASCII Standard - VERSION 2.0
WRAP.                       NO: One line per depth step
~Well Information Block
STRT.FT               605.6000: 
STOP.FT              1938.0000: 
STEP.FT                 0.1000: 
NULL.                -999.2500: 
COMP.          Petrogulf Corporation: COMPANY
WELL.              Graff 9-31R: WELL
FLD.           Purgatorie River: FIELD
LOC.           707' FNL & 1713' FEL: LOCATION
CNTY.               Las Animas: COUNTY
SRVC.                         : SERVICE COMPANY
DATE.          Mon Oct 25 06:13:30 2004: LOG DATE
UWI.           05 071 08037 00: UNIQUE WELL ID
STAT.                 Colorado: STATE
~Curve Information Block
DEPT.FT            0 000 00 00: Depth
DCAL.in                       : CDL Caliper
RHOB.g/cc                     : CDL Bulk Density
RHOC.g/cc                     : CDL Density Correction
DPOR.pu                       : CDL Density Porosity
GR.GAPI                       : Gamma Ray
NPOR.pu                       : Neutron Porosity
~Parameter Information Block
~A  Depth       DCAL        RHOB        RHOC        DPOR         GR         NPOR    
# ...
   970.4000      8.1867      2.5170      0.0840      8.0577    148.6814     28.5492
   970.5000      8.1929      2.4935      0.0409      9.4878    146.1200     26.9446
   970.6000      8.1929      2.4816     -0.0048     10.2043    144.3548     25.4738
   970.7000      8.1929      2.4981      0.0820      9.2035    145.7699     24.3705
   970.8000      8.1948      2.5096      0.0962      8.5119    148.9224     23.5587
   970.9000      8.1948      2.4894      0.0654      9.7333    149.4427     23.4789
   971.0000      8.1961      2.4533     -0.0219     11.9225    145.4836     24.3290
   971.1000      8.1961      2.4191      0.0530     13.9935    142.1361     25.1850
   971.2000      8.1961      2.3891      0.0146     15.8122    141.6383     25.7077
   971.3000      8.2160      2.3781      0.0210     16.4807    140.4776     26.3478
   971.4000      8.2160      2.3962      0.0359     15.3821    137.8789     27.3129
   971.5000      8.2052      2.4212      0.1239     13.8682    135.7014     28.4429
   971.6000      8.2052      2.4226      0.1091     13.7816    134.3089     29.0726
   971.7000      8.2052      2.4094      0.0874     14.5837    134.8571     28.9129
   971.8000      8.2047      2.4233      0.0753     13.7415    137.5081     28.5485
   971.9000      8.2047      2.4811      0.1013     10.2385    138.2448     28.2119
   972.0000      8.2123      2.5484      0.1383      6.1566    137.5133     28.0150
   972.1000      8.2123      2.5839      0.1186      4.0063    138.2415     28.1999
   972.2000      8.2123      2.5889      0.0589      3.7001    138.4496     28.3253
   972.3000      8.2154      2.5851      0.0865      3.9315    135.7475     28.1761
   972.4000      8.2154      2.5797      0.0749      4.2629    130.9279     28.3318
   972.5000      8.2179      2.5720      0.0370      4.7257    127.0734     28.6832
   972.6000      8.2179      2.5575      0.0800      5.6089    123.7023     28.3975
   972.7000      8.2179      2.5344      0.0107      7.0037    119.1612     27.4947
   972.8000      8.2206      2.5165     -0.0067      8.0939    117.8799     26.7187
   972.9000      8.2206      2.5118      0.0720      8.3770    121.5650     26.4154
   973.0000      8.2221      2.5218     -0.0259      7.7667    125.3469     26.4361
   973.1000      8.2221      2.5502      0.0424      6.0471    126.7628     26.4402
   973.2000      8.2221      2.5785      0.1024      4.3351    131.8587     26.4339
   973.3000      8.2320      2.5865      0.0629      3.8466    140.9194     26.6681
   973.4000      8.2320      2.5852      0.0261      3.9285    145.1227     26.8833
   973.5000      8.2385      2.5843      0.1215      3.9803    142.4747     26.7114
   973.6000      8.2385      2.5785      0.0530      4.3311    136.4988     26.5251
   973.7000      8.2385      2.5751      0.0517      4.5408    130.7390     26.7200
   973.8000      8.2398      2.5806      0.0789      4.2059    128.6553     26.9768
   973.9000      8.2398      2.5878      0.0413      3.7672    128.0174     26.8873
   974.0000      8.2408      2.5963      0.0805      3.2562    125.5621     26.4963
   974.1000      8.2408      2.6110      0.0793      2.3651    120.9571     26.2229
   974.2000      8.2408      2.6277      0.0936      1.3485    115.9033     26.2681
   974.3000      8.2448      2.6319      0.1228      1.0986    113.5201     26.3333
   974.4000      8.2448      2.6173      0.0456      1.9800    111.6158     26.2945
   974.5000      8.2493      2.5996      0.0372      3.0526    106.8883     26.0719
   974.6000      8.2493      2.5895      0.0511      3.6643    103.0734     25.4736
   974.7000      8.2493      2.5812      0.0789      4.1689    103.1108     24.7105
   974.8000      8.2524      2.5742      0.0203      4.5959    103.1797     24.1663
   974.9000      8.2524      2.5757      0.0281      4.5002    101.0082     23.9654
   975.0000      8.2577      2.5908      0.0215      3.5869     99.1213     23.9897
   975.1000      8.2577      2.6163      0.0920      2.0433     98.1350     24.0614
   975.2000      8.2577      2.6324      0.0944      1.0687     95.7684     24.1156
   975.3000      8.2613      2.6193      0.0874      1.8590     92.3924     24.3649
   975.4000      8.2613      2.5841      0.0417      3.9944     90.9167     24.6254
   975.5000      8.2696      2.5505      0.0165      6.0299     92.2657     24.4544
   975.6000      8.2696      2.5367     -0.0153      6.8659     94.8292     24.2294
   975.7000      8.2696      2.5460      0.0108      6.3009     93.6040     24.3416
   975.8000      8.2785      2.5619      0.0229      5.3406     88.5383     24.4548
   975.9000      8.2785      2.5709      0.0186      4.7946     86.6532     24.1282
   976.0000      8.2945      2.5731      0.0226      4.6592     89.0916     23.3901
   976.1000      8.2945      2.5663      0.0150      5.0718     90.4765     22.7104
   976.2000      8.2945      2.5592      0.0350      5.5014     88.3587     22.4615
   976.3000      8.3167      2.5737      0.0424      4.6246     84.5507     22.6381
   976.4000      8.3167      2.6064      0.0530      2.6415     80.5980     22.8950
   976.5000      8.3258      2.6262      0.1044      1.4396     78.9386     22.7759
   976.6000      8.3258      2.6286      0.0472      1.2949     81.7227     22.4896
   976.7000      8.3258      2.6368      0.0423      0.7976     85.3447     22.6463
   976.8000      8.3287      2.6445      0.1049      0.3325     85.9984     23.0236
   976.9000      8.3287      2.6292      0.0346      1.2581     86.1767     22.9847
   977.0000      8.3301      2.5981      0.0461      3.1473     87.4729     22.6407
   977.1000      8.3301      2.5745      0.0177      4.5787     87.5668     22.4672
   977.2000      8.3301      2.5694      0.0669      4.8821     87.4038     22.4795
   977.3000      8.3308      2.5808      0.0103      4.1911     89.8107     22.3731
   977.4000      8.3308      2.6015      0.0432      2.9394     93.6979     22.0335
   977.5000      8.3286      2.6179      0.0297      1.9455     95.8355     21.6720
   977.6000      8.3286      2.6222      0.0755      1.6850     95.0180     21.4028
   977.7000      8.3286      2.6199      0.0292      1.8230     88.9345     21.1936
   977.8000      8.3329      2.6210      0.0249      1.7581     80.8300     21.0345
   977.9000      8.3329      2.6242      0.0934      1.5618     79.8404     21.0325
   978.0000      8.3366      2.6205      0.0673      1.7868     85.1015     21.3164
   978.1000      8.3366      2.6196      0.0021      1.8453     87.5674     21.6909
   978.2000      8.3366      2.6322      0.0518      1.0788     85.6277     21.8006
   978.3000      8.3425      2.6509      0.0705     -0.0558     84.1277     21.8091
   978.4000      8.3425      2.6730      0.0584     -1.3923     84.4358     22.2322
   978.5000      8.3447      2.6850      0.1162     -2.1189     83.2302     22.9674
   978.6000      8.3447      2.6645      0.0260     -0.8808     79.2181     23.4268
   978.7000      8.3447      2.6320     -0.0148      1.0938     77.4516     23.4576
   978.8000      8.3425      2.6182      0.0549      1.9251     81.2062     23.3355
   978.9000      8.3425      2.6115      0.0447      2.3345     85.8157     23.1121
   979.0000      8.3452      2.5972      0.0059      3.2001     86.2893     22.7130
   979.1000      8.3452      2.5846      0.0359      3.9656     82.8000     22.2376
   979.2000      8.3452      2.5811     -0.0054      4.1731     78.9987     21.8114
   979.3000      8.3442      2.5871     -0.0207      3.8119     78.4888     21.5600
   979.4000      8.3442      2.5936      0.0206      3.4175     83.4324     21.6850
   979.5000      8.3519      2.5915      0.0447      3.5478     87.8759     22.0725
   979.6000      8.3519      2.5894      0.0160      3.6754     86.0378     22.3550
   979.7000      8.3519      2.5978      0.0029      3.1617     85.8990     22.7174
   979.8000      8.3600      2.6069      0.0362      2.6138     92.1841     23.2326
   979.9000      8.3600      2.6034      0.0315      2.8265     98.0827     23.3493
