~Version Information
VERS.                      2.0: CWLS Log ASCII Standard - VERSION 2.0
WRAP.                       NO: One line per depth step
~Well Information Block
STRT.FT                -7.0000: 
STOP.FT              2736.0000: 
STEP.FT                 0.2500: 
NULL.                -999.2500: 
COMP.          Pioneer Natural Resources: COMPANY
WELL.              Getem 21-23: WELL
FLD.           Purgatorie River: FIELD
LOC.           2623' FWL & 790' FNL----: LOCATION
PROV.                       CO: PROVINCE
CNTY.               Las Animas: COUNTRY
SRVC.          Patterson Wireline: SERVICE COMPANY
DATE.          Mon Jun 27 09:57:55 2005: LOG DATE
UWI.           05 071 08411 00: UNIQUE WELL ID
~Curve Information Block
DEPT.FT            0 000 00 00: Depth
CCL.                          : Casing Collar Locator
TT3.usec                      : CBL 3' Travel Time
AMP3.mV                       : CBL 3' Amplitude
GR.GAPI                       : Gamma Ray
~Parameter Information Block
~A  Depth       CCL         TT3         AMP3         GR     
# ...
  1065.0000      0.0000    756.9713      6.3807    143.2937
  1065.2500      0.0000    731.0215      6.2908    140.0873
  1065.5000      0.0000    698.4473      6.1499    134.4059
  1065.7500      0.0000    661.0913      6.0064    126.2883
  1066.0000      0.0000    624.6184      5.9050    116.7962
  1066.2500      0.0000    600.4110      5.8561    108.7351
  1066.5000      0.0000    600.2106      5.8304    105.4860
  1066.7500      0.0000    626.2390      5.7898    108.6670
  1067.0000      0.0000    668.0906      5.7293    116.7125
  1067.2500      0.0000    709.2668      5.6904    125.7197
  1067.5000      0.0000    735.2187      5.7242    132.1059
  1067.7500      0.0000    738.5114      5.8323    134.8186
  1068.0000      0.0000    722.5474      5.9467    135.2612
  1068.2500      0.0000    701.0735      5.9752    135.4474
  1068.5000      0.0000    689.5063      5.8776    136.4203
  1068.7500      0.0000    694.3858      5.7061    138.0473
  1069.0000      0.0000    712.1517      5.5723    139.6360
  1069.2500      0.0000    736.7103      5.5632    140.3222
  1069.5000      0.0000    764.5746      5.6805    139.2415
  1069.7500      0.0000    792.6756      5.8524    136.0482
  1070.0000      0.0000    815.2822      5.9901    131.4301
  1070.2500      0.0000    825.7495      6.0316    126.8403
  1070.5000      0.0000    821.1276      5.9534    123.5660
  1070.7500      0.0000    805.2679      5.7764    121.9491
  1071.0000      0.0000    788.1985      5.5676    121.4349
  1071.2500      0.0000    780.7131      5.4190    121.3552
  1071.5000      0.0000    786.7213      5.3902    121.4309
  1071.7500      0.0000    800.8062      5.4577    121.3706
  1072.0000      0.0000    814.3560      5.5296    120.4631
  1072.2500      0.0000    823.0248      5.5192    118.2922
  1072.5000      0.0000    827.5703      5.4129    115.8647
  1072.7500      0.0000    829.9265      5.2771    115.4257
  1073.0000      0.0000    830.9513      5.2031    118.7539
  1073.2500      0.0000    831.3432      5.2300    125.4054
  1073.5000      0.0000    832.4122      5.3142    132.3862
  1073.7500      0.0000    834.6161      5.3765    135.9112
  1074.0000      0.0000    836.1215      5.3737    134.5074
  1074.2500      0.0000    834.3482      5.3190    130.6993
  1074.5000      0.0000    829.3304      5.2495    128.9745
  1074.7500      0.0000    824.2478      5.1966    131.6290
  1075.0000      0.0000    821.7943      5.1793    136.7611
  1075.2500      0.0000    821.2167      5.1986    140.4202
  1075.5000      0.0000    820.2119      5.2301    140.3575
  1075.7500      0.0000    818.6934      5.2457    137.4885
  1076.0000      0.0000    818.8949      5.2561    134.1784
  1076.2500      0.0000    821.8836      5.3140    131.7305
  1076.5000      0.0000    825.1363      5.4556    129.4852
  1076.7500      0.0000    823.7870      5.6456    125.8081
  1077.0000      0.0000    814.1483      5.7934    119.7462
  1077.2500      0.0000    796.9962      5.8181    112.0574
  1077.5000      0.0000    778.0125      5.7001    104.8339
  1077.7500      0.0000    763.6859      5.4907    100.0517
  1078.0000      0.0000    755.7926      5.2909     98.4037
  1078.2500      0.0000    750.7881      5.2055     99.3232
  1078.5000      0.0000    745.2027      5.2897    101.9425
  1078.7500      0.0000    740.5372      5.5229    105.9204
  1079.0000      0.0000    741.8398      5.8289    111.1832
  1079.2500      0.0000    751.6860      6.1215    116.9530
  1079.5000      0.0000    766.1787      6.3388    121.6862
  1079.7500      0.0000    777.2111      6.4528    124.5103
  1080.0000      0.0000    778.7152      6.4619    126.3245
  1080.2500      0.0000    770.9100      6.3762    128.8709
  1080.5000      0.0000    759.2732      6.2070    132.8267
  1080.7500      0.0000    750.4036      5.9735    137.1146
  1081.0000      0.0000    748.7261      5.7223    139.8881
  1081.2500      0.0000    755.5220      5.5259    139.8620
  1081.5000      0.0000    769.1108      5.4448    136.9075
  1081.7500      0.0000    785.5690      5.4838    131.9649
  1082.0000      0.0000    800.6904      5.5904    126.6702
  1082.2500      0.0000    812.4941      5.7022    122.6454
  1082.5000      0.0000    821.8252      5.7888    120.6311
  1082.7500      0.0000    830.2650      5.8492    120.1977
  1083.0000      0.0000    837.8782      5.8873    120.3092
  1083.2500      0.0000    843.3378      5.9066    120.0491
  1083.5000      0.0000    845.8638      5.9170    119.0110
  1083.7500      0.0000    846.4187      5.9224    117.6751
  1084.0000      0.0000    846.9346      5.9044    117.6982
  1084.2500      0.0000    848.6996      5.8327    120.9556
  1084.5000      0.0000    851.4688      5.7057    127.3368
  1084.7500      0.0000    853.9045      5.5755    133.8129
  1085.0000      0.0000    854.9380      5.5147    136.6370
  1085.2500      0.0000    854.8757      5.5421    134.6355
  1085.5000      0.0000    855.0736      5.5913    129.9944
  1085.7500      0.0000    856.4693      5.5702    125.9734
  1086.0000      0.0000    858.6959      5.4568    124.1822
  1086.2500      0.0000    860.6960      5.3272    123.8359
  1086.5000      0.0000    861.8149      5.2862    123.1283
  1086.7500      0.0000    862.1055      5.3736    120.8939
  1087.0000      0.0000    861.9587      5.5392    116.9643
  1087.2500      0.0000    861.7496      5.6873    111.6573
  1087.5000      0.0000    861.7256      5.7278    105.6301
  1087.7500      0.0000    861.9705      5.6053    100.0584
  1088.0000      0.0000    862.3973      5.3285     96.3674
  1088.2500      0.0000    862.8470      4.9834     95.3642
  1088.5000      0.0000    863.2308      4.6886     96.3720
  1088.7500      0.0000    863.6171      4.5220     97.1584
  1089.0000      0.0000    864.2277      4.4900     95.2182
  1089.2500      0.0000    865.4299      4.5518     89.7345
  1089.5000      0.0000    867.6204      4.6541     82.3652
  1089.7500      0.0000    870.8069      4.7570     75.9848
  1090.0000      0.0000    874.0266      4.8426     72.6744
  1090.2500     -2.0000    875.3242      4.9047     72.7116
  1090.5000      0.0000    872.7875      4.9437     74.7988
  1090.7500      0.0000    866.1204      4.9746     76.9750
  1091.0000      0.0000    857.4514      5.0193     77.8994
  1091.2500      0.0000    850.3270      5.0781     77.6887
  1091.5000      0.0000    847.1920      5.1279     77.3578
  1091.7500      0.0000    847.5525      5.1671     77.5657
  1092.0000      0.0000    848.9430      5.2379     78.1911
  1092.2500      0.0000    849.7471      5.3828     78.9337
  1092.5000      0.0000    850.4830      5.5930     79.8110
  1092.7500      0.0000    852.2801      5.8136     80.8864
  1093.0000      0.0000    855.0695      5.9837     81.7056
  1093.2500      0.0000    857.8282      6.0611     81.2448
  1093.5000      0.0000    859.8853      6.0264     78.5649
  1093.7500      0.0000    861.4072      5.8873     73.6079
  1094.0000      0.0000    862.8950      5.6789     67.3597
  1094.2500      0.0000    864.5261      5.4495     61.2360
  1094.5000      0.0000    865.8115      5.2458     56.3406
  1094.7500      0.0000    865.9103      5.1005     53.2227
  1095.0000      0.0000    864.4860      5.0137     51.9772
  1095.2500      0.0000    862.1829      4.9545     52.2370
  1095.5000      0.0000    860.1077      4.9015     53.1495
  1095.7500      0.0000    859.0948      4.8798     53.7567
  1096.0000      0.0000    859.4945      4.9382     53.7230
  1096.2500      0.0000    861.1395      5.0909     53.7328
  1096.5000      0.0000    863.2293      5.2978     54.8774
  1096.7500      0.0000    864.7830      5.5101     57.4380
  1097.0000      0.0000    865.8416      5.7142     60.4116
  1097.2500      0.0000    868.0712      5.9158     62.3427
  1097.5000      0.0000    873.5577      6.0970     62.4628
  1097.7500      0.0000    882.4378      6.2188     61.0788
  1098.0000      0.0000    891.4262      6.2653     59.2526
  1098.2500      0.0000    894.9492      6.2637     58.3242
