~Version Information
VERS.                      2.0: CWLS Log ASCII Standard - VERSION 2.0
WRAP.                       NO: One line per depth step
~Well Information Block
STRT.FT                -7.2500: 
STOP.FT               868.2500: 
STEP.FT                 0.2500: 
NULL.                -999.2500: 
COMP.          Pioneer Natural Resources: COMPANY
WELL.              Venom 32-22: WELL
FLD.           Purgatorie River: FIELD
LOC.           2307' FNL & 2024' FWL--: LOCATION
PROV.                       CO: PROVINCE
CNTY.               Las Animas: COUNTRY
SRVC.          Patterson Wireline: SERVICE COMPANY
DATE.          Mon May 16 15:26:38 2005: LOG DATE
UWI.           05 071 08361 00: UNIQUE WELL ID
~Curve Information Block
DEPT.FT            0 000 00 00: Depth
CCL.                          : Casing Collar Locator
TT3.usec                      : CBL 3' Travel Time
AMP3.mV                       : CBL 3' Amplitude
GR.GAPI                       : Gamma Ray
~Parameter Information Block
~A  Depth       CCL         TT3         AMP3         GR     
# ...
   327.7500      0.0000    874.8909      4.4134    101.5428
   328.0000      0.0000    858.9576      4.4808    101.6733
   328.2500      0.0000    841.2148      4.5439     98.5884
   328.5000      0.0000    823.5338      4.5611     93.7752
   328.7500      0.0000    809.0821      4.5540     89.3944
   329.0000      0.0000    800.5098      4.5774     86.7917
   329.2500      0.0000    798.1426      4.6549     85.9996
   329.5000      0.0000    800.4580      4.7578     86.2116
   329.7500      0.0000    806.2773      4.8366     86.5492
   330.0000      0.0000    815.7258      4.8624     86.6381
   330.2500      0.0000    828.3449      4.8491     86.7492
   330.5000      0.0000    840.9836      4.8459     87.4845
   330.7500      0.0000    849.0712      4.8966     89.2059
   331.0000      0.0000    850.2119      4.9965     91.4465
   331.2500      0.0000    845.8726      5.0890     92.7798
   331.5000      0.0000    839.6497      5.1119     91.6370
   331.7500      0.0000    834.4597      5.0429     87.6823
   332.0000      0.0000    831.2871      4.9065     82.3120
   332.2500      0.0000    829.7186      4.7485     77.6005
   332.5000      0.0000    828.9930      4.6125     74.8565
   332.7500      0.0000    828.5909      4.5252     74.1573
   333.0000      0.0000    828.2906      4.4743     74.7133
   333.2500      0.0000    828.0250      4.4034     75.3910
   333.5000      0.0000    827.7543      4.2587     75.4524
   333.7500      0.0000    827.3654      4.0596     75.3185
   334.0000      0.0000    826.5763      3.9003     76.4153
   334.2500      0.0000    824.8406      3.8629     79.9707
   334.5000      0.0000    821.5538      3.9411     85.9512
   334.7500      0.0000    816.8668      4.0648     93.0411
   335.0000      0.0000    812.4971      4.1776     99.5544
   335.2500      0.0000    811.0359      4.2605    104.4892
   335.5000      0.0000    813.6939      4.3018    107.6996
   335.7500      0.0000    818.9840      4.2860    109.2598
   336.0000      0.0000    824.0753      4.2205    109.2937
   336.2500      0.0000    827.0408      4.1505    108.3958
   336.5000      0.0000    827.6412      4.1369    107.4751
   336.7500      0.0000    826.8934      4.2100    107.1213
   337.0000      0.0000    826.5558      4.3377    107.5338
   337.2500      0.0000    828.2722      4.4501    108.7842
   337.5000      0.0000    832.2562      4.5027    110.5553
   337.7500      0.0000    836.9608      4.5099    111.7464
   338.0000      0.0000    840.4588      4.5123    110.8756
   338.2500      0.0000    841.7725      4.5277    106.9604
   338.5000      0.0000    840.8964      4.5458    100.0665
   338.7500      0.0000    838.4081      4.5585     91.4319
   339.0000      0.0000    835.3597      4.5773     83.2105
   339.2500      0.0000    832.7358      4.6165     77.5388
   339.5000      0.0000    830.6947      4.6698     75.1991
   339.7500      0.0000    828.8279      4.7111     75.1088
   340.0000      0.0000    827.4016      4.7193     75.3566
   340.2500      0.0000    827.6315      4.6937     74.8584
   340.5000      0.0000    830.0173      4.6487     74.2348
   340.7500      0.0000    832.8801      4.6020     75.4052
   341.0000      0.0000    833.5001      4.5612     80.1077
   341.2500      0.0000    830.6813      4.5089     88.3557
   341.5000      0.0000    825.4517      4.4110     98.3003
   341.7500      0.0000    819.0260      4.2601    107.5859
   342.0000      0.0000    810.9059      4.1027    114.6593
   342.2500      0.0000    800.2936      4.0021    119.0634
   342.5000      0.0000    789.4230      3.9689    121.0479
   342.7500      0.0000    783.6182      3.9518    120.9077
   343.0000      0.0000    786.7037      3.9070    118.3875
   343.2500      0.0000    797.0739      3.8590    112.9510
   343.5000      0.0000    809.2026      3.8758    104.9840
   343.7500      0.0000    818.3461      3.9930     96.4704
   344.0000      0.0000    823.2125      4.1748     90.0557
   344.2500      0.0000    825.0543      4.3456     87.4312
   344.5000      0.0000    825.5716      4.4452     88.4255
   344.7500      0.0000    825.7855      4.4520     91.2345
   345.0000      0.0000    826.0325      4.3700     93.6495
   345.2500      0.0000    826.3389      4.2134     94.5823
   345.5000      0.0000    826.6758      4.0180     94.4942
   345.7500      0.0000    827.0443      3.8502     94.4432
   346.0000      0.0000    827.4683      3.7758     95.2445
   346.2500      0.0000    828.0089      3.8076     97.4542
   346.5000      0.0000    828.8450      3.8982    101.1592
   346.7500      0.0000    830.4257      3.9853    105.4444
   347.0000      0.0000    833.5389      4.0329    108.8328
   347.2500      0.0000    838.9697      4.0329    110.5504
   347.5000      0.0000    846.7121      3.9913    111.0904
   347.7500      0.0000    855.4645      3.9216    111.6772
   348.0000      0.0000    863.2021      3.8475    113.2240
   348.2500      0.0000    868.4001      3.7951    115.4314
   348.5000      0.0000    870.5932      3.7763    116.6947
   348.7500      0.0000    869.9516      3.7873    115.0336
   349.0000      0.0000    866.8330      3.8239    109.3881
   349.2500      0.0000    861.9183      3.8867    100.3807
   349.5000      0.0000    856.4899      3.9697     90.0223
   349.7500      0.0000    852.2870      4.0497     80.5994
   350.0000      0.0000    850.8676      4.0994     73.5682
   350.2500      0.0000    852.4578      4.1132     69.1935
   350.5000      0.0000    854.8836      4.1179     66.9119
   350.7500      0.0000    854.2114      4.1498     65.8758
   351.0000      0.0000    847.5285      4.2244     65.2959
   351.2500      0.0000    835.2989      4.3386     64.6241
   351.5000      0.0000    820.5984      4.4950     63.7588
   351.7500      0.0000    806.3163      4.6976     63.0781
   352.0000      0.0000    793.7612      4.9159     62.9986
   352.2500      0.0000    783.5661      5.0769     63.4923
   352.5000      0.0000    776.7355      5.1240     64.1843
   352.7500      0.0000    774.4568      5.0832     64.6769
   353.0000      0.0000    777.5228      5.0381     64.4222
   353.2500      0.0000    786.2437      5.0262     62.6664
   353.5000      0.0000    800.4424      4.9907     59.2955
   353.7500      0.0000    818.9122      4.8553     55.7344
   354.0000      0.0000    838.8221      4.6223     54.3193
   354.2500      0.0000    856.2720      4.3780     56.5044
   354.5000      0.0000    868.0695      4.2237     61.8908
   354.7500      0.0000    873.1406      4.2039     69.0681
   355.0000      0.0000    872.5159      4.2763     77.0086
   355.2500      0.0000    868.4204      4.3445     85.2688
   355.5000      0.0000    863.2805      4.3381     93.0387
   355.7500      0.0000    858.9059      4.2673     98.7169
   356.0000      0.0000    856.0455      4.1925    100.8060
   356.2500      0.0000    854.5139      4.1450     99.2069
   356.5000      0.0000    853.7301      4.0958     95.6348
   356.7500      0.0000    853.1953      4.0209     92.6515
   357.0000      0.0000    852.6802      3.9744     91.9274
   357.2500      0.0000    852.1683      4.0592     93.2132
   357.5000      0.0000    851.7132      4.3259     94.9708
   357.7500      0.0000    851.3325      4.7233     96.0338
   358.0000      0.0000    850.9796      5.1421     96.6186
   358.2500      0.0000    850.5286      5.4789     97.6637
   358.5000      0.0000    849.6711      5.6634     99.3049
   358.7500      0.0000    847.7174      5.6678    100.4045
   359.0000      0.0000    843.6481      5.5157     99.7038
   359.2500      0.0000    836.9182      5.2749     97.0126
   359.5000      0.0000    828.7182      5.0328     92.9489
   359.7500      0.0000    822.0934      4.8735     87.9842
   360.0000      0.0000    819.8569      4.8580     82.3960
   360.2500      0.0000    821.9456      5.0019     77.0864
   360.5000      0.0000    825.2026      5.2514     73.6267
   360.7500      0.0000    825.8973      5.4831     73.0364
   361.0000      0.0000    822.3406      5.5714     74.9798
