~Version Information
VERS.                      2.0: CWLS Log ASCII Standard - VERSION 2.0
WRAP.                       NO: One line per depth step
~Well Information Block
STRT.FT               647.0000: 
STOP.FT              1166.0000: 
STEP.FT                 0.1000: 
NULL.                -999.2500: 
COMP.          Pioneer Natural Resources: COMPANY
WELL.             Linda T 32-3: WELL
FLD.           Purgatoire River: FIELD
LOC.           1350' FNL & 2290' FEL: LOCATION
PROV.                 Colorado: PROVINCE
CNTY.               Las Animas: COUNTRY
SRVC.                Patterson: SERVICE COMPANY
DATE.          Sat Feb 05 08:06:50 2005: LOG DATE
UWI.           05 071 08215 00: UNIQUE WELL ID
~Curve Information Block
DEPT.FT            0 000 00 00: Depth
DCAL.in                       : CDL Caliper
RHOB.g/cc                     : CDL Bulk Density
RHOC.g/cc                     : CDL Density Correction
DPOR.pu                       : CDL Density Porosity
GR.GAPI                       : Gamma Ray
NPOR.pu                       : Neutron Porosity
~Parameter Information Block
~A  Depth       DCAL        RHOB        RHOC        DPOR         GR         NPOR    
# ...
  1117.4000      7.9786      2.6071      0.0717      2.5989    111.6798     18.8532
  1117.5000      7.9568      2.5890      0.0425      3.6977    116.8532     18.9030
  1117.6000      7.9568      2.5841      0.0756      3.9935    120.2629     19.1539
  1117.7000      7.9568      2.5900      0.0552      3.6393    124.6650     19.3147
  1117.8000      7.9703      2.5989      0.0814      3.0980    129.7521     19.3231
  1117.9000      7.9703      2.5976      0.1054      3.1735    133.3319     19.4775
  1118.0000      8.0076      2.5786      0.0638      4.3251    137.9837     19.9104
  1118.1000      8.0076      2.5556      0.0315      5.7217    140.5970     20.5300
  1118.2000      8.0076      2.5451      0.0994      6.3584    134.9890     21.2437
  1118.3000      8.0126      2.5475      0.0407      6.2101    128.8808     21.8415
  1118.4000      8.0126      2.5570      0.0517      5.6371    129.7247     22.1088
  1118.5000      7.9937      2.5658      0.0674      5.1006    129.6866     22.1822
  1118.6000      7.9937      2.5676      0.0683      4.9932    120.9330     22.3912
  1118.7000      7.9937      2.5610      0.0723      5.3955    110.7200     22.7839
  1118.8000      7.9985      2.5557      0.0586      5.7142    109.0150     22.7761
  1118.9000      7.9985      2.5692      0.0590      4.8952    112.7050     21.8699
  1119.0000      8.0051      2.6014      0.1156      2.9427    114.1186     20.7898
  1119.1000      8.0051      2.6300      0.1090      1.2142    112.9897     20.5695
  1119.2000      8.0051      2.6359      0.1287      0.8551    113.6154     21.1969
  1119.3000      7.9452      2.6217      0.0976      1.7163    118.8616     21.8191
  1119.4000      7.9452      2.6020      0.0974      2.9099    127.9252     22.1886
  1119.5000      7.9312      2.5867      0.0797      3.8376    134.2073     22.6756
  1119.6000      7.9312      2.5790      0.0564      4.3019    135.2089     23.2525
  1119.7000      7.9312      2.5730      0.1035      4.6654    134.3831     23.6728
  1119.8000      7.9349      2.5661      0.0518      5.0852    129.0026     23.6955
  1119.9000      7.9349      2.5726      0.0603      4.6917    120.2321     23.5276
  1120.0000      7.9624      2.5958      0.0859      3.2828    116.9275     23.3006
  1120.1000      7.9624      2.6120      0.1486      2.3050    117.5092     22.7334
  1120.2000      7.9624      2.6024      0.1115      2.8833    115.9876     21.8935
  1120.3000      7.9919      2.5812      0.0582      4.1713    116.8944     21.1946
  1120.4000      7.9919      2.5695      0.0525      4.8773    121.7781     20.8753
  1120.5000      7.9789      2.5715      0.0468      4.7606    124.3957     20.4817
  1120.6000      7.9789      2.5795      0.0886      4.2702    123.7464     19.7922
  1120.7000      7.9789      2.5831      0.0612      4.0551    119.9452     19.6391
  1120.8000      8.0001      2.5802      0.0339      4.2287    114.4385     20.4223
  1120.9000      8.0001      2.5742      0.0589      4.5913    110.8549     21.3342
  1121.0000      8.0066      2.5640      0.0600      5.2099    107.6605     21.8320
  1121.1000      8.0066      2.5552      0.0430      5.7446    104.6478     22.2603
  1121.2000      8.0066      2.5601      0.0415      5.4511    106.2002     22.5431
  1121.3000      7.9997      2.5719      0.1007      4.7354    112.8916     22.3323
  1121.4000      7.9997      2.5689      0.0917      4.9142    118.6263     22.3140
  1121.5000      7.9832      2.5519      0.0893      5.9468    118.6428     23.1383
  1121.6000      7.9832      2.5412      0.0490      6.5924    116.9526     23.9824
  1121.7000      7.9832      2.5470      0.0716      6.2420    118.8271     23.9485
  1121.8000      7.9934      2.5651      0.0804      5.1474    121.5738     23.1448
  1121.9000      7.9934      2.5899      0.0825      3.6394    120.8381     22.1616
  1122.0000      7.9632      2.6109      0.1270      2.3719    118.2358     21.6431
  1122.1000      7.9632      2.6135      0.1119      2.2107    115.6685     21.4423
  1122.2000      7.9632      2.5955      0.1034      3.3034    111.3888     21.2421
  1122.3000      7.9638      2.5679      0.0391      4.9749    104.7858     21.5233
  1122.4000      7.9638      2.5465      0.0498      6.2728    101.3886     22.1107
  1122.5000      7.9613      2.5353      0.0438      6.9496    104.8982     22.0770
  1122.6000      7.9613      2.5289      0.0376      7.3373    110.2227     21.5982
  1122.7000      7.9613      2.5321      0.0374      7.1440    113.8631     21.5165
  1122.8000      8.0000      2.5485      0.0877      6.1492    114.7761     21.6806
  1122.9000      8.0000      2.5637      0.0896      5.2275    111.4376     21.5757
  1123.0000      7.9929      2.5682      0.0921      4.9595    109.0086     21.3287
  1123.1000      7.9929      2.5643      0.0904      5.1912    110.8839     21.0379
  1123.2000      7.9929      2.5577      0.0804      5.5957    110.4518     21.0048
  1123.3000      7.9738      2.5602      0.0778      5.4412    106.0423     21.6592
  1123.4000      7.9738      2.5761      0.0717      4.4760    102.2081     22.3584
  1123.5000      7.9751      2.5944      0.0794      3.3699    101.0636     22.0458
  1123.6000      7.9751      2.6028      0.1263      2.8628    104.6926     21.1565
  1123.7000      7.9751      2.5990      0.0853      3.0937    109.4080     20.9496
  1123.8000      7.9873      2.5923      0.0594      3.4990    111.1079     21.1791
  1123.9000      7.9873      2.5888      0.0778      3.7113    112.5120     20.8851
  1124.0000      8.0231      2.5871      0.0530      3.8099    113.2308     20.5274
  1124.1000      8.0231      2.5908      0.0526      3.5851    112.1300     20.8050
  1124.2000      8.0231      2.5991      0.0683      3.0834    112.1561     21.1917
  1124.3000      7.9892      2.5982      0.0841      3.1366    114.0667     21.2172
  1124.4000      7.9892      2.5829      0.0624      4.0693    114.0462     20.9179
  1124.5000      8.0018      2.5680      0.0326      4.9695    108.7486     20.4630
  1124.6000      8.0018      2.5615      0.0499      5.3630    102.5537     20.2843
  1124.7000      8.0018      2.5544      0.0737      5.7913    103.9232     20.7868
  1124.8000      7.9981      2.5464      0.0444      6.2775    112.7473     21.6899
  1124.9000      7.9981      2.5476      0.0405      6.2065    120.0479     21.9052
  1125.0000      8.0004      2.5597      0.0326      5.4745    121.8388     21.3802
  1125.1000      8.0004      2.5742      0.0476      4.5963    122.4466     21.0218
  1125.2000      8.0004      2.5812      0.0969      4.1678    122.6779     20.9832
  1125.3000      8.0068      2.5789      0.0681      4.3104    123.0525     21.0181
  1125.4000      8.0068      2.5770      0.0645      4.4272    127.3135     21.1487
  1125.5000      8.0068      2.5831      0.0911      4.0546    133.3169     21.5913
  1125.6000      8.0068      2.5906      0.0887      3.6024    136.5201     22.2229
  1125.7000      8.0068      2.5928      0.0797      3.4691    135.8214     22.4960
  1125.8000      8.0070      2.5960      0.0807      3.2747    132.4239     22.1990
  1125.9000      8.0070      2.6045      0.0994      2.7568    128.5411     21.6762
  1126.0000      8.0050      2.6094      0.0976      2.4618    125.1384     21.2413
  1126.1000      8.0050      2.6012      0.0861      2.9606    123.7395     20.9682
  1126.2000      8.0050      2.5817      0.1012      4.1368    124.2619     20.8170
  1126.3000      8.0016      2.5578      0.0830      5.5860    124.1728     21.0257
  1126.4000      8.0016      2.5333      0.0943      7.0700    124.2226     21.4702
  1126.5000      7.9820      2.5156      0.0537      8.1452    124.1896     21.4663
  1126.6000      7.9820      2.5165      0.0443      8.0879    119.9322     21.2368
  1126.7000      7.9820      2.5336      0.0459      7.0576    112.3253     21.3591
  1126.8000      7.9723      2.5483      0.0673      6.1659    106.9999     21.8601
  1126.9000      7.9723      2.5578      0.0318      5.5861    104.5959     22.5538
