~Version Information
VERS.                      2.0: CWLS Log ASCII Standard - VERSION 2.0
WRAP.                       NO: One line per depth step
~Well Information Block
STRT.FT               780.0000: 
STOP.FT              3152.2000: 
STEP.FT                 0.1000: 
NULL.                -999.2500: 
COMP.          Pioneer Natural Resources: COMPANY
WELL.            Paradise 13-8: WELL
FLD.           Purgatoire River: FIELD
LOC.           1896' FSL & 1120' FWL: LOCATION
PROV.                 Colorado: PROVINCE
CNTY.               Las Animas: COUNTRY
SRVC.                Patterson: SERVICE COMPANY
DATE.          Sat Jan 22 20:51:32 2005: LOG DATE
UWI.           05 071 07946 00: UNIQUE WELL ID
~Curve Information Block
DEPT.FT            0 000 00 00: Depth
DCAL.in                       : CDL Caliper
RHOB.g/cc                     : CDL Bulk Density
RHOC.g/cc                     : CDL Density Correction
DPOR.pu                       : CDL Density Porosity
NPOR.pu                       : Neutron Porosity
GR.GAPI                       : Gamma Ray
~Parameter Information Block
~A  Depth       DCAL        RHOB        RHOC        DPOR        NPOR         GR     
# ...
  2344.8000      7.8906      2.6643      0.1389     -0.8694     20.3478     94.8722
  2344.9000      7.8906      2.6439      0.0766      0.3696     19.8471     92.6605
  2345.0000      7.8951      2.6258      0.0650      1.4687     18.7065     89.6146
  2345.1000      7.8951      2.6188      0.0738      1.8919     17.9702     86.0734
  2345.2000      7.8951      2.6039      0.0812      2.7936     18.5857     81.6430
  2345.3000      7.8986      2.5819      0.0195      4.1256     19.4410     76.7290
  2345.4000      7.8986      2.5855      0.0447      3.9086     19.0206     75.0062
  2345.5000      7.8908      2.6218      0.0892      1.7106     18.1882     78.0686
  2345.6000      7.8908      2.6496      0.1405      0.0266     18.0705     81.9154
  2345.7000      7.8908      2.6363      0.0910      0.8292     18.2325     85.1905
  2345.8000      7.8826      2.6018      0.0547      2.9239     18.5405     86.9960
  2345.9000      7.8826      2.5779      0.0812      4.3717     19.3102     85.2467
  2346.0000      7.8832      2.5692      0.0316      4.8997     19.9535     83.2796
  2346.1000      7.8832      2.5690      0.0303      4.9069     20.1073     84.2667
  2346.2000      7.8832      2.5756      0.0363      4.5086     20.2104     84.6140
  2346.3000      7.8864      2.5817      0.0409      4.1420     20.3193     82.3615
  2346.4000      7.8864      2.5755      0.0742      4.5147     20.1090     82.5464
  2346.5000      7.8872      2.5680      0.0051      4.9678     19.8191     86.4500
  2346.6000      7.8872      2.5782      0.0548      4.3517     19.8697     87.9938
  2346.7000      7.8872      2.5891      0.1120      3.6923     19.8346     85.0331
  2346.8000      7.8838      2.5794      0.0531      4.2812     19.1337     83.7066
  2346.9000      7.8838      2.5626      0.0485      5.2998     18.2064     86.1333
  2347.0000      7.8806      2.5574      0.0373      5.6106     17.8239     86.4206
  2347.1000      7.8806      2.5599      0.0628      5.4615     17.8739     81.8750
  2347.2000      7.8806      2.5583      0.0299      5.5579     17.9441     78.7232
  2347.3000      7.8841      2.5536      0.0709      5.8449     17.8826     81.5267
  2347.4000      7.8841      2.5534      0.0569      5.8539     17.3780     84.1916
  2347.5000      7.8887      2.5580      0.0766      5.5782     16.4880     83.8018
  2347.6000      7.8887      2.5556      0.0698      5.7199     15.8885     84.5694
  2347.7000      7.8887      2.5505      0.0140      6.0307     15.9557     86.2637
  2347.8000      7.8883      2.5583      0.0789      5.5553     16.2444     84.2320
  2347.9000      7.8883      2.5699      0.1026      4.8545     16.1300     76.5619
  2348.0000      7.8863      2.5721      0.0804      4.7242     15.7728     68.0976
  2348.1000      7.8863      2.5699      0.0871      4.8517     15.8383     65.0623
  2348.2000      7.8863      2.5694      0.0906      4.8859     16.3563     64.4337
  2348.3000      7.8842      2.5646      0.0917      5.1759     16.6281     59.2916
  2348.4000      7.8842      2.5486      0.0738      6.1480     16.2921     54.5390
  2348.5000      7.8827      2.5326      0.0107      7.1125     15.6418     56.8997
  2348.6000      7.8827      2.5321      0.0842      7.1469     15.2140     61.7233
  2348.7000      7.8827      2.5394      0.0680      6.7038     15.2222     64.6884
  2348.8000      7.8838      2.5448      0.0854      6.3776     15.4852     67.0735
  2348.9000      7.8838      2.5473      0.0812      6.2221     15.9316     68.2085
  2349.0000      7.8859      2.5425      0.0850      6.5167     16.5644     66.3524
  2349.1000      7.8859      2.5251      0.0676      7.5725     16.9761     63.9644
  2349.2000      7.8859      2.5009      0.0493      9.0342     17.0265     65.4273
  2349.3000      7.8862      2.4848      0.0514     10.0128     17.0324     69.4571
  2349.4000      7.8862      2.4847      0.0333     10.0208     17.1306     69.2003
  2349.5000      7.8864      2.4880      0.0626      9.8199     17.7490     64.8194
  2349.6000      7.8864      2.4720      0.0789     10.7858     18.9444     64.2478
  2349.7000      7.8864      2.4420     -0.0128     12.6042     19.6987     69.2525
  2349.8000      7.8868      2.4277      0.0346     13.4727     19.2206     74.7012
  2349.9000      7.8868      2.4379      0.0396     12.8531     18.0740     75.7060
  2350.0000      7.8874      2.4556      0.0751     11.7844     17.3978     71.4046
  2350.1000      7.8874      2.4692      0.0584     10.9553     17.5033     67.0837
  2350.2000      7.8874      2.4821      0.0456     10.1752     17.8525     70.2432
  2350.3000      7.8894      2.4913      0.0946      9.6188     17.7829     80.0198
  2350.4000      7.8894      2.4906      0.0858      9.6612     17.2073     86.3977
  2350.5000      7.8900      2.4866      0.0862      9.9003     16.4212     83.9928
  2350.6000      7.8900      2.4878      0.0657      9.8317     15.6357     78.8651
  2350.7000      7.8900      2.4884      0.0883      9.7925     15.4440     78.5626
  2350.8000      7.8884      2.4831      0.0510     10.1174     16.1642     81.4037
  2350.9000      7.8884      2.4802      0.0723     10.2911     17.0991     81.3786
  2351.0000      7.8920      2.4835      0.1243     10.0909     17.5293     78.9048
  2351.1000      7.8920      2.4923      0.0859      9.5592     17.6254     76.9837
  2351.2000      7.8920      2.5044      0.0943      8.8260     17.6238     76.1946
  2351.3000      7.9048      2.5071      0.1105      8.6625     17.3286     76.2580
  2351.4000      7.9048      2.4987      0.0577      9.1717     17.1667     77.3657
  2351.5000      7.9143      2.4926      0.0725      9.5411     17.6926     81.6942
  2351.6000      7.9143      2.4882      0.0895      9.8063     18.0494     86.3732
  2351.7000      7.9143      2.4779      0.0927     10.4306     17.4746     83.3409
  2351.8000      7.9093      2.4668      0.0577     11.1033     17.0588     73.8816
  2351.9000      7.9093      2.4629      0.0703     11.3383     17.6475     65.9854
  2352.0000      7.9058      2.4670      0.0581     11.0904     18.5520     63.3488
  2352.1000      7.9058      2.4790      0.0725     10.3615     18.9779     65.2274
  2352.2000      7.9058      2.4925      0.0841      9.5445     18.8762     67.6556
  2352.3000      7.9097      2.4948      0.0780      9.4076     18.4866     67.9544
  2352.4000      7.9097      2.4824      0.0703     10.1572     17.9748     67.2066
  2352.5000      7.9132      2.4629      0.0721     11.3375     17.3003     65.3576
  2352.6000      7.9132      2.4517      0.0138     12.0164     16.5931     63.6060
  2352.7000      7.9132      2.4679      0.0418     11.0351     16.2879     62.4600
  2352.8000      7.9127      2.5103      0.0823      8.4695     16.5676     60.8821
  2352.9000      7.9127      2.5519      0.0953      5.9478     16.8990     61.9392
  2353.0000      7.9108      2.5651      0.1152      5.1460     16.5502     67.5659
  2353.1000      7.9108      2.5477      0.0923      6.1998     15.8548     74.9496
  2353.2000      7.9108      2.5224      0.0541      7.7318     15.6767     81.0039
  2353.3000      7.9126      2.5062      0.0889      8.7154     16.2476     84.0106
  2353.4000      7.9126      2.5025      0.0526      8.9423     16.9971     85.1354
  2353.5000      7.9145      2.5078      0.1031      8.6197     17.1877     86.2559
  2353.6000      7.9145      2.5086      0.0993      8.5683     16.8270     86.0597
  2353.7000      7.9145      2.4995      0.0816      9.1187     16.5787     84.7348
  2353.8000      7.9140      2.4942      0.0312      9.4448     16.8731     86.1350
  2353.9000      7.9140      2.5041      0.0234      8.8434     17.5618     89.2910
  2354.0000      7.9141      2.5191      0.0860      7.9336     18.0172     88.8756
  2354.1000      7.9141      2.5265      0.0469      7.4855     17.9610     85.6307
  2354.2000      7.9141      2.5302      0.1003      7.2614     17.6893     82.2110
  2354.3000      7.9156      2.5340      0.0654      7.0329     17.4087     76.5320
