~Version Information
VERS.                      2.0: CWLS Log ASCII Standard - VERSION 2.0
WRAP.                       NO: One line per depth step
~Well Information Block
STRT.FT               430.0000: 
STOP.FT              2827.0000: 
STEP.FT                 0.1000: 
NULL.                -999.2500: 
COMP.          Pioneer Natural Resources: COMPANY
WELL.           Ei-ei-oh 31-24: WELL
FLD.           Purgatoire River: FIELD
LOC.           235' FNL & 2001' FEL--: LOCATION
PROV.                 Colorado: PROVINCE
CNTY.               Las Animas: COUNTRY
SRVC.                Patterson: SERVICE COMPANY
DATE.          Thu Jun 16 07:14:41 2005: LOG DATE
UWI.           05 071 08403 00: UNIQUE WELL ID
~Curve Information Block
DEPT.FT            0 000 00 00: Depth
DCAL.in                       : CDL Caliper
DPOR.pu                       : CDL Density Porosity
NPOR.pu                       : Neutron Porosity
RHOB.g/cc                     : CDL Bulk Density
RHOC.g/cc                     : CDL Density Correction
GR.GAPI                       : Gamma Ray
~Parameter Information Block
~A  Depth       DCAL        DPOR        NPOR        RHOB        RHOC         GR     
# ...
  2100.4000      0.0000      0.0000      0.0000      0.0000      0.0000    123.5007
  2100.5000      0.0000      0.0000      0.0000      0.0000      0.0000    122.1855
  2100.6000      0.0000      0.0000      0.0000      0.0000      0.0000    121.3699
  2100.7000      0.0000      0.0000      0.0000      0.0000      0.0000    124.4508
  2100.8000      0.0000      0.0000      0.0000      0.0000      0.0000    125.3860
  2100.9000      0.0000      0.0000      0.0000      0.0000      0.0000    123.2450
  2101.0000      0.0000      0.0000      0.0000      0.0000      0.0000    123.9004
  2101.1000      0.0000      0.0000      0.0000      0.0000      0.0000    123.7229
  2101.2000      0.0000      0.0000      0.0000      0.0000      0.0000    118.8866
  2101.3000      0.0000      0.0000      0.0000      0.0000      0.0000    115.5599
  2101.4000      0.0000      0.0000      0.0000      0.0000      0.0000    115.3409
  2101.5000      0.0000      0.0000      0.0000      0.0000      0.0000    115.1381
  2101.6000      0.0000      0.0000      0.0000      0.0000      0.0000    115.1526
  2101.7000      0.0000      0.0000      0.0000      0.0000      0.0000    117.4736
  2101.8000      0.0000      0.0000      0.0000      0.0000      0.0000    120.1240
  2101.9000      0.0000      0.0000      0.0000      0.0000      0.0000    120.6422
  2102.0000      0.0000      0.0000      0.0000      0.0000      0.0000    119.0778
  2102.1000      0.0000      0.0000      0.0000      0.0000      0.0000    112.7608
  2102.2000      0.0000      0.0000      0.0000      0.0000      0.0000    102.6404
  2102.3000      0.0000      0.0000      0.0000      0.0000      0.0000     99.7938
  2102.4000      0.0000      0.0000      0.0000      0.0000      0.0000    102.7132
  2102.5000      0.0000      0.0000      0.0000      0.0000      0.0000     97.8304
  2102.6000      0.0000      0.0000      0.0000      0.0000      0.0000     89.6382
  2102.7000      0.0000      0.0000      0.0000      0.0000      0.0000     93.2451
  2102.8000      0.0000      0.0000      0.0000      0.0000      0.0000    112.2301
  2102.9000      0.0000      0.0000      0.0000      0.0000      0.0000    134.9146
  2103.0000      0.0000      0.0000      0.0000      0.0000      0.0000    143.7322
  2103.1000      0.0000      0.0000      0.0000      0.0000      0.0000    135.0402
  2103.2000      0.0000      0.0000      0.0000      0.0000      0.0000    123.2614
  2103.3000      0.0000      0.0000      0.0000      0.0000      0.0000    116.1908
  2103.4000      0.0000      0.0000      0.0000      0.0000      0.0000    109.9239
  2103.5000      0.0000      0.0000      0.0000      0.0000      0.0000    103.5712
  2103.6000      0.0000      0.0000      0.0000      0.0000      0.0000     98.5196
  2103.7000      0.0000      0.0000      0.0000      0.0000      0.0000     96.1545
  2103.8000      0.0000      0.0000      0.0000      0.0000      0.0000     93.8951
  2103.9000      0.0000      0.0000      0.0000      0.0000      0.0000     88.5560
  2104.0000      0.0000      0.0000      0.0000      0.0000      0.0000     87.4862
  2104.1000      0.0000      0.0000      0.0000      0.0000      0.0000     93.5686
  2104.2000      0.0000      0.0000      0.0000      0.0000      0.0000    101.0394
  2104.3000      0.0000      0.0000      0.0000      0.0000      0.0000    104.5624
  2104.4000      0.0000      0.0000      0.0000      0.0000      0.0000     99.5411
  2104.5000      0.0000      0.0000      0.0000      0.0000      0.0000     89.6930
  2104.6000      0.0000      0.0000      0.0000      0.0000      0.0000     86.6191
  2104.7000      0.0000      0.0000      0.0000      0.0000      0.0000     94.2024
  2104.8000      0.0000      0.0000      0.0000      0.0000      0.0000    103.3272
  2104.9000      0.0000      0.0000      0.0000      0.0000      0.0000    108.8494
  2105.0000      0.0000      0.0000      0.0000      0.0000      0.0000    111.3179
  2105.1000      0.0000      0.0000      0.0000      0.0000      0.0000    111.8773
  2105.2000      0.0000      0.0000      0.0000      0.0000      0.0000    113.5811
  2105.3000      0.0000      0.0000      0.0000      0.0000      0.0000    113.2839
  2105.4000      0.0000      0.0000      0.0000      0.0000      0.0000    104.7182
  2105.5000      0.0000      0.0000      0.0000      0.0000      0.0000     94.3327
  2105.6000      0.0000      0.0000      0.0000      0.0000      0.0000     97.5142
  2105.7000      0.0000      0.0000      0.0000      0.0000      0.0000    111.7163
  2105.8000      0.0000      0.0000      0.0000      0.0000      0.0000    121.8945
  2105.9000      0.0000      0.0000      0.0000      0.0000      0.0000    122.0362
  2106.0000      0.0000      0.0000      0.0000      0.0000      0.0000    118.1852
  2106.1000      0.0000      0.0000      0.0000      0.0000      0.0000    113.9794
  2106.2000      0.0000      0.0000      0.0000      0.0000      0.0000    105.7324
  2106.3000      0.0000      0.0000      0.0000      0.0000      0.0000     95.1630
  2106.4000      0.0000      0.0000      0.0000      0.0000      0.0000     89.9720
  2106.5000      0.0000      0.0000      0.0000      0.0000      0.0000     96.1438
  2106.6000      0.0000      0.0000      0.0000      0.0000      0.0000    105.5824
  2106.7000      0.0000      0.0000      0.0000      0.0000      0.0000    107.7805
  2106.8000      0.0000      0.0000      0.0000      0.0000      0.0000    107.1210
  2106.9000      0.0000      0.0000      0.0000      0.0000      0.0000    107.9725
  2107.0000      0.0000      0.0000      0.0000      0.0000      0.0000    108.8275
  2107.1000      0.0000      0.0000      0.0000      0.0000      0.0000    111.8479
  2107.2000      0.0000      0.0000      0.0000      0.0000      0.0000    115.6142
  2107.3000      0.0000      0.0000      0.0000      0.0000      0.0000    114.3552
  2107.4000      0.0000      0.0000      0.0000      0.0000      0.0000    116.5589
  2107.5000      0.0000      0.0000      0.0000      0.0000      0.0000    128.1880
  2107.6000      0.0000      0.0000      0.0000      0.0000      0.0000    134.4557
  2107.7000      0.0000      0.0000      0.0000      0.0000      0.0000    125.9171
  2107.8000      0.0000      0.0000      0.0000      0.0000      0.0000    113.3533
  2107.9000      0.0000      0.0000      0.0000      0.0000      0.0000    108.7810
  2108.0000      0.0000      0.0000      0.0000      0.0000      0.0000    111.6609
  2108.1000      0.0000      0.0000      0.0000      0.0000      0.0000    118.7641
  2108.2000      0.0000      0.0000      0.0000      0.0000      0.0000    130.2642
  2108.3000      0.0000      0.0000      0.0000      0.0000      0.0000    142.5501
  2108.4000      0.0000      0.0000      0.0000      0.0000      0.0000    145.8605
  2108.5000      0.0000      0.0000      0.0000      0.0000      0.0000    137.2449
  2108.6000      0.0000      0.0000      0.0000      0.0000      0.0000    128.0179
  2108.7000      0.0000      0.0000      0.0000      0.0000      0.0000    123.3695
  2108.8000      0.0000      0.0000      0.0000      0.0000      0.0000    117.9962
  2108.9000      0.0000      0.0000      0.0000      0.0000      0.0000    114.0680
  2109.0000      0.0000      0.0000      0.0000      0.0000      0.0000    117.2447
  2109.1000      0.0000      0.0000      0.0000      0.0000      0.0000    123.5546
  2109.2000      0.0000      0.0000      0.0000      0.0000      0.0000    127.1601
  2109.3000      0.0000      0.0000      0.0000      0.0000      0.0000    128.0957
  2109.4000      0.0000      0.0000      0.0000      0.0000      0.0000    124.9055
  2109.5000      0.0000      0.0000      0.0000      0.0000      0.0000    116.9324
  2109.6000      0.0000      0.0000      0.0000      0.0000      0.0000    116.0459
  2109.7000      0.0000      0.0000      0.0000      0.0000      0.0000    132.7524
  2109.8000      0.0000      0.0000      0.0000      0.0000      0.0000    153.2507
  2109.9000      0.0000      0.0000      0.0000      0.0000      0.0000    156.6321
