~Version Information
VERS.                      2.0: CWLS Log ASCII Standard - VERSION 2.0
WRAP.                       NO: One line per depth step
~Well Information Block
STRT.FT               948.2500: 
STOP.FT              2134.5000: 
STEP.FT                 0.2500: 
NULL.                -999.2500: 
COMP.          Petrogulf Corporation: COMPANY
WELL.             Valejo 8-12R: WELL
FLD.           Purgatorie River: FIELD
LOC.           1351'' FNL & 1562' FWL: LOCATION
CNTY.               Las Animas: COUNTY
SRVC.                         : SERVICE COMPANY
DATE.          Wed Apr 28 02:30:32 2004: LOG DATE
UWI.           05 071 08038 00: UNIQUE WELL ID
STAT.                 Colorado: STATE
~Curve Information Block
DEPT.FT            0 000 00 00: Depth
SP.mV                         : DIL Spontaneous Potential
RILD.Ohm-m                    : DIL Deep Resistivity
RILM.Ohm-m                    : DIL Medium Resistivity
RLL3.Ohm-m                    : DIL Shallow Resistivity
GR.GAPI                       : Gamma Ray
~Parameter Information Block
~A  Depth        SP         RILD        RILM        RLL3         GR     
# ...
  1872.2500    143.6494      6.4528      7.1150      8.5437    122.7463
  1872.5000    144.0418      6.4775      7.1588      8.9589    119.0190
  1872.7500    144.4226      6.5401      7.2075      9.1931    117.6613
  1873.0000    144.8111      6.6511      7.2644      9.1967    116.2091
  1873.2500    145.2489      6.8154      7.3377      9.0124    114.9013
  1873.5000    145.7044      7.0311      7.4408      8.7372    112.2408
  1873.7500    146.1016      7.2900      7.5905      8.4754    110.5785
  1874.0000    146.3879      7.5793      7.8062      8.3243    109.4871
  1874.2500    146.5454      7.8862      8.1084      8.3942    110.0035
  1874.5000    146.5846      8.2025      8.5165      8.8484    112.2301
  1874.7500    146.5559      8.5259      9.0479      9.9039    114.1174
  1875.0000    146.5400      8.8579      9.7146     11.7292    116.4502
  1875.2500    146.6081      9.1995     10.5188     14.2920    117.1693
  1875.5000    146.7976      9.5493     11.4472     17.3508    117.0288
  1875.7500    147.1148      9.9017     12.4663     20.6477    116.7500
  1876.0000    147.5308     10.2456     13.5231     24.0480    117.1108
  1876.2500    147.9815     10.5635     14.5467     27.3946    117.9142
  1876.5000    148.3974     10.8340     15.4511     30.2592    119.4506
  1876.7500    148.7503     11.0377     16.1370     31.9721    120.6479
  1877.0000    149.0704     11.1616     16.5050     31.9660    123.0962
  1877.2500    149.4213     11.2004     16.4894     30.1023    125.1782
  1877.5000    149.8581     11.1539     16.0968     26.7484    128.2733
  1877.7500    150.3988     11.0257     15.4139     22.6384    129.9418
  1878.0000    151.0159     10.8242     14.5695     18.6175    132.2669
  1878.2500    151.6415     10.5642     13.6809     15.3552    134.3625
  1878.5000    152.1889     10.2663     12.8251     13.1448    138.6730
  1878.7500    152.5948      9.9525     12.0394     11.8749    141.6362
  1879.0000    152.8573      9.6417     11.3399     11.1633    144.4970
  1879.2500    153.0396      9.3468     10.7376     10.5896    144.8813
  1879.5000    153.2264      9.0739     10.2452      9.9297    143.5177
  1879.7500    153.4691      8.8236      9.8745      9.2661    141.5199
  1880.0000    153.7648      8.5929      9.6297      8.9051    136.4258
  1880.2500    154.0774      8.3767      9.5016      9.1848    131.3156
  1880.5000    154.3635      8.1706      9.4648     10.3061    121.9774
  1880.7500    154.5858      7.9720      9.4765     12.2353    116.2170
  1881.0000    154.7275      7.7812      9.4817     14.6456    111.5335
  1881.2500    154.8082      7.6011      9.4271     16.9204    112.2191
  1881.5000    154.8783      7.4360      9.2816     18.3162    118.5515
  1881.7500    154.9885      7.2897      9.0494     18.3004    124.8108
  1882.0000    155.1618      7.1638      8.7630     16.8583    134.0147
  1882.2500    155.3958      7.0562      8.4621     14.5011    138.7011
  1882.5000    155.6910      6.9609      8.1752     11.9548    143.1377
  1882.7500    156.0637      6.8697      7.9154      9.8001    144.8879
  1883.0000    156.5197      6.7742      7.6850      8.3037    146.5851
  1883.2500    157.0219      6.6689      7.4806      7.4510    147.1848
  1883.5000    157.4965      6.5523      7.2967      7.0651    146.9508
  1883.7500    157.8779      6.4273      7.1272      6.9316    146.0513
  1884.0000    158.1489      6.3002      6.9685      6.8889    144.6188
  1884.2500    158.3459      6.1784      6.8210      6.8565    144.5277
  1884.5000    158.5288      6.0689      6.6894      6.8057    146.2659
  1884.7500    158.7408      5.9772      6.5805      6.7259    147.9775
  1885.0000    158.9823      5.9065      6.5005      6.6262    149.5371
  1885.2500    159.2159      5.8579      6.4531      6.5468    149.4211
  1885.5000    159.3942      5.8296      6.4382      6.5404    147.9479
  1885.7500    159.4866      5.8179      6.4522      6.6314    146.4924
  1886.0000    159.4864      5.8175      6.4885      6.8043    143.8841
  1886.2500    159.4065      5.8229      6.5380      7.0314    141.9499
  1886.5000    159.2785      5.8297      6.5908      7.3003    138.9532
  1886.7500    159.1522      5.8360      6.6373      7.6003    136.9887
  1887.0000    159.0875      5.8422      6.6696      7.8894    134.3742
  1887.2500    159.1389      5.8511      6.6826      8.0923    133.2262
  1887.5000    159.3396      5.8654      6.6749      8.1411    133.0225
  1887.7500    159.6840      5.8864      6.6497      8.0153    133.8152
  1888.0000    160.1163      5.9137      6.6143      7.7472    135.4571
  1888.2500    160.5433      5.9454      6.5793      7.4021    136.4460
  1888.5000    160.8744      5.9793      6.5563      7.0549    138.1202
  1888.7500    161.0644      6.0140      6.5554      6.7706    139.7484
  1889.0000    161.1296      6.0491      6.5831      6.5927    142.5829
  1889.2500    161.1330      6.0844      6.6412      6.5466    143.9584
  1889.5000    161.1457      6.1193      6.7271      6.6479    144.3398
  1889.7500    161.2087      6.1521      6.8347      6.9005    143.6299
  1890.0000    161.3256      6.1801      6.9563      7.2847    141.9961
  1890.2500    161.4853      6.2010      7.0833      7.7577    140.8717
  1890.5000    161.6785      6.2125      7.2076      8.2690    139.1326
  1890.7500    161.8929      6.2132      7.3219      8.7713    137.8159
  1891.0000    162.1063      6.2035      7.4196      9.2158    135.8206
  1891.2500    162.2970      6.1858      7.4942      9.5586    134.9879
  1891.5000    162.4634      6.1642      7.5384      9.7814    135.4018
  1891.7500    162.6269      6.1425      7.5447      9.8866    136.7381
  1892.0000    162.8068      6.1223      7.5071      9.8528    138.9140
  1892.2500    162.9859      6.1033      7.4249      9.6182    139.4778
  1892.5000    163.0992      6.0843      7.3047      9.1331    138.4896
  1892.7500    163.0581      6.0648      7.1588      8.4240    137.1619
  1893.0000    162.8091      6.0449      7.0024      7.6102    135.3296
  1893.2500    162.4108      6.0246      6.8495      6.8750    134.2256
  1893.5000    162.0557      6.0022      6.7113      6.3964    131.6098
  1893.7500    161.9612      5.9750      6.5955      6.2470    128.7502
  1894.0000    162.1927      5.9424      6.5070      6.3518    123.6527
  1894.2500    162.6060      5.9087      6.4477      6.5643    120.8528
  1894.5000    162.9816      5.8839      6.4168      6.7706    118.8753
  1894.7500    163.1875      5.8807      6.4114      6.9079    119.0889
  1895.0000    163.2187      5.9099      6.4273      6.9354    121.1323
  1895.2500    163.1425      5.9784      6.4623      6.8494    123.1614
  1895.5000    163.0402      6.0894      6.5185      6.7136    126.0258
  1895.7500    162.9699      6.2434      6.6060      6.6244    126.9745
  1896.0000    162.9421      6.4387      6.7430      6.6387    125.9425
  1896.2500    162.9188      6.6721      6.9536      6.7584    123.6974
  1896.5000    162.8490      6.9403      7.2633      6.9734    119.2108
  1896.7500    162.7198      7.2428      7.6952      7.2947    116.2596
  1897.0000    162.5756      7.5853      8.2680      7.7493    112.4527
  1897.2500    162.4750      7.9791      8.9948      8.3707    110.1540
  1897.5000    162.4267      8.4391      9.8829      9.2095    106.3135
  1897.7500    162.3864      8.9801     10.9344     10.3473    103.0197
  1898.0000    162.3349      9.6119     12.1477     11.8983     96.5730
  1898.2500    162.3360     10.3334     13.5227     13.9879     91.4181
  1898.5000    162.4846     11.1271     15.0706     16.7128     83.0643
  1898.7500    162.7993     11.9589     16.8198     20.0999     77.5134
  1899.0000    163.1849     12.7850     18.8047     24.1214     70.0158
  1899.2500    163.4966     13.5615     21.0291     28.8110     66.0528
  1899.5000    163.6305     14.2458     23.4058     34.4433     62.1738
  1899.7500    163.5682     14.7903     25.6972     41.6253     60.9432
  1900.0000    163.3816     15.1425     27.5067     51.0683     60.7420
