~Version Information
VERS.                      2.0: CWLS Log ASCII Standard - VERSION 2.0
WRAP.                       NO: One line per depth step
~Well Information Block
STRT.FT               -12.2500: 
STOP.FT              2183.0000: 
STEP.FT                 0.2500: 
NULL.                -999.2500: 
COMP.          Petrogulf Corporation: COMPANY
WELL.            Montoya 6-14R: WELL
FLD.           Purgatorie River: FIELD
LOC.           867' FSL & 751' FWL: LOCATION
CNTY.               Las Animas: COUNTY
SRVC.                         : SERVICE COMPANY
DATE.          Mon Nov 22 13:07:31 2004: LOG DATE
UWI.           05-071-08242-00: UNIQUE WELL ID
STAT.                 Colorado: STATE
~Curve Information Block
DEPT.FT            0 000 00 00: Depth
TT3.usec                      : CBL 3' Travel Time
AMP3.mV                       : CBL 3' Amplitude
GR.GAPI                       : Gamma Ray
CCL.                          : Casing Collar Locator
~Parameter Information Block
~A  Depth       TT3         AMP3         GR         CCL     
# ...
   121.7500    291.3771     61.0792     86.3869      0.0000
   122.0000    291.8601     59.6634     85.7305      0.0000
   122.2500    292.0860     59.1977     85.7208      0.0000
   122.5000    292.1813     59.2376     87.6980     -3.5049
   122.7500    292.2272     59.4407     92.0621     -4.0466
   123.0000    292.2573     59.6087     97.3915      0.0000
   123.2500    292.2592     59.7024    101.3367      0.0000
   123.5000    292.1419     59.9277    102.3310      0.0000
   123.7500    291.7134     60.7345    100.4158      0.0000
   124.0000    290.7761     62.5484     96.8623      0.0000
   124.2500    289.3309     65.4235     93.3540      0.0000
   124.5000    287.6722     68.9979     91.1938      0.0000
   124.7500    286.2086     72.7026     90.5798      0.0000
   125.0000    285.1830     75.9102     90.4257      0.0000
   125.2500    284.5818     78.0620     89.2428      0.0000
   125.5000    284.2627     78.9134     86.4613      0.0000
   125.7500    284.1017     78.6807     82.9434      0.0000
   126.0000    284.0353     77.8852     80.2476      0.0000
   126.2500    284.0291     77.0568     79.4295      0.0000
   126.5000    284.0506     76.5530     80.4919      0.0000
   126.7500    284.0683     76.5248     82.7116      0.0000
   127.0000    284.0639     76.9268     85.1038      0.0000
   127.2500    284.0364     77.5585     86.5506      0.0000
   127.5000    283.9981     78.1644     86.0402      0.0000
   127.7500    283.9676     78.5737     83.2670      0.0000
   128.0000    283.9591     78.7724     79.0024      0.0000
   128.2500    283.9711     78.8404     74.6870      0.0000
   128.5000    283.9857     78.8470     71.6047      0.0000
   128.7500    283.9843     78.8363     70.3261      0.0000
   129.0000    283.9635     78.8751     70.6948      0.0000
   129.2500    283.9346     79.0278     72.1429      0.0000
   129.5000    283.9114     79.2641     74.0158      0.0000
   129.7500    283.9013     79.4557     75.8020      0.0000
   130.0000    283.9076     79.4897     77.2908      0.0000
   130.2500    283.9313     79.3497     78.6018      0.0000
   130.5000    283.9641     79.0855     79.9498      0.0000
   130.7500    283.9848     78.7483     81.3202      0.0000
   131.0000    283.9744     78.3920     82.4122      0.0000
   131.2500    283.9361     78.1293     82.9217      0.0000
   131.5000    283.8925     78.1106     82.8759      0.0000
   131.7500    283.8651     78.3819     82.6622      0.0000
   132.0000    283.8609     78.8021     82.5501      0.0000
   132.2500    283.8774     79.1728     82.0049      0.0000
   132.5000    283.9090     79.4321     79.7001      0.0000
   132.7500    283.9453     79.6595     74.6262      0.0000
   133.0000    283.9723     79.9196     67.2604      0.0000
   133.2500    283.9802     80.1848     59.5422      0.0000
   133.5000    283.9682     80.3981     53.7436      0.0000
   133.7500    283.9437     80.5361     51.2320      0.0000
   134.0000    283.9203     80.6161     51.8626      0.0000
   134.2500    283.9119     80.7019     54.1790      0.0000
   134.5000    283.9220     80.8858     56.3107      0.0000
   134.7500    283.9438     81.2017     57.2656      0.0000
   135.0000    283.9703     81.5600     57.8170      0.0000
   135.2500    283.9989     81.8073     59.9981      0.0000
   135.5000    284.0250     81.8488     65.4295      0.0000
   135.7500    284.0402     81.7113     74.0817      0.0000
   136.0000    284.0406     81.5233     84.5074      0.0000
   136.2500    284.0330     81.4512     94.9284      0.0000
   136.5000    284.0278     81.6182    104.0188      0.0000
   136.7500    284.0299     82.0402    111.0533      0.0000
   137.0000    284.0374     82.6232    115.9437      0.0000
   137.2500    284.0477     83.2220    119.4381      0.0000
   137.5000    284.0600     83.7094    122.8198      0.0000
   137.7500    284.0718     84.0106    126.7458      0.0000
   138.0000    284.0782     84.1100    130.4182      0.0000
   138.2500    284.0781     84.0505    132.4252      0.0000
   138.5000    284.0764     83.9060    132.4364      0.0000
   138.7500    284.0785     83.7263    131.6973      0.0000
   139.0000    284.0863     83.5138    131.7750      0.0000
   139.2500    284.1040     83.2565    133.0484      0.0000
   139.5000    284.1395     82.9662    134.5803      0.0000
   139.7500    284.1929     82.6769    135.3692      0.0000
   140.0000    284.2491     82.4047    135.4567      0.0000
   140.2500    284.2862     82.1309    135.6480      0.0000
   140.5000    284.2886     81.8577    136.4253      0.0000
   140.7500    284.2495     81.6883    137.4798      0.0000
   141.0000    284.1707     81.7878    138.1732      0.0000
   141.2500    284.0682     82.2048    138.0582      0.0000
   141.5000    283.9717     82.7433    137.0633      0.0000
   141.7500    283.9143     83.0688    135.5791      0.0000
   142.0000    283.9156     82.9714    134.3543      0.0000
   142.2500    283.9692     82.5185    133.9707      0.0000
   142.5000    284.0427     81.9575    134.3066      0.0000
   142.7500    284.0988     81.5062    134.6926      0.0000
   143.0000    284.1197     81.2559    134.5665      0.0000
   143.2500    284.1092     81.2137    133.7752      0.0000
   143.5000    284.0776     81.3428    132.3416      0.0000
   143.7500    284.0326     81.5456    130.3276      0.0000
   144.0000    283.9832     81.6962    127.9924      0.0000
   144.2500    283.9446     81.7374    125.6790      0.0000
   144.5000    283.9325     81.6975    123.4157      0.0000
   144.7500    283.9544     81.5949    120.9519      0.0000
   145.0000    284.0057     81.4140    118.3992      0.0000
   145.2500    284.0683     81.2143    116.5366      0.0000
   145.5000    284.1153     81.1522    116.1392      0.0000
   145.7500    284.1270     81.3103    116.9330      0.0000
   146.0000    284.1090     81.5698    117.4455      0.0000
   146.2500    284.0880     81.7388    116.0931      0.0000
   146.5000    284.0856     81.7705    112.4400      0.0000
   146.7500    284.1016     81.7818    107.4717      0.0000
   147.0000    284.1216     81.8715    102.8108      0.0000
   147.2500    284.1321     81.9909     99.6089      0.0000
   147.5000    284.1287     82.0003     97.9274      0.0000
   147.7500    284.1184     81.8247     97.0077      0.0000
   148.0000    284.1122     81.5446     96.1438      0.0000
   148.2500    284.1129     81.3393     95.3759      0.0000
   148.5000    284.1129     81.3407     95.3868      0.0000
   148.7500    284.1034     81.5411     96.6911      0.0000
   149.0000    284.0838     81.8205     99.0073      0.0000
   149.2500    284.0610     82.0326    101.5352      0.0000
   149.5000    284.0454     82.0900    103.8306      0.0000
   149.7500    284.0434     82.0181    106.1549      0.0000
   150.0000    284.0521     81.9295    108.8600      0.0000
   150.2500    284.0596     81.9183    111.6570      0.0000
   150.5000    284.0565     81.9777    113.6694      0.0000
   150.7500    284.0473     82.0210    114.0591      0.0000
   151.0000    284.0468     81.9727    112.5385      0.0000
   151.2500    284.0646     81.8353    109.6063      0.0000
   151.5000    284.0934     81.6764    106.5349      0.0000
   151.7500    284.1172     81.5671    104.7865      0.0000
   152.0000    284.1255     81.5403    104.9104      0.0000
   152.2500    284.1183     81.5926    105.8202      0.0000
   152.5000    284.1003     81.7084    105.2879      0.0000
   152.7500    284.0773     81.8919    101.4930      0.0000
   153.0000    284.0547     82.1675     94.5028      0.0000
   153.2500    284.0361     82.5206     86.3231      0.0000
   153.5000    284.0236     82.8591     79.2298      0.0000
   153.7500    284.0174     83.0773     73.9854      0.0000
   154.0000    284.0158     83.1328     69.7950      0.0000
   154.2500    284.0157     83.0431     65.6266      0.0000
   154.5000    284.0147     82.8508     61.1310      0.0000
   154.7500    284.0137     82.6279     56.6392      0.0000
   155.0000    284.0131     82.4712     52.8379      0.0000
