~Version Information
VERS.                      2.0: CWLS Log ASCII Standard - VERSION 2.0
WRAP.                       NO: One line per depth step
~Well Information Block
STRT.FT                 0.0000: 
STOP.FT              2006.5000: 
STEP.FT                 0.2500: 
NULL.                -999.2500: 
COMP.          Petrogulf Corporation: COMPANY
WELL.           Lavedure 7-44R: WELL
FLD.           Purgatorie River: FIELD
LOC.           946' FSL & 521' FEL: LOCATION
STAT.                 Colorado: State
CNTY.               Las Animas: COUNTY
CTRY. USA : Country
SECT. 7 : Section
TOWN. 33S : Township
RANG. 67W : Range
SRVC.                Patterson: SERVICE COMPANY
DATE.          Thu Nov 10 15:49:38 2005: LOG DATE
API. 05-071-08090       : UNIQUE WELL ID
~Curve Information Block
DEPT.FT            0 000 00 00: Depth
CCL.                          : Casing Collar Locator
TT3.usec                      : CBL 3' Travel Time
AMP3.mV                       : CBL 3' Amplitude
GR.GAPI                       : Gamma Ray
~Parameter Information Block
~A  Depth       CCL         TT3         AMP3         GR     
# ...
   268.0000      0.0000    619.8032      7.5230     57.5214
   268.2500      0.0000    619.6397      8.0020     54.8347
   268.5000      0.0000    619.6033      8.4568     53.6907
   268.7500      0.0000    619.7151      8.9149     53.0705
   269.0000      0.0000    619.8759      9.3081     52.6324
   269.2500      0.0000    620.0114      9.5479     52.6278
   269.5000      0.0000    620.1783      9.6275     53.2418
   269.7500      0.0000    620.4380      9.6009     54.2199
   270.0000      0.0000    620.7293      9.4966     55.2834
   270.2500      0.0000    620.9577      9.3015     56.6734
   270.5000      0.0000    621.1445      9.0020     58.8296
   270.7500      0.0000    621.4587      8.6003     61.5816
   271.0000      0.0000    622.2827      8.1253     64.0385
   271.2500      0.0000    624.5590      7.6314     65.4253
   271.5000      0.0000    629.8235      7.1523     65.9002
   271.7500      0.0000    637.5745      6.7034     66.5004
   272.0000      0.0000    640.7838      6.3013     68.3778
   272.2500      0.0000    629.1805      5.9146     72.0995
   272.5000      0.0000    603.5782      5.4739     77.3834
   272.7500      0.0000    578.8129      4.9552     83.2180
   273.0000      0.0000    561.5209      4.4149     88.2992
   273.2500      0.0000    540.7637      3.9719     91.5511
   273.5000      0.0000    511.9234      3.7343     92.4175
   273.7500      0.0000    486.2318      3.7293     91.0242
   274.0000      0.0000    472.1388      3.9231     88.3404
   274.2500      0.0000    467.1816      4.2515     85.8734
   274.5000      0.0000    465.9223      4.6309     84.5987
   274.7500      0.0000    464.9297      5.0105     84.0470
   275.0000      0.0000    463.0552      5.3922     82.7073
   275.2500      0.0000    464.0749      5.7778     79.4347
   275.5000      0.0000    478.6541      6.1392     74.3441
   275.7500      0.0000    514.1089      6.4640     68.4487
   276.0000      0.0000    559.9980      6.8031     62.8416
   276.2500      0.0000    595.9861      7.2225     58.3377
   276.5000      0.0000    613.6303      7.7116     55.3352
   276.7500      0.0000    619.0568      8.1676     53.5171
   277.0000      0.0000    620.1621      8.4871     51.9380
   277.2500      0.0000    620.4225      8.6595     49.9485
   277.5000      0.0000    620.6042      8.7653     48.2246
   277.7500      0.0000    620.8278      8.8942     48.6091
   278.0000      0.0000    621.0972      9.0692     52.6009
   278.2500      0.0000    621.5780      9.2518     59.8332
   278.5000      0.0000    623.2267      9.4159     67.9743
   278.7500      0.0000    627.4943      9.5737     73.9719
   279.0000      0.0000    633.5491      9.7280     75.5170
   279.2500      0.0000    636.7292      9.8438     72.0319
   279.5000      0.0000    633.8420      9.8643     64.9937
   279.7500      0.0000    627.8223      9.7654     57.2452
   280.0000      0.0000    623.0504      9.6274     51.3945
   280.2500      0.0000    620.4907      9.5950     48.4244
   280.5000      0.0000    619.1433      9.7197     47.5832
   280.7500      0.0000    618.2667      9.9023     47.3691
   281.0000      0.0000    617.6971     10.0038     46.6323
   281.2500      0.0000    617.5150      9.9735     45.1278
   281.5000      0.0000    617.7358      9.8478     43.4857
   281.7500      0.0000    618.2039      9.6522     42.7986
   282.0000      0.0000    618.6577      9.3755     43.9579
   282.2500      0.0000    618.9688      9.0243     46.9367
   282.5000      0.0000    619.3761      8.6335     50.7317
   282.7500      0.0000    620.4752      8.2203     54.4919
   283.0000      0.0000    622.8959      7.7907     58.7888
   283.2500      0.0000    626.1049      7.4077     65.2118
   283.5000      0.0000    627.4880      7.1850     74.3599
   283.7500      0.0000    624.8035      7.1546     84.6036
   284.0000      0.0000    619.3199      7.1352     93.1896
   284.2500      0.0000    614.1214      6.8185     98.3366
   284.5000      0.0000    610.3262      6.1079    100.0923
   284.7500      0.0000    605.9525      5.2389     99.6245
   285.0000      0.0000    595.7937      4.4717     98.2166
   285.2500     -2.0000    574.4123      3.8882     96.7100
   285.5000      0.0000    544.7878      3.4454     95.3074
   285.7500      2.0000    517.6397      3.0510     93.8219
   286.0000      0.0000    499.0200      2.6390     92.2700
   286.2500      0.0000    489.9663      2.2314     91.0127
   286.5000      0.0000    494.5052      1.9501     90.2228
   286.7500      0.0000    511.2125      1.9008     89.6041
   287.0000      0.0000    525.7004      2.0045     88.7991
   287.2500      0.0000    527.3344      2.0909     87.8485
   287.5000      0.0000    520.1685      2.1279     87.1387
   287.7500      0.0000    511.9799      2.1905     87.0669
   288.0000      0.0000    506.3501      2.2917     87.7859
   288.2500      0.0000    503.7271      2.3619     88.9816
   288.5000      0.0000    503.3208      2.3467     89.8382
   288.7500      0.0000    505.0428      2.2618     89.6708
   289.0000      0.0000    510.7889      2.1743     88.8867
   289.2500      0.0000    523.3497      2.1442     88.9466
   289.5000      0.0000    542.8790      2.1716     90.9502
   289.7500      0.0000    565.0116      2.2130     94.2596
   290.0000      0.0000    583.4021      2.2440     96.7952
   290.2500      0.0000    592.5496      2.2845     96.8590
   290.5000      0.0000    589.6437      2.3555     94.6567
   290.7500      0.0000    577.9357      2.4526     92.0961
   291.0000      0.0000    568.1423      2.5604     91.2821
   291.2500      0.0000    572.0070      2.6532     93.1253
   291.5000      0.0000    590.9646      2.7030     96.9213
   291.7500      0.0000    612.6120      2.7119    100.9014
   292.0000      0.0000    618.4382      2.7233    103.3179
   292.2500      0.0000    594.0051      2.7902    103.3145
   292.5000      0.0000    538.7229      2.9216    101.0417
   292.7500      0.0000    471.5791      3.0640     97.3437
   293.0000      0.0000    417.9062      3.1631     93.5714
   293.2500      0.0000    387.1917      3.2187     91.2469
   293.5000      0.0000    373.1400      3.2691     91.2752
   293.7500      0.0000    367.6345      3.3474     93.3433
   294.0000      0.0000    365.9453      3.4428     96.2089
   294.2500      0.0000    365.6572      3.5061     98.4295
   294.5000      0.0000    365.8157      3.5025     98.8495
   294.7500      0.0000    366.9152      3.4599     96.9338
   295.0000      0.0000    371.9523      3.4389     93.1122
   295.2500      0.0000    386.9254      3.4630     88.5788
   295.5000      0.0000    415.0210      3.5034     84.4235
   295.7500      0.0000    446.2799      3.5137     81.0277
   296.0000      0.0000    460.5085      3.4912     78.4369
   296.2500      0.0000    447.0787      3.4802     77.0380
   296.5000      0.0000    416.5837      3.5144     77.5052
   296.7500      0.0000    388.7597      3.5844     80.0542
   297.0000      0.0000    373.3198      3.6420     83.8653
   297.2500      0.0000    367.3547      3.6538     87.3379
   297.5000      0.0000    365.3130      3.6503     89.1344
   297.7500      0.0000    364.5143      3.6860     89.2089
   298.0000      0.0000    364.2591      3.7610     88.8220
   298.2500      0.0000    364.2846      3.8030     89.4209
   298.5000      0.0000    364.3684      3.7611     91.4402
   298.7500      0.0000    364.4095      3.6700     94.1436
   299.0000      0.0000    364.4427      3.5983     96.4004
   299.2500      0.0000    364.5262      3.6013     97.3252
   299.5000      0.0000    364.6558      3.6936     96.4238
   299.7500      0.0000    364.7852      3.8293     93.7833
   300.0000      0.0000    364.8878      3.9554     90.2877
   300.2500      0.0000    364.9814      4.0521     87.1520
   300.5000      0.0000    365.0906      4.1245     85.0745
   300.7500      0.0000    365.2039      4.1918     84.0516
   301.0000      0.0000    365.2675      4.2509     83.8424
   301.2500      0.0000    365.2113      4.2748     84.3495
