~Version Information
VERS.                      2.0: CWLS Log ASCII Standard - VERSION 2.0
WRAP.                       NO: One line per depth step
~Well Information Block
STRT.FT               440.0000: 
STOP.FT              1003.5000: 
STEP.FT                 0.2500: 
NULL.                -999.2500: 
COMP.          Pioneer Natural Resources: COMPANY
WELL.              Dylan 42-25: WELL
FLD.           Purgatoire River: FIELD
LOC.           2160' FNL & 855' FEL: LOCATION
PROV.                 Colorado: PROVINCE
CNTY.               Las Animas: COUNTRY
SRVC.                Patterson: SERVICE COMPANY
DATE.          Sat Apr 23 11:21:51 2005: LOG DATE
UWI.           05 071 08229 00: UNIQUE WELL ID
~Curve Information Block
DEPT.FT            0 000 00 00: Depth
SN.Ohm-m                      : IEL Short Normal
SP.mV                         : IEL Spontaneous Potential
DIR.Ohm-m                     : IEL Induction Resistivity
GR.GAPI                       : Gamma Ray
~Parameter Information Block
~A  Depth        SN          SP         DIR          GR     
# ...
   976.0000     21.6342     18.5855     20.0659    105.1873
   976.2500     21.4676     18.8252     20.1814    105.7667
   976.5000     21.3833     19.0416     20.1843    107.1422
   976.7500     21.3865     19.2166     20.0626    108.8589
   977.0000     21.3963     19.3311     19.8235    112.2327
   977.2500     21.3262     19.3688     19.4956    114.2572
   977.5000     21.1716     19.3242     19.1254    115.9733
   977.7500     20.9690     19.2054     18.7644    116.2546
   978.0000     20.7421     19.0302     18.4531    116.1007
   978.2500     20.5081     18.8189     18.2103    116.0183
   978.5000     20.2753     18.5916     18.0347    116.1447
   978.7500     20.0348     18.3699     17.9119    116.3053
   979.0000     19.7770     18.1707     17.8242    116.4076
   979.2500     19.5083     17.9925     17.7532    116.2300
   979.5000     19.2435     17.8161     17.6779    115.3237
   979.7500     18.9945     17.6305     17.5746    114.2803
   980.0000     18.7713     17.4510     17.4229    112.6223
   980.2500     18.5819     17.3022     17.2177    112.0105
   980.5000     18.4260     17.1903     16.9738    112.3591
   980.7500     18.2999     17.1007     16.7162    113.2254
   981.0000     18.1946     17.0151     16.4644    114.6830
   981.2500     18.0821     16.9220     16.2231    115.5200
   981.5000     17.9329     16.8130     15.9838    116.8312
   981.7500     17.7503     16.6796     15.7346    117.9593
   982.0000     17.5665     16.5182     15.4677    119.8580
   982.2500     17.3988     16.3363     15.1840    120.9043
   982.5000     17.2337     16.1511     14.8938    121.7851
   982.7500     17.0501     15.9791     14.6154    121.9696
   983.0000     16.8248     15.8244     14.3709    121.4033
   983.2500     16.5339     15.6786     14.1800    119.5595
   983.5000     16.1788     15.5288     14.0516    111.5448
   983.7500     15.7975     15.3661     13.9788    100.8521
   984.0000     15.4500     15.1872     13.9398     76.3783
   984.2500     15.1894     14.9904     13.9054     56.8849
   984.5000     15.0140     14.7728     13.8506     29.9466
   984.7500     14.8609     14.5330     13.7618     16.8190
   985.0000     14.6847     14.2787     13.6399      5.5439
   985.2500     14.5224     14.0304     13.4983      2.2273
   985.5000     14.4561     13.8179     13.3589      0.4321
   985.7500     14.5310     13.6705     13.2454      0.1193
   986.0000     14.7136     13.6047     13.1754      0.0113
   986.2500     14.9074     13.6178     13.1536      0.0000
   986.5000     15.0119     13.6895     13.1687   -999.2500
   986.7500     14.9990     13.7927     13.1967   -999.2500
   987.0000     14.9266     13.9072     13.2083   -999.2500
   987.2500     14.8584     14.0280     13.1789   -999.2500
   987.5000     14.7987     14.1610     13.0952   -999.2500
   987.7500     14.7182     14.3130     12.9582   -999.2500
   988.0000     14.5977     14.4832     12.7823   -999.2500
   988.2500     14.4412     14.6628     12.5921   -999.2500
   988.5000     14.2805     14.8389     12.4170   -999.2500
   988.7500     14.1551     15.0001     12.2833   -999.2500
   989.0000     14.0713     15.1421     12.2053   -999.2500
   989.2500     14.0027     15.2689     12.1803   -999.2500
   989.5000     13.9361     15.3864     12.1904   -999.2500
   989.7500     13.8971     15.4943     12.2130   -999.2500
   990.0000     13.9211     15.5840     12.2335   -999.2500
   990.2500     14.0138     15.6488     12.2527   -999.2500
   990.5000     14.1503     15.6945     12.2688   -999.2500
   990.7500     14.3066     15.7365     12.3415   -999.2500
   991.0000     14.4841     15.7855     12.4779   -999.2500
   991.2500     14.6991     15.8376     12.6962   -999.2500
   991.5000     14.9493     15.8758     13.0032   -999.2500
   991.7500     15.2064     15.8790     13.3928   -999.2500
   992.0000     15.4442     15.8320     13.8450   -999.2500
   992.2500     15.6429     15.7317     14.3252   -999.2500
   992.5000     15.7692     15.5879     14.7898   -999.2500
   992.7500     15.8288     15.4200     15.2054   -999.2500
   993.0000     15.9067     15.2502     15.5865   -999.2500
   993.2500     16.0730     15.0969     16.0388   -999.2500
   993.5000     16.2987     14.9701     16.7899   -999.2500
   993.7500     16.4895     14.8711     18.2119   -999.2500
   994.0000     16.5552     14.7980     20.9428   -999.2500
   994.2500     16.4539     14.7553     25.8638   -999.2500
   994.5000     16.1898     14.7601     34.8305   -999.2500
   994.7500     15.7806     14.8333     51.3710   -999.2500
   995.0000     15.2514     14.9789     82.2336   -999.2500
   995.2500     14.6554     15.1720    138.4003   -999.2500
   995.5000     14.0701     15.3717    229.2418   -999.2500
   995.7500     13.5606     15.5426    341.9745   -999.2500
   996.0000     13.1522     15.6646    438.4229   -999.2500
   996.2500     12.8382     15.7298    503.8633   -999.2500
   996.5000     12.6093     15.7382    564.9225   -999.2500
   996.7500     12.4741     15.6982    668.6162   -999.2500
   997.0000     12.4478     15.6254 100000.0000   -999.2500
   997.2500     12.5142     15.5382 100000.0000   -999.2500
   997.5000     12.6189     15.4480 100000.0000   -999.2500
   997.7500     12.7345     15.3537 100000.0000   -999.2500
   998.0000     12.9069     15.2463 100000.0000   -999.2500
   998.2500     13.1654     15.1198 100000.0000   -999.2500
   998.5000     13.4567     14.9777 100000.0000   -999.2500
   998.7500     13.7506     14.8172 100000.0000   -999.2500
   999.0000     14.1105     14.5842 100000.0000   -999.2500
   999.2500     14.6130     14.1126 100000.0000   -999.2500
   999.5000     15.2558     13.1125 100000.0000   -999.2500
   999.7500     15.8584     11.3097 100000.0000   -999.2500
  1000.0000     15.8364      8.7213 100000.0000   -999.2500
  1000.2500     14.1133      5.8078 100000.0000   -999.2500
  1000.5000      9.9979      3.2475 100000.0000   -999.2500
  1000.7500      4.5935      1.4930 100000.0000   -999.2500
  1001.0000      0.1985      0.5558 100000.0000   -999.2500
  1001.2500     -2.0702      0.1657 100000.0000   -999.2500
  1001.5000     -2.8186      0.0392 100000.0000   -999.2500
  1001.7500     -2.9767      0.0073 100000.0000   -999.2500
  1002.0000     -2.9981      0.0010 100000.0000   -999.2500
  1002.2500   -999.2500   -999.2500 100000.0000   -999.2500
  1002.5000   -999.2500   -999.2500 100000.0000   -999.2500
  1002.7500   -999.2500   -999.2500 100000.0000   -999.2500
  1003.0000   -999.2500   -999.2500 100000.0000   -999.2500
  1003.2500   -999.2500   -999.2500 100000.0000   -999.2500
  1003.5000   -999.2500   -999.2500 100000.0000   -999.2500
