~Version Information
 VERS.                                  2.0 : CWLS LAS VERSION
 WRAP.                                   NO : WRAPING MODE
 SWARE .                 MController 2.5.0J : SOFTWARE VERSION
~Well Information
 WELL.                        Montoya 1-24V : WELL
 COMP.                       Petrogulf Corp : COMPANY
 FLD.                      Purgatoire River : FIELD
 LOC.                 SE/SW Sec 1 T33S R68W : LOCATION
 DATE.                          10/19-20/04 : DATE(S) LOGGED
 SRVC.       Blanco Geological Services LLC : SERVICE COMPANY
 STAT.                                   CO : STATE
 CNTY.                           Las Animas : COUNTY
 CTRY.                                  USA : COUNTRY
 API.                       05-071-08194-00 : API NUMBER
 STRT.FT                             116.00 : START DEPTH
 STOP.FT                            2700.00 : STOP DEPTH
 STEP.FT                               1.00 : DEPTH INCREMENT
 NULL.                                -9999 : NULL VALUE
~Curve information
 DEPTH.FT                                   :
 ROP.MIN/FT                                 :
 GAS.UNITS                                  :
~ASCII Log data
# ...
      2116.0         0.27          0.3 
      2117.0         0.23          0.8 
      2118.0         0.27          0.6 
      2119.0         0.17          0.3 
      2120.0         0.23          0.4 
      2121.0         0.27          0.2 
      2122.0         0.23          0.4 
      2123.0         0.27          0.5 
      2124.0         0.20          0.1 
      2125.0         0.17          0.3 
      2126.0         0.27          0.5 
      2127.0         0.20          0.2 
      2128.0         0.23          0.1 
      2129.0         0.25          0.0 
      2130.0         0.27          0.0 
      2131.0         0.27          0.3 
      2132.0         0.20          0.0 
      2133.0         0.23          0.3 
      2134.0         0.30          0.3 
      2135.0         0.13          0.4 
      2136.0         0.33          0.3 
      2137.0         0.43          0.2 
      2138.0         0.40          0.5 
      2139.0         0.37          0.4 
      2140.0         0.30          0.6 
      2141.0         0.33          0.3 
      2142.0         0.23          0.2 
      2143.0         0.13          0.3 
      2144.0         0.17          0.0 
      2145.0         0.27          0.3 
      2146.0         0.22          0.1 
      2147.0         0.20          0.2 
      2148.0         0.17          0.2 
      2149.0         0.10          0.1 
      2150.0         0.13          0.1 
      2151.0         0.10          0.1 
      2152.0         0.13          0.2 
      2153.0         0.23          0.2 
      2154.0         0.20          0.2 
      2155.0         0.17          0.2 
      2156.0         0.13          0.0 
      2157.0         0.20          0.0 
      2158.0         0.27          0.2 
      2159.0         0.23          0.3 
      2160.0         0.27         -0.2 
      2161.0         0.27          0.1 
      2162.0         0.20          0.1 
      2163.0         0.25         -0.2 
      2164.0         0.27          0.2 
      2165.0         0.20          0.1 
      2166.0         0.23         -0.1 
      2167.0         0.20         -0.3 
      2168.0         0.60          0.0 
      2169.0         0.33          0.2 
      2170.0         0.30          0.3 
      2171.0         0.13          0.2 
      2172.0         0.13          0.2 
      2173.0         0.17         -0.2 
      2174.0         0.27          0.0 
      2175.0         0.30          0.0 
      2176.0         0.30          0.1 
      2177.0         0.30          0.0 
      2178.0         0.37          0.0 
      2179.0         0.25         -0.2 
      2180.0         0.30         -0.1 
      2181.0         0.27         -0.1 
      2182.0         0.27          0.0 
      2183.0         0.27          0.0 
      2184.0         0.23         -0.3 
      2185.0         0.23          0.1 
      2186.0         0.20         -0.1 
      2187.0         0.17          0.3 
      2188.0         0.17         -0.2 
      2189.0         0.10         -0.2 
      2190.0         0.13         -0.4 
      2191.0         0.17         -0.1 
      2192.0         0.20         -0.1 
      2193.0         0.13         -0.3 
      2194.0         0.17         -0.3 
      2195.0         0.13          0.0 
      2196.0         0.22         -0.2 
      2197.0         0.23         -0.1 
      2198.0         0.20         -0.4 
      2199.0         0.45          0.1 
      2200.0         0.43         -0.2 
      2201.0         0.37          0.0 
      2202.0         0.40          0.1 
      2203.0         0.30         -0.1 
      2204.0         0.30         -0.4 
      2205.0         0.30         -0.2 
      2206.0         0.33         -0.5 
      2207.0         0.30         -0.5 
      2208.0         0.33         -0.5 
      2209.0         0.35         -0.2 
      2210.0         0.33         -0.3 
      2211.0         0.27         -0.2 
      2212.0         0.27         -0.5 
      2213.0         0.27         -0.3 
      2214.0         0.23         -0.5 
      2215.0         0.10         -0.5 
      2216.0         0.17         -0.5 
      2217.0         0.23         -0.5 
      2218.0         0.23         -0.3 
      2219.0         0.20         -0.4 
      2220.0         0.20         -0.4 
      2221.0         0.10         -0.4 
      2222.0         0.17         -0.2 
      2223.0         0.20         -0.6 
      2224.0         0.22         -0.4 
      2225.0         0.20         -0.4 
      2226.0         0.17         -0.3 
      2227.0         0.17         -0.6 
      2228.0         0.13         -0.4 
      2229.0         0.20         -0.5 
      2230.0         0.27         -0.6 
      2231.0         0.20         -0.3 
      2232.0         0.38         -0.4 
      2233.0         0.43         -0.2 
      2234.0         0.37         -0.3 
      2235.0         0.33         -0.2 
      2236.0         0.30         -0.3 
      2237.0         0.30         -0.3 
      2238.0         0.30         -0.2 
      2239.0         0.30         -0.1 
      2240.0         0.33         -0.1 
      2241.0         0.27         -0.5 
      2242.0         0.32         -0.3 
      2243.0         0.27         -0.3 
      2244.0         0.33         -0.3 
      2245.0         0.23         -0.2 
      2246.0         0.27         -0.5 
      2247.0         0.23         -0.3 
      2248.0         0.20         -0.6 
      2249.0         0.20         -0.7 
      2250.0         0.23         -0.6 
      2251.0         0.20         -0.4 
      2252.0         0.23         -0.8 
      2253.0         0.23         41.0 
      2254.0         0.23         41.0 
      2255.0         0.25         10.4 
      2256.0         0.20          5.2 
      2257.0         0.27          5.8 
      2258.0         0.20          6.8 
      2259.0         0.20          6.8 
      2260.0         0.23          8.4 
      2261.0         0.23          9.0 
      2262.0         0.27         11.7 
      2263.0         0.37         14.8 
      2264.0         0.43         26.6 
      2265.0         0.43         35.3 
      2266.0         0.43         30.5 
      2267.0         0.37         24.3 
      2268.0         0.38         18.0 
      2269.0         0.37         13.2 
      2270.0         0.40         10.7 
      2271.0         0.43         10.6 
      2272.0         0.33         10.9 
      2273.0         0.30         10.9 
      2274.0         0.30         10.9 
      2275.0         0.30         10.2 
      2276.0         0.23         10.4 
      2277.0         0.27         10.1 
      2278.0         0.23          9.8 
      2279.0         0.28          9.8 
      2280.0         0.27          9.5 
      2281.0         0.23          9.8 
      2282.0         0.27          9.8 
      2283.0         0.23          9.7 
      2284.0         0.27          9.4 
      2285.0         0.23          9.2 
      2286.0         0.27          9.8 
      2287.0         0.27         12.8 
      2288.0         0.27          9.0 
      2289.0         0.33         11.5 
      2290.0         0.27         20.8 
      2291.0         0.25         30.6 
      2292.0         0.27         38.8 
      2293.0         0.27         45.0 
      2294.0         0.23         50.5 
      2295.0         0.23         52.5 
      2296.0         0.43         52.0 
      2297.0         0.40         44.8 
      2298.0         0.37         35.3 
      2299.0         0.33         19.8 
      2300.0         0.37         18.4 
      2301.0         0.45         14.2 
      2302.0         0.43         11.5 
      2303.0         0.37         11.2 
      2304.0         0.33         11.7 
      2305.0         0.37         11.4 
      2306.0         0.30         11.2 
      2307.0         0.30         11.1 
      2308.0         0.37         10.6 
      2309.0         0.33         10.3 
      2310.0         0.28         10.1 
      2311.0         0.23         10.2 
      2312.0         0.23         10.0 
      2313.0         0.23         10.1 
      2314.0         0.30          9.9 
      2315.0         0.27          9.9 
