~Version Information
VERS.                      2.0: CWLS Log ASCII Standard - VERSION 2.0
WRAP.                       NO: One line per depth step
~Well Information Block
STRT.FT               550.0000: 
STOP.FT              2042.5000: 
STEP.FT                 0.2500: 
NULL.                -999.2500: 
COMP.          Petrogulf Corporation: COMPANY
WELL.          Robinson 15-12V: WELL
FLD.           Purgatorie River: FIELD
LOC.           1788' FNL & 466' FWL: LOCATION
PROV.                 Colorado: PROVINCE
CNTY.               Las Animas: COUNTRY
SRVC.                Patterson: SERVICE COMPANY
DATE.          Mon Sep 12 10:04:59 2005: LOG DATE
UWI.                          : UNIQUE WELL ID
~Curve Information Block
DEPT.FT            0 000 00 00: Depth
SP.mV                         : DIL Spontaneous Potential
RILD.Ohm-m                    : DIL Deep Resistivity
RILM.Ohm-m                    : DIL Medium Resistivity
RLL3.Ohm-m                    : DIL Shallow Resistivity
GR.GAPI                       : Gamma Ray
~Parameter Information Block
~A  Depth        SP         RILD        RILM        RLL3         GR     
# ...
  1530.0000    235.2246     10.6502     10.9526     11.9366    131.3484
  1530.2500    235.2692     10.8020     11.0519     12.7887    134.6028
  1530.5000    234.9367     10.6687     11.0750     12.5569    134.8740
  1530.7500    235.1276     10.8223     10.9755     11.8711    134.0934
  1531.0000    234.7343     10.8909     10.9130     11.8328    144.0791
  1531.2500    235.0987     11.0510     11.0288     11.5967    151.5177
  1531.5000    235.3509     11.0880     11.3272     11.6480    137.1622
  1531.7500    235.3544     11.1041     11.8115     11.6598    141.9621
  1532.0000    235.4063     10.8753     12.0584     11.7380    140.4269
  1532.2500    235.6373     10.8889     12.2475     12.3729    140.2819
  1532.5000    236.3695     10.9089     12.3029     13.0350    144.6398
  1532.7500    237.4652     10.6624     12.4741     14.2089    142.7074
  1533.0000    239.4047     10.1524     12.2852     14.1473    145.2164
  1533.2500    241.3015     10.1367     11.9929     12.9017    148.2691
  1533.5000    243.2562      9.9262     11.2302     12.0146    139.1544
  1533.7500    244.5070     10.0299     10.8312     11.2161    137.0703
  1534.0000    245.2295     10.1391     10.2719     11.1798    144.9003
  1534.2500    245.7706      9.9809     10.2256     11.1811    143.4846
  1534.5000    246.0805     10.0800      9.9857     10.9060    142.6888
  1534.7500    246.4262     10.0139      9.8111     10.6334    146.4023
  1535.0000    246.9007      9.8018      9.6228      9.9264    147.1233
  1535.2500    246.7807      9.8740      9.6604      9.8695    147.1012
  1535.5000    247.1815      9.7671      9.5745      9.9659    150.7660
  1535.7500    246.4303      9.8021      9.6203     10.2643    156.4380
  1536.0000    246.6050      9.7775      9.6418     10.5727    153.9603
  1536.2500    245.9785      9.9352      9.6719     10.9209    147.7713
  1536.5000    245.9280      9.9038      9.9128     10.9833    145.5503
  1536.7500    244.8637     10.2096     10.4428     11.1433    136.3443
  1537.0000    245.1496     10.4957     10.8476     11.3564    125.0716
  1537.2500    244.7996     10.6170     11.5557     12.1201    123.8872
  1537.5000    244.8890     11.1940     11.7344     13.6569    113.8233
  1537.7500    244.1340     11.3599     12.1223     15.3723    118.8433
  1538.0000    244.4172     11.5908     12.4883     16.4296    110.4988
  1538.2500    243.8523     12.3906     13.0301     15.5443    112.7923
  1538.5000    243.9651     12.7560     13.5172     14.1562    106.2003
  1538.7500    243.4045     13.4293     14.1305     14.7753    113.7681
  1539.0000    243.4425     13.7803     14.3630     16.6761    115.2728
  1539.2500    242.9014     14.3897     15.8528     18.2291    107.2206
  1539.5000    242.7439     14.3866     16.9210     20.1455    106.7648
  1539.7500    241.3492     15.4100     18.2422     22.6192    109.1046
  1540.0000    241.1465     15.9990     18.6426     25.2173    102.5672
  1540.2500    239.7020     16.3365     20.5957     26.0435     93.8024
  1540.5000    238.4419     16.9275     21.0596     28.4602     81.0189
  1540.7500    237.3117     16.9062     22.1075     30.3168     90.1050
  1541.0000    237.1122     17.5892     23.3280     37.4286     90.5003
  1541.2500    236.6893     18.4718     23.2335     38.0164     96.1858
  1541.5000    236.6138     18.4653     23.9039     30.2873     99.1582
  1541.7500    236.7296     19.4637     24.5074     26.6811     93.3673
  1542.0000    237.0862     19.8785     24.1220     25.2015     97.3656
  1542.2500    237.0371     20.2086     25.2438     25.2051     95.3689
  1542.5000    236.6255     20.0229     26.1287     31.1589     85.7059
  1542.7500    236.4824     20.4656     27.1874     35.8806     85.5418
  1543.0000    236.3574     19.9906     27.4617     39.3833     89.6636
  1543.2500    236.4120     19.4727     28.4342     36.5221     87.3884
  1543.5000    236.2508     19.7094     27.1338     30.3894    100.9041
  1543.7500    236.8896     19.4345     26.8623     29.1881    111.7485
  1544.0000    237.1184     19.3407     26.4602     26.2183    103.4909
  1544.2500    237.8477     19.2615     25.3808     27.1470     96.6699
  1544.5000    237.8011     18.7739     25.2831     30.9411     95.3270
  1544.7500    238.4111     18.6100     24.2759     30.0988     95.8077
  1545.0000    238.4923     18.5457     22.2998     24.6146    112.4007
  1545.2500    239.1364     18.2422     22.1374     21.2938    111.3098
  1545.5000    239.1004     17.3179     19.7703     17.4252    113.3282
  1545.7500    239.8611     17.3511     19.3502     14.6701    117.2350
  1546.0000    239.2409     17.0172     18.3241     14.4542    117.6307
  1546.2500    239.7394     16.7022     18.2523     14.0707    120.7824
  1546.5000    239.4036     16.5175     17.6914     13.5633    104.5855
  1546.7500    240.1026     15.2637     17.7958     15.3294     94.6926
  1547.0000    239.9204     14.6428     17.5369     20.5556     93.4827
  1547.2500    240.7009     14.5294     16.9018     24.5068     89.5764
  1547.5000    240.3038     14.2078     16.3625     19.9648     99.9602
  1547.7500    240.5628     13.8736     15.6059     16.3656    117.7154
  1548.0000    240.1564     13.8499     14.5620     14.9788    119.9984
  1548.2500    240.6541     13.3312     14.0503     13.5769    118.7662
  1548.5000    240.3566     13.2668     13.4127     12.7899    130.9690
  1548.7500    240.8435     13.0448     12.9503     12.3269    127.7871
  1549.0000    240.7889     13.0639     12.8780     12.0232    134.0184
  1549.2500    241.3143     12.4791     13.0437     12.2415    141.3025
  1549.5000    241.7903     12.9012     12.8334     12.3377    132.8019
  1549.7500    242.6273     12.9196     12.7967     11.3337    135.8475
  1550.0000    242.9629     12.6439     12.8292     11.1106    122.9071
  1550.2500    243.3330     12.3204     12.8447     11.8417    118.4625
  1550.5000    243.5477     12.0101     13.3383     12.9416    125.2445
  1550.7500    243.7348     12.0603     13.3838     14.1211    121.1197
  1551.0000    243.9288     11.8415     13.3795     16.1419    111.3468
  1551.2500    244.0639     11.5283     13.0702     21.3361    108.9044
  1551.5000    244.4443     11.2926     12.8367     20.7099    122.2817
  1551.7500    244.7147     11.3846     12.2339     14.3513    130.7069
  1552.0000    245.3670     11.3868     11.8036     12.0289    133.5007
  1552.2500    245.4305     11.5989     11.3477     10.9811    134.2841
  1552.5000    245.3110     11.4701     11.3848     10.7572    134.7460
  1552.7500    245.6795     11.8956     11.4368     11.2219    144.3506
  1553.0000    246.0377     11.8626     11.8906     11.5680    136.9946
  1553.2500    245.3716     11.9271     11.7570     12.3173    132.6817
  1553.5000    244.0613     12.0584     11.7913     13.2362    129.5319
  1553.7500    243.3289     11.9595     12.1741     13.2102    131.8959
  1554.0000    242.9608     11.9962     12.2358     13.6154    127.7470
  1554.2500    241.8491     12.2472     12.5088     13.7126    123.1455
  1554.5000    241.3494     12.1625     12.5998     13.9424    116.4715
  1554.7500    241.2076     12.0804     12.6443     13.5688    115.3045
  1555.0000    241.1485     12.2602     12.8358     13.6624    109.9140
  1555.2500    240.8164     12.7521     13.2952     13.7862    108.3964
  1555.5000    240.3990     12.8187     13.4589     14.1590    112.2704
  1555.7500    239.8438     13.0852     13.7303     14.2835    112.9059
  1556.0000    239.2847     13.0978     13.8616     13.7746    119.1976
  1556.2500    238.6615     13.6373     14.2863     13.4984    122.7729
  1556.5000    237.9150     13.8815     14.2919     14.0824    116.6348
  1556.7500    237.2137     13.9751     14.6993     14.6155    111.7139
  1557.0000    236.6745     14.1435     15.2418     15.6523    104.4431
  1557.2500    236.3182     14.1667     15.1650     17.1073    112.5105
  1557.5000    236.0674     14.3715     15.7534     17.1201    113.7588
  1557.7500    235.3517     14.2978     15.9776     16.2504    112.6576
