~Version Information
VERS.                      2.0: CWLS Log ASCII Standard - VERSION 2.0
WRAP.                       NO: One line per depth step
~Well Information Block
STRT.FT                -4.5000: 
STOP.FT              1680.2500: 
STEP.FT                 0.2500: 
NULL.                -999.2500: 
COMP.          Pioneer Natural Resources: COMPANY
WELL.            Salty 42-6 Tr: WELL
FLD.           Purgatorie River: FIELD
LOC.           2409' FNL & 599' FEL--: LOCATION
PROV.                       CO: PROVINCE
CNTY.               Las Animas: COUNTRY
SRVC.                         : SERVICE COMPANY
DATE.          Mon Dec 20 13:36:48 2004: LOG DATE
UWI.           071-08238      : UNIQUE WELL ID
~Curve Information Block
DEPT.FT            0 000 00 00: Depth
HVOLTA.V                      : Head Voltage Apparent
GR.GAPI                       : Gamma Ray
CCL.                          : Casing Collar Locator
TT3.usec                      : CBL 3' Travel Time
AMP3.mV                       : CBL 3' Amplitude
~Parameter Information Block
~A  Depth      HVOLTA        GR         CCL         TT3         AMP3    
    -4.5000   -999.2500   -999.2500   -999.2500   -999.2500   -999.2500
    -4.2500   -999.2500   -999.2500   -999.2500   -999.2500   -999.2500
    -4.0000   -999.2500   -999.2500   -999.2500   -999.2500   -999.2500
    -3.7500   -999.2500   -999.2500   -999.2500   -999.2500   -999.2500
    -3.5000   -999.2500   -999.2500   -999.2500   -999.2500   -999.2500
    -3.2500   -999.2500   -999.2500   -999.2500   -999.2500   -999.2500
    -3.0000   -999.2500   -999.2500   -999.2500    921.0000      1.6733
    -2.7500   -999.2500   -999.2500   -999.2500    921.0000      1.6835
    -2.5000   -999.2500   -999.2500   -999.2500    921.0000      1.7333
    -2.2500   -999.2500   -999.2500   -999.2500    921.0000      1.8015
    -2.0000   -999.2500   -999.2500   -999.2500    921.0000      1.8527
    -1.7500   -999.2500   -999.2500   -999.2500    921.0000      1.8655
    -1.5000   -999.2500   -999.2500   -999.2500    921.0000      1.8454
    -1.2500   -999.2500   -999.2500   -999.2500    921.0000      1.8141
    -1.0000   -999.2500   -999.2500   -999.2500    921.0000      1.7899
    -0.7500   -999.2500   -999.2500   -999.2500    921.0000      1.7745
    -0.5000   -999.2500   -999.2500   -999.2500    921.0000      1.7582
    -0.2500   -999.2500   -999.2500   -999.2500    921.0000      1.7349
     0.0000   -999.2500   -999.2500   -999.2500    921.0000      1.7002
     0.2500   -999.2500   -999.2500   -999.2500    921.0000      1.6984
     0.5000   -999.2500   -999.2500   -999.2500    921.0000      1.6899
     0.7500   -999.2500   -999.2500   -999.2500    921.0000      1.6348
     1.0000   -999.2500   -999.2500   -999.2500    921.0000      1.6319
     1.2500   -999.2500   -999.2500   -999.2500    921.0000      1.6643
     1.5000   -999.2500   -999.2500   -999.2500    921.0000      1.7057
     1.7500   -999.2500   -999.2500   -999.2500    921.0000      1.7228
     2.0000   -999.2500   -999.2500      0.0000    921.0000      1.7102
     2.2500   -999.2500   -999.2500      0.0000    921.0000      1.6892
     2.5000   -999.2500   -999.2500      0.0000    921.0000      1.6768
     2.7500   -999.2500   -999.2500      0.0000    921.0000      1.6692
     3.0000   -999.2500   -999.2500      0.0000    921.0000      1.6558
     3.2500   -999.2500   -999.2500      0.0000    920.9557      1.6481
     3.5000   -999.2500   -999.2500      0.0000    920.6667      1.6935
     3.7500   -999.2500   -999.2500      0.0000    919.1993      1.9198
     4.0000   -999.2500   -999.2500      0.0000    913.3958      2.6953
     4.2500   -999.2500   -999.2500      0.0000    895.5204      4.9210
     4.5000   -999.2500   -999.2500      0.0000    852.6418     10.1214
     4.7500   -999.2500   -999.2500      0.0000    772.5392     19.7317
     5.0000   -999.2500   -999.2500      0.0000    656.0008     33.6210
     5.2500   -999.2500   -999.2500      0.0000    523.9616     49.2740
     5.5000   -999.2500   -999.2500      0.0000    407.4589     63.0355
     5.7500   -999.2500   -999.2500      0.0000    327.4124     72.5025
     6.0000   -999.2500   -999.2500      0.0000    284.5914     77.6395
     6.2500     97.2782   -999.2500      0.0000    266.7620     79.8787
     6.5000     97.1826   -999.2500      0.0000    260.9863     80.6908
     6.7500     97.0321   -999.2500      0.0000    259.5279     80.9496
     7.0000     96.9879   -999.2500      0.0000    259.2340     81.0330
     7.2500     96.8983     70.4450      0.0000    259.1803     81.0859
     7.5000     96.8947     67.5654      0.0000    259.1756     81.1631
     7.7500     96.9640     65.2934      0.0000    259.1798     81.2718
     8.0000     97.1277     64.5869      0.0000    259.1919     81.3812
     8.2500     97.1277     65.3752      0.0000    259.2088     81.4530
     8.5000     96.9294     66.4071      0.0000    259.2274     81.4729
     8.7500     97.0392     66.2770      0.0000    259.2433     81.4597
     9.0000     97.1312     64.5588      0.0000    259.2516     81.4446
     9.2500     97.1933     61.8362      0.0000    259.2498     81.4445
     9.5000     96.8637     58.9539      0.0000    259.2414     81.4551
     9.7500     97.0345     56.5515      0.0000    259.2331     81.4674
    10.0000     97.0560     55.0968      0.0000    259.2295     81.4893
    10.2500     97.1038     54.7962      0.0000    259.2293     81.5462
    10.5000     96.9700     55.3079      0.0000    259.2289     81.6555
    10.7500     97.1241     55.8489      0.0000    259.2266     81.7988
    11.0000     96.9711     55.6721      0.0000    259.2235     81.9211
    11.2500     97.0321     54.3156      0.0000    259.2197     81.9641
    11.5000     97.0417     51.6464      0.0000    259.2135     81.9103
    11.7500     97.0488     48.0187      0.0000    259.2046     81.8007
    12.0000     96.9807     44.2931      0.0000    259.1971     81.7082
    12.2500     97.0285     41.4152      0.0000    259.1958     81.6847
    12.5000     97.1683     39.9502      0.0000    259.2010     81.7285
    12.7500     97.0189     39.9365      0.0000    259.2085     81.8021
    13.0000     97.0249     40.9295      0.0000    259.2159     81.8736
    13.2500     96.9640     42.0368      0.0000    259.2239     81.9381
    13.5000     97.2471     42.0720      0.0000    259.2328     82.0058
    13.7500     97.2471     40.2613      0.0000    259.2401     82.0737
    14.0000     97.1312     37.2294      0.0000    259.2401     82.1158
    14.2500     97.0763     34.9027      0.0000    259.2285     82.1054
    14.5000     96.9843     34.9779      0.0000    259.2067     82.0457
    14.7500     97.0834     37.6503      0.0000    259.1828     81.9728
    15.0000     97.0010     41.8559      0.0000    259.1667     81.9326
    15.2500     97.0656     46.1883      0.0000    259.1693     81.9497
    15.5000     97.0656     49.4763      0.0000    259.2145     81.9912
    15.7500     97.0249     51.1895      0.0000    259.3608     81.8739
    16.0000     97.0082     51.6356      0.0000    259.7154     81.1354
    16.2500     97.0142     51.5584      0.0000    260.4105     79.0581
    16.5000     97.0524     51.5778      0.0000    261.5610     75.0350
    16.7500     97.2268     52.0294      0.0000    263.2799     69.0776
    17.0000     97.0214     52.9636      0.0000    265.8232     61.9401
    17.2500     97.0692     54.1378      0.0000    269.7197     54.6639
    17.5000     96.9258     55.2682      0.0000    275.5677     47.9846
    17.7500     97.0870     56.4009      0.0000    283.4430     42.1175
    18.0000     96.9019     57.9834      0.0000    292.8214     36.9578
    18.2500     96.9700     60.4507      2.0000    303.9895     32.3677
    18.5000     97.1922     63.4914      2.0000    320.2692     28.2902
    18.7500     97.0763     65.7566      0.0000    348.1206     24.7028
    19.0000     97.1612     65.8567      0.0000    392.1834     21.5911
    19.2500     97.1277     63.8797      0.0000    447.9826     19.0269
    19.5000     96.8876     61.5874      0.0000    501.5191     17.2090
    19.7500     96.9832     60.9588      0.0000    538.8440     16.2968
    20.0000     96.9700     62.5518      0.0000    554.0982     16.1840
    20.2500     96.9497     65.1772      0.0000    547.0826     16.5143
    20.5000     97.1337     67.1247      0.0000    520.4887     16.9318
    20.7500     96.9736     67.8566      0.0000    484.1221     17.2689
    21.0000     97.1719     68.4914      0.0000    453.5890     17.5199
    21.2500     96.8912     70.5856      0.0000    437.7506     17.7241
    21.5000     96.8577     74.4829      0.0000    433.2723     17.8969
    21.7500     97.0082     78.7423      0.0000    436.1617     18.0297
    22.0000     97.0381     81.0694      0.0000    449.9999     18.1175
    22.2500     97.4951     79.9104      0.0000    474.5620     18.1759
    22.5000     97.4641     75.4203      0.0000    493.5575     18.2354
    22.7500     96.8398     69.1168      0.0000    486.0571     18.3197
    23.0000     97.0321     62.8945      0.0000    450.4259     18.4239
    23.2500     96.9497     58.4410      0.0000    410.2220     18.5134
