~Version Information
VERS.                      2.0: CWLS Log ASCII Standard - VERSION 2.0
WRAP.                       NO: One line per depth step
~Well Information Block
STRT.FT               546.2500: 
STOP.FT              2496.7500: 
STEP.FT                 0.2500: 
NULL.                -999.2500: 
COMP.          Petrogulf Corporation: COMPANY
WELL.               Egan 9-11V: WELL
FLD.           Purgatorie River: FIELD
LOC.           724' FNL & 1379' FWL: LOCATION
PROV.                 Colorado: PROVINCE
CNTY.               Las Animas: COUNTRY
SRVC.          Patterson Wireline: SERVICE COMPANY
DATE.          Fri Jul 11 23:32:41 2003: LOG DATE
UWI.           05 071 07875 00: UNIQUE WELL ID
~Curve Information Block
DEPT.FT            0 000 00 00: Depth
SP.mV                         : DIL Spontaneous Potential
RILD.Ohm-m                    : DIL Deep Resistivity
RILM.Ohm-m                    : DIL Medium Resistivity
RLL3.Ohm-m                    : DIL Shallow Resistivity
GR.GAPI                       : Gamma Ray
~Parameter Information Block
~A  Depth        SP         RILD        RILM        RLL3         GR     
# ...
  2226.2500    -61.0716     12.2317     13.0304     15.7800    104.0133
  2226.5000    -60.7512     12.1650     12.9564     15.9392    103.9999
  2226.7500    -60.4737     12.0903     12.8913     16.0447    103.0421
  2227.0000    -60.2235     12.0035     12.8313     16.1565    101.0926
  2227.2500    -60.0008     11.9052     12.7734     16.3018    100.2387
  2227.5000    -59.8198     11.8010     12.7153     16.4579    100.3095
  2227.7500    -59.6975     11.6988     12.6561     16.5836    101.0998
  2228.0000    -59.6413     11.6073     12.5962     16.6473    102.3961
  2228.2500    -59.6404     11.5349     12.5378     16.6336    102.6283
  2228.5000    -59.6676     11.4892     12.4848     16.5451    101.6743
  2228.7500    -59.6883     11.4769     12.4427     16.3985    100.9031
  2229.0000    -59.6725     11.5030     12.4180     16.1994    101.6587
  2229.2500    -59.6050     11.5696     12.4182     15.9222    104.1191
  2229.5000    -59.4882     11.6766     12.4511     15.5457    109.8729
  2229.7500    -59.3378     11.8213     12.5241     15.1367    113.8121
  2230.0000    -59.1750     11.9988     12.6444     14.8893    118.0363
  2230.2500    -59.0214     12.2029     12.8182     15.0428    119.3211
  2230.5000    -58.8961     12.4279     13.0507     15.7390    118.9189
  2230.7500    -58.8128     12.6702     13.3464     16.9557    117.0629
  2231.0000    -58.7747     12.9299     13.7086     18.5693    112.0137
  2231.2500    -58.7739     13.2113     14.1405     20.4414    107.7136
  2231.5000    -58.7997     13.5243     14.6454     22.4224    101.5239
  2231.7500    -58.8496     13.8850     15.2276     24.3020     98.2562
  2232.0000    -58.9331     14.3154     15.8931     25.8038     94.5947
  2232.2500    -59.0650     14.8415     16.6512     26.6717     92.5907
  2232.5000    -59.2540     15.4894     17.5146     26.8767     90.0500
  2232.7500    -59.4980     16.2805     18.5003     27.0488     88.9409
  2233.0000    -59.7866     17.2262     19.6288     29.3428     88.4723
  2233.2500    -60.1056     18.3205     20.9230     38.9138     88.6123
  2233.5000    -60.4428     19.5345     22.4048     65.6171     88.1045
  2233.7500    -60.7928     20.8129     24.0892    124.0965     86.4341
  2234.0000    -61.1593     22.0776     25.9751    229.0658     81.2564
  2234.2500    -61.5486     23.2355     28.0314    384.2234     76.3583
  2234.5000    -61.9583     24.1905     30.1788    569.8378     68.5206
  2234.7500    -62.3728     24.8574     32.2730    740.9896     64.1308
  2235.0000    -62.7701     25.1761     34.0999    844.9512     59.9915
  2235.2500    -63.1372     25.1255     35.3998    849.2993     58.7917
  2235.5000    -63.4860     24.7314     35.9314    758.9216     58.2154
  2235.7500    -63.8603     24.0606     35.5589    608.9471     57.9918
  2236.0000    -64.3273     23.2014     34.3139    442.9499     57.9110
  2236.2500    -64.9563     22.2372     32.3880    294.6630     58.8547
  2236.5000    -65.7934     21.2295     30.0581    181.2107     63.4278
  2236.7500    -66.8397     20.2148     27.5969    104.9558     68.7440
  2237.0000    -68.0371     19.2126     25.2131     59.2283     78.4991
  2237.2500    -69.2686     18.2355     23.0354     34.4993     84.8263
  2237.5000    -70.3856     17.2970     21.1247     22.4523     92.5990
  2237.7500    -71.2587     16.4135     19.4953     17.2944     96.5506
  2238.0000    -71.8245     15.6023     18.1356     15.4820    101.1925
  2238.2500    -72.1005     14.8786     17.0212     15.0875    103.7962
  2238.5000    -72.1664     14.2538     16.1240     15.2154    107.3337
  2238.7500    -72.1294     13.7357     15.4168     15.5205    109.4855
  2239.0000    -72.0897     13.3282     14.8752     15.8796    112.2809
  2239.2500    -72.1155     13.0312     14.4784     16.2427    113.6974
  2239.5000    -72.2316     12.8399     14.2085     16.6080    114.8428
  2239.7500    -72.4266     12.7444     14.0508     17.0072    114.9641
  2240.0000    -72.6715     12.7296     13.9922     17.4613    114.8755
  2240.2500    -72.9397     12.7771     14.0213     17.9562    115.1373
  2240.5000    -73.2173     12.8686     14.1277     18.4750    115.9596
  2240.7500    -73.5024     12.9901     14.3016     19.0363    116.1657
  2241.0000    -73.7964     13.1351     14.5338     19.6625    115.0896
  2241.2500    -74.0943     13.3043     14.8161     20.2971    113.6606
  2241.5000    -74.3821     13.5033     15.1415     20.7872    111.7620
  2241.7500    -74.6426     13.7375     15.5044     20.9967    111.3246
  2242.0000    -74.8674     14.0100     15.9010     20.9509    112.1372
  2242.2500    -75.0649     14.3192     16.3285     20.8630    113.4134
  2242.5000    -75.2583     14.6590     16.7849     21.0396    116.0530
  2242.7500    -75.4712     15.0174     17.2669     21.7898    118.1824
  2243.0000    -75.7124     15.3746     17.7684     23.3785    121.6715
  2243.2500    -75.9675     15.7018     18.2786     25.9318    124.1002
  2243.5000    -76.2026     15.9648     18.7800     29.2814    128.0492
  2243.7500    -76.3784     16.1320     19.2478     32.9376    130.8916
  2244.0000    -76.4677     16.1840     19.6509     36.3740    134.5790
  2244.2500    -76.4671     16.1198     19.9549     39.4722    135.6966
  2244.5000    -76.3998     15.9560     20.1271     42.6388    133.9015
  2244.7500    -76.3074     15.7229     20.1432     46.2287    130.0262
  2245.0000    -76.2331     15.4550     19.9927     49.6047    120.6802
  2245.2500    -76.2030     15.1812     19.6814     50.9034    113.0717
  2245.5000    -76.2128     14.9151     19.2308     48.2462    101.9775
  2245.7500    -76.2273     14.6534     18.6730     41.5013     96.0229
  2246.0000    -76.1947     14.3819     18.0449     32.6874     90.4392
  2246.2500    -76.0664     14.0870     17.3821     24.5024     89.2310
  2246.5000    -75.8134     13.7644     16.7145     18.5883     91.1699
  2246.7500    -75.4296     13.4192     16.0652     15.1068     94.4244
  2247.0000    -74.9239     13.0614     15.4498     13.4465    100.2236
  2247.2500    -74.3115     12.7003     14.8777     12.9751    103.3476
  2247.5000    -73.6111     12.3442     14.3539     13.2918    105.6017
  2247.7500    -72.8447     12.0019     13.8796     14.1278    105.5154
  2248.0000    -72.0359     11.6846     13.4542     15.1948    103.8103
  2248.2500    -71.2051     11.4036     13.0758     16.1561    102.1612
  2248.5000    -70.3667     11.1671     12.7418     16.7690     99.6948
  2248.7500    -69.5320     10.9778     12.4493     17.0588     98.3826
  2249.0000    -68.7121     10.8329     12.1954     17.2821     97.1431
  2249.2500    -67.9189     10.7274     11.9777     17.6303     96.7635
  2249.5000    -67.1643     10.6575     11.7943     17.9738     96.6812
  2249.7500    -66.4589     10.6217     11.6440     17.9560     96.8829
  2250.0000    -65.8092     10.6199     11.5262     17.3496     97.6508
  2250.2500    -65.2160     10.6497     11.4412     16.2954     98.6070
  2250.5000    -64.6742     10.7047     11.3897     15.2019    100.7042
  2250.7500    -64.1749     10.7763     11.3725     14.4548    102.3062
  2251.0000    -63.7093     10.8564     11.3903     14.2192    104.6305
  2251.2500    -63.2732     10.9405     11.4430     14.4394    106.1117
  2251.5000    -62.8721     11.0268     11.5299     14.9384    108.1291
  2251.7500    -62.5262     11.1146     11.6491     15.5106    108.9459
  2252.0000    -62.2734     11.2023     11.7978     15.9925    108.4050
  2252.2500    -62.1683     11.2897     11.9720     16.3223    106.6131
  2252.5000    -62.2708     11.3802     12.1669     16.5621    102.6527
  2252.7500    -62.6294     11.4815     12.3773     16.8590    100.3254
  2253.0000    -63.2656     11.6011     12.5972     17.3556     98.9615
  2253.2500    -64.1641     11.7426     12.8206     18.0905     99.4476
  2253.5000    -65.2711     11.9028     13.0416     18.9350    100.7546
  2253.7500    -66.5021     12.0733     13.2544     19.6264    101.1553
  2254.0000    -67.7574     12.2429     13.4536     19.9144    100.7979
