~Version Information
VERS.                      2.0: CWLS Log ASCII Standard - VERSION 2.0
WRAP.                       NO: One line per depth step
~Well Information Block
STRT.FT                -4.2500: 
STOP.FT              2500.7500: 
STEP.FT                 0.2500: 
NULL.                -999.2500: 
COMP.          Pioneer Natural Resources: COMPANY
WELL.          Cock-a-doodle-doo 44-27: WELL
FLD.           Purgatoire River: FIELD
LOC.           163' FSL & 54' FEL--: LOCATION
PROV.                 Colorado: PROVINCE
CNTY.               Las Animas: COUNTRY
SRVC.                Patterson: SERVICE COMPANY
DATE.          Wed Jul 06 10:56:34 2005: LOG DATE
UWI.                071 08429 : UNIQUE WELL ID
~Curve Information Block
DEPT.FT            0 000 00 00: Depth
CCL.                          : Casing Collar Locator
TT3.usec                      : CBL 3' Travel Time
AMP3.mV                       : CBL 3' Amplitude
GR.GAPI                       : Gamma Ray
~Parameter Information Block
~A  Depth       CCL         TT3         AMP3         GR     
# ...
  2474.7500      0.0000    403.5009      7.6030     73.6813
  2475.0000      0.0000    401.3641      7.7835     75.3883
  2475.2500      0.0000    407.4008      7.9487     75.9763
  2475.5000      0.0000    421.3171      8.1545     76.0098
  2475.7500      0.0000    438.1241      8.4740     75.8860
  2476.0000      0.0000    449.7969      8.9641     75.9230
  2476.2500      0.0000    451.1449      9.6243     76.5849
  2476.5000      0.0000    443.9937     10.3808     78.2913
  2476.7500      0.0000    434.7659     11.1225     81.0078
  2477.0000      0.0000    429.1092     11.7672     84.0915
  2477.2500      0.0000    429.6071     12.3067     86.4282
  2477.5000      0.0000    437.0407     12.8009     86.8894
  2477.7500      0.0000    452.1646     13.3438     85.0428
  2478.0000      0.0000    475.7597     14.0205     81.5551
  2478.2500      0.0000    506.6086     14.8555     77.8551
  2478.5000      0.0000    539.7637     15.7709     75.3030
  2478.7500      0.0000    568.2873     16.5934     74.4818
  2479.0000      0.0000    587.5905     17.1260     75.0726
  2479.2500      0.0000    597.7114     17.2441     76.1178
  2479.5000      0.0000    601.7005     16.9549     76.0269
  2479.7500      0.0000    602.8344     16.3766     72.5352
  2480.0000      0.0000    603.3728     15.6535     63.6377
  2480.2500      0.0000    604.8502     14.8745     49.4341
  2480.5000      0.0000    608.5425     14.0581     32.9250
  2480.7500      0.0000    615.1149     13.2033     18.3387
  2481.0000      0.0000    623.7113     12.3475      8.3842
  2481.2500      0.0000    631.9525     11.5781      3.1033
  2481.5000      0.0000    637.6077     10.9943      0.9205
  2481.7500      0.0000    640.0145     10.6621      0.2168
  2482.0000      0.0000    638.7117     10.5965      0.0399
  2482.2500      0.0000    630.5757     10.7695      0.0052
  2482.5000      0.0000    610.2634     11.1258      0.0000
  2482.7500      0.0000    576.0673     11.5964   -999.2500
  2483.0000      0.0000    535.3588     12.1130   -999.2500
  2483.2500      0.0000    501.1784     12.6263   -999.2500
  2483.5000      0.0000    481.3796     13.1150   -999.2500
  2483.7500      0.0000    472.6039     13.5759   -999.2500
  2484.0000      0.0000    465.9299     13.9949   -999.2500
  2484.2500      0.0000    455.7592     14.3244   -999.2500
  2484.5000      0.0000    441.1161     14.4817   -999.2500
  2484.7500      0.0000    421.0653     14.3558   -999.2500
  2485.0000      0.0000    392.1395     13.7999   -999.2500
  2485.2500      0.0000    349.6704     12.6296   -999.2500
  2485.5000      0.0000    290.7677     10.7085   -999.2500
  2485.7500      0.0000    218.2442      8.1378   -999.2500
  2486.0000      0.0000    142.8799      5.3620   -999.2500
  2486.2500      0.0000     79.1423      2.9774   -999.2500
  2486.5000      0.0000     36.2141      1.3630   -999.2500
  2486.7500      0.0000     13.4537      0.5061   -999.2500
  2487.0000      0.0000      4.0076      0.1507   -999.2500
  2487.2500      0.0000      0.9477      0.0356   -999.2500
  2487.5000      0.0000      0.1754      0.0066   -999.2500
  2487.7500      0.0000      0.0233      0.0009   -999.2500
  2488.0000      0.0000   -999.2500   -999.2500   -999.2500
  2488.2500      0.0000   -999.2500   -999.2500   -999.2500
  2488.5000      0.0000   -999.2500   -999.2500   -999.2500
  2488.7500      0.0000   -999.2500   -999.2500   -999.2500
  2489.0000      0.0000   -999.2500   -999.2500   -999.2500
  2489.2500      0.0000   -999.2500   -999.2500   -999.2500
  2489.5000      0.0000   -999.2500   -999.2500   -999.2500
  2489.7500      0.0000   -999.2500   -999.2500   -999.2500
  2490.0000      0.0000   -999.2500   -999.2500   -999.2500
  2490.2500      0.0000   -999.2500   -999.2500   -999.2500
  2490.5000      0.0000   -999.2500   -999.2500   -999.2500
  2490.7500      0.0000   -999.2500   -999.2500   -999.2500
  2491.0000      0.0000   -999.2500   -999.2500   -999.2500
  2491.2500      0.0000   -999.2500   -999.2500   -999.2500
  2491.5000      0.0000   -999.2500   -999.2500   -999.2500
  2491.7500      0.0000   -999.2500   -999.2500   -999.2500
  2492.0000      0.0000   -999.2500   -999.2500   -999.2500
  2492.2500      0.0000   -999.2500   -999.2500   -999.2500
  2492.5000      0.0000   -999.2500   -999.2500   -999.2500
  2492.7500      0.0000   -999.2500   -999.2500   -999.2500
  2493.0000      0.0000   -999.2500   -999.2500   -999.2500
  2493.2500      0.0000   -999.2500   -999.2500   -999.2500
  2493.5000      0.0000   -999.2500   -999.2500   -999.2500
  2493.7500   -999.2500   -999.2500   -999.2500   -999.2500
  2494.0000   -999.2500   -999.2500   -999.2500   -999.2500
  2494.2500   -999.2500   -999.2500   -999.2500   -999.2500
  2494.5000   -999.2500   -999.2500   -999.2500   -999.2500
  2494.7500   -999.2500   -999.2500   -999.2500   -999.2500
  2495.0000   -999.2500   -999.2500   -999.2500   -999.2500
  2495.2500   -999.2500   -999.2500   -999.2500   -999.2500
  2495.5000   -999.2500   -999.2500   -999.2500   -999.2500
  2495.7500   -999.2500   -999.2500   -999.2500   -999.2500
  2496.0000   -999.2500   -999.2500   -999.2500   -999.2500
  2496.2500   -999.2500   -999.2500   -999.2500   -999.2500
  2496.5000   -999.2500   -999.2500   -999.2500   -999.2500
  2496.7500   -999.2500   -999.2500   -999.2500   -999.2500
  2497.0000   -999.2500   -999.2500   -999.2500   -999.2500
  2497.2500   -999.2500   -999.2500   -999.2500   -999.2500
  2497.5000   -999.2500   -999.2500   -999.2500   -999.2500
  2497.7500   -999.2500   -999.2500   -999.2500   -999.2500
  2498.0000   -999.2500   -999.2500   -999.2500   -999.2500
  2498.2500   -999.2500   -999.2500   -999.2500   -999.2500
  2498.5000   -999.2500   -999.2500   -999.2500   -999.2500
  2498.7500   -999.2500   -999.2500   -999.2500   -999.2500
  2499.0000   -999.2500   -999.2500   -999.2500   -999.2500
  2499.2500   -999.2500   -999.2500   -999.2500   -999.2500
  2499.5000   -999.2500   -999.2500   -999.2500   -999.2500
  2499.7500   -999.2500   -999.2500   -999.2500   -999.2500
  2500.0000   -999.2500   -999.2500   -999.2500   -999.2500
  2500.2500   -999.2500   -999.2500   -999.2500   -999.2500
  2500.5000   -999.2500   -999.2500   -999.2500   -999.2500
  2500.7500   -999.2500   -999.2500   -999.2500   -999.2500
