~Version Information
 VERS.                                  2.0 : CWLS LAS VERSION
 WRAP.                                   NO : WRAPING MODE
 SWARE .                 MController 2.5.0I : SOFTWARE VERSION
~Well Information
 WELL.                        Montoya 7-21v : WELL
 COMP.                       Petrogulf Corp : COMPANY
 FLD.                      Purgatorie River : FIELD
 LOC.                 NE/NW Sec 7 T33S R67W : LOCATION
 DATE.                                  N/A : DATE(S) LOGGED
 SRVC.       Blanco Geological Services LLC : SERVICE COMPANY
 STAT.                                   CO : STATE
 CNTY.                           Las Animas : COUNTY
 CTRY.                                  USA : COUNTRY
 API.                       05-071-08018-00 : API NUMBER
 STRT.FT                             836.00 : START DEPTH
 STOP.FT                            2421.00 : STOP DEPTH
 STEP.FT                               1.00 : DEPTH INCREMENT
 NULL.                                -9999 : NULL VALUE
~Curve information
 DEPTH.FT                                   :
 ROP.MIN/FT                                 :
 GAS.UNITS                                  :
~ASCII Log data
# ...
      1036.0          0.2          0.5 
      1037.0          0.2          0.5 
      1038.0          0.2          0.6 
      1039.0          0.2          0.4 
      1040.0          0.2          0.4 
      1041.0          0.2          0.4 
      1042.0          0.2          0.5 
      1043.0          0.2          0.5 
      1044.0          0.2          0.7 
      1045.0          0.2          0.6 
      1046.0          0.2          0.1 
      1047.0          0.1          0.2 
      1048.0          2.4          0.8 
      1049.0          0.4          0.8 
      1050.0          0.3          0.7 
      1051.0          0.3          0.7 
      1052.0          0.3          0.9 
      1053.0          0.3          0.9 
      1054.0          0.2          0.8 
      1055.0          0.2          0.6 
      1056.0          0.2          0.4 
      1057.0          0.2          0.8 
      1058.0          0.2          0.7 
      1059.0          0.2          0.8 
      1060.0          0.2          0.7 
      1061.0          0.1          0.8 
      1062.0          0.1          0.8 
      1063.0          0.2          0.9 
      1064.0          0.2          0.9 
      1065.0          0.2          0.9 
      1066.0          0.2          0.7 
      1067.0          0.2          0.8 
      1068.0          0.2          0.9 
      1069.0          0.2          1.0 
      1070.0          0.2          0.8 
      1071.0          0.2          0.8 
      1072.0          0.2          0.9 
      1073.0          0.1          0.8 
      1074.0          0.2          1.1 
      1075.0          0.2          0.8 
      1076.0          0.2          0.8 
      1077.0          0.1          0.9 
      1078.0          2.4          1.0 
      1079.0          0.4          1.0 
      1080.0          0.2          1.0 
      1081.0          0.2          0.9 
      1082.0          0.1          1.0 
      1083.0          0.2          1.0 
      1084.0          0.2          1.1 
      1085.0          0.3          0.9 
      1086.0          0.2          1.1 
      1087.0          0.2          0.9 
      1088.0          0.2          1.1 
      1089.0          0.2          1.2 
      1090.0          0.3          1.4 
      1091.0          0.2          1.1 
      1092.0          0.2          0.9 
      1093.0          0.2          1.1 
      1094.0          0.3          1.1 
      1095.0          0.3          1.0 
      1096.0          0.2          1.1 
      1097.0          0.2          1.1 
      1098.0          0.2          1.2 
      1099.0          0.2          1.3 
      1100.0          0.2          1.0 
      1101.0          0.2          1.2 
      1102.0          0.2          1.0 
      1103.0          0.2          1.2 
      1104.0          0.2          1.2 
      1105.0          0.2          1.3 
      1106.0          0.2          1.3 
      1107.0          0.2          1.1 
      1108.0          2.5          1.6 
      1109.0          0.1          1.2 
      1110.0          0.3          1.3 
      1111.0          0.3          1.5 
      1112.0          0.3          1.6 
      1113.0          0.2          1.6 
      1114.0          0.2          1.6 
      1115.0          0.3          1.6 
      1116.0          0.2          1.9 
      1117.0          0.2          1.9 
      1118.0          0.2          2.0 
      1119.0          0.2          1.7 
      1120.0          0.2          1.7 
      1121.0          0.2          1.7 
      1122.0          0.3          1.7 
      1123.0          0.2          1.6 
      1124.0          0.3          1.6 
      1125.0          0.2          1.3 
      1126.0          0.3          1.3 
      1127.0          0.3          1.6 
      1128.0          0.2          1.4 
      1129.0          0.2          1.4 
      1130.0          0.2          1.2 
      1131.0          0.2          1.3 
      1132.0          0.1          1.2 
      1133.0          0.1          1.1 
      1134.0          0.1          1.0 
      1135.0          0.1          1.2 
      1136.0          0.1          1.1 
      1137.0          0.1          1.3 
      1138.0          2.5          1.6 
      1139.0          0.2          1.3 
      1140.0          0.2          1.5 
      1141.0          0.1          1.5 
      1142.0          0.2          1.4 
      1143.0          0.3          1.4 
      1144.0          0.3          1.5 
      1145.0          0.3          1.7 
      1146.0          0.3          1.4 
      1147.0          0.3          1.4 
      1148.0          0.2          1.5 
      1149.0          0.3          1.3 
      1150.0          0.3          1.5 
      1151.0          0.2          1.6 
      1152.0          0.2          1.4 
      1153.0          0.2          1.6 
      1154.0          0.2          1.3 
      1155.0          0.2          1.4 
      1156.0          0.2          1.6 
      1157.0          0.2          1.6 
      1158.0          0.2          1.6 
      1159.0          0.2          1.7 
      1160.0          0.2          1.6 
      1161.0          0.2          1.7 
      1162.0          0.2          1.7 
      1163.0          0.2          1.7 
      1164.0          0.2          1.8 
      1165.0          0.2          1.9 
      1166.0          0.2          2.0 
      1167.0          0.2          1.8 
      1168.0          2.3          2.1 
      1169.0          0.8          2.1 
      1170.0          0.5          2.1 
      1171.0          0.2          2.1 
      1172.0          0.3          2.0 
      1173.0          0.3          2.1 
      1174.0          0.2          2.2 
      1175.0          0.3          2.0 
      1176.0          0.3          2.4 
      1177.0          0.3          2.4 
      1178.0          0.3          2.1 
      1179.0          0.2          2.1 
      1180.0          0.2          2.2 
      1181.0          0.2          2.1 
      1182.0          0.2          2.4 
      1183.0          0.3          2.3 
      1184.0          0.2          2.2 
      1185.0          0.3          2.4 
      1186.0          0.2          2.5 
      1187.0          0.1          2.2 
      1188.0          0.1          2.2 
      1189.0          0.1          2.4 
      1190.0          0.2          2.5 
      1191.0          0.3          2.6 
      1192.0          0.2          2.6 
      1193.0          0.2          2.6 
      1194.0          0.3          2.7 
      1195.0          0.3          2.7 
      1196.0          0.3          2.7 
      1197.0          0.3          2.8 
      1198.0          0.3          2.7 
      1199.0          0.4          2.5 
      1200.0          3.2          3.1 
      1201.0          0.4          3.1 
      1202.0          0.4          3.0 
      1203.0          0.5          2.9 
      1204.0          0.3          2.9 
      1205.0          0.5          3.0 
      1206.0          0.2          3.0 
      1207.0          0.2          3.0 
      1208.0          0.2          2.9 
      1209.0          0.3          2.8 
      1210.0          0.2          2.8 
      1211.0          0.2          2.9 
      1212.0          0.2          2.9 
      1213.0          0.2          2.9 
      1214.0          0.2          2.8 
      1215.0          0.2          3.0 
      1216.0          0.2          3.2 
      1217.0          0.2          3.1 
      1218.0          0.2          3.2 
      1219.0          0.2          3.0 
      1220.0          0.3          3.0 
      1221.0          0.3          3.2 
      1222.0          0.2          3.0 
      1223.0          0.3          3.1 
      1224.0          0.3          3.1 
      1225.0          0.3          3.1 
      1226.0          0.3          3.0 
      1227.0          0.3          3.1 
      1228.0          0.3          2.8 
      1229.0          0.3          2.8 
      1230.0          3.5          3.0 
      1231.0          0.1          2.7 
      1232.0          0.3          2.9 
      1233.0          0.3          2.9 
      1234.0          0.2          2.9 
      1235.0          0.2          3.0 
