~Version Information
VERS.                      2.0: CWLS Log ASCII Standard - VERSION 2.0
WRAP.                       NO: One line per depth step
~Well Information Block
STRT.FT                -7.5000: 
STOP.FT              2339.2500: 
STEP.FT                 0.2500: 
NULL.                -999.2500: 
COMP.          Pioneer Natural Resources: COMPANY
WELL.            Harrier 44-33: WELL
FLD.           Purgatorie River: FIELD
LOC.           456' FSL & 930' FEL--: LOCATION
PROV.                       CO: PROVINCE
CNTY.               Las Animas: COUNTRY
SRVC.          Patterson Wireline: SERVICE COMPANY
DATE.          Wed Jun 29 11:08:51 2005: LOG DATE
UWI.           05 071 08398 00: UNIQUE WELL ID
~Curve Information Block
DEPT.FT            0 000 00 00: Depth
CCL.                          : Casing Collar Locator
TT3.usec                      : CBL 3' Travel Time
AMP3.mV                       : CBL 3' Amplitude
GR.GAPI                       : Gamma Ray
~Parameter Information Block
~A  Depth       CCL         TT3         AMP3         GR     
# ...
   595.5000      0.0000    667.8810      3.1808     87.6746
   595.7500      0.0000    663.0789      3.3112     93.6292
   596.0000      0.0000    667.7809      3.4609     99.8046
   596.2500      0.0000    679.6549      3.6274    104.9165
   596.5000      0.0000    693.1700      3.8022    108.2912
   596.7500      0.0000    703.2358      3.9771    109.7689
   597.0000      0.0000    708.0931      4.1462    109.3649
   597.2500      0.0000    709.3983      4.3059    107.4811
   597.5000      0.0000    710.1173      4.4507    105.1989
   597.7500      0.0000    712.3432      4.5629    103.8313
   598.0000      0.0000    716.4935      4.6042    104.0226
   598.2500      0.0000    721.7958      4.5257    105.4066
   598.5000      0.0000    727.0067      4.3063    107.0098
   598.7500      0.0000    730.9860      3.9910    107.6958
   599.0000      0.0000    733.1445      3.6829    106.3435
   599.2500      0.0000    733.4879      3.4837    102.2952
   599.5000      0.0000    732.3111      3.4365     96.1317
   599.7500      0.0000    730.4020      3.5192     89.7470
   600.0000      0.0000    729.4847      3.6795     85.0676
   600.2500      0.0000    731.5535      3.8714     82.5288
   600.5000      0.0000    737.2059      4.0702     80.9636
   600.7500      0.0000    744.8336      4.2688     78.9235
   601.0000      0.0000    751.6342      4.4632     75.8067
   601.2500      0.0000    755.4825      4.6382     71.8350
   601.5000      0.0000    756.2007      4.7674     67.6497
   601.7500      0.0000    755.6427      4.8318     64.1897
   602.0000      0.0000    756.4821      4.8362     62.3265
   602.2500      0.0000    760.1065      4.8067     62.1317
   602.5000      0.0000    765.3170      4.7715     62.6132
   602.7500      0.0000    769.4243      4.7466     62.3296
   603.0000      0.0000    770.7575      4.7368     60.2682
   603.2500      0.0000    769.8615      4.7421     56.3665
   603.5000      0.0000    768.5247      4.7620     51.4299
   603.7500      0.0000    768.4293      4.7961     46.5811
   604.0000      0.0000    771.0428      4.8458     42.7080
   604.2500      0.0000    778.1460      4.9125     40.2893
   604.5000      0.0000    791.3173      4.9923     39.5619
   604.7500      0.0000    810.1325      5.0747     40.7083
   605.0000      0.0000    831.1091      5.1467     43.7343
   605.2500      0.0000    849.3758      5.1996     47.9983
   605.5000      0.0000    861.8145      5.2323     52.0085
   605.7500      0.0000    868.4669      5.2513     54.1138
   606.0000      0.0000    871.2772      5.2660     53.7001
   606.2500      0.0000    872.1862      5.2831     51.6813
   606.5000      0.0000    872.3168      5.3026     49.7261
   606.7500      0.0000    872.1360      5.3171     48.9968
   607.0000      0.0000    871.8069      5.3160     49.5253
   607.2500      0.0000    871.3503      5.2954     50.5441
   607.5000      0.0000    870.6404      5.2620     51.2564
   607.7500      0.0000    869.3425      5.2290     51.3598
   608.0000      0.0000    867.0574      5.2079     51.0271
   608.2500      0.0000    863.8550      5.2035     50.6490
   608.5000      0.0000    860.7914      5.2120     50.7142
   608.7500      0.0000    859.4218      5.2215     51.7177
   609.0000      0.0000    860.1622      5.2161     53.9391
   609.2500      0.0000    860.9794      5.1820     57.2271
   609.5000      0.0000    857.7700      5.1144     60.9344
   609.7500      0.0000    846.2480      5.0182     64.1242
   610.0000      0.0000    824.5141      4.9008     66.1530
   610.2500      0.0000    795.0829      4.7650     67.1516
   610.5000      0.0000    764.2014      4.6111     67.8242
   610.7500      0.0000    737.7199      4.4474     68.7972
   611.0000      0.0000    716.6608      4.2936     70.3322
   611.2500      0.0000    696.7277      4.1699     72.5771
   611.5000      0.0000    672.2889      4.0846     75.7204
   611.7500      0.0000    641.3250      4.0353     79.5905
   612.0000      0.0000    607.3174      4.0130     83.1251
   612.2500      0.0000    576.8920      4.0023     84.6700
   612.5000      0.0000    555.7767      3.9839     83.0981
   612.7500      0.0000    546.4767      3.9484     78.4760
   613.0000      0.0000    548.6183      3.9071     71.7567
   613.2500      0.0000    560.6392      3.8841     64.3274
   613.5000      0.0000    581.0223      3.8979     57.9187
   613.7500      0.0000    608.1305      3.9509     54.2840
   614.0000      0.0000    639.2371      4.0333     54.2957
   614.2500      0.0000    670.2331      4.1327     57.1983
   614.5000      0.0000    696.4740      4.2409     60.9759
   614.7500      0.0000    714.4191      4.3568     63.6637
   615.0000      0.0000    723.6631      4.4842     64.4093
   615.2500      0.0000    727.6902      4.6238     63.4792
   615.5000      0.0000    731.5692      4.7668     61.7206
   615.7500      0.0000    738.2859      4.8964     60.2391
   616.0000      0.0000    747.4094      4.9964     60.0870
   616.2500      0.0000    757.0556      5.0600     61.6510
   616.5000      0.0000    766.5476      5.0931     64.2641
   616.7500      0.0000    776.9669      5.1086     66.5385
   617.0000      0.0000    789.3697      5.1179     67.0897
   617.2500      0.0000    802.8199      5.1267     65.2210
   617.5000      0.0000    814.3963      5.1358     61.3315
   617.7500      0.0000    821.1381      5.1459     56.7048
   618.0000      0.0000    821.7763      5.1630     52.8030
   618.2500      0.0000    816.5411      5.1940     50.7180
   618.5000      0.0000    806.0293      5.2294     50.8940
   618.7500      0.0000    791.5828      5.2291     52.8411
   619.0000      0.0000    777.1513      5.1402     55.2289
   619.2500      0.0000    769.1138      4.9454     56.7004
   619.5000      0.0000    772.1733      4.6931     56.6029
   619.7500      0.0000    784.8721      4.4697     54.9131
   620.0000      0.0000    799.9830      4.3374     51.9253
   620.2500      0.0000    810.2726      4.2997     48.3558
   620.5000      0.0000    814.2356      4.3220     45.4315
   620.7500      0.0000    815.9601      4.3724     44.2997
   621.0000      0.0000    819.4755      4.4437     45.1694
   621.2500      0.0000    824.3982      4.5537     47.2306
   621.5000      0.0000    827.0592      4.7316     49.4270
   621.7500      0.0000    824.0700      4.9913     51.0732
   622.0000      0.0000    814.6317      5.3080     51.7952
   622.2500      0.0000    801.1859      5.6207     51.4548
   622.5000      0.0000    788.2283      5.8626     50.4115
   622.7500      0.0000    779.3889      5.9940     49.4118
   623.0000      0.0000    775.2806      6.0174     48.8448
   623.2500      0.0000    774.1639      5.9757     48.3580
   623.5000      0.0000    774.1069      5.9296     47.5390
   623.7500      0.0000    774.1519      5.9231     46.7612
   624.0000      0.0000    774.1241      5.9576     46.9907
   624.2500      0.0000    774.1928      6.0020     48.7707
   624.5000      0.0000    774.8583      6.0270     51.6394
   624.7500      0.0000    777.1147      6.0294     54.5185
   625.0000      0.0000    782.1609      6.0200     56.4688
   625.2500      0.0000    790.6251      6.0004     57.1446
   625.5000      0.0000    801.9131      5.9644     56.7931
   625.7500      0.0000    814.1882      5.9188     55.8626
   626.0000      0.0000    824.7006      5.8850     54.5809
   626.2500      0.0000    830.4666      5.8742     52.9956
   626.5000      0.0000    829.8484      5.8731     51.2512
   626.7500      0.0000    824.1796      5.8613     49.6490
   627.0000      0.0000    817.0697      5.8372     48.5744
   627.2500      0.0000    811.4249      5.8185     48.3348
   627.5000      0.0000    807.5316      5.8145     48.7966
   627.7500      0.0000    804.1091      5.8098     49.2483
   628.0000      0.0000    800.3134      5.7817     49.0092
   628.2500      0.0000    796.2887      5.7252     48.2411
   628.5000      0.0000    792.3452      5.6487     47.9168
   628.7500      0.0000    788.0860      5.5558     48.9171
