~Version Information
VERS.                      2.0: CWLS Log ASCII Standard - VERSION 2.0
WRAP.                       NO: One line per depth step
~Well Information Block
STRT.FT               700.0000: 
STOP.FT              1869.5000: 
STEP.FT                 0.1000: 
NULL.                -999.2500: 
COMP.          Petrogulf Corporation: COMPANY
WELL.             State 16-24R: WELL
FLD.           Purgatorie River: FIELD
LOC.           541' FSL & 2371' FWL: LOCATION
PROV.                 Colorado: PROVINCE
CNTY.               Las Animas: COUNTRY
SRVC.                Patterson: SERVICE COMPANY
DATE.          Fri Aug 12 09:07:22 2005: LOG DATE
UWI.                071-08312 : UNIQUE WELL ID
~Curve Information Block
DEPT.FT            0 000 00 00: Depth
DCAL.in                       : CDL Caliper
RHOB.g/cc                     : CDL Bulk Density
RHOC.g/cc                     : CDL Density Correction
DPOR.pu                       : CDL Density Porosity
GR.GAPI                       : Gamma Ray
NPOR.pu                       : Neutron Porosity
~Parameter Information Block
~A  Depth       DCAL        RHOB        RHOC        DPOR         GR         NPOR    
# ...
  1074.4000      8.0861      2.4074      0.0477     14.7025    130.6098     32.2323
  1074.5000      8.0824      2.4181      0.0544     14.0560    128.5355     32.8840
  1074.6000      8.0824      2.4243      0.0934     13.6782    124.7913     33.2357
  1074.7000      8.0824      2.4052      0.0964     14.8338    122.9431     32.9083
  1074.8000      8.0959      2.3605      0.0794     17.5478    121.2564     32.3842
  1074.9000      8.0959      2.3100      0.0691     20.6052    117.2170     31.8359
  1075.0000      8.0995      2.2716      0.0654     22.9315    112.6433     31.2867
  1075.1000      8.0995      2.2470      0.0458     24.4265    110.6524     31.1013
  1075.2000      8.0995      2.2345      0.0042     25.1827    110.9804     31.3742
  1075.3000      8.0860      2.2338      0.0609     25.2264    112.8210     31.7066
  1075.4000      8.0860      2.2403      0.0471     24.8313    115.9767     31.8023
  1075.5000      8.1494      2.2474      0.0922     24.4004    119.8678     31.9664
  1075.6000      8.1494      2.2419      0.1754     24.7362    123.1939     32.3930
  1075.7000      8.1494      2.2208      0.0961     26.0120    124.8012     32.8332
  1075.8000      8.0643      2.2025      0.0598     27.1196    124.2988     33.1896
  1075.9000      8.0643      2.1992      0.0371     27.3232    122.4749     33.5262
  1076.0000      7.9957      2.2084      0.0502     26.7660    119.2230     33.6974
  1076.1000      7.9957      2.2242      0.0744     25.8083    113.2704     33.8081
  1076.2000      7.9957      2.2368      0.0922     25.0444    106.2186     34.0984
  1076.3000      8.0011      2.2275      0.1247     25.6047    102.3637     34.3037
  1076.4000      8.0011      2.1804      0.0951     28.4614    102.9210     34.2243
  1076.5000      8.0493      2.1053      0.0400     33.0121    105.5701     34.0349
  1076.6000      8.0493      2.0306      0.0264     37.5374    108.7672     33.6891
  1076.7000      8.0493      1.9780     -0.0467     40.7243    111.0146     33.4307
  1076.8000      8.0371      1.9555     -0.0508     42.0891    111.0574     33.6908
  1076.9000      8.0371      1.9568     -0.0588     42.0092    110.1537     34.2170
  1077.0000      8.0569      1.9773     -0.0558     40.7719    108.8729     34.4850
  1077.1000      8.0569      2.0183      0.0523     38.2850    107.1859     34.1816
  1077.2000      8.0569      2.0683      0.1618     35.2516    107.9427     33.6205
  1077.3000      8.2626      2.1155      0.1618     32.3946    113.4062     33.4435
  1077.4000      8.2626      2.1703      0.1257     29.0748    121.0224     33.7150
  1077.5000      8.2924      2.2426      0.1076     24.6917    126.1115     33.9378
  1077.6000      8.2924      2.3200      0.0726     19.9979    127.9755     33.7974
  1077.7000      8.2924      2.3918      0.0336     15.6459    128.8826     33.7843
  1077.8000      8.1395      2.4526      0.1154     11.9647    128.7704     34.1851
  1077.9000      8.1395      2.4874      0.0905      9.8551    127.1999     34.1757
  1078.0000      8.1258      2.4953      0.0404      9.3785    125.8727     33.3802
  1078.1000      8.1258      2.4940      0.0107      9.4571    126.9370     32.5245
  1078.2000      8.1258      2.4950      0.0049      9.3928    130.8775     31.8403
  1078.3000      8.1129      2.4984     -0.0007      9.1861    134.0685     31.0412
  1078.4000      8.1129      2.4998      0.0088      9.1011    133.4411     30.3477
  1078.5000      8.0925      2.4979     -0.0052      9.2171    130.0558     29.9693
  1078.6000      8.0925      2.4998     -0.0010      9.1014    126.3675     29.6722
  1078.7000      8.0925      2.5143     -0.0019      8.2237    124.9638     29.1086
  1078.8000      8.0694      2.5354      0.0638      6.9425    125.7729     28.4244
  1078.9000      8.0694      2.5477      0.0348      6.1981    125.6728     28.1856
  1079.0000      8.0164      2.5500      0.0133      6.0632    123.5815     28.2185
  1079.1000      8.0164      2.5507      0.0383      6.0180    121.6386     27.9781
  1079.2000      8.0164      2.5531      0.0438      5.8717    123.6124     27.4056
  1079.3000      8.0429      2.5565      0.0201      5.6693    129.9981     26.7776
  1079.4000      8.0429      2.5630      0.0102      5.2699    134.9374     26.4641
  1079.5000      8.0154      2.5714      0.0510      4.7666    133.1674     26.3822
  1079.6000      8.0154      2.5726      0.0313      4.6886    126.9738     26.1021
  1079.7000      8.0154      2.5652      0.0212      5.1403    122.9557     25.6196
  1079.8000      7.9826      2.5571      0.0272      5.6283    123.8138     25.1861
  1079.9000      7.9826      2.5588      0.0205      5.5280    126.6256     24.8962
  1080.0000      7.9781      2.5692      0.0595      4.8995    128.0074     24.9845
  1080.1000      7.9781      2.5702      0.0478      4.8391    126.8693     25.3720
  1080.2000      7.9781      2.5560     -0.0040      5.6965    125.7703     25.4717
  1080.3000      8.0556      2.5466      0.0010      6.2637    126.8071     25.2336
  1080.4000      8.0556      2.5566      0.0338      5.6623    128.9520     25.2622
  1080.5000      8.1310      2.5810      0.0525      4.1798    131.9398     25.6456
  1080.6000      8.1310      2.6043      0.0584      2.7723    134.1799     26.1406
  1080.7000      8.1310      2.6115      0.0784      2.3313    133.1031     26.9074
  1080.8000      8.2550      2.6055      0.0441      2.6996    130.1264     27.6950
  1080.9000      8.2550      2.5989      0.0469      3.0975    128.6251     28.0633
  1081.0000      8.2689      2.5975      0.0178      3.1820    128.6976     28.2156
  1081.1000      8.2689      2.6041      0.0197      2.7828    128.1251     28.1395
  1081.2000      8.2689      2.6223      0.0297      1.6811    128.0103     27.5999
  1081.3000      8.2270      2.6451      0.0556      0.2976    128.0672     26.7867
  1081.4000      8.2270      2.6596      0.0683     -0.5826    122.8859     26.0325
  1081.5000      8.2208      2.6657      0.0646     -0.9510    112.1374     25.5729
  1081.6000      8.2208      2.6745      0.0471     -1.4850    102.8336     25.6544
  1081.7000      8.2208      2.6928      0.0365     -2.5914     98.7424     26.1748
  1081.8000      8.1700      2.7090      0.0806     -3.5761     99.3851     26.4861
  1081.9000      8.1700      2.7029      0.0811     -3.2040    103.3460     26.3289
  1082.0000      8.1578      2.6760      0.0487     -1.5784    107.9963     26.3863
  1082.1000      8.1578      2.6511      0.0389     -0.0677    109.2342     26.8734
  1082.2000      8.1578      2.6405      0.0253      0.5731    105.5033     27.0640
  1082.3000      8.1472      2.6380      0.0333      0.7264    100.3020     26.9049
  1082.4000      8.1472      2.6405      0.0264      0.5733     96.9012     26.8931
  1082.5000      8.1498      2.6541      0.0199     -0.2460     96.5066     26.8449
  1082.6000      8.1498      2.6707      0.0716     -1.2545     99.6645     26.5357
  1082.7000      8.1498      2.6718      0.0697     -1.3226    103.9495     26.5232
  1082.8000      8.1499      2.6550      0.0427     -0.3052    105.3377     26.8314
  1082.9000      8.1499      2.6340      0.0417      0.9690    101.7648     26.6364
  1083.0000      8.1412      2.6175      0.0288      1.9722     95.1203     25.6879
  1083.1000      8.1412      2.6060      0.0649      2.6641     89.6747     24.5671
  1083.2000      8.1412      2.6009     -0.0136      2.9749     87.2993     23.8801
  1083.3000      8.0900      2.6040     -0.0045      2.7901     87.1568     23.6253
  1083.4000      8.0900      2.6171      0.0060      1.9916     88.7309     23.4284
  1083.5000      8.0197      2.6433      0.0316      0.4045     91.9358     23.0095
  1083.6000      8.0197      2.6756      0.1000     -1.5532     96.4689     22.3773
  1083.7000      8.0197      2.6945      0.1213     -2.6959    101.3130     21.6850
  1083.8000      7.8808      2.6810      0.1233     -1.8761    103.4800     21.1926
  1083.9000      7.8808      2.6363      0.0766      0.8282    103.0299     21.0063
