~Version Information
VERS.                      2.0: CWLS Log ASCII Standard - VERSION 2.0
WRAP.                       NO: One line per depth step
~Well Information Block
STRT.FT                -5.5000: 
STOP.FT              1979.7500: 
STEP.FT                 0.2500: 
NULL.                -999.2500: 
COMP.          Pioneer Natural Resources: COMPANY
WELL.          Bucksnort 41-35: WELL
FLD.           Purgatorie River: FIELD
LOC.           117' FNL & 463' FEL: LOCATION
PROV.                 Colorado: PROVINCE
CNTY.               Las Animas: COUNTRY
SRVC.                Patterson: SERVICE COMPANY
DATE.          Fri Jul 29 10:31:46 2005: LOG DATE
UWI.                          : UNIQUE WELL ID
~Curve Information Block
DEPT.FT            0 000 00 00: Depth
GR.GAPI                       : Gamma Ray
CCL.                          : Casing Collar Locator
TT3.usec                      : CBL 3' Travel Time
AMP3.mV                       : CBL 3' Amplitude
~Parameter Information Block
~A  Depth        GR         CCL         TT3         AMP3    
# ...
   631.0000    117.3219      0.0000    713.3007      8.3612
   631.2500    120.9688      0.0000    692.2923      8.4834
   631.5000    124.3687      0.0000    665.3264      8.6172
   631.7500    127.3743      0.0000    640.8920      8.7475
   632.0000    129.4902      0.0000    626.8116      8.8784
   632.2500    130.2596      0.0000    635.1888      9.0233
   632.5000    129.7029      0.0000    666.2048      9.2042
   632.7500    128.1082      0.0000    699.5065      9.4200
   633.0000    125.6325      0.0000    721.2456      9.6123
   633.2500    122.4830      0.0000    737.0083      9.7047
   633.5000    119.3326      0.0000    749.3019      9.6505
   633.7500    117.1639      0.0000    753.9851      9.4903
   634.0000    116.7025      0.0000    758.1796      9.4008
   634.2500    118.1023      0.0000    774.4987      9.5024
   634.5000    121.0919      0.0000    807.3315      9.5025
   634.7500    125.2780      0.0000    853.8759      8.8691
   635.0000    130.0948      0.0000    900.5797      7.6562
   635.2500    134.2709      0.0000    927.0567      6.6442
   635.5000    135.7589      0.0000    928.3100      6.3407
   635.7500    133.0911      0.0000    916.2112      6.4935
   636.0000    127.0719     -2.0000    902.7064      6.6631
   636.2500    120.6401     -2.0000    902.2922      6.6728
   636.5000    116.6989      0.0000    925.6847      6.5378
   636.7500    116.0830      0.0000    956.3570      6.3753
   637.0000    117.5440      0.0000    965.1185      6.3922
   637.2500    119.3700      0.0000    940.8423      6.6635
   637.5000    120.6146      0.0000    892.3475      6.9559
   637.7500    120.8490      0.0000    841.7723      7.1241
   638.0000    119.5626      0.0000    808.1014      7.4203
   638.2500    116.5246      0.0000    791.3527      8.0081
   638.5000    112.4520      0.0000    781.9244      8.6633
   638.7500    108.7109      0.0000    775.0901      9.1453
   639.0000    106.2287      0.0000    770.9101      9.4194
   639.2500    104.9278      0.0000    769.2957      9.5402
   639.5000    104.2701      0.0000    769.1999      9.5707
   639.7500    103.9866      0.0000    769.4146      9.5627
   640.0000    103.9114      0.0000    769.2125      9.5435
   640.2500    103.3036      0.0000    768.8198      9.5281
   640.5000    100.8910      0.0000    768.8021      9.5168
   640.7500     95.9011      0.0000    769.1790      9.4769
   641.0000     88.9200      0.0000    769.3375      9.3738
   641.2500     81.6372      0.0000    768.0935      9.2150
   641.5000     75.8673      0.0000    763.6593      9.0325
   641.7500     72.7743      0.0000    755.0528      8.8449
   642.0000     72.6601      0.0000    744.4574      8.6644
   642.2500     75.1047      0.0000    736.0859      8.5187
   642.5000     79.0544      0.0000    732.0078      8.4416
   642.7500     82.7905      0.0000    731.5175      8.4466
   643.0000     84.3086      0.0000    733.8308      8.5211
   643.2500     82.4934      0.0000    738.2538      8.6357
   643.5000     78.1668      0.0000    742.4322      8.7513
   643.7500     73.6678      0.0000    743.5353      8.8361
   644.0000     71.1598      0.0000    740.0988      8.8718
   644.2500     71.3066      0.0000    731.1461      8.8491
   644.5000     73.2068      0.0000    715.1298      8.7742
   644.7500     75.1100      0.0000    691.4912      8.6782
   645.0000     75.2756      0.0000    665.7056      8.6148
   645.2500     72.8123      0.0000    649.5322      8.6262
   645.5000     68.2587      0.0000    652.5001      8.6934
   645.7500     63.3215      0.0000    673.8661      8.7425
   646.0000     59.6746      0.0000    699.9850      8.7154
   646.2500     57.8708      0.0000    714.4547      8.6188
   646.5000     57.4740      0.0000    715.9918      8.5036
   646.7500     58.0875      0.0000    716.3564      8.4156
   647.0000     59.9033      0.0000    721.9848      8.3788
   647.2500     63.3154      0.0000    729.3726      8.3993
   647.5000     68.4083      0.0000    734.1118      8.4667
   647.7500     74.9112      0.0000    735.6084      8.5508
   648.0000     82.4766      0.0000    735.6453      8.5917
   648.2500     91.0846      0.0000    736.2589      8.5381
   648.5000    101.1631      0.0000    737.4384      8.3994
   648.7500    112.9516      0.0000    738.9467      8.2134
   649.0000    125.5128      0.0000    743.0488      8.0083
   649.2500    136.6841      0.0000    750.3789      7.8202
   649.5000    144.3979      0.0000    757.6000      7.6860
   649.7500    148.0355      0.0000    762.0197      7.6145
   650.0000    148.2951      0.0000    763.8926      7.5958
   650.2500    145.9308      0.0000    763.7528      7.6162
   650.5000    141.2029      0.0000    759.2915      7.6392
   650.7500    134.8295      0.0000    744.7300      7.6304
   651.0000    128.8883      0.0000    717.7243      7.6208
   651.2500    125.8597      0.0000    690.8555      7.6857
   651.5000    126.4902      0.0000    683.8550      7.8679
   651.7500    128.9315      0.0000    696.1847      8.1502
   652.0000    130.1529      0.0000    708.5214      8.4870
   652.2500    128.1863      0.0000    715.3217      8.8399
   652.5000    123.3787      0.0000    726.7258      9.1770
   652.7500    118.1143      0.0000    743.3176      9.4800
   653.0000    115.3750      0.0000    755.7892      9.7577
   653.2500    117.0269      0.0000    760.4745     10.0108
   653.5000    122.8648      0.0000    761.7352     10.2126
   653.7500    130.8266      0.0000    764.8105     10.3365
   654.0000    138.0108      0.0000    769.2598     10.3773
   654.2500    142.0597      0.0000    770.7881     10.3621
   654.5000    142.3375      0.0000    768.7940     10.3247
   654.7500    140.0859      0.0000    766.3294     10.2812
   655.0000    137.4786      0.0000    765.1368     10.2826
   655.2500    136.3311      0.0000    765.0550     10.4394
   655.5000    137.2493      0.0000    766.0781     10.8332
   655.7500    139.3895      0.0000    768.9844     11.4382
   656.0000    140.7407      0.0000    773.1732     12.1442
   656.2500    139.0647      0.0000    774.7161     12.8430
   656.5000    133.3315      0.0000    769.2730     13.4793
   656.7500    124.5150      0.0000    755.4128     14.0163
   657.0000    114.7980      0.0000    735.3924     14.4045
   657.2500    106.1414      0.0000    718.6121     14.6237
   657.5000     99.8376      0.0000    715.8494     14.7236
   657.7500     96.8741      0.0000    720.7940     14.7715
   658.0000     97.7462      0.0000    715.4156     14.7398
   658.2500    101.7473      0.0000    698.5984     14.4820
   658.5000    106.9691      0.0000    685.2134     13.8678
   658.7500    111.3104      0.0000    682.0162     12.9525
   659.0000    113.6012      0.0000    685.8592     11.9836
   659.2500    113.9271      0.0000    695.8877     11.2206
   659.5000    113.1004      0.0000    713.5181     10.7680
   659.7500    111.8741      0.0000    734.8318     10.5624
   660.0000    110.6911      0.0000    751.6617     10.4559
   660.2500    110.0457      0.0000    760.2783     10.3257
   660.5000    110.6527      0.0000    763.1828     10.1431
   660.7500    113.0107      0.0000    763.8664      9.9254
   661.0000    117.0799      0.0000    764.0997      9.7006
   661.2500    122.4353      0.0000    764.5024      9.5469
   661.5000    128.2335      0.0000    765.1080      9.5427
   661.7500    132.9615      0.0000    765.5768      9.6722
   662.0000    135.0116      0.0000    765.7322      9.8430
   662.2500    133.8439      0.0000    765.8968      9.9520
   662.5000    130.3208      0.0000    766.3526      9.9497
   662.7500    125.9713      0.0000    766.8449      9.8934
   663.0000    122.0273      0.0000    767.1860      9.8873
   663.2500    118.7469      0.0000    768.0893      9.9624
   663.5000    115.5544      0.0000    770.4311     10.0655
   663.7500    112.2507      0.0000    772.3846     10.1421
   664.0000    110.0337      0.0000    768.6631     10.2253
   664.2500    110.6317      0.0000    758.0093     10.4245
