~Version Information
VERS.                                  2.0 : CWLS LAS VERSION
WRAP.                                   NO : WRAPING MODE
SWARE .                 MController 2.5.0E : SOFTWARE VERSION
~Well Information
WELL.                     Moneypenny 31-16 : WELL
COMP.             Evergreen Operating Corp : COMPANY
FLD.                      Purgatorie River : FIELD
LOC.                NW/NE Sec 36 t33S R67W : LOCATION
DATE.                             10/01/04 : DATE(S) LOGGED
SRVC.       Blanco Geological Services LLC : SERVICE COMPANY
STAT.                                   CO : STATE
CNTY.                           Las Animas : COUNTY
CTRY.                                  USA : COUNTRY
API.                       05-071-08183-00 : API NUMBER
STRT.FT                            1097.00 : START DEPTH
STOP.FT                            1675.00 : STOP DEPTH
STEP.FT                               1.00 : DEPTH INCREMENT
NULL.                                -9999 : NULL VALUE
~Curve information
DEPTH.FT                                   :
ROP.MIN/FT                                 :
GAS.UNITS                                  :
~ASCII Log data
# ...
     1509.00        0.267        105.0
     1510.00        0.467         88.6
     1511.00        0.300         80.1
     1512.00        0.200         76.2
     1513.00        0.233         72.2
     1514.00        0.167         70.0
     1515.00        0.283         65.3
     1516.00        0.100         63.0
     1517.00        0.267         58.3
     1518.00        0.267         57.6
     1519.00        0.267         58.2
     1520.00        0.267         58.9
     1521.00        0.267         58.8
     1522.00        0.267         58.6
     1523.00        0.267         58.0
     1524.00       18.733         44.9
     1525.00        0.267         64.9
     1526.00        0.100         74.4
     1527.00        0.200         95.0
     1528.00        0.233        114.3
     1529.00        0.200        120.4
     1530.00        0.267        113.4
     1531.00        0.167        103.7
     1532.00        0.300         84.3
     1533.00        0.267         76.1
     1534.00        0.233         80.9
     1535.00        0.200         88.4
     1536.00        0.183         93.2
     1537.00        0.267         94.8
     1538.00        0.267         89.9
     1539.00        0.233         82.9
     1540.00        0.267         72.9
     1541.00        0.267         62.2
     1542.00        0.267         51.9
     1543.00        0.267         43.9
     1544.00        0.267         42.5
     1545.00        0.267         47.7
     1546.00        0.333         54.9
     1547.00        0.267         55.1
     1548.00        0.283         52.8
     1549.00        0.233         49.2
     1550.00        0.300         44.0
     1551.00        0.267         43.4
     1552.00        0.300         49.8
     1553.00        0.267         68.9
     1554.00        0.267         84.2
     1555.00        0.267         95.0
     1556.00        5.267        157.3
     1557.00        0.300        191.3
     1558.00        0.333        170.8
     1559.00        0.267        131.5
     1560.00        0.267         98.9
     1561.00        0.300         78.4
     1562.00        0.300         75.5
     1563.00        0.367         85.0
     1564.00        0.233         88.3
     1565.00        0.583         74.8
     1566.00        0.667         53.4
     1567.00        0.800         40.1
     1568.00        0.467         35.3
     1569.00        0.333         33.1
     1570.00        0.267         35.3
     1571.00        0.233         40.1
     1572.00        0.333         46.4
     1573.00        0.250         49.0
     1574.00        0.267         49.9
     1575.00        0.267         50.9
     1576.00        0.233         51.0
     1577.00        0.233         50.2
     1578.00        0.200         49.5
     1579.00        0.200         47.5
     1580.00        0.167         46.5
     1581.00        0.200         47.0
     1582.00        0.233         46.9
     1583.00        0.200         45.9
     1584.00        0.200         45.5
     1585.00        0.200         44.5
     1586.00        4.900        214.5
     1587.00        0.300        180.7
     1588.00        0.367        113.2
     1589.00        0.367         74.4
     1590.00        0.300         64.6
     1591.00        0.267         71.1
     1592.00        0.267         82.5
     1593.00        0.267         85.8
     1594.00        0.283         72.5
     1595.00        0.267         49.8
     1596.00        0.267         36.4
     1597.00        0.267         32.4
     1598.00        0.267         40.9
     1599.00        0.267         56.3
     1600.00        0.267         67.7
     1601.00        0.267         71.0
     1602.00        0.267         69.4
     1603.00        0.267         65.5
     1604.00        0.267         60.6
     1605.00        0.333         54.3
     1606.00        0.267         50.5
     1607.00        0.250         48.1
     1608.00        0.200         47.5
     1609.00        0.233         46.5
     1610.00        0.200         44.5
     1611.00        0.233         42.0
     1612.00        0.200         41.2
     1613.00        0.233         41.0
     1614.00        0.233         40.7
     1615.00        0.233         39.3
     1616.00        4.617        246.4
     1617.00        0.350        279.1
     1618.00        0.267        224.0
     1619.00        0.333        128.3
     1620.00        0.333         82.1
     1621.00        0.333         78.3
     1622.00        0.333         95.1
     1623.00        0.333         95.2
     1624.00        0.300         77.7
     1625.00        0.267         60.3
     1626.00        0.267         50.1
     1627.00        0.300         46.2
     1628.00        0.350         48.2
     1629.00        0.267         48.2
     1630.00        0.200         47.0
     1631.00        0.167         47.3
     1632.00        0.200         45.6
     1633.00        0.167         45.8
     1634.00        0.200         43.7
     1635.00        0.200         42.7
     1636.00        0.167         42.6
     1637.00        0.200         43.8
     1638.00        0.200         46.0
     1639.00        0.200         48.3
     1640.00        0.200         49.7
     1641.00        0.200         49.9
     1642.00        0.233         48.6
     1643.00        0.200         47.0
     1644.00        0.250         48.2
     1645.00        0.233         56.9
     1646.00        4.650        218.0
     1647.00        0.433        318.6
     1648.00        0.300        304.8
     1649.00        0.367        188.6
     1650.00        0.233        134.4
     1651.00        0.283        105.6
     1652.00        0.300        106.6
     1653.00        0.267        113.8
     1654.00        0.267        111.4
     1655.00        0.233        102.1
     1656.00        0.233         89.2
     1657.00        0.267         75.5
     1658.00        0.233         67.3
     1659.00        0.233         61.0
     1660.00        0.267         57.5
     1661.00        0.200         55.7
     1662.00        0.167         55.0
     1663.00        0.133         54.9
     1664.00        0.167         54.7
     1665.00        0.167         54.3
     1666.00        0.167         54.0
     1667.00        0.150         54.0
     1668.00        0.133         54.2
     1669.00        0.167         55.4
     1670.00        0.133         56.9
     1671.00        0.133         58.6
     1672.00        0.133         60.0
     1673.00        0.133         60.8
     1674.00        0.133         60.8
     1675.00        0.167         60.0
