~Version Information
 VERS.                      2.0: CWLS Log ASCII Standard - VERSION 2.0
 WRAP.                       NO: One line per depth step
 ~Well Information Block
 STRT.FT                -8.0000: 
 STOP.FT              2581.0000: 
 STEP.FT                 0.2500: 
 NULL.                -999.2500: 
 COMP.          Petrogulf Corporation: COMPANY
 WELL.               YWAM 7-23V: WELL
 FLD.           Purgatorie River: FIELD
 LOC.           230' FSL & 225' FWL: LOCATION
 CNTY.               Las Animas: COUNTY
 SRVC.                         : SERVICE COMPANY
 DATE.          Mon Nov 22 10:51:24 2004: LOG DATE
 UWI.           05-071-08227-00: UNIQUE WELL ID
 STAT.                 Colorado: STATE
 PROV.                         :Province
 ~Curve Information Block
 DEPT.FT            0 000 00 00: Depth
 TT3.usec                      : CBL 3' Travel Time
 AMP3.mV                       : CBL 3' Amplitude
 GR.GAPI                       : Gamma Ray
 CCL.                          : Casing Collar Locator
 ~Parameter Information Block
 ~A  Depth       TT3         AMP3         GR         CCL     
# ...
  2203.0000    707.5983      1.0479    132.5885      0.0000
  2203.2500    709.1808      1.0671    136.5614      0.0000
  2203.5000    711.2313      1.0862    137.5710      0.0000
  2203.7500    714.1417      1.1006    135.6490      0.0000
  2204.0000    718.4320      1.1099    132.0021      0.0000
  2204.2500    724.0942      1.1179    128.2410      0.0000
  2204.5000    729.8906      1.1313    125.4076      0.0000
  2204.7500    733.9733      1.1562    123.7465      0.0000
  2205.0000    735.9263      1.1927    123.1251      0.0000
  2205.2500    737.8243      1.2341    123.5142      0.0000
  2205.5000    742.2272      1.2720    125.0885      0.0000
  2205.7500    748.8409      1.3009    127.6170      0.0000
  2206.0000    753.8602      1.3192    129.7533      0.0000
  2206.2500    753.3130      1.3271    129.6043      0.0000
  2206.5000    746.9130      1.3259    126.4513      0.0000
  2206.7500    738.1090      1.3166    121.5134      0.0000
  2207.0000    730.7210      1.2989    116.7757      0.0000
  2207.2500    726.2952      1.2715    113.5966      0.0000
  2207.5000    724.2562      1.2348    112.4992      0.0000
  2207.7500    723.3823      1.1930    113.2888      0.0000
  2208.0000    722.8152      1.1515    114.7676      0.0000
  2208.2500    722.3193      1.1144    115.1028      0.0000
  2208.5000    722.0733      1.0853    113.2991      0.0000
  2208.7500    722.2740      1.0688    110.1510      0.0000
  2209.0000    722.9123      1.0671    107.2995      0.0000
  2209.2500    723.8428      1.0773    105.5333      0.0000
  2209.5000    724.9094      1.0939    104.4013      0.0000
  2209.7500    725.9709      1.1130    103.1639      0.0000
  2210.0000    726.9169      1.1311    101.5142      0.0000
  2210.2500    727.7438      1.1434     99.4523      0.0000
  2210.5000    728.5596      1.1461     97.1839      0.0000
  2210.7500    729.4276      1.1402     95.4395      0.0000
  2211.0000    730.2217      1.1299     95.3808      0.0000
  2211.2500    730.7079      1.1194     97.6025      0.0000
  2211.5000    730.7629      1.1123    101.3731      0.0000
  2211.7500    730.4410      1.1114    105.3357      0.0000
  2212.0000    729.8295      1.1160    108.8268      0.0000
  2212.2500    728.9446      1.1205    111.9898      0.0000
  2212.5000    727.8131      1.1198    114.7025      0.0000
  2212.7500    726.5670      1.1141    116.0811      0.0000
  2213.0000    725.3625      1.1075    115.2606      0.0000
  2213.2500    724.2220      1.1009    112.3698      0.0000
  2213.5000    723.0204      1.0891    108.6453      0.0000
  2213.7500    721.6489      1.0685    105.8344      0.0000
  2214.0000    720.1597      1.0447    105.2792      0.0000
  2214.2500    718.7278      1.0305    107.0315      0.0000
  2214.5000    717.4809      1.0337    109.7815      0.0000
  2214.7500    716.3972      1.0503    112.0304      0.0000
  2215.0000    715.3856      1.0685    113.3995      0.0000
  2215.2500    714.4447      1.0802    114.5796      0.0000
  2215.5000    713.7010      1.0858    116.2955      0.0000
  2215.7500    713.2780      1.0899    118.7090      0.0000
  2216.0000    713.1387      1.0962    121.5035      0.0000
  2216.2500    713.0541      1.1061    123.9311      0.0000
  2216.5000    712.7440      1.1195    124.8733      0.0000
  2216.7500    712.1290      1.1340    123.4215      0.0000
  2217.0000    711.5541      1.1456    119.6642      0.0000
  2217.2500    711.8079      1.1511    114.8755      0.0000
  2217.5000    713.9406      1.1523    110.9606      0.0000
  2217.7500    718.9056      1.1553    109.4935      0.0000
  2218.0000    726.8547      1.1675    110.6482      0.0000
  2218.2500    736.3660      1.1925    112.8027      0.0000
  2218.5000    744.8488      1.2283    113.6747      0.0000
  2218.7500    750.5793      1.2679    112.4406      0.0000
  2219.0000    754.3078      1.3023    110.6829      0.0000
  2219.2500    758.2664      1.3230    110.9978      0.0000
  2219.5000    763.6509      1.3238    114.6371      0.0000
  2219.7500    769.1348      1.3041    120.3485      0.0000
  2220.0000    771.3055      1.2710    125.2030      0.0000
  2220.2500    766.6649      1.2356    126.5713      0.0000
  2220.5000    754.3334      1.2048    123.7316      0.0000
  2220.7500    737.3537      1.1789    118.0506      0.0000
  2221.0000    720.8609      1.1593    111.8674      0.0000
  2221.2500    708.6186      1.1551    106.9998      0.0000
  2221.5000    701.3020      1.1782    103.8341      0.0000
  2221.7500    697.5906      1.2271    101.4162      0.0000
  2222.0000    696.1718      1.2838     98.3029      0.0000
  2222.2500    696.7690      1.3312     93.5773      0.0000
  2222.5000    699.7626      1.3713     87.5489      0.0000
  2222.7500    704.9236      1.4178     81.7412      0.0000
  2223.0000    710.4694      1.4722     77.9669     -5.0000
  2223.2500    713.7624      1.5174     77.0475     -4.1077
  2223.5000    713.3298      1.5346     78.3100      0.0000
  2223.7500    709.8273      1.5264     80.2740      0.0000
  2224.0000    704.8138      1.5244     81.6764      0.0000
  2224.2500    699.1768      1.5790     81.8646      0.0000
  2224.5000    693.0550      1.7345     80.6150      0.0000
  2224.7500    686.5861      1.9901     77.9541      0.0000
  2225.0000    680.1555      2.2667     74.1695      0.0000
  2225.2500    674.2348      2.4287     69.8150      0.0000
  2225.5000    669.3046      2.3806     65.5894      0.0000
  2225.7500    665.7365      2.1521     62.0993      0.0000
  2226.0000    663.5972      1.8703     59.6030      0.0000
  2226.2500    662.6846      1.6504     57.9225      0.0000
  2226.5000    662.8308      1.5303     56.6769      0.0000
  2226.7500    664.3149      1.4882     55.8123      0.0000
  2227.0000    668.2946      1.4878     55.9794      0.0000
  2227.2500    676.8444      1.5024     58.1407      0.0000
  2227.5000    691.8693      1.5178     62.5869      0.0000
  2227.7500    713.0189      1.5283     68.3741      0.0000
  2228.0000    736.5972      1.5302     73.7465      0.0000
  2228.2500    757.3384      1.5214     77.0702      0.0000
  2228.5000    771.7670      1.5046     77.6576      0.0000
  2228.7500    779.7927      1.4899     76.1155      0.0000
  2229.0000    783.4841      1.4888     73.9069      0.0000
  2229.2500    785.0173      1.5055     72.2763      0.0000
  2229.5000    785.6633      1.5350     71.5033      0.0000
  2229.7500    785.8715      1.5676     71.1451      0.0000
  2230.0000    785.7211      1.5934     70.7406      0.0000
  2230.2500    785.2701      1.6046     70.1774      0.0000
  2230.5000    784.6685      1.5973     69.5869      0.0000
  2230.7500    784.0287      1.5738     69.0260      0.0000
  2231.0000    783.1407      1.5431     68.2118      0.0000
  2231.2500    781.1594      1.5176     66.6351      0.0000
  2231.5000    776.5701      1.5064     63.9961      0.0000
  2231.7500    767.8120      1.5093     60.4912      0.0000
  2232.0000    754.4177      1.5176     56.7912      0.0000
  2232.2500    737.7144      1.5210     53.9453      0.0000
  2232.5000    720.4179      1.5153     53.1249      0.0000
  2232.7500    705.6867      1.5049     54.9871      0.0000
  2233.0000    696.2626      1.4976     59.0282      0.0000
  2233.2500    693.4122      1.4954     63.8133      0.0000
  2233.5000    696.0119      1.4912     68.3389      0.0000
  2233.7500    701.1305      1.4774     73.1842      0.0000
  2234.0000    705.9628      1.4534     79.7824      0.0000
  2234.2500    709.1423      1.4233     88.3541      0.0000
  2234.5000    710.5416      1.3894     96.9761      0.0000
  2234.7500    710.5743      1.3511    103.0240      0.0000
  2235.0000    709.8441      1.3074    105.3738      0.0000
  2235.2500    708.9438      1.2627    105.1709      0.0000
  2235.5000    708.2085      1.2252    104.8580      0.0000
  2235.7500    707.6539      1.2007    106.5846      0.0000
  2236.0000    707.1675      1.1864    110.9997      0.0000
  2236.2500    706.6978      1.1752    116.9549      0.0000
