~Version Information
 VERS.                                  2.0 : CWLS LAS VERSION
 WRAP.                                   NO : WRAPING MODE
 SWARE .                 MController 2.5.0E : SOFTWARE VERSION
~Well Information
 WELL.                                  N/A : WELL
 COMP.                                  N/A : COMPANY
 FLD.                                   N/A : FIELD
 LOC.                                   N/A : LOCATION
 DATE.                                  N/A : DATE(S) LOGGED
 SRVC.                                  N/A : SERVICE COMPANY
 STAT.                                  N/A : STATE
 CNTY.                                  N/A : COUNTY
 CTRY.                                  N/A : COUNTRY
 API.                                   N/A : API NUMBER
 STRT.FT                             951.00 : START DEPTH
 STOP.FT                            2600.00 : STOP DEPTH
 STEP.FT                               1.00 : DEPTH INCREMENT
 NULL.                                -9999 : NULL VALUE
~Curve information
 DEPTH.FT                                   :
 ROP.MIN/FT                                 :
 GAS.UNITS                                  :
~ASCII Log data
# ...
     1351.00        0.233          3.4 
     1352.00        0.233          3.3 
     1353.00        0.267          3.7 
     1354.00        0.233          3.4 
     1355.00        0.250          3.5 
     1356.00        0.200          3.4 
     1357.00        0.233          3.6 
     1358.00        0.200          3.3 
     1359.00        0.233          3.7 
     1360.00        0.233          3.7 
     1361.00        0.167          3.5 
     1362.00        0.200          3.5 
     1363.00        0.200          3.5 
     1364.00        0.167          3.5 
     1365.00        0.200          3.5 
     1366.00        0.200          3.1 
     1367.00        0.167          3.3 
     1368.00        0.200          3.7 
     1369.00        0.200          3.4 
     1370.00        0.200          3.6 
     1371.00        0.217          3.4 
     1372.00        0.200          4.9 
     1373.00        0.400          5.5 
     1374.00        0.400          6.9 
     1375.00        0.500          7.4 
     1376.00        2.483          7.0 
     1377.00        0.300          6.4 
     1378.00        0.233          6.5 
     1379.00        0.267          6.6 
     1380.00        0.367          6.9 
     1381.00        0.367          7.0 
     1382.00        0.367          7.1 
     1383.00        0.300          6.9 
     1384.00        0.200          6.8 
     1385.00        0.200          6.8 
     1386.00        0.217          6.7 
     1387.00        0.200          6.8 
     1388.00        0.200          6.9 
     1389.00        0.267          6.8 
     1390.00        0.267          7.3 
     1391.00        0.200          7.0 
     1392.00        0.267          7.0 
     1393.00        0.300          7.1 
     1394.00        0.167          7.1 
     1395.00        0.167          7.5 
     1396.00        0.200          7.4 
     1397.00        0.167          8.1 
     1398.00        0.267          8.2 
     1399.00        0.167          8.9 
     1400.00        0.167          9.3 
     1401.00        0.183         10.5 
     1402.00        0.167         10.7 
     1403.00        0.400         11.3 
     1404.00        0.400         11.8 
     1405.00        0.500         11.0 
     1406.00        3.317         10.8 
     1407.00        0.333          6.9 
     1408.00        0.333          6.7 
     1409.00        0.333          6.9 
     1410.00        0.267          6.9 
     1411.00        0.267          6.9 
     1412.00        0.267          7.2 
     1413.00        0.283          7.0 
     1414.00        0.233          6.8 
     1415.00        0.267          6.8 
     1416.00        0.233          6.8 
     1417.00        0.233          7.0 
     1418.00        0.267          6.8 
     1419.00        0.233          7.0 
     1420.00        0.233          7.4 
     1421.00        0.267          6.9 
     1422.00        0.200          7.2 
     1423.00        0.167          7.5 
     1424.00        0.200          7.5 
     1425.00        0.200          7.4 
     1426.00        0.167          7.8 
     1427.00        0.200          8.3 
     1428.00        0.217          8.7 
     1429.00        0.200          8.2 
     1430.00        0.200          6.8 
     1431.00        0.167          6.8 
     1432.00        0.200          6.6 
     1433.00        0.200          6.7 
     1434.00        0.500          7.2 
     1435.00        0.600          7.2 
     1436.00        2.283          7.2 
     1437.00        0.300          7.3 
     1438.00        0.300          7.5 
     1439.00        0.267          7.9 
     1440.00        0.300          8.2 
     1441.00        0.300          8.4 
     1442.00        0.433          8.4 
     1443.00        0.350          7.6 
     1444.00        0.233          7.4 
     1445.00        0.233          7.0 
     1446.00        0.233          6.8 
     1447.00        0.233          6.8 
     1448.00        0.200          7.1 
     1449.00        0.233          7.2 
     1450.00        0.267          7.5 
     1451.00        0.200          7.7 
     1452.00        0.200          8.1 
     1453.00        0.200          8.7 
     1454.00        0.167          9.6 
     1455.00        0.233         10.0 
     1456.00        0.167         10.4 
     1457.00        0.200         10.4 
     1458.00        0.217         10.2 
     1459.00        0.200          9.6 
     1460.00        0.200          8.9 
     1461.00        0.233          8.4 
     1462.00        0.200          7.9 
     1463.00        0.233          7.7 
     1464.00        0.233          7.3 
     1465.00        0.500          7.2 
     1466.00        2.083          7.9 
     1467.00        0.367          7.6 
     1468.00        0.267          7.3 
     1469.00        0.267          7.4 
     1470.00        0.267          7.4 
     1471.00        0.233          7.4 
     1472.00        0.233          7.6 
     1473.00        0.233          7.8 
     1474.00        0.200          8.1 
     1475.00        0.267          8.1 
     1476.00        0.200          7.6 
     1477.00        0.283          7.4 
     1478.00        0.300          7.4 
     1479.00        0.300          7.9 
     1480.00        0.233          7.5 
     1481.00        0.267          7.4 
     1482.00        0.300          8.3 
     1483.00        0.267          8.6 
     1484.00        0.300         10.6 
     1485.00        0.267         11.6 
     1486.00        0.267         12.6 
     1487.00        0.200         13.8 
     1488.00        0.167         13.7 
     1489.00        0.200         13.2 
     1490.00        0.167         12.9 
     1491.00        0.217         12.8 
     1492.00        0.233         11.2 
     1493.00        0.200         10.4 
     1494.00        0.200          9.8 
     1495.00        0.500          9.4 
     1496.00        2.150          8.5 
     1497.00        0.433          8.3 
     1498.00        0.300          7.9 
     1499.00        0.267          7.7 
     1500.00        0.267          7.8 
     1501.00        0.333          7.9 
     1502.00        0.267          8.5 
     1503.00        0.267          6.5 
     1504.00        0.267          2.0 
     1505.00        0.267          0.0 
     1506.00        0.267          0.1 
     1507.00        0.267          0.1 
     1508.00        0.217          0.2 
     1509.00        0.133          0.1 
     1510.00        0.233          0.0 
     1511.00        0.233          0.4 
     1512.00        0.267          0.7 
     1513.00        0.200          1.5 
     1514.00        0.233          1.6 
     1515.00        0.200          2.3 
     1516.00        0.200          2.6 
     1517.00        0.167          3.1 
     1518.00        0.133          3.3 
     1519.00        0.300          3.1 
     1520.00        0.233          2.8 
     1521.00        0.200          2.3 
     1522.00        0.267          2.4 
     1523.00        0.250          2.2 
     1524.00        0.233          2.0 
     1525.00        0.267          1.8 
     1526.00        2.983          1.5 
     1527.00        0.400          0.2 
     1528.00        0.433          0.2 
     1529.00        0.333          0.3 
     1530.00        0.300          0.2 
     1531.00        0.300          0.4 
     1532.00        0.300          1.1 
     1533.00        0.267          1.1 
     1534.00        0.267          1.0 
     1535.00        0.333          0.6 
     1536.00        0.250          0.5 
     1537.00        0.233          0.4 
     1538.00        0.200          0.4 
     1539.00        0.300          0.4 
     1540.00        0.233          0.1 
     1541.00        0.300          0.5 
     1542.00        0.267          1.7 
     1543.00        0.267          3.1 
     1544.00        0.200          3.2 
     1545.00        0.200          3.2 
     1546.00        0.200          3.0 
     1547.00        0.200          2.7 
     1548.00        0.233          2.1 
     1549.00        0.167          1.8 
     1550.00        0.200          1.4 
