~Version Information
VERS.                      2.0: CWLS Log ASCII Standard - VERSION 2.0
WRAP.                       NO: One line per depth step
~Well Information Block
STRT.FT               245.0000: 
STOP.FT              1919.7000: 
STEP.FT                 0.1000: 
NULL.                -999.2500: 
COMP.          Pioneer Natural Resources: COMPANY
WELL.          Oink Oink 14-36 Tr: WELL
FLD.           Purgatoire River: FIELD
LOC.           236' FSL & 164' FWL--: LOCATION
PROV.                 Colorado: PROVINCE
CNTY.               Las Animas: COUNTRY
SRVC.                Patterson: SERVICE COMPANY
DATE.          Fri Jun 10 08:23:18 2005: LOG DATE
UWI.           05 071 08393 00: UNIQUE WELL ID
~Curve Information Block
DEPT.FT            0 000 00 00: Depth
DCAL.in                       : CDL Caliper
RHOB.g/cc                     : CDL Bulk Density
RHOC.g/cc                     : CDL Density Correction
DPOR.pu                       : CDL Density Porosity
NPOR.pu                       : Neutron Porosity
GR.GAPI                       : Gamma Ray
~Parameter Information Block
~A  Depth       DCAL        RHOB        RHOC        DPOR        NPOR         GR     
# ...
  1665.8000      7.9185      2.6299      0.1039      1.2160     20.4510     91.6754
  1665.9000      7.9185      2.6205      0.0443      1.7882     20.4723     93.7347
  1666.0000      7.9186      2.6185      0.0608      1.9094     20.3390     92.1405
  1666.1000      7.9186      2.6213      0.0419      1.7380     20.1449     89.2232
  1666.2000      7.9186      2.6254      0.0475      1.4925     19.6762     86.7113
  1666.3000      7.9182      2.6297      0.0483      1.2331     19.0565     83.2800
  1666.4000      7.9182      2.6355      0.0639      0.8786     18.8059     78.3236
  1666.5000      7.9181      2.6463      0.0555      0.2241     18.8969     75.6472
  1666.6000      7.9181      2.6580      0.0661     -0.4859     18.8293     79.1775
  1666.7000      7.9181      2.6557      0.0888     -0.3461     18.5126     87.9984
  1666.8000      7.9189      2.6373      0.0678      0.7667     18.3115     96.3750
  1666.9000      7.9189      2.6192      0.0062      1.8688     18.4671    100.2979
  1667.0000      7.9188      2.6041      0.0734      2.7842     19.0374    100.1677
  1667.1000      7.9188      2.5826      0.0675      4.0862     19.9313     97.2892
  1667.2000      7.9188      2.5647      0.0298      5.1713     20.8586     95.1887
  1667.3000      7.9178      2.5650      0.0078      5.1513     21.3440     97.6771
  1667.4000      7.9178      2.5768      0.0342      4.4342     21.2612    102.4540
  1667.5000      7.9169      2.5868      0.0640      3.8299     20.9749    105.8666
  1667.6000      7.9169      2.5898      0.0652      3.6511     20.9869    107.8448
  1667.7000      7.9169      2.5856      0.0377      3.9007     21.6758    107.5017
  1667.8000      7.9171      2.5803      0.0340      4.2248     22.8466    104.4264
  1667.9000      7.9171      2.5814      0.0366      4.1552     23.8441    100.7354
  1668.0000      7.9181      2.5884      0.0492      3.7359     24.2282    101.3606
  1668.1000      7.9181      2.5934      0.0543      3.4320     24.3484    110.6639
  1668.2000      7.9181      2.5923      0.0752      3.4979     24.9136    123.7450
  1668.3000      7.9181      2.5860      0.0392      3.8806     25.7270    133.8632
  1668.4000      7.9181      2.5684      0.0690      4.9456     25.8936    139.8344
  1668.5000      7.9168      2.5374      0.0226      6.8221     25.5408    141.6846
  1668.6000      7.9168      2.5115      0.0179      8.3932     25.6612    141.7972
  1668.7000      7.9168      2.5044      0.0202      8.8247     26.5371    141.1369
  1668.8000      7.9159      2.5108      0.0470      8.4347     27.5180    141.4331
  1668.9000      7.9159      2.5180      0.0332      7.9980     27.9667    145.4604
  1669.0000      7.9173      2.5131      0.0627      8.2943     27.9942    151.9552
  1669.1000      7.9173      2.4907      0.0531      9.6568     28.0723    162.0980
  1669.2000      7.9173      2.4574      0.0499     11.6754     28.3189    175.5290
  1669.3000      7.9180      2.4225     -0.0072     13.7906     28.5667    182.6219
  1669.4000      7.9180      2.3918      0.0087     15.6476     28.7628    179.5437
  1669.5000      7.9159      2.3683      0.0069     17.0754     28.9980    171.8826
  1669.6000      7.9159      2.3526      0.0039     18.0245     29.2993    164.0317
  1669.7000      7.9159      2.3469     -0.0148     18.3727     29.5897    161.9279
  1669.8000      7.9128      2.3514      0.0509     18.0962     29.9555    165.4192
  1669.9000      7.9128      2.3557      0.0768     17.8371     30.3916    166.3902
  1670.0000      7.9125      2.3463      0.0912     18.4063     30.6700    165.0368
  1670.1000      7.9125      2.3244      0.0493     19.7360     30.8749    167.2306
  1670.2000      7.9125      2.2943      0.0587     21.5591     31.2540    173.3692
  1670.3000      7.9169      2.2464      0.0476     24.4576     31.7990    176.5311
  1670.4000      7.9169      2.1755      0.0227     28.7571     32.3017    170.2499
  1670.5000      7.9217      2.0999      0.0139     33.3411     32.5888    158.1827
  1670.6000      7.9217      2.0497     -0.0249     36.3822     32.3604    149.8806
  1670.7000      7.9217      2.0402     -0.0132     36.9579     31.4417    149.1449
  1670.8000      7.9213      2.0637      0.0100     35.5305     30.7335    147.9495
  1670.9000      7.9213      2.1102      0.0341     32.7123     30.7115    138.3240
  1671.0000      7.9147      2.1745      0.0609     28.8199     30.1319    126.1615
  1671.1000      7.9147      2.2426      0.1338     24.6934     28.3538    117.9043
  1671.2000      7.9147      2.2993      0.1484     21.2518     26.4912    111.4107
  1671.3000      7.9025      2.3527      0.1548     18.0210     25.4656    105.8413
  1671.4000      7.9025      2.4218      0.2055     13.8292     24.9593    102.3688
  1671.5000      7.8890      2.5042      0.2519      8.8386     24.2339    102.7389
  1671.6000      7.8890      2.5765      0.2174      4.4534     23.2626    108.8129
  1671.7000      7.8890      2.6160      0.1846      2.0608     22.9495    114.6948
  1671.8000      7.8802      2.6129      0.1339      2.2464     23.6469    115.1854
  1671.9000      7.8802      2.5847      0.0719      3.9554     24.4117    114.0690
  1672.0000      7.8774      2.5629      0.0563      5.2810     24.7608    113.3685
  1672.1000      7.8774      2.5587      0.0750      5.5344     24.9130    111.9295
  1672.2000      7.8774      2.5641      0.0448      5.2074     24.8405    114.4058
  1672.3000      7.8768      2.5703      0.1091      4.8296     24.7731    123.8604
  1672.4000      7.8768      2.5704      0.0847      4.8257     24.7425    131.2669
  1672.5000      7.8760      2.5666      0.0770      5.0526     23.9086    131.1355
  1672.6000      7.8760      2.5703      0.0552      4.8324     22.1506    132.0204
  1672.7000      7.8760      2.5889      0.0801      3.7003     20.6762    134.6546
  1672.8000      7.8748      2.6189      0.1141      1.8824     20.1420    130.6422
  1672.9000      7.8748      2.6413      0.1395      0.5301     19.9712    125.7336
  1673.0000      7.8695      2.6329      0.1437      1.0381     19.5088    126.9106
  1673.1000      7.8695      2.6047      0.0177      2.7485     19.0410    128.0642
  1673.2000      7.8695      2.5883      0.0513      3.7414     18.8555    122.1281
  1673.3000      7.8622      2.5810      0.0578      4.1820     18.8378    110.7414
  1673.4000      7.8622      2.5734      0.0356      4.6431     19.1872    101.2241
  1673.5000      7.8592      2.5734      0.0666      4.6419     19.9134     97.2964
  1673.6000      7.8592      2.5712      0.0869      4.7728     20.6844     96.0688
  1673.7000      7.8592      2.5459      0.0778      6.3102     21.2494     95.1716
  1673.8000      7.8577      2.5007      0.0283      9.0458     21.3676     94.2264
  1673.9000      7.8577      2.4552      0.0259     11.8086     21.2501     93.7948
  1674.0000      7.8559      2.4228     -0.0190     13.7715     21.4354     93.4291
  1674.1000      7.8559      2.4143     -0.0139     14.2870     21.9595     93.6525
  1674.2000      7.8559      2.4257      0.0187     13.5963     22.5844     97.4022
  1674.3000      7.8531      2.4390      0.0428     12.7878     23.3195    103.1915
  1674.4000      7.8531      2.4457      0.0695     12.3806     24.1358    105.6991
  1674.5000      7.8508      2.4441      0.0889     12.4778     25.2071    106.1493
  1674.6000      7.8508      2.4319      0.0832     13.2167     26.7090    109.8811
  1674.7000      7.8508      2.4190      0.0692     14.0020     28.3875    119.5003
  1674.8000      7.8523      2.4218      0.1036     13.8277     29.6076    133.7750
  1674.9000      7.8523      2.4397      0.1038     12.7468     29.7297    146.5305
  1675.0000      7.8602      2.4532      0.1256     11.9288     29.3641    151.0327
  1675.1000      7.8602      2.4533      0.1020     11.9225     29.4215    148.0708
  1675.2000      7.8602      2.4565      0.0859     11.7265     29.5805    141.7284
  1675.3000      7.8839      2.4801      0.1199     10.2966     29.2118    135.0346
