~Version Information
VERS.                      2.0: CWLS Log ASCII Standard - VERSION 2.0
WRAP.                       NO: One line per depth step
~Well Information Block
STRT.FT                -5.2500: 
STOP.FT               769.5000: 
STEP.FT                 0.2500: 
NULL.                -999.2500: 
COMP.          Pioneer Natural Resources: COMPANY
WELL.          HG Duran 34-27 Tr: WELL
FLD.           Purgatorie River: FIELD
LOC.           1076' FSL & 1465' FEL: LOCATION
PROV.                 Colorado: PROVINCE
CNTY.               Las Animas: COUNTRY
SRVC.          Patterson Wireline: SERVICE COMPANY
DATE.          Mon Apr 18 09:19:17 2005: LOG DATE
UWI.           05-071-08218-00: UNIQUE WELL ID
~Curve Information Block
DEPT.FT            0 000 00 00: Depth
CCL.                          : Casing Collar Locator
TT3.usec                      : CBL 3' Travel Time
AMP3.mV                       : CBL 3' Amplitude
GR.GAPI                       : Gamma Ray
~Parameter Information Block
~A  Depth       CCL         TT3         AMP3         GR     
# ...
   128.7500      0.0000    859.4418     16.8895     88.5106
   129.0000      0.0000    869.6561     16.4288     85.0928
   129.2500      0.0000    876.5931     15.7686     82.6779
   129.5000      0.0000    876.5312     15.0858     83.3078
   129.7500      0.0000    869.3942     14.5584     86.4437
   130.0000      0.0000    859.0502     14.2565     89.5829
   130.2500      0.0000    850.3240     14.1408     90.1152
   130.5000      0.0000    846.2252     14.1271     86.9501
   130.7500      0.0000    846.8531     14.1404     81.0358
   131.0000      0.0000    849.2352     14.1363     74.7413
   131.2500      0.0000    848.8505     14.1046     70.4051
   131.5000      0.0000    843.3410     14.0591     69.0142
   131.7500      0.0000    835.0357     14.0219     70.1147
   132.0000      0.0000    828.8925     14.0140     72.6076
   132.2500      0.0000    828.0136     14.0486     75.3559
   132.5000      0.0000    831.5992     14.1240     77.5609
   132.7500      0.0000    836.6376     14.2252     79.1271
   133.0000      0.0000    840.6771     14.3375     80.4548
   133.2500      0.0000    843.0604     14.4528     81.5697
   133.5000      0.0000    844.4241     14.5548     81.7578
   133.7500      0.0000    845.5854     14.6048     80.3632
   134.0000      0.0000    846.5360     14.5575     77.7942
   134.2500      0.0000    845.9524     14.3941     75.4966
   134.5000      0.0000    841.9130     14.1340     74.8146
   134.7500      0.0000    833.7758     13.8165     75.8467
   135.0000      0.0000    823.3585     13.4785     77.5211
   135.2500      0.0000    813.7826     13.1486     78.6957
   135.5000      0.0000    807.1660     12.8485     78.8870
   135.7500      0.0000    803.5976     12.5941     78.0188
   136.0000      0.0000    801.8796     12.3918     75.9325
   136.2500      0.0000    800.6423     12.2266     72.3685
   136.5000      0.0000    798.9102     12.0611     67.3583
   136.7500      0.0000    796.3490     11.8556     61.7141
   137.0000      0.0000    793.3852     11.5931     57.0791
   137.2500      0.0000    790.8856     11.2813     55.0658
   137.5000      0.0000    789.5004     10.9387     55.9927
   137.7500      0.0000    789.4310     10.5848     58.5186
   138.0000      0.0000    790.6974     10.2428     60.6259
   138.2500      0.0000    793.1057      9.9457     61.0271
   138.5000      0.0000    795.9221      9.7371     59.8406
   138.7500      0.0000    798.0438      9.6532     58.1635
   139.0000      0.0000    798.5196      9.6911     56.9694
   139.2500      0.0000    796.7456      9.7977     56.2645
   139.5000      0.0000    792.5543      9.9033     55.2948
   139.7500      0.0000    786.7089      9.9724     53.5375
   140.0000      0.0000    781.2271     10.0175     51.2708
   140.2500      0.0000    778.3981     10.0658     49.0813
   140.5000      0.0000    778.9258     10.1188     47.2039
   140.7500      0.0000    781.2682     10.1502     45.6580
   141.0000      0.0000    783.2189     10.1405     44.6514
   141.2500      0.0000    784.0575     10.1021     44.5330
   141.5000      0.0000    784.9749     10.0666     45.6106
   141.7500      0.0000    787.7695     10.0600     48.0276
   142.0000      0.0000    793.4977     10.0974     51.5000
   142.2500      0.0000    802.0554     10.1904     55.2814
   142.5000      0.0000    812.3735     10.3447     58.5716
   142.7500      0.0000    822.8372     10.5517     60.7961
   143.0000      0.0000    832.0380     10.7842     61.6105
   143.2500      0.0000    839.7340     10.9981     60.9963
   143.5000      0.0000    847.0136     11.1434     59.3886
   143.7500      0.0000    854.9233     11.1883     57.6484
   144.0000      0.0000    862.5884     11.1341     56.8574
   144.2500      0.0000    867.1407     11.0027     57.6380
   144.5000      0.0000    866.2487     10.8115     59.2962
   144.7500      0.0000    860.6185     10.5697     60.2274
   145.0000      0.0000    853.4736     10.2957     59.7805
   145.2500      0.0000    847.8035     10.0288     59.3367
   145.5000      0.0000    844.5976      9.8129     60.9702
   145.7500      0.0000    843.2409      9.6705     65.1379
   146.0000      0.0000    842.6680      9.5975     69.9786
   146.2500      0.0000    841.9612      9.5822     72.8783
   146.5000      0.0000    840.4797      9.6212     72.6468
   146.7500      0.0000    838.1287      9.7127     70.3225
   147.0000      0.0000    835.6931      9.8392     68.1571
   147.2500      0.0000    834.4905      9.9728     67.8243
   147.5000      0.0000    835.2354     10.1003     69.3384
   147.7500      0.0000    837.3423     10.2376     71.4342
   148.0000      0.0000    839.5524     10.4094     72.9378
   148.2500      0.0000    841.0250     10.6201     73.7338
   148.5000      0.0000    841.6520     10.8442     74.3939
   148.7500      0.0000    841.5864     11.0371     75.1935
   149.0000      0.0000    840.6807     11.1552     75.9685
   149.2500      0.0000    838.2897     11.1763     76.8124
   149.5000      0.0000    833.6465     11.1117     78.2949
   149.7500      0.0000    826.8228     11.0097     80.8243
   150.0000      0.0000    819.6683     10.9520     84.0060
   150.2500      0.0000    815.9414     11.0277     86.7593
   150.5000      0.0000    820.6384     11.2896     88.1166
   150.7500      0.0000    838.8371     11.7136     87.8854
   151.0000      0.0000    874.1210     12.1474     86.4328
   151.2500      0.0000    927.1418     12.2694     84.1325
   151.5000      0.0000    995.7497     11.7160     81.4119
   151.7500      0.0000   1076.5255     10.4230     78.8759
   152.0000      0.0000   1165.2240      8.8119     76.7243
   152.2500      0.0000   1254.9894      7.4889     74.4255
   152.5000      0.0000   1335.0931      6.7777     71.6736
   152.7500     -5.0000   1393.3042      6.6153     69.4668
   153.0000      0.0000   1419.5989      6.8000     69.5422
   153.2500      0.0000   1406.9023      7.2247     72.5823
   153.5000      0.0000   1351.0935      7.9154     77.5102
   153.7500      0.0000   1256.2017      8.9150     82.9308
   154.0000      0.0000   1140.6909     10.1290     88.6332
   154.2500      0.0000   1032.6893     11.2808     94.7895
   154.5000      0.0000    954.3311     12.0622    100.0476
   154.7500      0.0000    912.9010     12.3405    101.6671
   155.0000      0.0000    908.3324     12.2135     97.9838
   155.2500      0.0000    941.8043     11.9089     90.2110
   155.5000      0.0000   1008.0827     11.6564     81.5648
   155.7500      0.0000   1081.3202     11.6022     75.1519
   156.0000      0.0000   1120.3907     11.7640     72.9309
   156.2500      0.0000   1097.9264     12.0337     75.5264
   156.5000      0.0000   1023.6096     12.2469     81.5685
   156.7500      0.0000    934.6525     12.2878     87.6333
   157.0000      0.0000    864.7463     12.1510     90.4215
   157.2500      0.0000    824.7584     11.9165     89.2450
   157.5000      0.0000    807.6555     11.6772     85.7509
   157.7500      0.0000    802.7714     11.4848     81.6524
   158.0000      0.0000    803.9113     11.3464     77.4971
   158.2500      0.0000    809.4874     11.2529     73.1900
   158.5000      0.0000    819.4011     11.2027     68.7700
   158.7500      0.0000    832.3912     11.1949     64.6149
   159.0000      0.0000    845.7397     11.1993     61.4099
   159.2500      0.0000    857.2631     11.1474     59.9279
   159.5000      0.0000    866.8619     10.9746     60.6163
   159.7500      0.0000    875.5765     10.6790     63.4102
   160.0000      0.0000    883.5344     10.3301     67.9441
   160.2500      0.0000    889.4774     10.0287     73.6832
   160.5000      0.0000    891.8535      9.8755     79.5270
   160.7500      0.0000    889.8063      9.9417     83.4842
   161.0000      0.0000    884.3810     10.2121     83.5630
   161.2500      0.0000    880.3566     10.5631     79.6450
   161.5000      0.0000    885.5258     10.8456     74.2254
   161.7500      0.0000    904.7704     10.9944     70.7100
   162.0000      0.0000    933.4005     11.0401     70.8892
