~Version Information
 VERS.                      2.0: CWLS Log ASCII Standard - VERSION 2.0
 WRAP.                       NO: One line per depth step
 ~Well Information Block
 STRT.FT               887.5000: 
 STOP.FT              2605.5000: 
 STEP.FT                 0.2500: 
 NULL.                -999.2500: 
 COMP.          Petrogulf Corporation: COMPANY
 WELL.               YWAM 7-23V: WELL
 FLD.           Purgatorie River: FIELD
 LOC.           230' FSL & 225' FWL: LOCATION
 CNTY.               Las Animas: COUNTY
 SRVC.                         : SERVICE COMPANY
 DATE.          Sat Oct 30 08:34:45 2004: LOG DATE
 UWI.           05 071 08227 00: UNIQUE WELL ID
 STAT.                 Colorado: STATE
 PROV.                         :Province
 ~Curve Information Block
 DEPT.FT            0 000 00 00: Depth
 SP.mV                         : DIL Spontaneous Potential
 RILD.Ohm-m                    : DIL Deep Resistivity
 RILM.Ohm-m                    : DIL Medium Resistivity
 RLL3.Ohm-m                    : DIL Shallow Resistivity
 GR.GAPI                       : Gamma Ray
 ~Parameter Information Block
 ~A  Depth        SP         RILD        RILM        RLL3         GR     
# ...
  1783.5000   -108.0003     11.1403     11.6369     13.9112    126.7982
  1783.7500   -109.0246     11.5885     12.1335     14.4825    131.7104
  1784.0000   -109.8992     12.0730     12.7039     15.5441    137.9393
  1784.2500   -110.4363     12.5925     13.3634     17.2880    140.9595
  1784.5000   -110.5400     13.1465     14.1284     19.9215    142.3941
  1784.7500   -110.2327     13.7359     15.0153     23.6679    140.1684
  1785.0000   -109.6398     14.3632     16.0405     28.7607    131.0358
  1785.2500   -108.9541     15.0328     17.2193     35.4184    121.6661
  1785.5000   -108.3831     15.7480     18.5637     43.8002    105.2905
  1785.7500   -108.0977     16.5098     20.0798     53.9405     94.4128
  1786.0000   -108.1989     17.3130     21.7612     65.6796     79.9135
  1786.2500   -108.7110     18.1437     23.5819     78.6248     72.0127
  1786.5000   -109.5892     18.9769     25.4857     92.1602     63.3489
  1786.7500   -110.7357     19.7772     27.3764    105.5192     59.6143
  1787.0000   -112.0277     20.5013     29.1142    117.8938     55.8579
  1787.2500   -113.3334     21.1041     30.5270    128.5353     53.5383
  1787.5000   -114.5224     21.5458     31.4432    136.8067     49.1314
  1787.7500   -115.4786     21.7989     31.7385    142.1744     45.5759
  1788.0000   -116.1088     21.8528     31.3805    144.1773     40.2965
  1788.2500   -116.3553     21.7141     30.4421    142.4317     37.6424
  1788.5000   -116.2120     21.4037     29.0768    136.7169     36.4420
  1788.7500   -115.7341     20.9524     27.4696    127.1272     38.3267
  1789.0000   -115.0383     20.3958     25.7904    114.2140     46.4663
  1789.2500   -114.2933     19.7712     24.1680     99.0182     55.8944
  1789.5000   -113.6904     19.1144     22.6831     82.9339     75.3653
  1789.7500   -113.4011     18.4586     21.3771     67.4268     90.1354
  1790.0000   -113.5355     17.8327     20.2627     53.7155    110.1326
  1790.2500   -114.1165     17.2595     19.3357     42.5401    119.5454
  1790.5000   -115.0707     16.7565     18.5827     34.1029    126.8967
  1790.7500   -116.2491     16.3346     17.9876     28.1756    128.8813
  1791.0000   -117.4640     15.9989     17.5346     24.2982    131.1437
  1791.2500   -118.5330     15.7499     17.2100     21.9716    133.1177
  1791.5000   -119.3222     15.5845     17.0029     20.7767    135.5993
  1791.7500   -119.7707     15.4973     16.9050     20.4042    135.6640
  1792.0000   -119.8953     15.4823     16.9101     20.6332    132.4566
  1792.2500   -119.7746     15.5335     17.0130     21.2956    128.6530
  1792.5000   -119.5174     15.6462     17.2096     22.2563    122.3531
  1792.7500   -119.2337     15.8163     17.4950     23.4078    118.7404
  1793.0000   -119.0088     16.0405     17.8639     24.6729    114.6675
  1793.2500   -118.8933     16.3151     18.3100     25.9983    112.3256
  1793.5000   -118.9070     16.6357     18.8255     27.3366    108.0519
  1793.7500   -119.0465     16.9959     19.4018     28.6317    104.3054
  1794.0000   -119.3020     17.3869     20.0288     29.8130     97.5166
  1794.2500   -119.6571     17.7981     20.6944     30.8040     92.4757
  1794.5000   -120.0827     18.2165     21.3846     31.5401     84.4822
  1794.7500   -120.5274     18.6283     22.0826     31.9819     79.0582
  1795.0000   -120.9229     19.0196     22.7687     32.1198     71.2706
  1795.2500   -121.1859     19.3781     23.4214     31.9700     66.6393
  1795.5000   -121.2434     19.6939     24.0191     31.5681     60.8916
  1795.7500   -121.0592     19.9605     24.5423     30.9675     57.8409
  1796.0000   -120.6483     20.1757     24.9760     30.2389     54.1408
  1796.2500   -120.0767     20.3412     25.3113     29.4677     52.1434
  1796.5000   -119.4427     20.4627     25.5450     28.7450     50.0147
  1796.7500   -118.8472     20.5486     25.6794     28.1513     49.3672
  1797.0000   -118.3707     20.6090     25.7200     27.7399     49.5601
  1797.2500   -118.0584     20.6539     25.6748     27.5278     50.1423
  1797.5000   -117.9144     20.6911     25.5539     27.4952     50.9620
  1797.7500   -117.9170     20.7256     25.3693     27.5933     51.2644
  1798.0000   -118.0316     20.7576     25.1355     27.7589     51.4255
  1798.2500   -118.2217     20.7830     24.8702     27.9267     51.3554
  1798.5000   -118.4495     20.7954     24.5923     28.0404     50.7381
  1798.7500   -118.6798     20.7881     24.3206     28.0600     49.8694
  1799.0000   -118.8720     20.7565     24.0704     27.9647     48.0707
  1799.2500   -118.9786     20.7000     23.8526     27.7530     46.8009
  1799.5000   -118.9473     20.6232     23.6705     27.4390     45.1844
  1799.7500   -118.7335     20.5340     23.5204     27.0479     44.4723
  1800.0000   -118.3083     20.4426     23.3928     26.6118     44.2016
  1800.2500   -117.6743     20.3584     23.2740     26.1642     44.5993
  1800.5000   -116.8706     20.2893     23.1500     25.7370     45.7550
  1800.7500   -115.9755     20.2399     23.0101     25.3556     46.5053
  1801.0000   -115.0973     20.2122     22.8494     25.0374     46.9272
  1801.2500   -114.3613     20.2058     22.6707     24.7918     46.6264
  1801.5000   -113.8945     20.2184     22.4835     24.6235     45.7649
  1801.7500   -113.7960     20.2465     22.3026     24.5369     45.3291
  1802.0000   -114.1214     20.2852     22.1458     24.5376     45.1750
  1802.2500   -114.8612     20.3293     22.0299     24.6301     45.2621
  1802.5000   -115.9434     20.3727     21.9680     24.8102     45.3051
  1802.7500   -117.2409     20.4103     21.9674     25.0583     45.2114
  1803.0000   -118.6002     20.4387     22.0288     25.3376     45.1530
  1803.2500   -119.8612     20.4571     22.1449     25.5997     45.4413
  1803.5000   -120.8866     20.4683     22.3018     25.7970     46.6204
  1803.7500   -121.5737     20.4779     22.4802     25.8968     47.7393
  1804.0000   -121.8584     20.4936     22.6578     25.8910     49.1928
  1804.2500   -121.7172     20.5230     22.8124     25.7982     49.5911
  1804.5000   -121.1686     20.5713     22.9247     25.6592     49.0559
  1804.7500   -120.2714     20.6401     22.9817     25.5262     48.1089
  1805.0000   -119.1222     20.7275     22.9776     25.4506     46.4335
  1805.2500   -117.8368     20.8281     22.9146     25.4710     45.4945
  1805.5000   -116.5335     20.9355     22.8016     25.6039     44.5923
  1805.7500   -115.3080     21.0446     22.6531     25.8380     44.2739
  1806.0000   -114.2107     21.1529     22.4855     26.1354     44.1051
  1806.2500   -113.2380     21.2610     22.3160     26.4392     44.2075
  1806.5000   -112.3390     21.3713     22.1595     26.6874     44.7103
  1806.7500   -111.4375     21.4857     22.0275     26.8292     45.2094
  1807.0000   -110.4563     21.6036     21.9277     26.8385     45.9303
  1807.2500   -109.3520     21.7205     21.8630     26.7203     46.2089
  1807.5000   -108.1313     21.8293     21.8323     26.5077     46.2528
  1807.7500   -106.8530     21.9220     21.8309     26.2509     46.3128
  1808.0000   -105.6099     21.9932     21.8519     26.0034     47.3525
  1808.2500   -104.5088     22.0426     21.8876     25.8099     49.0013
  1808.5000   -103.6454     22.0754     21.9298     25.6999     52.2394
  1808.7500   -103.0953     22.1006     21.9709     25.6870     53.9161
  1809.0000   -102.9090     22.1275     22.0038     25.7723     54.3763
  1809.2500   -103.1162     22.1629     22.0214     25.9492     53.3785
  1809.5000   -103.7259     22.2078     22.0174     26.2061     51.1827
  1809.7500   -104.7192     22.2572     21.9855     26.5244     49.9904
  1810.0000   -106.0408     22.3016     21.9213     26.8758     49.0961
  1810.2500   -107.5928     22.3307     21.8242     27.2185     48.9627
  1810.5000   -109.2459     22.3363     21.6985     27.4987     49.0075
  1810.7500   -110.8573     22.3151     21.5552     27.6580     49.0699
  1811.0000   -112.3054     22.2693     21.4103     27.6452     49.3381
  1811.2500   -113.5121     22.2061     21.2833     27.4289     49.7313
