~Version Information
VERS.                      2.0: CWLS Log ASCII Standard - VERSION 2.0
WRAP.                       NO: One line per depth step
~Well Information Block
STRT.FT                15.0000: 
STOP.FT              1211.0000: 
STEP.FT                 0.2500: 
NULL.                -999.2500: 
COMP.          Pioneer Natural Resources: COMPANY
WELL.          Santa Fe 43-27 Tr: WELL
FLD.           Purgatoire River: FIELD
LOC.           2018' FSL & 534' FEL: LOCATION
PROV.                 Colorado: PROVINCE
CNTY.               Las Animas: COUNTRY
SRVC.                Patterson: SERVICE COMPANY
DATE.          Mon Mar 14 15:43:40 2005: LOG DATE
UWI.           05 071 08303 00: UNIQUE WELL ID
~Curve Information Block
DEPT.FT            0 000 00 00: Depth
GR.GAPI                       : Gamma Ray
CCL.                          : Casing Collar Locator
TT3.usec                      : CBL 3' Travel Time
AMP3.mV                       : CBL 3' Amplitude
AMP5.mV                       : CBL 5' Amplitude
~Parameter Information Block
~A  Depth        GR         CCL         TT3         AMP3        AMP5    
# ...
   967.0000    138.3232      0.0000   1029.4542     24.3758      4.3633
   967.2500    140.0169      0.0000   1003.9474     24.7210      4.4838
   967.5000    141.2387      0.0000    992.3203     25.2728      4.6071
   967.7500    143.6119      0.0000    994.0920     26.0745      4.7207
   968.0000    147.9192      0.0000   1004.9132     27.1109      4.8256
   968.2500    153.2358      0.0000   1019.3431     28.2910      4.9359
   968.5000    157.4343      0.0000   1034.3108     29.4729      5.0681
   968.7500    158.8939      0.0000   1050.7977     30.5424      5.2286
   969.0000    157.6807      0.0000   1069.8268     31.4808      5.4063
   969.2500    155.0271      0.0000   1088.4332     32.3545      5.5749
   969.5000    151.8824      0.0000   1102.2546     33.2285      5.7055
   969.7500    148.0622      0.0000   1109.6190     34.0804      5.7834
   970.0000    142.5535      0.0000   1109.5460     34.7918      5.8164
   970.2500    134.5821      0.0000   1097.3698     35.2157      5.8273
   970.5000    124.6512      0.0000   1066.5507     35.2524      5.8339
   970.7500    114.6179      0.0000   1016.1024     34.8806      5.8313
   971.0000    106.5931      0.0000    954.5824     34.1555      5.7944
   971.2500    101.6743      0.0000    894.6238     33.1923      5.7012
   971.5000     99.6463      0.0000    844.5977     32.1199      5.5553
   971.7500     99.6777      0.0000    808.3459     31.0068      5.3831
   972.0000    101.1513      0.0000    791.4504     29.8283      5.2110
   972.2500    103.8543      0.0000    800.3751     28.5312      5.0493
   972.5000    107.4391      0.0000    832.0732     27.1405      4.8942
   972.7500    110.9743      0.0000    871.0002     25.7937      4.7384
   973.0000    113.3962      0.0000    902.7657     24.6663      4.5753
   973.2500    114.4873      0.0000    927.9130     23.8600      4.4002
   973.5000    115.0653      0.0000    958.1785     23.3459      4.2105
   973.7500    115.8925      0.0000   1002.3126     22.9923      4.0065
   974.0000    116.5366      0.0000   1059.1410     22.6363      3.7915
   974.2500    115.6183      0.0000   1121.0885     22.1333      3.5710
   974.5000    112.3222      0.0000   1178.7463     21.3478      3.3426
   974.7500    107.5406      0.0000   1222.1388     20.1357      3.0855
   975.0000    103.3794      0.0000   1243.3756     18.4257      2.7746
   975.2500    101.7030      0.0000   1241.8962     16.3749      2.4211
   975.5000    103.4850      0.0000   1226.4957     14.3613      2.0858
   975.7500    109.0691      0.0000   1210.6060     12.6954      1.8377
   976.0000    117.9292      0.0000   1205.6752     11.3761      1.7020
   976.2500    127.8995      0.0000   1217.2407     10.2382      1.6556
   976.5000    135.4691      0.0000   1243.0231      9.2517      1.6580
   976.7500    137.5075      0.0000   1273.8344      8.5336      1.6775
   977.0000    132.9734      0.0000   1299.3253      8.1397      1.6962
   977.2500    123.4333     -3.0000   1314.1101      7.9871      1.7064
   977.5000    112.3392     -2.8052   1317.3979      7.9536      1.7063
   977.7500    103.4152      0.0000   1307.4419      7.9913      1.6973
   978.0000     98.8818      0.0000   1278.0234      8.1802      1.6843
   978.2500     98.5645      0.0000   1223.4987      8.6996      1.6748
   978.5000    100.3108      0.0000   1151.1395      9.6925      1.6774
   978.7500    101.3557      0.0000   1087.1869     11.1043      1.7006
   979.0000     99.8448      0.0000   1062.0695     12.6783      1.7541
   979.2500     95.5195      0.0000   1084.3212     14.1180      1.8443
   979.5000     89.2482      0.0000   1133.6495     15.2391      1.9649
   979.7500     82.2375      0.0000   1182.2936     15.9959      2.0977
   980.0000     75.6367      0.0000   1218.0812     16.4378      2.2303
   980.2500     70.3122      0.0000   1245.2312     16.6611      2.3641
   980.5000     66.5642      0.0000   1270.1979     16.7666      2.4987
   980.7500     64.1644      0.0000   1292.9717     16.8236      2.6202
   981.0000     62.7692      0.0000   1309.9805     16.8606      2.7145
   981.2500     62.1407      0.0000   1319.7574     16.8851      2.7818
   981.5000     62.0670      0.0000   1323.9432     16.9101      2.8333
   981.7500     62.3937      0.0000   1324.9044     16.9625      2.8779
   982.0000     63.2787      0.0000   1323.5544     17.0679      2.9175
   982.2500     65.2480      0.0000   1318.7189     17.2326      2.9517
   982.5000     68.6883      0.0000   1307.3789     17.4403      2.9837
   982.7500     73.2238      0.0000   1286.1482     17.6600      3.0211
   983.0000     77.8057      0.0000   1254.0612     17.8543      3.0697
   983.2500     81.5215      0.0000   1214.5010     17.9915      3.1276
   983.5000     84.1908      0.0000   1173.2816     18.0670      3.1846
   983.7500     86.2407      0.0000   1135.2086     18.1119      3.2281
   984.0000     88.1674      0.0000   1105.0736     18.1689      3.2501
   984.2500     89.9294      0.0000   1090.3337     18.2609      3.2521
   984.5000     90.5959      0.0000   1095.6256     18.3860      3.2446
   984.7500     88.9871      0.0000   1113.5336     18.5343      3.2405
   985.0000     85.3974      0.0000   1127.5690     18.6973      3.2472
   985.2500     82.6416      0.0000   1125.9518     18.8618      3.2636
   985.5000     84.6401      0.0000   1107.3956     19.0052      3.2851
   985.7500     93.4797      0.0000   1074.7738     19.1053      3.3094
   986.0000    107.7874      0.0000   1030.3403     19.1556      3.3363
   986.2500    123.7559      0.0000    978.1262     19.1742      3.3623
   986.5000    137.3886      0.0000    926.2340     19.1951      3.3789
   986.7500    146.0018      0.0000    884.1220     19.2434      3.3782
   987.0000    148.8073      0.0000    857.2554     19.3124      3.3600
   987.2500    147.1195      0.0000    844.4465     19.3591      3.3325
   987.5000    143.6094      0.0000    840.2842     19.3293      3.3070
   987.7500    140.4024      0.0000    839.6016     19.1970      3.2923
   988.0000    137.8177      0.0000    839.6870     18.9880      3.2899
   988.2500    135.2030      0.0000    839.8137     18.7660      3.2936
   988.5000    132.5479      0.0000    840.1974     18.5949      3.2919
   988.7500    130.9617      0.0000    841.8232     18.5088      3.2749
   989.0000    132.1272      0.0000    846.7844     18.5054      3.2407
   989.2500    137.3083      0.0000    858.0263     18.5545      3.1953
   989.5000    145.9985      0.0000    876.8637     18.6087      3.1475
   989.7500    155.4429      0.0000    899.1238     18.6150      3.1021
   990.0000    162.2630      0.0000    914.8051     18.5351      3.0602
   990.2500    164.6935      0.0000    914.8004     18.3664      3.0227
   990.5000    163.0545      0.0000    899.1179     18.1439      2.9930
   990.7500    158.7160      0.0000    876.8771     17.9192      2.9742
   991.0000    153.3786      0.0000    858.0747     17.7331      2.9648
   991.2500    149.0750      0.0000    846.8555     17.5972      2.9608
   991.5000    147.9091      0.0000    841.8727     17.4910      2.9611
   991.7500    150.9657      0.0000    840.1669     17.3765      2.9688
   992.0000    157.1715      0.0000    839.6572     17.2224      2.9842
   992.2500    163.6179      0.0000    839.4271     17.0276      2.9991
   992.5000    167.5226      0.0000    839.2145     16.8325      3.0019
   992.7500    167.8995      0.0000    838.9996     16.7024      2.9876
   993.0000    165.3549      0.0000    838.8167     16.6824      2.9603
   993.2500    160.8907      0.0000    838.6824     16.7597      2.9271
   993.5000    155.4922      0.0000    838.5651     16.8793      2.8927
   993.7500    150.4882      0.0000    838.4102     16.9957      2.8612
   994.0000    147.4390      0.0000    838.1930     17.1003      2.8367
   994.2500    147.3882      0.0000    837.9414     17.1982      2.8204
   994.5000    150.2712      0.0000    837.7035     17.2812      2.8100
   994.7500    154.8340      0.0000    837.5047     17.3280      2.8028
