~Version Information
VERS.                      2.0: CWLS Log ASCII Standard - VERSION 2.0
WRAP.                       NO: One line per depth step
~Well Information Block
STRT.FT               300.0000: 
STOP.FT               871.2000: 
STEP.FT                 0.1000: 
NULL.                -999.2500: 
COMP.          Pioneer Natural Resources: COMPANY
WELL.            Hustler 12-17: WELL
FLD.           Purgatoire River: FIELD
LOC.           2150' FNL & 450' FWL: LOCATION
PROV.                 Colorado: PROVINCE
CNTY.               Las Animas: COUNTRY
SRVC.                Patterson: SERVICE COMPANY
DATE.          Mon Dec 20 11:14:19 2004: LOG DATE
UWI.           05 071 08236 00: UNIQUE WELL ID
~Curve Information Block
DEPT.FT            0 000 00 00: Depth
DCAL.in                       : CDL Caliper
RHOB.g/cc                     : CDL Bulk Density
RHOC.g/cc                     : CDL Density Correction
DPOR.pu                       : CDL Density Porosity
NPOR.pu                       : Neutron Porosity
GR.GAPI                       : Gamma Ray
~Parameter Information Block
~A  Depth       DCAL        RHOB        RHOC        DPOR        NPOR         GR     
# ...
   367.2000      8.0672      2.4606      0.0760     11.4795     19.0402     80.8582
   367.3000      8.0677      2.4620      0.0526     11.3942     18.9677     82.4919
   367.4000      8.0677      2.4531      0.0668     11.9359     18.7820     85.1636
   367.5000      8.0703      2.4337      0.0182     13.1070     18.3188     85.0351
   367.6000      8.0703      2.4055      0.0137     14.8208     17.7616     83.9850
   367.7000      8.0703      2.3838     -0.0413     16.1350     17.5755     85.1284
   367.8000      8.0721      2.3848     -0.0116     16.0718     17.6421     86.8959
   367.9000      8.0721      2.4004      0.0215     15.1270     17.5681     87.8795
   368.0000      8.0710      2.4155      0.0090     14.2107     17.5756     88.7528
   368.1000      8.0710      2.4345      0.0284     13.0587     17.8301     89.0898
   368.2000      8.0710      2.4611      0.0528     11.4485     18.0345     88.3088
   368.3000      8.0691      2.4799      0.0665     10.3063     18.1395     87.7117
   368.4000      8.0691      2.4721      0.0923     10.7813     18.1025     88.6242
   368.5000      8.0680      2.4393      0.0353     12.7669     17.7036     89.3861
   368.6000      8.0680      2.4096     -0.0075     14.5694     17.1208     88.3258
   368.7000      8.0680      2.4042      0.0014     14.8967     16.7612     85.9513
   368.8000      8.0676      2.4113      0.0458     14.4649     16.8122     82.5265
   368.9000      8.0676      2.4114      0.0315     14.4624     17.0897     78.2257
   369.0000      8.0683      2.4083      0.0215     14.6475     17.0950     76.0696
   369.1000      8.0683      2.4136      0.0263     14.3299     16.6997     79.3798
   369.2000      8.0683      2.4246      0.0080     13.6632     16.3385     85.4608
   369.3000      8.0693      2.4270      0.0540     13.5181     16.1398     88.8689
   369.4000      8.0693      2.4174     -0.0135     14.0994     15.9032     89.3565
   369.5000      8.0680      2.4106      0.0222     14.5108     15.7506     89.6777
   369.6000      8.0680      2.4076      0.0340     14.6894     16.0057     89.7023
   369.7000      8.0680      2.3996      0.0207     15.1755     16.5333     88.3834
   369.8000      8.0654      2.3925     -0.0084     15.6044     16.9639     87.0831
   369.9000      8.0654      2.3948      0.0018     15.4682     17.2447     86.2681
   370.0000      8.0594      2.4018      0.0400     15.0449     17.5324     84.5446
   370.1000      8.0594      2.4103      0.0093     14.5267     17.7289     82.9928
   370.2000      8.0594      2.4233      0.0319     13.7388     17.5687     83.7498
   370.3000      8.0494      2.4366      0.0553     12.9319     17.3746     85.6062
   370.4000      8.0494      2.4428      0.0583     12.5579     17.7032     86.1463
   370.5000      8.0435      2.4416      0.0533     12.6323     18.3466     84.2242
   370.6000      8.0435      2.4413      0.0266     12.6470     18.7106     80.8490
   370.7000      8.0435      2.4486      0.0423     12.2082     18.6692     79.5669
   370.8000      8.0437      2.4542      0.0910     11.8685     18.4546     82.1592
   370.9000      8.0437      2.4432      0.0546     12.5317     18.4233     85.9588
   371.0000      8.0451      2.4237      0.0243     13.7139     18.8410     86.8484
   371.1000      8.0451      2.4221     -0.0052     13.8144     19.2892     84.5741
   371.2000      8.0451      2.4407      0.0488     12.6838     19.3386     85.0612
   371.3000      8.0448      2.4540      0.0713     11.8805     19.4055     89.5031
   371.4000      8.0448      2.4511      0.0790     12.0542     19.6733     92.6465
   371.5000      8.0424      2.4448      0.0544     12.4346     19.8430     94.7831
   371.6000      8.0424      2.4474      0.0870     12.2807     19.9206     97.1419
   371.7000      8.0424      2.4591      0.0606     11.5722     20.0493     96.6072
   371.8000      8.0374      2.4738      0.0735     10.6813     20.1626     93.9631
   371.9000      8.0374      2.4955      0.0398      9.3623     20.3239     93.1141
   372.0000      8.0320      2.5322      0.0984      7.1391     20.5992     95.9583
   372.1000      8.0320      2.5637      0.1511      5.2275     20.9348     99.9921
   372.2000      8.0320      2.5674      0.1155      5.0064     21.4156    101.7614
   372.3000      8.0324      2.5530      0.0760      5.8779     22.1539    102.3474
   372.4000      8.0324      2.5415      0.0936      6.5767     23.0519    102.7115
   372.5000      8.0365      2.5428      0.0769      6.4988     23.8338    103.0888
   372.6000      8.0365      2.5531      0.0790      5.8757     24.3053    104.0811
   372.7000      8.0365      2.5532      0.0631      5.8663     24.3064    103.5565
   372.8000      8.0401      2.5278     -0.0026      7.4082     23.7452    103.3840
   372.9000      8.0401      2.4862      0.0162      9.9293     22.9660    108.3779
   373.0000      8.0419      2.4485     -0.0159     12.2097     22.5633    113.6401
   373.1000      8.0419      2.4285     -0.0296     13.4224     22.7257    112.6783
   373.2000      8.0419      2.4308     -0.0124     13.2874     23.0432    109.8719
   373.3000      8.0428      2.4484      0.0247     12.2169     23.1162    110.8518
   373.4000      8.0428      2.4684      0.0281     11.0086     23.0753    112.8748
   373.5000      8.0434      2.4872      0.0428      9.8670     23.0625    113.2555
   373.6000      8.0434      2.5152      0.0107      8.1673     22.9295    116.7387
   373.7000      8.0434      2.5543      0.0751      5.7989     22.6901    123.2330
   373.8000      8.0433      2.5850      0.0875      3.9385     22.9433    123.5490
   373.9000      8.0433      2.5968      0.0946      3.2251     23.8711    116.9540
   374.0000      8.0411      2.5990      0.0639      3.0932     24.7976    113.4208
   374.1000      8.0411      2.6067      0.0638      2.6272     25.3693    115.2257
   374.2000      8.0411      2.6294      0.0703      1.2481     25.5845    115.4266
   374.3000      8.0389      2.6582      0.0811     -0.4959     25.4501    113.1068
   374.4000      8.0389      2.6747      0.0790     -1.4978     25.3416    113.6679
   374.5000      8.0389      2.6741      0.0958     -1.4606     25.6640    117.5746
   374.6000      8.0389      2.6706      0.0698     -1.2492     26.0899    119.9402
   374.7000      8.0389      2.6742      0.0799     -1.4637     26.2631    116.9716
   374.8000      8.0397      2.6705      0.0779     -1.2442     26.3942    110.1304
   374.9000      8.0397      2.6479      0.0090      0.1303     26.5716    104.9440
   375.0000      8.0396      2.6123     -0.0158      2.2867     26.5567    104.6665
   375.1000      8.0396      2.5710     -0.0291      4.7868     26.3118    107.5828
   375.2000      8.0396      2.5331     -0.0104      7.0851     26.0652    109.7985
   375.3000      8.0386      2.5074     -0.0359      8.6438     25.7541    110.4975
   375.4000      8.0386      2.4870     -0.0357      9.8773     25.0589    112.2272
   375.5000      8.0388      2.4547      0.0041     11.8375     24.0314    114.3513
   375.6000      8.0388      2.4125     -0.0394     14.3968     23.0267    114.5427
   375.7000      8.0388      2.3819     -0.0368     16.2510     22.3493    112.3730
   375.8000      8.0411      2.3680     -0.0050     17.0880     21.8818    105.9681
   375.9000      8.0411      2.3566     -0.0105     17.7839     21.2880     96.6954
   376.0000      8.0419      2.3395     -0.0220     18.8202     20.6705     89.3835
   376.1000      8.0419      2.3292     -0.0473     19.4403     20.2006     84.8304
   376.2000      8.0419      2.3360     -0.0063     19.0312     19.7756     83.2964
   376.3000      8.0426      2.3434      0.0582     18.5806     19.3297     85.3542
   376.4000      8.0426      2.3411      0.0010     18.7213     18.7831     88.8588
   376.5000      8.0435      2.3487     -0.0059     18.2607     18.2987     90.0498
   376.6000      8.0435      2.3719      0.0762     16.8530     18.2460     87.9472
   376.7000      8.0435      2.3814      0.1016     16.2818     18.4150     85.9439
