~Version Information
VERS.                      2.0: CWLS Log ASCII Standard - VERSION 2.0
WRAP.                       NO: One line per depth step
~Well Information Block
STRT.FT               650.0000: 
STOP.FT              1999.0000: 
STEP.FT                 0.2500: 
NULL.                -999.2500: 
COMP.          Pioneer Natural Resources: COMPANY
WELL.           Firehawk 34-26: WELL
FLD.           Purgatoire River: FIELD
LOC.           1196' FSL & 1595' FEL--: LOCATION
STAT.                 Colorado: State
CNTY.               Las Animas: COUNTY
CTRY. USA : Country
SECT. 26 : Section
TOWN. 32S : Township
RANG. 66W : Range
SRVC.                Patterson: SERVICE COMPANY
DATE.          Sun Oct 16 16:57:28 2005: LOG DATE
API.           05 071 08389 00: UNIQUE WELL ID
~Curve Information Block
DEPT.FT            0 000 00 00: Depth
SN.Ohm-m                      : IEL Short Normal
SP.mV                         : IEL Spontaneous Potential
DIR.Ohm-m                     : IEL Induction Resistivity
GR.GAPI                       : Gamma Ray
~Parameter Information Block
~A  Depth        SN          SP         DIR          GR     
   650.0000   -999.2500   2018.0000   -999.2500    150.6180
   650.2500   -999.2500   2018.0000   -999.2500    151.8098
   650.5000   -999.2500   2018.0000   -999.2500    152.4844
   650.7500   -999.2500   2018.0000   -999.2500    152.4963
   651.0000   -999.2500   2018.0000   -999.2500    152.2721
   651.2500   -999.2500   2018.0000   -999.2500    151.6880
   651.5000   2000.0000   2018.0000   -999.2500    149.3527
   651.7500   2000.0000   2018.0000   -999.2500    146.5555
   652.0000   2000.0000   2018.0000   -999.2500    140.4704
   652.2500   2000.0000   2018.0000   -999.2500    135.3943
   652.5000   2000.0000   2018.0000   -999.2500    127.2487
   652.7500   2000.0000   2018.0000   -999.2500    122.2058
   653.0000   2000.0000   2018.0000      7.1976    116.0299
   653.2500   2000.0000   2018.0000      7.0704    112.9635
   653.5000   2000.0000   2018.0000      6.9590    110.2741
   653.7500   2000.0000   2018.0000      6.8677    110.1320
   654.0000   2000.0000   2018.0000      6.7963    112.2577
   654.2500   2000.0000   2018.0000      6.7413    114.0506
   654.5000   2000.0000   2018.0000      6.6988    114.0553
   654.7500   2000.0000   2018.0000      6.6652    110.9219
   655.0000   2000.0000   2018.0000      6.6378    101.9671
   655.2500   2000.0000   2018.0000      6.6154     94.7746
   655.5000   2000.0000   2018.0000      6.5979     85.1961
   655.7500   2000.0000   2018.0000      6.5852     80.7950
   656.0000   2000.0000   2018.0000      6.5764     78.1273
   656.2500   2000.0000   2018.0000      6.5701     79.0062
   656.5000   2000.0000   2018.0000      6.5658     83.3922
   656.7500   2000.0000   2018.0000      6.5654     87.3977
   657.0000   2000.0000   2018.0000      6.5725     93.4645
   657.2500   2000.0000   2018.0000      6.5910     97.0781
   657.5000   2000.0000   2018.0000      6.6231    101.6712
   657.7500   2000.0000   2018.0000      6.6683    104.0110
   658.0000   2000.0000   2018.0000      6.7230    105.6048
   658.2500   2000.0000   2018.0000      6.7808    104.9190
   658.5000   2000.0000   2018.0000      6.8339    101.3140
   658.7500   2000.0000   2018.0000      6.8754     97.7631
   659.0000   2000.0000   2018.0000      6.9029     92.1146
   659.2500   2000.0000   2018.0000      6.9195     88.8913
   659.5000   2000.0000   2018.0000      6.9306     85.6529
   659.7500   2000.0000   2018.0000      6.9401     84.6189
   660.0000   2000.0000   2018.0000      6.9484     84.3596
   660.2500   2000.0000   2018.0000      6.9543     84.7743
   660.5000   2000.0000   2018.0000      6.9606     86.0310
   660.7500   2000.0000   2018.0000      6.9775     87.1725
   661.0000   2000.0000   2018.0000      7.0202     88.8520
   661.2500   2000.0000   2018.0000      7.1010     89.5788
   661.5000   2000.0000   2018.0000      7.2218     89.7408
   661.7500   2000.0000   2018.0000      7.3703     89.2519
   662.0000   2000.0000   2018.0000      7.5248     87.8828
   662.2500   2000.0000   2018.0000      7.6635     86.7778
   662.5000   2000.0000   2018.0000      7.7748     85.2955
   662.7500   2000.0000   2018.0000      7.8655     84.7418
   663.0000   2000.0000   2018.0000      7.9622     85.3730
   663.2500   2000.0000   2018.0000      8.1056     87.3688
   663.5000   2000.0000   2018.0000      8.3351     93.4009
   663.7500   2000.0000   2018.0000      8.6619     99.3940
   664.0000   2000.0000   2018.0000      9.0365    110.8558
   664.2500   2000.0000   2018.0000      9.3316    119.9623
   664.5000   2000.0000   2018.0000      9.3918     90.1154
   664.7500   2000.0000   2018.0000      9.1545     96.6327
   665.0000   2000.0000   2018.0000      8.7160    103.0882
   665.2500   2000.0000   2018.0000      8.2529    103.6590
   665.5000   2000.0000   2018.0000      7.9123     99.0542
   665.7500   2000.0000   2018.0000      7.7875     94.1755
   666.0000   2000.0000   2018.0000      7.9622     88.0528
   666.2500   2000.0000   2018.0000      8.5754     86.2345
   666.5000   2000.0000   2018.0000      9.8913     87.4453
   666.7500   2000.0000   2018.0000     12.3396     90.4372
   667.0000   2000.0000   2018.0000     16.1721     97.0913
   667.2500   2000.0000   2018.0000     19.4999    102.5141
   667.5000   2000.0000   2018.0000     17.7768    111.9398
   667.7500   2000.0000   2018.0000     12.6815    119.0190
   668.0000   2000.0000   2018.0000      8.7681    130.0504
   668.2500   2000.0000   2018.0000      6.6328    136.9115
   668.5000   2000.0000   2018.0000      5.6440    145.5360
   668.7500   2000.0000   2018.0000      5.3535    150.1230
   669.0000   2000.0000   2018.0000      5.5225    155.5007
   669.2500   2000.0000   2018.0000      5.9521    157.9743
   669.5000   2000.0000   2018.0000      6.2861    159.3247
   669.7500   2000.0000   2018.0000      6.0134    158.4223
   670.0000   2000.0000   2018.0000      5.0359    155.1806
   670.2500   2000.0000   2018.0000      3.8941    152.8915
   670.5000   2000.0000   2018.0000      3.0389    151.1190
   670.7500   2000.0000   2018.0000      2.5542    151.3875
   671.0000   2000.0000   2018.0000      2.3875    153.0995
   671.2500   2000.0000   2018.0000      2.5040    154.3861
   671.5000   2000.0000   2018.0000      2.9296    156.1311
   671.7500   2000.0000   2018.0000      3.7671    157.3647
   672.0000   2000.0000   2018.0000      5.2386    159.2624
   672.2500   2000.0000   2018.0000      7.8369    160.0347
   672.5000   2000.0000   2018.0000     12.9317    159.2620
   672.7500   2000.0000   2018.0000     25.6032    157.0410
   673.0000   2000.0000   2018.0000     76.7371    151.4170
   673.2500   2000.0000   2018.0000   1279.5179    146.8137
   673.5000   2000.0000   2018.0000    381.6207    139.7887
   673.7500   2000.0000   2018.0000     62.0786    135.2732
   674.0000   2000.0000   2018.0000     28.1068    128.8081
   674.2500   2000.0000   2018.0000     18.4946    124.9215
   674.5000   2000.0000   2018.0000     14.9601    120.2078
   674.7500   2000.0000   2018.0000     13.6964    117.7723
   675.0000   2000.0000   2018.0000     13.4406    114.7162
   675.2500   2000.0000   2018.0000     13.6259    112.9097
   675.5000   2000.0000   2018.0000     13.9780    110.4987
   675.7500   2000.0000   2018.0000     14.3950    109.0621
   676.0000   2000.0000   2018.0000     14.8666    107.2967
   676.2500   2000.0000   2018.0000     15.4167    106.6769
   676.5000   2000.0000   2018.0000     16.0680    106.9962
   676.7500   2000.0000   2018.0000     16.7995    107.7675
   677.0000   2000.0000   2018.0000     17.4835    108.2651
   677.2500   2000.0000   2018.0000     17.8579    107.1907
   677.5000   2000.0000   2018.0000     17.6535    102.9746
   677.7500   2000.0000   2018.0000     16.8353     99.0789
   678.0000   2000.0000   2018.0000     15.6578     93.4646
   678.2500   2000.0000   2018.0000     14.4463     90.6561
   678.5000   2000.0000   2018.0000     13.3944     88.2224
   678.7500   2000.0000   2018.0000     12.5461     87.7769
   679.0000   2000.0000   2018.0000     11.8703     89.1004
   679.2500   2000.0000   2018.0000     11.3291     91.5129
   679.5000   2000.0000   2018.0000     10.9066     97.1888
   679.7500   2000.0000   2018.0000     10.6035    101.6661
   680.0000   2000.0000   2018.0000     10.4175    107.9179
   680.2500   2000.0000   2018.0000     10.3298    111.2490
   680.5000   2000.0000   2018.0000     10.3072    115.0701
   680.7500   2000.0000   2018.0000     10.3170    117.1699
   681.0000   2000.0000   2018.0000     10.3410    119.9221
   681.2500   2000.0000   2018.0000     10.3767    121.3217
   681.5000   2000.0000   2018.0000     10.4256    122.4876
   681.7500   2000.0000   2018.0000     10.4835    122.8791
   682.0000   2000.0000   2018.0000     10.5440    123.6255
   682.2500   2000.0000   2018.0000     10.6110    124.1874
   682.5000   2000.0000   2018.0000     10.7052    123.8422
   682.7500   2000.0000   2018.0000     10.8537    121.9923
   683.0000   2000.0000   2018.0000     11.0700    116.5771
   683.2500   2000.0000   2018.0000     11.3404    111.8764
