~Version Information
VERS.                      2.0: CWLS Log ASCII Standard - VERSION 2.0
WRAP.                       NO: One line per depth step
~Well Information Block
STRT.FT                -4.2500: 
STOP.FT              2018.7500: 
STEP.FT                 0.2500: 
NULL.                -999.2500: 
COMP.          Petrogulf Corporation: COMPANY
WELL.             State 16-21R: WELL
FLD.           Purgatoire River: FIELD
LOC.           203' FNL & 1560' FWL----: LOCATION
PROV.                 Colorado: PROVINCE
CNTY.               Las Animas: COUNTRY
SRVC.                         : SERVICE COMPANY
DATE.          Thu Sep 29 11:32:19 2005: LOG DATE
API.           05-071-08313 : API Number
~Curve Information Block
DEPT.FT            0 000 00 00: Depth
GR.GAPI                       : Gamma Ray
CCL.                          : Casing Collar Locator
AMP3.mV                       : CBL 3' Amplitude
AMP5.mV                       : CBL 5' Amplitude
~Parameter Information Block
~A  Depth        GR         CCL         AMP3        AMP5    
# ...
   665.7500     71.5601      0.0000      3.4660      0.2300
   666.0000     72.3000      0.0000      3.5199      0.2611
   666.2500     74.8562      0.0000      3.5957      0.2953
   666.5000     77.8514      0.0000      3.7019      0.3144
   666.7500     79.8087      0.0000      3.8283      0.3145
   667.0000     79.7086      0.0000      3.9539      0.3063
   667.2500     77.1699      0.0000      4.0644      0.3034
   667.5000     72.7723      0.0000      4.1617      0.3125
   667.7500     68.0404      0.0000      4.2546      0.3320
   668.0000     64.5397      0.0000      4.3384      0.3570
   668.2500     62.8474      0.0000      4.3888      0.3845
   668.5000     62.4399      0.0000      4.3865      0.4132
   668.7500     62.2791      0.0000      4.3447      0.4386
   669.0000     61.4928      0.0000      4.3008      0.4530
   669.2500     59.9858      0.0000      4.2808      0.4503
   669.5000     58.5524      0.0000      4.2813      0.4334
   669.7500     58.0731      0.0000      4.2847      0.4118
   670.0000     58.4613      0.0000      4.2816      0.3937
   670.2500     58.6013      0.0000      4.2765      0.3797
   670.5000     57.3406      0.0000      4.2756      0.3655
   670.7500     54.3921      0.0000      4.2773      0.3518
   671.0000     50.4195      0.0000      4.2768      0.3470
   671.2500     46.6084      0.0000      4.2756      0.3574
   671.5000     44.2335      0.0000      4.2807      0.3785
   671.7500     44.2334      0.0000      4.2961      0.3965
   672.0000     46.7304      0.0000      4.3180      0.3989
   672.2500     50.7459      0.0000      4.3346      0.3836
   672.5000     54.5017      0.0000      4.3296      0.3590
   672.7500     56.2599      0.0000      4.2932      0.3374
   673.0000     55.2698      0.0000      4.2355      0.3265
   673.2500     52.2757      0.0000      4.1834      0.3269
   673.5000     49.0733      0.0000      4.1571      0.3346
   673.7500     47.1846      0.0000      4.1521      0.3446
   674.0000     46.8033      0.0000      4.1487      0.3544
   674.2500     47.1170      0.0000      4.1351      0.3638
   674.5000     47.4091      0.0000      4.1194      0.3705
   674.7500     47.4423      0.0000      4.1192      0.3685
   675.0000     47.0170      0.0000      4.1434      0.3561
   675.2500     45.8663      0.0000      4.1836      0.3422
   675.5000     44.1516      0.0000      4.2237      0.3392
   675.7500     42.6227      0.0000      4.2556      0.3518
   676.0000     42.0602      0.0000      4.2829      0.3725
   676.2500     42.7277      0.0000      4.3123      0.3901
   676.5000     44.4343      0.0000      4.3438      0.3976
   676.7500     46.9889      0.0000      4.3697      0.3964
   677.0000     50.4229      0.0000      4.3836      0.3925
   677.2500     54.6578      0.0000      4.3879      0.3908
   677.5000     59.1677      0.0000      4.3930      0.3936
   677.7500     63.4499      0.0000      4.4112      0.4031
   678.0000     67.7407      0.0000      4.4534      0.4206
   678.2500     72.5600      0.0000      4.5261      0.4409
   678.5000     77.4542      0.0000      4.6245      0.4514
   678.7500     81.0991      0.0000      4.7257      0.4419
   679.0000     83.0260      0.0000      4.7926      0.4162
   679.2500     84.4333      0.0000      4.7897      0.3925
   679.5000     86.8454      0.0000      4.7020      0.3907
   679.7500     90.5909      0.0000      4.5477      0.4157
   680.0000     94.9803      0.0000      4.3727      0.4522
   680.2500     99.5269      0.0000      4.2313      0.4775
   680.5000    104.3885      0.0000      4.1633      0.4821
   680.7500    109.5014      0.0000      4.1794      0.4749
   681.0000    113.6460      0.0000      4.2609      0.4687
   681.2500    114.8650      0.0000      4.3718      0.4673
   681.5000    111.8552      0.0000      4.4758      0.4666
   681.7500    104.8037      0.0000      4.5469      0.4623
   682.0000     95.0380      0.0000      4.5745      0.4541
   682.2500     84.2185      0.0000      4.5648      0.4445
   682.5000     73.7954      0.0000      4.5382      0.4366
   682.7500     64.8479      0.0000      4.5174      0.4316
   683.0000     58.1585      0.0000      4.5121      0.4281
   683.2500     54.2775      0.0000      4.5143      0.4242
   683.5000     53.3844      0.0000      4.5085      0.4220
   683.7500     55.1706      0.0000      4.4875      0.4279
   684.0000     59.0167      0.0000      4.4578      0.4442
   684.2500     64.2325      0.0000      4.4326      0.4643
   684.5000     70.0620      0.0000      4.4215      0.4779
   684.7500     75.7013      0.0000      4.4251      0.4800
   685.0000     80.5830      0.0000      4.4357      0.4711
   685.2500     84.5226      0.0000      4.4414      0.4532
   685.5000     87.3843      0.0000      4.4330      0.4302
   685.7500     88.7958      0.0000      4.4119      0.4110
   686.0000     88.4073      0.0000      4.3902      0.4065
   686.2500     86.3831      0.0000      4.3812      0.4198
   686.5000     83.5684      0.0000      4.3900      0.4423
   686.7500     81.2335      0.0000      4.4168      0.4604
   687.0000     80.5906      0.0000      4.4629      0.4651
   687.2500     82.2492      0.0000      4.5286      0.4547
   687.5000     85.8345      0.0000      4.6040      0.4326
   687.7500     90.1723      0.0000      4.6708      0.4048
   688.0000     94.0171      0.0000      4.7175      0.3770
   688.2500     96.7509      0.0000      4.7499      0.3516
   688.5000     98.4586      0.0000      4.7805      0.3275
   688.7500     99.4074      0.0000      4.8085      0.3045
   689.0000     99.5743      0.0000      4.8184      0.2878
   689.2500     98.7299      0.0000      4.7967      0.2839
   689.5000     96.8715      0.0000      4.7403      0.2932
   689.7500     94.4081      0.0000      4.6518      0.3075
   690.0000     91.8658      0.0000      4.5445      0.3171
   690.2500     89.5376      0.0000      4.4459      0.3190
   690.5000     87.5898      0.0000      4.3768      0.3199
   690.7500     86.3679      0.0000      4.3357      0.3301
   691.0000     86.2286      1.0440      4.3157      0.3513
   691.2500     86.9626      0.0000      4.3241      0.3743
   691.5000     87.5688      0.0000      4.3718      0.3898
   691.7500     86.8107      0.0000      4.4528      0.3980
   692.0000     84.0635      0.0000      4.5480      0.4053
   692.2500     79.7040      0.0000      4.6445      0.4156
   692.5000     75.0062      0.0000      4.7408      0.4269
   692.7500     71.8169      0.0000      4.8316      0.4370
   693.0000     71.8376      0.0000      4.8966      0.4512
   693.2500     75.4591      0.0000      4.9110      0.4798
   693.5000     81.0864      0.0000      4.8698      0.5271
   693.7500     85.9446      0.0000      4.7949      0.5819
   694.0000     87.8928      0.0000      4.7197      0.6229
   694.2500     86.6667      0.0000      4.6671      0.6371
   694.5000     83.6596      0.0000      4.6392      0.6298
   694.7500     80.6282      0.0000      4.6243      0.6173
   695.0000     78.4931      0.0000      4.6134      0.6115
   695.2500     77.2760      0.0000      4.6113      0.6115
   695.5000     76.9410      0.0000      4.6273      0.6093
   695.7500     77.8081      0.0000      4.6543      0.6026
   696.0000     79.9502      0.0000      4.6670      0.5995
   696.2500     82.5022      0.0000      4.6461      0.6087
   696.5000     84.0828      0.0000      4.6014      0.6284
   696.7500     84.0779      0.0000      4.5628      0.6485
   697.0000     83.2598      0.0000      4.5508      0.6606
   697.2500     82.8404      0.0000      4.5580      0.6654
   697.5000     83.1564      0.0000      4.5604      0.6678
   697.7500     83.6370      0.0000      4.5440      0.6700
   698.0000     83.8266      0.0000      4.5217      0.6704
   698.2500     83.8797      0.0000      4.5203      0.6692
   698.5000     84.0871      0.0000      4.5520      0.6703
   698.7500     84.3979      0.0000      4.6023      0.6764
   699.0000     84.5716      0.0000      4.6480      0.6843
