~Version Information
VERS.                      2.0: CWLS Log ASCII Standard - VERSION 2.0
WRAP.                       NO: One line per depth step
~Well Information Block
STRT.FT               250.0000: 
STOP.FT              1573.7500: 
STEP.FT                 0.2500: 
NULL.                -999.2500: 
COMP.          Pioneer Natural Resources: COMPANY
WELL.          Big Cat Federal 44-1: WELL
FLD.           Purgatoire River: FIELD
LOC.           197' FSL & 973' FEL--: LOCATION
CNTY.               Las Animas: COUNTY
SRVC.                Patterson: SERVICE COMPANY
DATE.          Sun Apr 23 14:54:11 2006: LOG DATE
UWI.           05 071 08042 00: UNIQUE WELL ID
STAT.                 Colorado: STATE
~Curve Information Block
DEPT.FT            0 000 00 00: Depth
DIR.Ohm-m                     : IEL Induction Resistivity
GR.GAPI                       : Gamma Ray
~Parameter Information Block
~A  Depth       DIR          GR     
# ...
   417.2500      8.6749    126.8223
   417.5000      8.6608    128.3232
   417.7500      8.6990    129.0077
   418.0000      8.7666    128.7040
   418.2500      8.8375    127.5536
   418.5000      8.8912    124.8746
   418.7500      8.9183    122.9568
   419.0000      8.9203    120.9192
   419.2500      8.9042    120.5444
   419.5000      8.8777    121.3905
   419.7500      8.8450    122.3966
   420.0000      8.8082    123.3815
   420.2500      8.7689    123.1760
   420.5000      8.7324    121.6464
   420.7500      8.7085    120.4804
   421.0000      8.7093    119.9746
   421.2500      8.7447    120.8307
   421.5000      8.8182    123.0818
   421.7500      8.9230    124.2790
   422.0000      9.0421    124.3717
   422.2500      9.1512    123.0144
   422.5000      9.2278    119.0389
   422.7500      9.2638    115.7370
   423.0000      9.2735    111.9343
   423.2500      9.2904    111.4382
   423.5000      9.3493    114.2905
   423.7500      9.4627    117.6011
   424.0000      9.5954    122.0441
   424.2500      9.6491    123.6732
   424.5000      9.4834    124.2397
   424.7500      8.9954    124.0512
   425.0000      8.2140    123.9299
   425.2500      7.2972    124.2068
   425.5000      6.4265    125.1660
   425.7500      5.7166    126.0002
   426.0000      5.2018    126.9151
   426.2500      4.8613    126.7969
   426.5000      4.6425    124.8168
   426.7500      4.4751    122.1914
   427.0000      4.2912    116.8584
   427.2500      4.0558    113.1189
   427.5000      3.7853    108.7941
   427.7500      3.5310    107.4149
   428.0000      3.3447    107.8073
   428.2500      3.2599    109.4458
   428.5000      3.2885    113.3035
   428.7500      3.4176    116.3531
   429.0000      3.5909    120.8240
   429.2500      3.6836    123.3584
   429.5000      3.5343    126.1574
   429.7500      3.0891    127.2767
   430.0000      2.4901    127.7460
   430.2500      1.9320    127.1494
   430.5000      1.5121    124.4876
   430.7500      1.2399    121.2459
   431.0000      1.0967    114.0603
   431.2500      1.0738    107.9507
   431.5000      1.1943     97.3097
   431.7500      1.5588     89.4670
   432.0000      2.5414     77.3342
   432.2500      6.2973     69.8120
   432.5000 100000.0000     60.7825
   432.7500 100000.0000     56.5909
   433.0000 100000.0000     52.6059
   433.2500 100000.0000     50.9513
   433.5000 100000.0000     49.1074
   433.7500 100000.0000     47.9697
   434.0000 100000.0000     46.2975
   434.2500 100000.0000     45.4499
   434.5000 100000.0000     45.2194
   434.7500 100000.0000     45.9535
   435.0000 100000.0000     48.1274
   435.2500      4.6247     50.0013
   435.5000      1.8428     53.4039
   435.7500      1.1119     56.4444
   436.0000      0.8190     62.9900
   436.2500      0.6856     68.8104
   436.5000      0.6280     78.9638
   436.7500      0.6145     85.9148
   437.0000      0.6338     95.7017
   437.2500      0.6862    101.7289
   437.5000      0.7793    110.1068
   437.7500      0.9273    114.9924
   438.0000      1.1499    120.3546
   438.2500      1.4694    122.2013
   438.5000      1.9022    122.2762
   438.7500      2.4386    120.7263
   439.0000      3.0197    116.5832
   439.2500      3.5399    113.0966
   439.5000      3.9032    107.7681
   439.7500      4.0880    104.6852
   440.0000      4.1485    101.4105
   440.2500      4.1673    100.2144
   440.5000      4.2190     99.3673
   440.7500      4.3643     98.8875
   441.0000      4.6601     97.6617
   441.2500      5.1729     96.5260
   441.5000      5.9907     94.8938
   441.7500      7.2265     94.3380
   442.0000      8.9989     95.2271
   442.2500     11.3609     97.3440
   442.5000     14.1815    102.5400
   442.7500     17.0882    106.5626
   443.0000     19.6174    111.6985
   443.2500     21.4382    113.8953
   443.5000     22.3688    115.5818
   443.7500     22.3012    116.3006
   444.0000     21.2855    117.5827
   444.2500     19.6337    118.3911
   444.5000     17.7978    118.6724
   444.7500     16.1420    118.1959
   445.0000     14.8476    117.5990
   445.2500     13.9520    117.8979
   445.5000     13.4171    119.0785
   445.7500     13.1725    119.5929
   446.0000     13.1361    119.1272
   446.2500     13.2239    118.1227
   446.5000     13.3599    116.2736
   446.7500     13.4835    115.1706
   447.0000     13.5549    114.1759
   447.2500     13.5533    114.1448
   447.5000     13.4723    115.1429
   447.7500     13.3148    116.4679
   448.0000     13.0896    119.4300
   448.2500     12.8106    122.0071
   448.5000     12.4959    126.3168
   448.7500     12.1659    129.0107
   449.0000     11.8390    132.0124
   449.2500     11.5272    133.0546
   449.5000     11.2351    133.0828
   449.7500     10.9613    132.2689
   450.0000     10.7031    130.5832
   450.2500     10.4613    129.6475
   450.5000     10.2422    128.7730
   450.7500     10.0558    128.2327
   451.0000      9.9113    126.7960
   451.2500      9.8123    125.3321
   451.5000      9.7553    122.8356
   451.7500      9.7299    121.2925
   452.0000      9.7207    119.2949
   452.2500      9.7121    118.1302
   452.5000      9.6930    116.9499
   452.7500      9.6613    116.9470
   453.0000      9.6235    118.3617
   453.2500      9.5916    119.8434
   453.5000      9.5782    121.8566
   453.7500      9.5931    122.8167
   454.0000      9.6407    124.0209
   454.2500      9.7207    124.8931
   454.5000      9.8289    126.0585
   454.7500      9.9588    126.3005
   455.0000     10.1037    125.3805
   455.2500     10.2603    124.1637
   455.5000     10.4304    122.7085
   455.7500     10.6214    122.7058
   456.0000     10.8418    124.2776
   456.2500     11.0958    125.7586
   456.5000     11.3782    127.4033
   456.7500     11.6739    127.7361
   457.0000     11.9641    126.9307
   457.2500     12.2359    125.5737
   457.5000     12.4869    122.8026
   457.7500     12.7213    121.0166
   458.0000     12.9410    119.3104
   458.2500     13.1416    118.9782
   458.5000     13.3180    119.2134
   458.7500     13.4709    119.3659
   459.0000     13.6079    119.0346
   459.2500     13.7383    118.5148
   459.5000     13.8648    117.8916
   459.7500     13.9801    117.8948
   460.0000     14.0686    118.6499
   460.2500     14.1129    119.5007
   460.5000     14.1023    120.8359
   460.7500     14.0385    121.5476
   461.0000     13.9342    122.3938
   461.2500     13.8075    123.0472
   461.5000     13.6771    124.4136
   461.7500     13.5609    125.4488
   462.0000     13.4763    126.7074
   462.2500     13.4376    127.1344
   462.5000     13.4534    126.9418
   462.7500     13.5237    126.1553
   463.0000     13.6400    123.9369
   463.2500     13.7875    121.9065
   463.5000     13.9504    118.5661
   463.7500     14.1191    116.5494
   464.0000     14.2950    114.5609
   464.2500     14.4892    114.2460
   464.5000     14.7167    115.3628
   464.7500     14.9886    116.8296
   465.0000     15.3050    119.0026
   465.2500     15.6504    119.7291
   465.5000     15.9947    119.1914
   465.7500     16.2996    118.1102
   466.0000     16.5311    116.8419
   466.2500     16.6730    116.8821
   466.5000     16.7343    118.0968
   466.7500     16.7476    118.9798
   467.0000     16.7581    119.4468
   467.2500     16.8083    119.2313
   467.5000     16.9252    118.9376
   467.7500     17.1162    119.1223
   468.0000     17.3723    119.7089
   468.2500     17.6779    119.6963
   468.5000     18.0204    117.9173
   468.7500     18.3942    115.2563
   469.0000     18.7976    109.6797
   469.2500     19.2268    105.8392
   469.5000     19.6722    101.5629
   469.7500     20.1179    100.1870
   470.0000     20.5447    100.2309
   470.2500     20.9368    101.4208
   470.5000     21.2903    104.3988
   470.7500     21.6209    106.5058
   471.0000     21.9628    108.1293
   471.2500     22.3600    107.4465
   471.5000     22.8574    103.7847
   471.7500     23.4978    100.1595
   472.0000     24.3208     94.0530
   472.2500     25.3591     89.9893
   472.5000     26.6308     84.3384
   472.7500     28.1377     81.0001
