~Version Information
VERS.                      2.0: CWLS Log ASCII Standard - VERSION 2.0
WRAP.                       NO: One line per depth step
~Well Information Block
STRT.FT               575.0000: 
STOP.FT              2016.2500: 
STEP.FT                 0.2500: 
NULL.                -999.2500: 
COMP.          Pioneer Natural Resources: COMPANY
WELL.          Bucksnort 41-35: WELL
FLD.           Purgatoire River: FIELD
LOC.           117' FNL & 463' FEL--: LOCATION
PROV.                 Colorado: PROVINCE
CNTY.               Las Animas: COUNTRY
SRVC.                Patterson: SERVICE COMPANY
DATE.          Thu Jul 21 10:13:55 2005: LOG DATE
UWI.           05 071 08401 00: UNIQUE WELL ID
~Curve Information Block
DEPT.FT            0 000 00 00: Depth
SN.Ohm-m                      : IEL Short Normal
SP.mV                         : IEL Spontaneous Potential
DIR.Ohm-m                     : IEL Induction Resistivity
GR.GAPI                       : Gamma Ray
~Parameter Information Block
~A  Depth        SN          SP         DIR          GR     
# ...
   675.5000   2000.0000   2000.0000     10.8813    117.1861
   675.7500   2000.0000   2000.0000     10.8181    114.8997
   676.0000   2000.0000   2000.0000     10.8401    112.4044
   676.2500   2000.0000   2000.0000     10.9446    111.5666
   676.5000   2000.0000   2000.0000     11.1299    111.1426
   676.7500   2000.0000   2000.0000     11.3977    110.9550
   677.0000   2000.0000   2000.0000     11.7555    110.3390
   677.2500   2000.0000   2000.0000     12.2144    109.8265
   677.5000   2000.0000   2000.0000     12.7826    109.3529
   677.7500   2000.0000   2000.0000     13.4550    109.1222
   678.0000   2000.0000   2000.0000     14.2026    107.9253
   678.2500   2000.0000   2000.0000     14.9665    106.1424
   678.5000   2000.0000   2000.0000     15.6659    102.5421
   678.7500   2000.0000   2000.0000     16.2222    100.3508
   679.0000   2000.0000   2000.0000     16.5880     98.4045
   679.2500   2000.0000   2000.0000     16.7617     98.0885
   679.5000   2000.0000   2000.0000     16.7761     98.7353
   679.7500   2000.0000   2000.0000     16.6724     99.6639
   680.0000   2000.0000   2000.0000     16.4793    101.4856
   680.2500   2000.0000   2000.0000     16.2080    102.9028
   680.5000   2000.0000   2000.0000     15.8603    105.3130
   680.7500   2000.0000   2000.0000     15.4423    107.0406
   681.0000   2000.0000   2000.0000     14.9711    109.4977
   681.2500   2000.0000   2000.0000     14.4722    110.9119
   681.5000   2000.0000   2000.0000     13.9710    112.8864
   681.7500   2000.0000   2000.0000     13.4864    114.3223
   682.0000   2000.0000   2000.0000     13.0270    116.6916
   682.2500   2000.0000   2000.0000     12.5928    118.2820
   682.5000   2000.0000   2000.0000     12.1783    120.7145
   682.7500   2000.0000   2000.0000     11.7780    122.5035
   683.0000   2000.0000   2000.0000     11.3894    125.2276
   683.2500   2000.0000   2000.0000     11.0142    126.6675
   683.5000   2000.0000   2000.0000     10.6559    127.9812
   683.7500   2000.0000   2000.0000     10.3178    128.6964
   684.0000   2000.0000   2000.0000     10.0025    130.6153
   684.2500   2000.0000   2000.0000      9.7122    132.7510
   684.5000   2000.0000   2000.0000      9.4502    136.7520
   684.7500   2000.0000   2000.0000      9.2201    139.3510
   685.0000   2000.0000   2000.0000      9.0253    142.4108
   685.2500   2000.0000   2000.0000      8.8679    143.8257
   685.5000   2000.0000   2000.0000      8.7486    145.0986
   685.7500   2000.0000   2000.0000      8.6680    145.2641
   686.0000   2000.0000   2000.0000      8.6270    144.1612
   686.2500   2000.0000   2000.0000      8.6274    142.5646
   686.5000   2000.0000   2000.0000      8.6706    139.4927
   686.7500   2000.0000   2000.0000      8.7567    137.4298
   687.0000   2000.0000   2000.0000      8.8832    134.5565
   687.2500   2000.0000   2000.0000      9.0443    132.5474
   687.5000   2000.0000   2000.0000      9.2304    128.9162
   687.7500   2000.0000   2000.0000      9.4292    126.1583
   688.0000   2000.0000   2000.0000      9.6290    122.3991
   688.2500   2000.0000   2000.0000      9.8219    120.9052
   688.5000   2000.0000   2000.0000     10.0054    121.2822
   688.7500   2000.0000   2000.0000     10.1823    123.3247
   689.0000   2000.0000   2000.0000     10.3592    127.6441
   689.2500   2000.0000   2000.0000     10.5446    130.1989
   689.5000   2000.0000   2000.0000     10.7466    132.8042
   689.7500   2000.0000   2000.0000     10.9701    134.1836
   690.0000   2000.0000   2000.0000     11.2151    136.2602
   690.2500   2000.0000   2000.0000     11.4774    137.1156
   690.5000   2000.0000   2000.0000     11.7517    136.3109
   690.7500   2000.0000   2000.0000     12.0356    134.3826
   691.0000   2000.0000   2000.0000     12.3315    130.6465
   691.2500   2000.0000   2000.0000     12.6461    128.2187
   691.5000   2000.0000   2000.0000     12.9875    124.9016
   691.7500   2000.0000   2000.0000     13.3655    122.9312
   692.0000   2000.0000   2000.0000     13.7913    120.8231
   692.2500   2000.0000   2000.0000     14.2772    120.3203
   692.5000   2000.0000   2000.0000     14.8341    120.7052
   692.7500   2000.0000   2000.0000     15.4673    120.9488
   693.0000   2000.0000   2000.0000     16.1733    119.5977
   693.2500   2000.0000   2000.0000     16.9375    116.9284
   693.5000   2000.0000   2000.0000     17.7370    110.2135
   693.7500   2000.0000   2000.0000     18.5517    104.3582
   694.0000   2000.0000   2000.0000     19.3790     94.8099
   694.2500   2000.0000   2000.0000     20.2399     88.8294
   694.5000   2000.0000   2000.0000     21.1657     81.5209
   694.7500   2000.0000   2000.0000     22.1729     77.9357
   695.0000   2000.0000   2000.0000     23.2436     74.3117
   695.2500   2000.0000   2000.0000     24.3255     72.8916
   695.5000   2000.0000   2000.0000     25.3517     71.8188
   695.7500   2000.0000   2000.0000     26.2656     71.3988
   696.0000   2000.0000   2000.0000     27.0325     70.4130
   696.2500   2000.0000   2000.0000     27.6363     69.2299
   696.5000   2000.0000   2000.0000     28.0756     66.8454
   696.7500   2000.0000   2000.0000     28.3654     65.2957
   697.0000   2000.0000   2000.0000     28.5328     63.7291
   697.2500   2000.0000   2000.0000     28.5913     63.1888
   697.5000   2000.0000   2000.0000     28.5105     62.4976
   697.7500   2000.0000   2000.0000     28.2106     61.8378
   698.0000   2000.0000   2000.0000     27.5980     60.9294
   698.2500   2000.0000   2000.0000     26.6172     60.9868
   698.5000   2000.0000   2000.0000     25.2836     63.0399
   698.7500   2000.0000   2000.0000     23.6818     66.0629
   699.0000   2000.0000   2000.0000     21.9412     73.4420
   699.2500   2000.0000   2000.0000     20.1996     80.3062
   699.5000   2000.0000   2000.0000     18.5675     92.9305
   699.7500   2000.0000   2000.0000     17.1086    102.0691
   700.0000   2000.0000   2000.0000     15.8418    114.9109
   700.2500   2000.0000   2000.0000     14.7568    121.7836
   700.5000   2000.0000   2000.0000     13.8315    128.4833
   700.7500   2000.0000   2000.0000     13.0441    130.6217
   701.0000   2000.0000   2000.0000     12.3806    131.2545
   701.2500   2000.0000   2000.0000     11.8352    130.5586
   701.5000   2000.0000   2000.0000     11.4078    128.7009
   701.7500   2000.0000   2000.0000     11.0973    127.3063
   702.0000   2000.0000   2000.0000     10.8968    125.2131
   702.2500   2000.0000   2000.0000     10.7919    123.6716
   702.5000   2000.0000   2000.0000     10.7624    120.8700
   702.7500   2000.0000   2000.0000     10.7869    118.7761
   703.0000   2000.0000   2000.0000     10.8467    115.9640
   703.2500   2000.0000   2000.0000     10.9281    114.8027
   703.5000   2000.0000   2000.0000     11.0215    114.6527
   703.7500   2000.0000   2000.0000     11.1205    115.5263
   704.0000   2000.0000   2000.0000     11.2219    117.5088
   704.2500   2000.0000   2000.0000     11.3267    118.6890
   704.5000   2000.0000   2000.0000     11.4422    119.4951
   704.7500   2000.0000   2000.0000     11.5812    119.2618
   705.0000   2000.0000   2000.0000     11.7591    118.2027
   705.2500   2000.0000   2000.0000     11.9894    117.5812
   705.5000   2000.0000   2000.0000     12.2800    117.7036
   705.7500   2000.0000   2000.0000     12.6322    118.6560
   706.0000   2000.0000   2000.0000     13.0425    120.6984
   706.2500   2000.0000   2000.0000     13.5069    121.6372
   706.5000   2000.0000   2000.0000     14.0240    121.0115
   706.7500   2000.0000   2000.0000     14.5949    118.8111
   707.0000   2000.0000   2000.0000     15.2235    112.9791
   707.2500   2000.0000   2000.0000     15.9145    107.9125
   707.5000   2000.0000   2000.0000     16.6716     99.8471
   707.7500   2000.0000   2000.0000     17.4938     94.9212
   708.0000   2000.0000   2000.0000     18.3724     89.0779
   708.2500   2000.0000   2000.0000     19.2905     86.3900
   708.5000   2000.0000   2000.0000     20.2241     84.0596
   708.7500   2000.0000   2000.0000     21.1428     83.4575
