~Version Information
VERS.                      2.0: CWLS Log ASCII Standard - VERSION 2.0
WRAP.                       NO: One line per depth step
~Well Information Block
STRT.FT               577.0000: 
STOP.FT              2643.2000: 
STEP.FT                 0.1000: 
NULL.                -999.2500: 
COMP.          Petrogulf Corporation: COMPANY
WELL.           Montoya 12-41V: WELL
FLD.           Purgatorie River: FIELD
LOC.           1081' FNL & 605' FEL: LOCATION
CNTY.               Las Animas: COUNTY
SRVC.                         : SERVICE COMPANY
DATE.          Tue Aug 10 14:17:12 2004: LOG DATE
UWI.           05 071 08094 00: UNIQUE WELL ID
STAT.                 Colorado: STATE
~Curve Information Block
DEPT.FT            0 000 00 00: Depth
DCAL.in                       : CDL Caliper
RHOB.g/cc                     : CDL Bulk Density
RHOC.g/cc                     : CDL Density Correction
DPOR.pu                       : CDL Density Porosity
GR.GAPI                       : Gamma Ray
NPOR.pu                       : Neutron Porosity
~Parameter Information Block
~A  Depth       DCAL        RHOB        RHOC        DPOR         GR         NPOR    
# ...
  2631.4000      6.9657      2.4796      0.1496     10.3252   -999.2500   -999.2500
  2631.5000      6.9404      2.4874      0.1065      9.8563   -999.2500   -999.2500
  2631.6000      6.9404      2.5036      0.1290      8.8736   -999.2500   -999.2500
  2631.7000      6.9404      2.5148      0.1789      8.1957   -999.2500   -999.2500
  2631.8000      6.8684      2.5153      0.1443      8.1655   -999.2500   -999.2500
  2631.9000      6.8684      2.5180      0.1065      8.0023   -999.2500   -999.2500
  2632.0000      6.8741      2.5267      0.1174      7.4714   -999.2500   -999.2500
  2632.1000      6.8741      2.5357      0.1249      6.9248   -999.2500   -999.2500
  2632.2000      6.8741      2.5433      0.1049      6.4652   -999.2500   -999.2500
  2632.3000      6.8469      2.5485      0.1096      6.1486   -999.2500   -999.2500
  2632.4000      6.8469      2.5475      0.1174      6.2130   -999.2500   -999.2500
  2632.5000      6.6379      2.5387      0.1231      6.7428   -999.2500   -999.2500
  2632.6000      6.6379      2.5287      0.1138      7.3543   -999.2500   -999.2500
  2632.7000      6.6379      2.5280      0.1119      7.3921   -999.2500   -999.2500
  2632.8000      6.1695      2.5344      0.1376      7.0045   -999.2500   -999.2500
  2632.9000      6.1695      2.5349      0.1209      6.9731   -999.2500   -999.2500
  2633.0000      6.0961      2.5321      0.1039      7.1465   -999.2500   -999.2500
  2633.1000      6.0961      2.5376      0.1239      6.8101   -999.2500   -999.2500
  2633.2000      6.0961      2.5494      0.1105      6.0941   -999.2500   -999.2500
  2633.3000      6.0853      2.5564      0.1167      5.6742   -999.2500   -999.2500
  2633.4000      6.0853      2.5520      0.1175      5.9371   -999.2500   -999.2500
  2633.5000      6.1292      2.5419      0.0833      6.5525   -999.2500   -999.2500
  2633.6000      6.1292      2.5410      0.0701      6.6059   -999.2500   -999.2500
  2633.7000      6.1292      2.5536      0.0813      5.8414   -999.2500   -999.2500
  2633.8000      6.2741      2.5667      0.1274      5.0459   -999.2500   -999.2500
  2633.9000      6.2741      2.5697      0.0975      4.8696   -999.2500   -999.2500
  2634.0000      6.3533      2.5629      0.0948      5.2769   -999.2500   -999.2500
  2634.1000      6.3533      2.5496      0.1000      6.0834   -999.2500   -999.2500
  2634.2000      6.3533      2.5352      0.0920      6.9569   -999.2500   -999.2500
  2634.3000      6.5491      2.5241      0.0908      7.6329   -999.2500   -999.2500
  2634.4000      6.5491      2.5146      0.0558      8.2031   -999.2500   -999.2500
  2634.5000      6.5938      2.5039      0.0835      8.8517   -999.2500   -999.2500
  2634.6000      6.5938      2.4884      0.0846      9.7920   -999.2500   -999.2500
  2634.7000      6.5938      2.4752      0.0450     10.5913   -999.2500   -999.2500
  2634.8000      6.5964      2.4752      0.0631     10.5957   -999.2500   -999.2500
  2634.9000      6.5964      2.4810      0.0879     10.2415   -999.2500   -999.2500
  2635.0000      6.5246      2.4788      0.0805     10.3774   -999.2500   -999.2500
  2635.1000      6.5246      2.4706      0.0821     10.8702   -999.2500   -999.2500
  2635.2000      6.5246      2.4704      0.0544     10.8818   -999.2500   -999.2500
  2635.3000      6.4169      2.4801      0.0619     10.2970   -999.2500   -999.2500
  2635.4000      6.4169      2.4852      0.1078      9.9855   -999.2500   -999.2500
  2635.5000      6.3084      2.4754      0.0996     10.5834   -999.2500   -999.2500
  2635.6000      6.3084      2.4610      0.0385     11.4571   -999.2500   -999.2500
  2635.7000      6.3084      2.4609      0.0675     11.4600   -999.2500   -999.2500
  2635.8000      6.2219      2.4764      0.0905     10.5182   -999.2500   -999.2500
  2635.9000      6.2219      2.4990      0.0831      9.1538   -999.2500   -999.2500
  2636.0000      5.7784      2.5253      0.1087      7.5587   -999.2500   -999.2500
  2636.1000      5.7784      2.5491      0.1072      6.1155   -999.2500   -999.2500
  2636.2000      5.7784      2.5607      0.0683      5.4125   -999.2500   -999.2500
  2636.3000      5.3164      2.5524      0.1389      5.9159   -999.2500   -999.2500
  2636.4000      5.3164      2.5211      0.1100      7.8146   -999.2500   -999.2500
  2636.5000      5.5723      2.4846      0.0345     10.0216   -999.2500   -999.2500
  2636.6000      5.5723      2.4727      0.0156     10.7427   -999.2500   -999.2500
  2636.7000      5.5723      2.4890      0.0351      9.7574   -999.2500   -999.2500
  2636.8000      6.2197      2.5073      0.0761      8.6492   -999.2500   -999.2500
  2636.9000      6.2197      2.5065      0.0789      8.6995   -999.2500   -999.2500
  2637.0000      6.3796      2.4921      0.0574      9.5667   -999.2500   -999.2500
  2637.1000      6.3796      2.4826      0.0544     10.1437   -999.2500   -999.2500
  2637.2000      6.3796      2.4854      0.0808      9.9787   -999.2500   -999.2500
  2637.3000      6.7299      2.4917      0.0853      9.5940   -999.2500   -999.2500
  2637.4000      6.7299      2.4904      0.0940      9.6756   -999.2500   -999.2500
  2637.5000      6.9426      2.4843      0.0233     10.0443   -999.2500   -999.2500
  2637.6000      6.9426      2.4879      0.0555      9.8267   -999.2500   -999.2500
  2637.7000      6.9426      2.5032      0.0722      8.8983   -999.2500   -999.2500
  2637.8000      6.9824      2.5215      0.0577      7.7903   -999.2500   -999.2500
  2637.9000      6.9824      2.5344      0.0844      7.0057   -999.2500   -999.2500
  2638.0000      6.9939      2.5349      0.0765      6.9743   -999.2500   -999.2500
  2638.1000      6.9939      2.5284      0.0628      7.3705   -999.2500   -999.2500
  2638.2000      6.9939      2.5231      0.0841      7.6918   -999.2500   -999.2500
  2638.3000      6.9579      2.5147      0.0726      8.2017   -999.2500   -999.2500
  2638.4000      6.9579      2.5012      0.0799      9.0176   -999.2500   -999.2500
  2638.5000      6.9907      2.4944      0.0336      9.4313   -999.2500   -999.2500
  2638.6000      6.9907      2.5020      0.0512      8.9727   -999.2500   -999.2500
  2638.7000      6.9907      2.5119      0.0719      8.3673   -999.2500   -999.2500
  2638.8000      7.0167      2.5110      0.0940      8.4265   -999.2500   -999.2500
  2638.9000      7.0167      2.5040      0.0566      8.8502   -999.2500   -999.2500
  2639.0000      7.0658      2.5029      0.0794      8.9137   -999.2500   -999.2500
  2639.1000      7.0658      2.5129      0.0432      8.3076   -999.2500   -999.2500
  2639.2000      7.0658      2.5285      0.0925      7.3639   -999.2500   -999.2500
  2639.3000      7.1154      2.5335      0.0890      7.0578   -999.2500   -999.2500
  2639.4000      7.1154      2.5248      0.0711      7.5858   -999.2500   -999.2500
  2639.5000      7.2184      2.5113      0.0710      8.4053   -999.2500   -999.2500
  2639.6000      7.2184      2.4971      0.0626      9.2640   -999.2500   -999.2500
  2639.7000      7.2184      2.4875      0.0721      9.8457   -999.2500   -999.2500
  2639.8000      7.2732      2.4830      0.0946     10.1187   -999.2500   -999.2500
  2639.9000      7.2732      2.4759      0.0870     10.5527   -999.2500   -999.2500
  2640.0000      7.3100      2.4645      0.0689     11.2418   -999.2500   -999.2500
  2640.1000      7.3100      2.4545      0.0398     11.8480   -999.2500   -999.2500
  2640.2000      7.3100      2.4525      0.0187     11.9718   -999.2500   -999.2500
  2640.3000      7.2988      2.4599      0.0344     11.5203   -999.2500   -999.2500
  2640.4000      7.2988      2.4713      0.0536     10.8274   -999.2500   -999.2500
  2640.5000      7.2127      2.4812      0.0442     10.2281   -999.2500   -999.2500
  2640.6000      7.2127      2.4839      0.0601     10.0675   -999.2500   -999.2500
  2640.7000      7.2127      2.4769      0.0804     10.4916   -999.2500   -999.2500
  2640.8000      7.1003      2.4883      0.0468      9.7971   -999.2500   -999.2500
  2640.9000      7.1003      2.5680      0.0874      4.9685   -999.2500   -999.2500
