~Version Information
VERS.                      2.0: CWLS Log ASCII Standard - VERSION 2.0
WRAP.                       NO: One line per depth step
~Well Information Block
STRT.FT                -4.7500: 
STOP.FT              2809.5000: 
STEP.FT                 0.2500: 
NULL.                -999.2500: 
COMP.          Pioneer Natural Resources: COMPANY
WELL.              Lynch 43-30: WELL
FLD.           Purgatorie River: FIELD
LOC.           1438' FSL & 429' FEL--: LOCATION
PROV.                       CO: PROVINCE
CNTY.               Las Animas: COUNTRY
SRVC.                         : SERVICE COMPANY
DATE.          Sat Oct 30 09:52:34 2004: LOG DATE
UWI.          005 071 08170   : UNIQUE WELL ID
~Curve Information Block
DEPT.FT            0 000 00 00: Depth
GR.GAPI                       : Gamma Ray
CCL.                          : Casing Collar Locator
TT3.usec                      : CBL 3' Travel Time
AMP3.mV                       : CBL 3' Amplitude
~Parameter Information Block
~A  Depth        GR         CCL         TT3         AMP3    
# ...
  1301.7500    130.4250      0.0000    717.4174      8.8490
  1302.0000    136.9235      0.0000    717.5192      8.9067
  1302.2500    143.1372      0.0000    717.7225      8.9307
  1302.5000    147.0116      0.0000    718.0329      8.9286
  1302.7500    148.1751      0.0000    718.4129      8.9278
  1303.0000    147.1625      0.0000    718.7230      8.9470
  1303.2500    145.4360      0.0000    718.7554      8.9808
  1303.5000    145.3305      0.0000    718.3781      9.0137
  1303.7500    148.3259      0.0000    717.6616      9.0390
  1304.0000    152.8992      0.0000    716.8499      9.0589
  1304.2500    154.9676      0.0000    716.2355      9.0726
  1304.5000    151.0961      0.0000    716.1240      9.0682
  1304.7500    141.3189      0.0000    716.9773      9.0308
  1305.0000    128.9565      0.0000    719.5213      8.9665
  1305.2500    117.8125      0.0000    724.4332      8.9152
  1305.5000    109.5473      0.0000    731.5999      8.9214
  1305.7500    103.5325      0.0000    739.6901      8.9827
  1306.0000     98.5807      0.0000    746.7529      9.0392
  1306.2500     94.4009      0.0000    751.3566      9.0262
  1306.5000     91.7513      0.0000    753.0241      8.9313
  1306.7500     91.6994      0.0000    751.7326      8.7994
  1307.0000     94.6828      0.0000    747.5588      8.6868
  1307.2500    100.0643      0.0000    741.1816      8.6122
  1307.5000    106.5545      0.0000    734.5094      8.5502
  1307.7500    112.8289      0.0000    730.2387      8.4718
  1308.0000    117.5767      0.0000    730.3133      8.3855
  1308.2500    119.5986      0.0000    734.5223      8.3284
  1308.5000    118.6226      0.0000    740.4289      8.3211
  1308.7500    115.9119      0.0000    744.8019      8.3433
  1309.0000    113.6774      0.0000    745.6760      8.3567
  1309.2500    113.9003      0.0000    743.6650      8.3405
  1309.5000    117.4913      0.0000    741.4280      8.3001
  1309.7500    123.9024      0.0000    741.4340      8.2486
  1310.0000    131.2561      0.0000    743.8615      8.1935
  1310.2500    137.2697      0.0000    746.7173      8.1433
  1310.5000    140.4973      0.0000    747.9536      8.1207
  1310.7500    140.8578      0.0000    747.1210      8.1591
  1311.0000    139.1329      0.0000    744.9076      8.2805
  1311.2500    136.2623      0.0000    741.6640      8.4790
  1311.5000    133.1085      0.0000    737.1189      8.7270
  1311.7500    130.4720      0.0000    731.4910      8.9912
  1312.0000    128.8772      0.0000    726.0706      9.2449
  1312.2500    128.4016      0.0000    722.3607      9.4714
  1312.5000    128.9961      0.0000    721.1637      9.6584
  1312.7500    130.7682      0.0000    722.6923      9.7878
  1313.0000    133.4505      0.0000    726.9019      9.8369
  1313.2500    135.8380      0.0000    733.0929      9.7983
  1313.5000    136.6534      0.0000    739.5140      9.6979
  1313.7500    136.1394      0.0000    744.1910      9.5852
  1314.0000    135.9324      0.0000    746.4237      9.5000
  1314.2500    136.9944      0.0000    747.0042      9.4496
  1314.5000    138.3719      0.0000    746.7877      9.4196
  1314.7500    138.4869      0.0000    745.5934      9.4021
  1315.0000    137.2596      0.0000    742.7718      9.4056
  1315.2500    136.4452      0.0000    738.2712      9.4392
  1315.5000    137.7934      0.0000    732.8111      9.4990
  1315.7500    141.1405      0.0000    727.5137      9.5756
  1316.0000    144.4203      0.0000    723.7278      9.6659
  1316.2500    145.3418      0.0000    722.7936      9.7677
  1316.5000    142.9015      0.0000    725.4109      9.8675
  1316.7500    137.7507      0.0000    730.8746      9.9453
  1317.0000    131.6271      0.0000    736.9835      9.9899
  1317.2500    126.3082      0.0000    741.2045     10.0020
  1317.5000    122.9707      0.0000    742.4280      9.9857
  1317.7500    122.4616      0.0000    741.5458      9.9429
  1318.0000    125.4868      0.0000    740.1477      9.8780
  1318.2500    131.7323      0.0000    738.5591      9.8014
  1318.5000    139.1646      0.0000    734.8763      9.7242
  1318.7500    145.2130      0.0000    725.5126      9.6457
  1319.0000    148.8110      0.0000    707.0232      9.5455
  1319.2500    150.8758      0.0000    679.2233      9.3950
  1319.5000    153.0083      0.0000    648.5816      9.1879
  1319.7500    156.1824      0.0000    627.5939      8.9593
  1320.0000    160.4390      0.0000    626.8653      8.7672
  1320.2500    165.1125      0.0000    646.0087      8.6505
  1320.5000    169.1466      0.0000    674.1714      8.6043
  1320.7500    171.6899      0.0000    699.8936      8.5937
  1321.0000    172.5096      0.0000    718.6864      8.5872
  1321.2500    171.5786      0.0000    731.8839      8.5776
  1321.5000    168.6860      0.0000    741.6988      8.5757
  1321.7500    164.0866      0.0000    748.8771      8.5886
  1322.0000    158.9546      0.0000    753.4591      8.6089
  1322.2500    154.5980      0.0000    755.8698      8.6222
  1322.5000    151.7324      0.0000    756.9388      8.6228
  1322.7500    150.4760      0.0000    757.3896      8.6167
  1323.0000    150.0828      0.0000    757.5856      8.6100
  1323.2500    149.0601      0.0000    757.6363      8.5964
  1323.5000    146.7546      0.0000    757.5641      8.5616
  1323.7500    144.4486      0.0000    757.3962      8.5017
  1324.0000    143.8454      0.0000    757.1931      8.4353
  1324.2500    144.7791      0.0000    757.0315      8.3927
  1324.5000    145.3117      0.0000    756.9603      8.3905
  1324.7500    144.0159      0.0000    756.9285      8.4186
  1325.0000    141.4378      0.0000    756.6927      8.4484
  1325.2500    139.1143      0.0000    755.7106      8.4468
  1325.5000    137.8049      0.0000    753.1400      8.3883
  1325.7500    137.2800      0.0000    748.1927      8.2677
  1326.0000    137.2428      0.0000    740.8612      8.1101
  1326.2500    137.5827      0.0000    732.3796      7.9647
  1326.5000    138.0336      0.0000    724.6808      7.8796
  1326.7500    138.4265      0.0000    719.1841      7.8785
  1327.0000    139.0876      0.0000    716.0958      7.9550
  1327.2500    140.4564      0.0000    714.7294      8.0804
  1327.5000    142.4670      0.0000    714.2418      8.2170
  1327.7500    144.3492      0.0000    714.1264      8.3282
  1328.0000    144.6472      0.0000    714.3685      8.3877
  1328.2500    141.8355      0.0000    715.4430      8.3878
  1328.5000    135.9988      0.0000    718.1747      8.3391
  1328.7500    129.8274      0.0000    723.2418      8.2607
  1329.0000    126.9914      0.0000    730.3386      8.1702
  1329.2500    129.3364      0.0000    737.6536      8.0836
  1329.5000    135.9937      0.0000    742.4880      8.0198
  1329.7500    144.7228      0.0000    742.8416      7.9988
  1330.0000    153.3636      0.0000    738.7158      8.0318
  1330.2500    160.3618      0.0000    732.0577      8.1128
  1330.5000    165.0921      0.0000    725.4214      8.2206
  1330.7500    168.1057      0.0000    720.4863      8.3268
  1331.0000    170.2061      0.0000    717.5607      8.4066
  1331.2500    170.7744      0.0000    716.1071      8.4457
  1331.5000    167.8917      0.0000    715.4510      8.4387
  1331.7500    160.5592      0.0000    715.1144      8.3847
  1332.0000    150.1232      0.0000    714.8569      8.2921
  1332.2500    139.3834      0.0000    714.6542      8.1866
  1332.5000    130.8182      0.0000    714.6600      8.1075
  1332.7500    125.5051      0.0000    715.1655      8.0850
  1333.0000    123.1275      0.0000    716.6212      8.1215
  1333.2500    122.7379      0.0000    719.6469      8.1903
  1333.5000    123.7475      0.0000    724.7428      8.2544
  1333.7500    126.3595      0.0000    731.5989      8.2863
  1334.0000    130.9155      0.0000    738.6406      8.2750
  1334.2500    136.7450      0.0000    743.6714      8.2166
  1334.5000    142.0153      0.0000    745.4803      8.0966
  1334.7500    145.0632      0.0000    744.9151      7.8889
  1335.0000    145.6360      0.0000    744.0450      7.5759
