~Version Information
VERS.                      2.0: CWLS Log ASCII Standard - VERSION 2.0
WRAP.                       NO: One line per depth step
~Well Information Block
STRT.FT               840.0000: 
STOP.FT              2268.0000: 
STEP.FT                 0.2500: 
NULL.                -999.2500: 
COMP.          Pioneer Natural Resources: COMPANY
WELL.              Tonto 42-23: WELL
FLD.           Purgatoire River: FIELD
LOC.           2217' FNL & 423' FEL: LOCATION
PROV.                 Colorado: PROVINCE
CNTY.               Las Animas: COUNTRY
SRVC.                Patterson: SERVICE COMPANY
DATE.          Sun Apr 17 01:24:47 2005: LOG DATE
UWI.           05 071 08335 00: UNIQUE WELL ID
~Curve Information Block
DEPT.FT            0 000 00 00: Depth
SN.Ohm-m                      : IEL Short Normal
SP.mV                         : IEL Spontaneous Potential
DIR.Ohm-m                     : IEL Induction Resistivity
GR.GAPI                       : Gamma Ray
~Parameter Information Block
~A  Depth        SN          SP         DIR          GR     
# ...
  2146.5000     28.2769     94.2542     24.7602     36.1321
  2146.7500     28.2294     93.9249     25.4709     36.0576
  2147.0000     28.0534     93.5123     25.8844     35.9890
  2147.2500     27.7437     93.0032     26.0019     36.1937
  2147.5000     27.3379     92.3779     25.8757     36.8643
  2147.7500     26.8923     91.6184     25.6086     37.3852
  2148.0000     26.4580     90.7107     25.3157     38.1651
  2148.2500     26.0427     89.6458     25.0709     38.7900
  2148.5000     25.6119     88.4257     24.8758     39.9959
  2148.7500     25.1548     87.0687     24.6661     40.8160
  2149.0000     24.7148     85.6074     24.3435     41.5929
  2149.2500     24.3829     84.0845     23.8135     41.6896
  2149.5000     24.2669     82.5476     23.0199     41.4025
  2149.7500     24.3944     81.0359     21.9709     41.0775
  2150.0000     24.6314     79.5655     20.7438     40.5109
  2150.2500     24.7679     78.1281     19.4585     40.2129
  2150.5000     24.6758     76.7090     18.2304     40.5019
  2150.7500     24.3274     75.3071     17.1355     41.6533
  2151.0000     23.7234     73.9392     16.2063     45.2800
  2151.2500     22.8275     72.6235     15.4494     48.8843
  2151.5000     21.6316     71.3537     14.8659     55.4588
  2151.7500     20.2937     70.0902     14.4585     60.1543
  2152.0000     19.0866     68.7787     14.2251     66.9595
  2152.2500     18.2311     67.3821     14.1496     71.0362
  2152.5000     17.7406     65.9007     14.1990     75.9811
  2152.7500     17.4149     64.3743     14.3313     78.0940
  2153.0000     17.1120     62.8786     14.5109     78.5296
  2153.2500     16.9276     61.5221     14.7218     76.4543
  2153.5000     17.0614     60.4364     14.9706     69.5410
  2153.7500     17.7149     59.7477     15.2773     62.9773
  2154.0000     19.1144     59.5441     15.6660     52.3334
  2154.2500     21.4502     59.8562     16.1619     46.1461
  2154.5000     24.7375     60.6577     16.7956     40.1579
  2154.7500     28.6544     61.8770     17.6087     38.9347
  2155.0000     32.5431     63.4177     18.6495     41.1280
  2155.2500     35.7112     65.1827     19.9584     44.5967
  2155.5000     37.7027     67.0926     21.5427     51.0736
  2155.7500     38.3662     69.0868     23.3494     55.2717
  2156.0000     37.8690     71.1091     25.2488     60.3817
  2156.2500     36.6382     73.0925     27.0493     62.9259
  2156.5000     35.1512     74.9599     28.5501     65.9341
  2156.7500     33.7103     76.6448     29.6079     67.6618
  2157.0000     32.4165     78.1157     30.1770     69.8041
  2157.2500     31.3043     79.3857     30.3021     70.7861
  2157.5000     30.4140     80.5029     30.0844     71.6357
  2157.7500     29.7484     81.5331     29.6486     71.9593
  2158.0000     29.2349     82.5463     29.1167     72.0639
  2158.2500     28.7726     83.6015     28.5830     71.6093
  2158.5000     28.3097     84.7258     28.0973     69.8761
  2158.7500     27.8557     85.8942     27.6673     68.3102
  2159.0000     27.4393     87.0299     27.2800     66.3345
  2159.2500     27.0639     88.0413     26.9272     65.6522
  2159.5000     26.7097     88.8785     26.6137     65.3941
  2159.7500     26.3794     89.5641     26.3463     65.3421
  2160.0000     26.0728     90.1679     26.1176     65.1892
  2160.2500     25.7291     90.7539     25.9010     65.3254
  2160.5000     25.3015     91.3461     25.6584     66.4744
  2160.7500     24.8452     91.9308     25.3573     67.7887
  2161.0000     24.4489     92.4779     24.9831     69.6966
  2161.2500     24.1359     92.9599     24.5416     70.3766
  2161.5000     23.8622     93.3615     24.0552     70.0886
  2161.7500     23.5737     93.6837     23.5547     69.1106
  2162.0000     23.2316     93.9425     23.0654     67.0513
  2162.2500     22.8149     94.1584     22.5935     65.7650
  2162.5000     22.3345     94.3345     22.1232     64.6382
  2162.7500     21.8292     94.4440     21.6383     64.5629
  2163.0000     21.3646     94.4513     21.1505     65.2645
  2163.2500     21.0217     94.3528     20.7012     65.9429
  2163.5000     20.8188     94.1950     20.3354     66.5148
  2163.7500     20.6682     94.0440     20.0757     66.3556
  2164.0000     20.4608     93.9404     19.9196     65.7714
  2164.2500     20.1861     93.8799     19.8545     65.7434
  2164.5000     19.9093     93.8266     19.8642     66.8384
  2164.7500     19.6426     93.7371     19.9213     68.1865
  2165.0000     19.3700     93.5805     19.9800     70.3650
  2165.2500     19.1635     93.3434     19.9865     71.3934
  2165.5000     19.1029     93.0238     19.9054     71.6083
  2165.7500     19.1390     92.6243     19.7433     70.7997
  2166.0000     19.1868     92.1503     19.5456     68.7087
  2166.2500     19.2545     91.6143     19.3708     67.1945
  2166.5000     19.3798     91.0336     19.2603     65.3044
  2166.7500     19.5382     90.4230     19.2246     64.4657
  2167.0000     19.6523     89.7915     19.2498     63.9803
  2167.2500     19.6601     89.1489     19.3139     64.1597
  2167.5000     19.5766     88.5184     19.4013     64.9677
  2167.7500     19.4881     87.9373     19.5072     65.7233
  2168.0000     19.4887     87.4423     19.6362     67.1273
  2168.2500     19.5894     87.0487     19.7972     68.3168
  2168.5000     19.7086     86.7376     19.9981     70.5015
  2168.7500     19.7680     86.4582     20.2386     71.9722
  2169.0000     19.7605     86.1406     20.5073     73.2782
  2169.2500     19.7858     85.7137     20.7831     73.0186
  2169.5000     20.0150     85.1235     21.0403     70.7778
  2169.7500     20.5059     84.3465     21.2586     68.5162
  2170.0000     21.0767     83.3975     21.4362     65.1891
  2170.2500     21.4641     82.3277     21.5963     63.5779
  2170.5000     21.6060     81.2104     21.7754     62.5434
  2170.7500     21.6779     80.1201     21.9998     62.7923
  2171.0000     21.8535     79.1172     22.2689     64.0690
  2171.2500     22.1421     78.2396     22.5584     64.9653
  2171.5000     22.4320     77.5015     22.8359     65.6990
  2171.7500     22.6010     76.8973     23.0745     65.9018
  2172.0000     22.6023     76.4059     23.2573     66.5694
  2172.2500     22.4777     75.9958     23.3740     67.5845
  2172.5000     22.3171     75.6329     23.4186     69.7732
  2172.7500     22.2006     75.2916     23.3918     71.2290
  2173.0000     22.1797     74.9629     23.3055     72.5846
  2173.2500     22.2596     74.6555     23.1840     72.6684
  2173.5000     22.3484     74.3871     23.0566     71.6086
  2173.7500     22.3239     74.1716     22.9517     70.3561
  2174.0000     22.1831     74.0068     22.8949     68.1755
  2174.2500     22.0450     73.8709     22.9080     66.7082
  2174.5000     22.0407     73.7296     23.0045     64.4837
  2174.7500     22.2300     73.5518     23.1828     62.9680
  2175.0000     22.5732     73.3258     23.4274     61.0318
  2175.2500     22.9706     73.0687     23.7177     60.3622
  2175.5000     23.3383     72.8209     24.0374     60.5616
  2175.7500     23.6539     72.6277     24.3767     61.1990
  2176.0000     23.9527     72.5157     24.7319     62.0685
  2176.2500     24.2564     72.4798     25.1028     62.3246
  2176.5000     24.5191     72.4897     25.4906     62.3594
  2176.7500     24.6964     72.5101     25.8948     62.2859
  2177.0000     24.8624     72.5168     26.3130     61.8687
  2177.2500     25.1957     72.4981     26.7457     61.1790
  2177.5000     25.7829     72.4479     27.1969     59.4614
  2177.7500     26.4960     72.3621     27.6638     58.0250
  2178.0000     27.1432     72.2426     28.1242     55.9356
  2178.2500     27.6554     72.1036     28.5379     55.0648
  2178.5000     28.0710     71.9758     28.8668     55.5278
  2178.7500     28.3930     71.9019     29.0978     57.2238
  2179.0000     28.5637     71.9252     29.2474     60.9054
  2179.2500     28.5914     72.0722     29.3469     63.1058
  2179.5000     28.5227     72.3411     29.4161     64.8407
  2179.7500     28.2958     72.7027     29.4413     65.0183
