~Version Information
VERS.                      2.0: CWLS Log ASCII Standard - VERSION 2.0
WRAP.                       NO: One line per depth step
~Well Information Block
STRT.FT                -8.8000: 
STOP.FT              2006.2000: 
STEP.FT                 0.1000: 
NULL.                -999.2500: 
COMP.          Petrogulf Corporation: COMPANY
WELL.             J & P 12-33V: WELL
FLD.           Purgatorie River: FIELD
LOC.           2005' FSL & 1928' FEL: LOCATION
CNTY.               Las Animas: COUNTY
SRVC.                         : SERVICE COMPANY
DATE.          Fri Jul 29 13:37:28 2005: LOG DATE
UWI.                          : UNIQUE WELL ID
STAT.                 Colorado: STATE
~Curve Information Block
DEPT.FT            0 000 00 00: Depth
GR.GAPI                       : Gamma Ray
CCL.                          : Casing Collar Locator
TT3.usec                      : CBL 3' Travel Time
AMP3.mV                       : CBL 3' Amplitude
~Parameter Information Block
~A  Depth        GR         CCL         TT3         AMP3    
# ...
  1049.8000     58.5590      0.0000    255.9668     73.4435
  1049.9000     58.5590      0.0000    255.9668     73.4435
  1050.0000     57.2360      0.0000    255.9869     73.4399
  1050.1000     57.2360      0.0000    255.9869     73.4399
  1050.2000     57.2360      0.0000    255.9869     73.4399
  1050.3000     56.6735      0.0000    255.9878     73.4559
  1050.4000     56.6735      0.0000    255.9878     73.4559
  1050.5000     56.6394      0.0000    255.9877     73.4896
  1050.6000     56.6394      0.0000    255.9877     73.4896
  1050.7000     56.6394      0.0000    255.9877     73.4896
  1050.8000     56.7990      0.0000    255.9946     73.5268
  1050.9000     56.7990      0.0000    255.9946     73.5268
  1051.0000     57.2080      0.0000    255.9994     73.5657
  1051.1000     57.2080      0.0000    255.9994     73.5657
  1051.2000     57.2080      0.0000    255.9994     73.5657
  1051.3000     58.2737      0.0000    255.9956     73.6132
  1051.4000     58.2737      0.0000    255.9956     73.6132
  1051.5000     60.2913      0.0000    255.9861     73.6712
  1051.6000     60.2913      0.0000    255.9861     73.6712
  1051.7000     60.2913      0.0000    255.9861     73.6712
  1051.8000     63.2548      0.0000    255.9742     73.7316
  1051.9000     63.2548      0.0000    255.9742     73.7316
  1052.0000     66.9678      0.0000    255.9613     73.7824
  1052.1000     66.9678      0.0000    255.9613     73.7824
  1052.2000     66.9678      0.0000    255.9613     73.7824
  1052.3000     70.9033      0.0000    255.9503     73.8179
  1052.4000     70.9033      0.0000    255.9503     73.8179
  1052.5000     74.1054      0.0000    255.9411     73.8388
  1052.6000     74.1054      0.0000    255.9411     73.8388
  1052.7000     74.1054      0.0000    255.9411     73.8388
  1052.8000     75.6981      0.0000    255.9251     73.8490
  1052.9000     75.6981      0.0000    255.9251     73.8490
  1053.0000     75.4664      0.0000    255.8957     73.8527
  1053.1000     75.4664      0.0000    255.8957     73.8527
  1053.2000     75.4664      0.0000    255.8957     73.8527
  1053.3000     73.7029      0.0000    255.8617     73.8477
  1053.4000     73.7029      0.0000    255.8617     73.8477
  1053.5000     70.7515      0.0000    255.8428     73.8319
  1053.6000     70.7515      0.0000    255.8428     73.8319
  1053.7000     70.7515      0.0000    255.8428     73.8319
  1053.8000     67.0391      0.0000    255.8479     73.8114
  1053.9000     67.0391      0.0000    255.8479     73.8114
  1054.0000     63.3515      0.0000    255.8631     73.7947
  1054.1000     63.3515      0.0000    255.8631     73.7947
  1054.2000     63.3515      0.0000    255.8631     73.7947
  1054.3000     60.6291      0.0000    255.8698     73.7868
  1054.4000     60.6291      0.0000    255.8698     73.7868
  1054.5000     59.3697      0.0000    255.8705     73.7817
  1054.6000     59.3697      0.0000    255.8705     73.7817
  1054.7000     59.3697      0.0000    255.8705     73.7817
  1054.8000     59.4067      0.0000    255.8812     73.7687
  1054.9000     59.4067      0.0000    255.8812     73.7687
  1055.0000     60.2145      0.0000    255.9006     73.7555
  1055.1000     60.2145      0.0000    255.9006     73.7555
  1055.2000     60.2145      0.0000    255.9006     73.7555
  1055.3000     61.2037      0.0000    255.9077     73.7617
  1055.4000     61.2037      0.0000    255.9077     73.7617
  1055.5000     61.8616      0.0000    255.8937     73.7877
  1055.6000     61.8616      0.0000    255.8937     73.7877
  1055.7000     61.8616      0.0000    255.8937     73.7877
  1055.8000     62.0078      0.0000    255.8757     73.8097
  1055.9000     62.0078      0.0000    255.8757     73.8097
  1056.0000     62.0546      0.0000    255.8721     73.8096
  1056.1000     62.0546      0.0000    255.8721     73.8096
  1056.2000     62.0546      0.0000    255.8721     73.8096
  1056.3000     62.7584      0.0000    255.8844     73.7871
  1056.4000     62.7584      0.0000    255.8844     73.7871
  1056.5000     64.4786      0.0000    255.9077     73.7388
  1056.6000     64.4786      0.0000    255.9077     73.7388
  1056.7000     64.4786      0.0000    255.9077     73.7388
  1056.8000     66.7426      0.0000    255.9371     73.6630
  1056.9000     66.7426      0.0000    255.9371     73.6630
  1057.0000     68.7122      0.0000    255.9613     73.5833
  1057.1000     68.7122      0.0000    255.9613     73.5833
  1057.2000     68.7122      0.0000    255.9613     73.5833
  1057.3000     70.0447      0.0000    255.9665     73.5250
  1057.4000     70.0447      0.0000    255.9665     73.5250
  1057.5000     71.1643      0.0000    255.9508     73.4731
  1057.6000     71.1643      0.0000    255.9508     73.4731
  1057.7000     71.1643      0.0000    255.9508     73.4731
  1057.8000     72.6982      0.0000    255.9294     73.3926
  1057.9000     72.6982      0.0000    255.9294     73.3926
  1058.0000     74.7053      0.0000    255.9184     73.2860
  1058.1000     74.7053      0.0000    255.9184     73.2860
  1058.2000     74.7053      0.0000    255.9184     73.2860
  1058.3000     76.4681      0.0000    255.9211     73.2022
  1058.4000     76.4681      0.0000    255.9211     73.2022
  1058.5000     77.1620      0.0000    255.9301     73.2072
  1058.6000     77.1620      0.0000    255.9301     73.2072
  1058.7000     77.1620      0.0000    255.9301     73.2072
  1058.8000     76.8011      0.0000    255.9337     73.3578
  1058.9000     76.8011      0.0000    255.9337     73.3578
  1059.0000     76.3237      0.0000    255.9278     73.6487
  1059.1000     76.3237      0.0000    255.9278     73.6487
  1059.2000     76.3237      0.0000    255.9278     73.6487
  1059.3000     76.6300      0.0000    255.9189     74.0074
  1059.4000     76.6300      0.0000    255.9189     74.0074
  1059.5000     77.7108      0.0000    255.9081     74.3815
  1059.6000     77.7108      0.0000    255.9081     74.3815
  1059.7000     77.7108      0.0000    255.9081     74.3815
  1059.8000     78.7646      0.0000    255.8897     74.7478
  1059.9000     78.7646      0.0000    255.8897     74.7478
  1060.0000     78.8948      0.0000    255.8693     75.0164
  1060.1000     78.8948      0.0000    255.8693     75.0164
  1060.2000     78.8948      0.0000    255.8693     75.0164
  1060.3000     77.6809      0.0000    255.8642     75.0621
  1060.4000     77.6809      0.0000    255.8642     75.0621
  1060.5000     75.4547      0.0000    255.8811     74.8919
  1060.6000     75.4547      0.0000    255.8811     74.8919
  1060.7000     75.4547      0.0000    255.8811     74.8919
  1060.8000     73.2417      0.0000    255.9082     74.6855
  1060.9000     73.2417      0.0000    255.9082     74.6855
  1061.0000     72.3206      0.0000    255.9292     74.6149
  1061.1000     72.3206      0.0000    255.9292     74.6149
  1061.2000     72.3206      0.0000    255.9292     74.6149
  1061.3000     73.7013      0.0000    255.9369     74.6683
  1061.4000     73.7013      0.0000    255.9369     74.6683
  1061.5000     77.8881      0.0000    255.9371     74.7160
  1061.6000     77.8881      0.0000    255.9371     74.7160
  1061.7000     77.8881      0.0000    255.9371     74.7160
  1061.8000     84.8794      0.0000    255.9473     74.6851
  1061.9000     84.8794      0.0000    255.9473     74.6851
  1062.0000     94.0915      0.0000    255.9712     74.6279
  1062.1000     94.0915      0.0000    255.9712     74.6279
  1062.2000     94.0915      0.0000    255.9712     74.6279
  1062.3000    104.3058      0.0000    255.9806     74.6518
  1062.4000    104.3058      0.0000    255.9806     74.6518
  1062.5000    114.1148      0.0000    255.9496     74.7691
  1062.6000    114.1148      0.0000    255.9496     74.7691
  1062.7000    114.1148      0.0000    255.9496     74.7691
  1062.8000    122.6909      0.0000    255.8907     74.8489
  1062.9000    122.6909      0.0000    255.8907     74.8489
  1063.0000    130.0143      0.0000    255.8400     74.7727
  1063.1000    130.0143      0.0000    255.8400     74.7727
