~Version Information
VERS.                      2.0: CWLS Log ASCII Standard - VERSION 2.0
WRAP.                       NO: One line per depth step
~Well Information Block
STRT.FT               575.0000: 
STOP.FT              2016.2500: 
STEP.FT                 0.2500: 
NULL.                -999.2500: 
COMP.          Pioneer Natural Resources: COMPANY
WELL.          Bucksnort 41-35: WELL
FLD.           Purgatoire River: FIELD
LOC.           117' FNL & 463' FEL--: LOCATION
PROV.                 Colorado: PROVINCE
CNTY.               Las Animas: COUNTRY
SRVC.                Patterson: SERVICE COMPANY
DATE.          Thu Jul 21 10:13:55 2005: LOG DATE
UWI.           05 071 08401 00: UNIQUE WELL ID
~Curve Information Block
DEPT.FT            0 000 00 00: Depth
SN.Ohm-m                      : IEL Short Normal
SP.mV                         : IEL Spontaneous Potential
DIR.Ohm-m                     : IEL Induction Resistivity
GR.GAPI                       : Gamma Ray
~Parameter Information Block
~A  Depth        SN          SP         DIR          GR     
# ...
   943.5000     13.6988    -90.6387 100000.0000    155.3858
   943.7500     13.0248    -97.9881 100000.0000    156.4834
   944.0000     12.0778   -107.7562 100000.0000    155.4490
   944.2500     10.8876   -120.6382 100000.0000    153.1230
   944.5000      9.5202   -137.4075 100000.0000    148.5330
   944.7500      8.0921   -158.8040 100000.0000    145.5117
   945.0000      6.7311   -185.3637 100000.0000    141.1878
   945.2500      5.5072   -217.2231      8.3430    137.8609
   945.5000      4.4165   -253.9489      1.5119    131.0553
   945.7500      3.4388   -294.4594      0.7578    125.2083
   946.0000      2.5925   -337.0726      0.5394    115.8784
   946.2500      1.9226   -379.7017      0.5137    110.5867
   946.5000      1.4511   -420.1522      0.6504    105.1879
   946.7500      1.1530   -456.4439      1.1035    102.6722
   947.0000      0.9765   -487.0701      3.0636     98.1586
   947.2500      0.8743   -511.1316 100000.0000     93.5993
   947.5000      0.8182   -528.3229 100000.0000     84.5074
   947.7500      0.7947   -538.8062 100000.0000     78.0656
   948.0000      0.7962   -543.0374 100000.0000     70.6872
   948.2500      0.8155   -541.6185 100000.0000     68.7286
   948.5000      0.8425   -535.2189 100000.0000     70.8334
   948.7500      0.8651   -524.5776 100000.0000     74.4985
   949.0000      0.8748   -510.5540      4.1641     79.9293
   949.2500      0.8727   -494.1788      0.9707     81.6645
   949.5000      0.8694   -476.6633      0.4380     80.1736
   949.7500      0.8743   -459.3323      0.2494     76.8990
   950.0000      0.8866   -443.4921      0.1824     70.5795
   950.2500      0.8988   -430.2604      0.1847     66.8221
   950.5000      0.9066   -420.4029      0.2583     63.7132
   950.7500      0.9124   -414.2266      0.4613     63.6289
   951.0000      0.9195   -411.5633      1.0227     65.4110
   951.2500      0.9262   -411.8525      3.6409     66.6285
   951.5000      0.9264   -414.3112 100000.0000     66.5220
   951.7500      0.9169   -418.1519 100000.0000     64.6853
   952.0000      0.9039   -422.7825 100000.0000     59.7966
   952.2500      0.9022   -427.9319      6.9051     55.8743
   952.5000      0.9235   -433.6628      2.8883     50.4918
   952.7500      0.9635   -440.2561      2.2336     48.0297
   953.0000      0.9996   -448.0091      2.5604     46.9135
   953.2500      1.0055   -457.0019      4.5144     48.1228
   953.5000      0.9727   -466.9077     21.1980     53.1929
   953.7500      0.9184   -476.9110 100000.0000     59.0386
   954.0000      0.8692   -485.7578 100000.0000     71.8972
   954.2500      0.8402   -491.9348     37.1077     82.9968
   954.5000      0.8289   -493.9248      5.5573    101.8263
   954.7500      0.8262   -490.4745      2.6578    114.2329
   955.0000      0.8302   -480.8152      1.6504    129.8642
   955.2500      0.8586   -464.7803      1.1318    137.3577
   955.5000      0.9580   -442.7985      0.8307    143.8419
   955.7500      1.2118   -415.7865      0.6759    145.0170
   956.0000      1.7448   -384.9738      0.6497    141.9701
   956.2500      2.7127   -351.7185      0.7847    136.8189
   956.5000      4.2676   -317.3585      1.2766    125.2104
   956.7500      6.5073   -283.1206      3.6820    115.6803
   957.0000      9.4255   -250.0810 100000.0000    100.5526
   957.2500     12.8856   -219.1594 100000.0000     91.2610
   957.5000     16.6423   -191.1113 100000.0000     80.6735
   957.7500     20.4137   -166.5061 100000.0000     76.5192
   958.0000     23.9507   -145.7006 100000.0000     74.5849
   958.2500     27.0533   -128.8135 100000.0000     75.7808
   958.5000     29.5747   -115.7253 100000.0000     80.6443
   958.7500     31.4672   -106.1117 100000.0000     85.4790
   959.0000     32.8138    -99.4932 100000.0000     93.8485
   959.2500     33.7519    -95.2996     83.6776     99.1282
   959.5000     34.3469    -92.9219     20.8640    104.9071
   959.7500     34.5824    -91.7528     19.6530    106.8776
   960.0000     34.4769    -91.2126     37.0812    107.4828
   960.2500     34.1503    -90.7791 100000.0000    106.9705
   960.5000     33.7617    -90.0227 100000.0000    105.6709
   960.7500     33.4284    -88.6478 100000.0000    104.7320
   961.0000     33.2142    -86.5305 100000.0000    103.8014
   961.2500     33.1486    -83.7353 100000.0000    103.8602
   961.5000     33.2271    -80.5017 100000.0000    104.9836
   961.7500     33.4006    -77.1998 100000.0000    106.0489
   962.0000     33.5838    -74.2597 100000.0000    107.4776
   962.2500     33.7060    -72.0983 100000.0000    108.0527
   962.5000     33.7765    -71.0620 100000.0000    107.6185
   962.7500     33.8903    -71.3959 100000.0000    105.9459
   963.0000     34.1500    -73.2516 100000.0000    101.4139
   963.2500     34.5904    -76.7143 100000.0000     97.9412
   963.5000     35.1845    -81.8482 100000.0000     93.9299
   963.7500     35.8873    -88.7333     20.3215     92.4534
   964.0000     36.6504    -97.4941      8.1528     91.4273
   964.2500     37.4175   -108.3074      6.1950     91.1650
   964.5000     38.0987   -121.3978      6.8060     91.6190
   964.7500     38.5092   -137.0227     12.1941     92.8487
   965.0000     38.3512   -155.4520 100000.0000     96.1315
   965.2500     37.3073   -176.9373 100000.0000     98.6743
   965.5000     35.1525   -201.6640 100000.0000    101.0624
   965.7500     31.7844   -229.6859 100000.0000    100.4786
   966.0000     27.2820   -260.8471      5.0953     95.2129
   966.2500     22.0467   -294.6994      1.3811     89.0228
   966.5000     16.7919   -330.4502      0.5742     77.5197
   966.7500     12.2251   -366.9609      0.2659     69.8595
   967.0000      8.6766   -402.8117      0.1257     60.7483
   967.2500      6.0451   -436.4354      0.0650     56.9583
   967.5000      4.0558   -466.2765      0.0404     54.0855
   967.7500      2.5223   -490.9478      0.0310     52.8822
   968.0000      1.3950   -509.3397      0.0281     50.1801
   968.2500      0.6579   -520.6655      0.0278     47.3454
   968.5000      0.2461   -524.4573      0.0279     42.2421
   968.7500      0.0580   -520.5414      0.0273     39.1080
   969.0000      0.0186   -509.0253      0.0263     36.0187
   969.2500      0.1370   -490.3103      0.0261     35.4068
   969.5000      0.5520   -465.1160      0.0286     37.0301
   969.7500      1.5615   -434.4895      0.0371     40.0639
   970.0000      3.5667   -399.7671      0.0596     47.8918
   970.2500      6.8452   -362.4802      0.1178     55.1305
   970.5000     11.2241   -324.2186      0.2594     67.8842
   970.7500     15.9493   -286.4805      0.5878     76.8642
   971.0000     19.9867   -250.5496      1.5302     90.4717
   971.2500     22.5813   -217.4128      7.4908     99.7737
   971.5000     23.6221   -187.7330 100000.0000    114.0123
   971.7500     23.5533   -161.8576 100000.0000    123.0336
   972.0000     22.9697   -139.8576 100000.0000    134.4312
   972.2500     22.2521   -121.5797 100000.0000    140.4189
   972.5000     21.4947   -106.7100     16.8395    147.8076
   972.7500     20.6901    -94.8368      8.0841    151.9308
   973.0000     19.9248    -85.5107      7.0446    156.1129
   973.2500     19.3916    -78.2879      8.9660    157.0049
   973.5000     19.2357    -72.7553     19.9975    155.5033
   973.7500     19.4225    -68.5348 100000.0000    152.7837
   974.0000     19.7799    -65.2783 100000.0000    145.6004
   974.2500     20.1653    -62.6621 100000.0000    138.3167
   974.5000     20.5644    -60.3989 100000.0000    124.7124
   974.7500     21.0286    -58.2612 100000.0000    115.8895
   975.0000     21.5651    -56.1110 100000.0000    106.9710
   975.2500     22.1199    -53.9199 100000.0000    104.9305
   975.5000     22.6373    -51.7603 100000.0000    106.3842
   975.7500     23.0942    -49.7705 100000.0000    108.6515
   976.0000     23.4966    -48.1010 100000.0000    111.6705
   976.2500     23.8848    -46.8600 100000.0000    112.9081
   976.5000     24.3387    -46.0826 100000.0000    113.8378
   976.7500     24.9323    -45.7276 100000.0000    114.3094
