~Version Information
VERS.                      2.0: CWLS Log ASCII Standard - VERSION 2.0
WRAP.                       NO: One line per depth step
~Well Information Block
STRT.FT                -8.2500: 
STOP.FT               871.5000: 
STEP.FT                 0.2500: 
NULL.                -999.2500: 
COMP.          Pioneer Natural Resources: COMPANY
WELL.             Tomcat 32-10: WELL
FLD.           Purgatorie River: FIELD
LOC.           2286' FNL & 2463' FEL------: LOCATION
PROV.                       CO: PROVINCE
CNTY.               Las Animas: COUNTRY
SRVC.          Patterson Wireline: SERVICE COMPANY
DATE.          Mon Mar 28 09:03:25 2005: LOG DATE
UWI.           05 071 08301 00: UNIQUE WELL ID
~Curve Information Block
DEPT.FT            0 000 00 00: Depth
CCL.                          : Casing Collar Locator
TT3.usec                      : CBL 3' Travel Time
AMP3.mV                       : CBL 3' Amplitude
GR.GAPI                       : Gamma Ray
~Parameter Information Block
~A  Depth       CCL         TT3         AMP3         GR     
# ...
   427.2500      0.0000    740.8591      8.0331    112.4967
   427.5000      0.0000    740.9395      8.0893    112.7783
   427.7500      0.0000    741.0516      8.1521    111.8540
   428.0000      0.0000    741.1251      8.2207    110.6376
   428.2500      0.0000    741.1380      8.2862    109.5711
   428.5000      0.0000    741.1463      8.3209    108.3504
   428.7500      0.0000    741.2307      8.2990    106.7402
   429.0000      0.0000    741.4149      8.2204    105.6629
   429.2500      0.0000    741.6472      8.1065    107.0242
   429.5000      0.0000    741.8538      7.9806    112.1763
   429.7500      0.0000    741.9874      7.8611    120.7461
   430.0000      0.0000    742.0331      7.7652    131.1299
   430.2500      0.0000    742.0105      7.7047    141.7168
   430.5000      0.0000    741.9834      7.6754    151.3999
   430.7500      0.0000    742.0338      7.6561    159.3266
   431.0000      0.0000    742.1987      7.6247    164.5887
   431.2500      0.0000    742.4501      7.5826    166.1273
   431.5000      0.0000    742.7479      7.5619    163.1875
   431.7500      0.0000    743.0897      7.6037    156.4973
   432.0000      0.0000    743.5105      7.7252    148.8952
   432.2500      0.0000    744.1022      7.9094    143.9135
   432.5000      0.0000    745.1422      8.1238    143.2664
   432.7500      0.0000    747.1644      8.3420    146.1776
   433.0000      0.0000    750.6932      8.5467    151.2787
   433.2500      0.0000    755.7678      8.7258    158.3133
   433.5000      0.0000    761.8555      8.8772    167.3863
   433.7500      0.0000    768.3075      9.0130    177.0448
   434.0000      0.0000    774.7739      9.1488    183.8805
   434.2500      0.0000    781.1395      9.2844    184.2559
   434.5000      0.0000    787.1507      9.4031    176.6242
   434.7500      0.0000    791.9651      9.4944    162.8169
   435.0000      0.0000    794.0488      9.5673    147.5491
   435.2500      0.0000    792.0419      9.6312    136.1416
   435.5000      0.0000    786.2206      9.6699    131.6766
   435.7500      0.0000    778.8669      9.6504    133.7161
   436.0000      0.0000    772.5837      9.5557    139.5546
   436.2500      0.0000    768.2283      9.3991    146.4967
   436.5000      0.0000    764.9526      9.2074    152.9230
   436.7500      0.0000    761.8951      9.0042    157.9854
   437.0000      0.0000    758.9097      8.8117    161.3362
   437.2500      0.0000    755.8880      8.6524    163.3110
   437.5000      0.0000    752.5436      8.5389    164.6838
   437.7500      0.0000    749.0156      8.4614    165.7229
   438.0000      0.0000    745.9678      8.3968    165.7251
   438.2500      0.0000    743.9407      8.3351    163.9155
   438.5000      0.0000    742.9512      8.2929    160.5827
   438.7500      0.0000    742.6628      8.2951    156.6676
   439.0000      0.0000    742.7238      8.3456    152.1319
   439.2500      0.0000    743.0115      8.4201    145.3637
   439.5000      0.0000    743.8242      8.4910    134.6071
   439.7500      0.0000    745.8869      8.5513    119.8232
   440.0000      0.0000    749.8765      8.6101    103.1491
   440.2500      0.0000    755.5663      8.6703     87.8916
   440.5000      0.0000    761.4718      8.7203     76.8930
   440.7500      0.0000    765.8142      8.7494     71.1432
   441.0000      0.0000    768.0786      8.7631     69.5224
   441.2500      0.0000    769.3409      8.7764     69.8420
   441.5000      0.0000    770.9097      8.7952     70.2428
   441.7500      0.0000    772.9867      8.8124     69.9044
   442.0000      0.0000    774.8224      8.8190     69.0378
   442.2500      0.0000    775.7181      8.8095     68.5304
   442.5000      0.0000    775.6029      8.7764     69.2572
   442.7500      0.0000    774.9545      8.7115     71.2255
   443.0000      0.0000    774.3171      8.6172     73.4488
   443.2500      0.0000    773.5406      8.5076     74.9827
   443.5000      0.0000    771.5519      8.3919     75.9063
   443.7500      0.0000    767.4799      8.2626     76.9010
   444.0000      0.0000    761.9270      8.1111     77.9844
   444.2500      0.0000    756.4004      7.9504     78.1633
   444.5000      0.0000    751.7299      7.8112     76.4760
   444.7500      0.0000    747.9095      7.7112     73.0606
   445.0000      0.0000    745.2957      7.6404     68.9837
   445.2500      0.0000    745.0648      7.5807     65.2273
   445.5000      0.0000    748.2891      7.5324     62.0352
   445.7500      0.0000    754.7841      7.5075     59.2226
   446.0000      0.0000    762.9041      7.5029     57.0512
   446.2500      0.0000    770.5296      7.4928     56.5521
   446.5000      0.0000    776.4659      7.4515     58.6280
   446.7500      0.0000    780.9337      7.3805     62.9116
   447.0000      0.0000    784.7681      7.3073     67.8332
   447.2500      0.0000    788.3698      7.2588     71.6897
   447.5000      0.0000    791.5790      7.2423     73.4410
   447.7500      0.0000    794.2280      7.2513     72.8988
   448.0000      0.0000    796.1481      7.2799     70.7057
   448.2500      0.0000    796.6483      7.3268     68.1351
   448.5000      0.0000    794.7518      7.3868     66.5347
   448.7500      0.0000    790.2934      7.4422     66.5724
   449.0000      0.0000    784.6376      7.4549     67.6976
   449.2500      0.0000    780.4586      7.3711     68.3891
   449.5000      0.0000    780.6843      7.1639     67.3901
   449.7500      0.0000    786.5468      6.8807     64.8713
   450.0000      0.0000    796.4114      6.6272     62.0890
   450.2500      0.0000    807.8315      6.4830     59.9517
   450.5000      0.0000    820.9563      6.4408     58.4104
   450.7500      0.0000    837.8555      6.4365     57.2875
   451.0000     -2.0000    857.5009      6.4246     57.0034
   451.2500     -2.0000    873.7298      6.4179     58.0440
   451.5000      0.0000    880.2039      6.4711     60.0769
   451.7500      0.0000    876.0521      6.6310     62.1517
   452.0000      0.0000    865.5040      6.8873     63.7528
   452.2500      0.0000    853.6757      7.1646     65.3107
   452.5000      0.0000    843.5807      7.3808     67.5971
   452.7500      0.0000    835.7178      7.5141     70.7885
   453.0000      0.0000    829.2812      7.6016     74.1848
   453.2500      0.0000    823.5839      7.6839     76.7546
   453.5000      0.0000    818.4854      7.7723     77.8207
   453.7500      0.0000    814.0594      7.8620     77.2444
   454.0000      0.0000    810.4976      7.9520     75.3441
   454.2500      0.0000    808.1248      8.0504     72.9907
   454.5000      0.0000    807.1089      8.1711     71.5982
   454.7500      0.0000    807.4253      8.3259     72.5093
   455.0000      0.0000    809.2579      8.5100     76.0188
   455.2500      0.0000    812.9261      8.6932     80.8641
   455.5000      0.0000    818.0815      8.8361     84.7353
   455.7500      0.0000    823.3158      8.9214     85.5381
   456.0000      0.0000    826.8678      8.9649     82.5387
   456.2500      0.0000    827.7124      8.9951     76.8052
   456.5000      0.0000    825.9305      9.0274     70.8360
   456.7500      0.0000    822.3246      9.0611     67.2532
   457.0000      0.0000    817.9159      9.0920     67.0060
   457.2500      0.0000    813.4276      9.1170     68.7318
   457.5000      0.0000    809.0280      9.1262     70.1907
   457.7500      0.0000    804.9594      9.1023     70.2070
   458.0000      0.0000    802.2850      9.0366     69.0612
   458.2500      0.0000    802.1082      8.9413     67.5264
   458.5000      0.0000    803.9169      8.8402     66.2160
   458.7500      0.0000    805.4861      8.7437     65.7953
   459.0000      0.0000    804.6658      8.6413     67.1677
   459.2500      0.0000    800.7208      8.5211     71.0670
   459.5000      0.0000    794.0330      8.3894     77.5991
   459.7500      0.0000    785.5322      8.2658     86.2597
   460.0000      0.0000    776.8405      8.1630     96.1681
   460.2500      0.0000    770.0847      8.0818    106.2209
   460.5000      0.0000    766.5948      8.0198    115.2512
