~Version Information
VERS.                      2.0: CWLS Log ASCII Standard - VERSION 2.0
WRAP.                       NO: One line per depth step
~Well Information Block
STRT.FT               250.0000: 
STOP.FT              2600.7000: 
STEP.FT                 0.1000: 
NULL.                -999.2500: 
COMP.          Pioneer Natural Resources: COMPANY
WELL.              Quack 22-24: WELL
FLD.           Purgatoire River: FIELD
LOC.           2492' FNL & 2459' FWL--: LOCATION
PROV.                 Colorado: PROVINCE
CNTY.               Las Animas: COUNTRY
SRVC.                Patterson: SERVICE COMPANY
DATE.          Mon Jun 13 08:03:15 2005: LOG DATE
UWI.            05 071 0840200: UNIQUE WELL ID
~Curve Information Block
DEPT.FT            0 000 00 00: Depth
DCAL.in                       : CDL Caliper
RHOB.g/cc                     : CDL Bulk Density
RHOC.g/cc                     : CDL Density Correction
DPOR.pu                       : CDL Density Porosity
NPOR.pu                       : Neutron Porosity
GR.GAPI                       : Gamma Ray
~Parameter Information Block
~A  Depth       DCAL        RHOB        RHOC        DPOR        NPOR         GR     
# ...
   710.8000      8.2849      2.4651      0.0006     11.2054     27.1393     79.6384
   710.9000      8.2849      2.4419     -0.0105     12.6142     28.5554     83.5182
   711.0000      8.2872      2.4423      0.0102     12.5888     30.0649     89.2766
   711.1000      8.2872      2.4644      0.0156     11.2477     31.1522    102.0563
   711.2000      8.2872      2.4971      0.0566      9.2649     31.7141    122.2918
   711.3000      8.2867      2.5445      0.0346      6.3948     31.8938    141.0128
   711.4000      8.2867      2.6110      0.1510      2.3620     31.8091    147.3160
   711.5000      8.2864      2.6664      0.2507     -0.9957     31.4376    143.2195
   711.6000      8.2864      2.6733      0.2332     -1.4110     30.8836    141.6173
   711.7000      8.2864      2.6372      0.1386      0.7775     30.4389    147.0782
   711.8000      8.2906      2.5949      0.1146      3.3398     30.2687    153.2016
   711.9000      8.2906      2.5640      0.1387      5.2121     30.3289    155.6227
   712.0000      8.2971      2.5382      0.1497      6.7747     30.2925    157.3882
   712.1000      8.2971      2.5096      0.1786      8.5121     29.9503    160.8194
   712.2000      8.2971      2.4738      0.1242     10.6783     29.5549    161.9005
   712.3000      8.3015      2.4400      0.0180     12.7249     29.2435    156.2029
   712.4000      8.3015      2.4221      0.0142     13.8140     28.7916    147.2484
   712.5000      8.3045      2.4222      0.0256     13.8040     28.3110    142.0379
   712.6000      8.3045      2.4391      0.0565     12.7842     28.1978    142.1135
   712.7000      8.3045      2.4715      0.0854     10.8199     28.3539    143.1228
   712.8000      8.3092      2.5092      0.1692      8.5340     28.4846    142.5248
   712.9000      8.3092      2.5324      0.1807      7.1282     28.4497    142.2974
   713.0000      8.3183      2.5289      0.1804      7.3413     28.2911    143.0358
   713.1000      8.3183      2.5145      0.1257      8.2136     28.4823    144.0446
   713.2000      8.3183      2.5199      0.1471      7.8865     29.3223    144.9137
   713.3000      8.3389      2.5451      0.1990      6.3591     30.2471    145.6666
   713.4000      8.3389      2.5601      0.1970      5.4482     30.5311    147.4288
   713.5000      8.3716      2.5462      0.1708      6.2916     30.2244    149.6392
   713.6000      8.3716      2.5144      0.1419      8.2203     29.6389    152.6041
   713.7000      8.3716      2.4901      0.1348      9.6888     28.9007    157.2782
   713.8000      8.3924      2.4755      0.1297     10.5741     28.2669    159.0179
   713.9000      8.3924      2.4399      0.1717     12.7322     27.8252    155.8602
   714.0000      8.3829      2.3638      0.0759     17.3439     27.4833    151.3875
   714.1000      8.3829      2.2705      0.0049     23.0020     27.1810    147.5795
   714.2000      8.3829      2.1944      0.0031     27.6101     26.9027    141.8652
   714.3000      8.3595      2.1396     -0.0228     30.9359     26.4528    133.3593
   714.4000      8.3595      2.0845      0.0025     34.2717     25.4753    129.9936
   714.5000      8.3474      2.0263     -0.1214     37.7983     23.8699    135.2180
   714.6000      8.3474      1.9933     -0.0880     39.8028     22.1296    140.6445
   714.7000      8.3474      2.0015     -0.0077     39.3040     20.7821    140.9428
   714.8000      8.3470      2.0337      0.1028     37.3507     19.5798    136.2941
   714.9000      8.3470      2.0671      0.0887     35.3255     18.2963    126.0324
   715.0000      8.3524      2.0925      0.1239     33.7861     17.2760    115.3332
   715.1000      8.3524      2.0962      0.1621     33.5656     16.5521    111.0680
   715.2000      8.3524      2.0613      0.1076     35.6784     15.7370    112.2859
   715.3000      8.3584      1.9922     -0.0153     39.8664     14.7334    116.5656
   715.4000      8.3584      1.9098     -0.0459     44.8600     13.9042    123.3464
   715.5000      8.3597      1.8307     -0.0735     49.6570     13.5416    127.7006
   715.6000      8.3597      1.7655     -0.1021     53.6087     13.5638    124.1462
   715.7000      8.3597      1.7221     -0.0949     56.2370     13.6010    117.6689
   715.8000      8.3583      1.6998     -0.0803     57.5875     13.2526    118.1442
   715.9000      8.3583      1.6949     -0.0405     57.8854     12.6797    125.8892
   716.0000      8.3591      1.7134     -0.0107     56.7616     12.2790    132.8583
   716.1000      8.3591      1.7720      0.0309     53.2110     12.0198    135.5667
   716.2000      8.3591      1.8764      0.1767     46.8850     11.9053    137.3485
   716.3000      8.3606      2.0045      0.2742     39.1188     12.2721    140.1178
   716.4000      8.3606      2.1229      0.2797     31.9460     13.3769    142.5921
   716.5000      8.3625      2.2006      0.3042     27.2348     14.8814    145.1067
   716.6000      8.3625      2.2198      0.2385     26.0698     16.2633    147.7866
   716.7000      8.3625      2.1880      0.1524     28.0024     17.3561    150.8134
   716.8000      8.3644      2.1332      0.0362     31.3213     18.0029    157.7024
   716.9000      8.3644      2.0950     -0.0255     33.6355     18.0637    166.4328
   717.0000      8.3660      2.0934      0.0044     33.7352     17.9566    169.5728
   717.1000      8.3660      2.1070      0.0422     32.9078     18.1525    164.8187
   717.2000      8.3660      2.1014      0.0649     33.2459     18.5182    156.1648
   717.3000      8.3750      2.0542      0.0790     36.1087     18.8655    150.4383
   717.4000      8.3750      1.9646      0.0465     41.5385     19.1739    154.0687
   717.5000      8.4006      1.8703     -0.0033     47.2555     19.5851    164.0702
   717.6000      8.4006      1.8261      0.0601     49.9323     20.2550    166.3759
   717.7000      8.4006      1.8474      0.2126     48.6431     21.0652    154.7044
   717.8000      8.4396      1.9133      0.2414     44.6496     21.7926    138.2794
   717.9000      8.4396      2.0199      0.2916     38.1885     22.4831    128.3463
   718.0000      8.4711      2.1722      0.4109     28.9552     23.3179    127.7873
   718.1000      8.4711      2.3383      0.5938     18.8918     24.0002    132.2970
   718.2000      8.4711      2.4599      0.6338     11.5218     24.1430    137.8103
   718.3000      8.4710      2.5101      0.6169      8.4779     24.2269    143.3524
   718.4000      8.4710      2.5090      0.5551      8.5467     24.8378    145.6463
   718.5000      8.4651      2.4881      0.4950      9.8128     25.8381    140.7107
   718.6000      8.4651      2.4614      0.4468     11.4275     26.8879    131.9340
   718.7000      8.4651      2.4333      0.3612     13.1307     28.0855    126.6315
   718.8000      8.5053      2.4129      0.3290     14.3669     29.2825    126.9105
   718.9000      8.5053      2.4088      0.2925     14.6187     29.8028    129.6898
   719.0000      8.5873      2.4184      0.3420     14.0365     29.5516    131.4210
   719.1000      8.5873      2.4254      0.3293     13.6143     28.8540    134.3565
   719.2000      8.5873      2.4123      0.3420     14.4050     27.6565    141.9463
   719.3000      8.6374      2.3721      0.2927     16.8400     26.0238    148.3713
   719.4000      8.6374      2.3004      0.2735     21.1885     24.2217    147.7685
   719.5000      8.6225      2.1918      0.2227     27.7724     22.5745    144.7285
   719.6000      8.6225      2.0503      0.1985     36.3467     21.2289    146.0530
   719.7000      8.6225      1.9036      0.1261     45.2336     20.0946    149.1280
   719.8000      8.5692      1.8139      0.0824     50.6702     19.4280    147.3890
   719.9000      8.5692      1.8368      0.1140     49.2863     19.4236    143.2034
   720.0000      8.5449      1.9628      0.2165     41.6499     20.0042    139.6351
   720.1000      8.5449      2.1359      0.3592     31.1571     21.2210    136.7604
   720.2000      8.5449      2.3082      0.4499     20.7147     22.8040    137.7572
   720.3000      8.5938      2.4414      0.5706     12.6415     24.2502    141.9149
