~Version Information
VERS.                      2.0: CWLS Log ASCII Standard - VERSION 2.0
WRAP.                       NO: One line per depth step
~Well Information Block
STRT.FT               866.0000: 
STOP.FT              2027.5000: 
STEP.FT                 0.1000: 
NULL.                -999.2500: 
COMP.          Petrogulf Corporation: COMPANY
WELL.             State 16-21R: WELL
FLD.           Purgatorie River: FIELD
LOC.           203' FNL & 1560' FWL: LOCATION
PROV.                 Colorado: PROVINCE
CNTY.               Las Animas: COUNTRY
SRVC.                Patterson: SERVICE COMPANY
DATE.          Tue Aug 16 13:32:09 2005: LOG DATE
UWI.                071 08313 : UNIQUE WELL ID
~Curve Information Block
DEPT.FT            0 000 00 00: Depth
DCAL.in                       : CDL Caliper
RHOB.g/cc                     : CDL Bulk Density
RHOC.g/cc                     : CDL Density Correction
DPOR.pu                       : CDL Density Porosity
GR.GAPI                       : Gamma Ray
NPOR.pu                       : Neutron Porosity
~Parameter Information Block
~A  Depth       DCAL        RHOB        RHOC        DPOR         GR         NPOR    
# ...
  1019.6000      8.0767      2.5284      0.1081      7.3719    132.4907     29.2263
  1019.7000      8.0767      2.5149      0.1287      8.1905    129.2188     29.3937
  1019.8000      8.0590      2.4980      0.1193      9.2134    124.5772     29.6826
  1019.9000      8.0590      2.4768      0.1318     10.4984    121.5137     29.6913
  1020.0000      8.0166      2.4441      0.1237     12.4789    121.7519     29.4410
  1020.1000      8.0166      2.3950      0.1002     15.4548    124.6691     29.2064
  1020.2000      8.0166      2.3320      0.0621     19.2709    128.9846     29.2505
  1020.3000      8.0340      2.2695      0.0108     23.0611    132.0912     29.6307
  1020.4000      8.0340      2.2319     -0.0065     25.3370    132.5142     30.1029
  1020.5000      8.0964      2.2275      0.0390     25.6069    131.4288     30.3802
  1020.6000      8.0964      2.2431      0.0575     24.6604    130.7352     30.6174
  1020.7000      8.0964      2.2734      0.0961     22.8239    130.3020     31.1101
  1020.8000      8.1297      2.3260      0.1448     19.6351    128.9519     31.5523
  1020.9000      8.1297      2.3964      0.2595     15.3690    127.0922     31.4199
  1021.0000      8.0310      2.4629      0.2657     11.3380    124.7118     30.8140
  1021.1000      8.0310      2.5036      0.2700      8.8739    121.4564     30.2545
  1021.2000      8.0310      2.5060      0.2346      8.7255    118.7202     30.0342
  1021.3000      7.9924      2.4871      0.0974      9.8739    117.6991     30.0786
  1021.4000      7.9924      2.4748      0.0931     10.6189    116.6247     29.9124
  1021.5000      8.0496      2.4609      0.1296     11.4628    114.6636     29.1599
  1021.6000      8.0496      2.4292      0.0296     13.3829    115.4831     28.2041
  1021.7000      8.0496      2.3972      0.0322     15.3187    120.6900     27.5942
  1021.8000      8.0962      2.3918      0.0109     15.6456    125.4231     27.3361
  1021.9000      8.0962      2.4207      0.0382     13.8955    126.4049     27.3315
  1022.0000      8.1036      2.4607      0.1181     11.4704    125.7587     27.6036
  1022.1000      8.1036      2.4804      0.1176     10.2799    126.1595     27.9583
  1022.2000      8.1036      2.4803      0.0944     10.2835    127.7229     28.1640
  1022.3000      8.1345      2.4832      0.0758     10.1084    129.1933     28.2161
  1022.4000      8.1345      2.4945      0.1390      9.4219    129.6344     28.0884
  1022.5000      8.1174      2.5030      0.1709      8.9081    128.4736     27.8122
  1022.6000      8.1174      2.5028      0.1694      8.9222    127.2301     27.5396
  1022.7000      8.1174      2.4879      0.1879      9.8245    128.1558     27.3840
  1022.8000      8.1026      2.4505      0.1419     12.0912    131.0166     27.4449
  1022.9000      8.1026      2.3986      0.0804     15.2337    132.0252     27.6381
  1023.0000      8.0480      2.3454      0.1187     18.4589    128.3598     27.8068
  1023.1000      8.0480      2.2845      0.0975     22.1508    123.3012     28.0144
  1023.2000      8.0480      2.2095      0.0725     26.6971    121.5186     28.4930
  1023.3000      8.0235      2.1397      0.0181     30.9302    122.3230     29.2798
  1023.4000      8.0235      2.0978      0.0060     33.4674    122.9536     29.9802
  1023.5000      8.1268      2.0746      0.0660     34.8722    122.7700     30.3178
  1023.6000      8.1268      2.0474      0.0297     36.5209    120.9930     30.4110
  1023.7000      8.1268      2.0136      0.0628     38.5686    116.8514     30.5369
  1023.8000      8.2614      1.9765      0.0959     40.8183    112.8542     30.8697
  1023.9000      8.2614      1.9373      0.0594     43.1912    110.9458     31.1631
  1024.0000      8.3278      1.9072      0.0499     45.0197    109.5612     31.3234
  1024.1000      8.3278      1.8894      0.0587     46.0965    107.3294     31.6917
  1024.2000      8.3278      1.8734      0.0023     47.0643    105.6895     32.3798
  1024.3000      8.3456      1.8560      0.0056     48.1185    106.7182     33.2400
  1024.4000      8.3456      1.8477      0.0006     48.6233    111.4350     33.8393
  1024.5000      8.3911      1.8595      0.0642     47.9092    117.6137     33.8074
  1024.6000      8.3911      1.8909      0.1260     46.0067    119.4414     33.4838
  1024.7000      8.3911      1.9337      0.1429     43.4150    114.6123     33.2480
  1024.8000      8.4553      1.9701      0.1443     41.2037    108.0585     33.0688
  1024.9000      8.4553      1.9819      0.0554     40.4912    106.5439     33.0067
  1025.0000      8.2640      1.9652      0.0444     41.5049    110.0078     33.1100
  1025.1000      8.2640      1.9264      0.0078     43.8519    112.0631     33.2014
  1025.2000      8.2640      1.8820     -0.0121     46.5464    109.1924     33.1647
  1025.3000      8.2706      1.8416      0.0256     48.9955    103.6633     32.9950
  1025.4000      8.2706      1.7944      0.0715     51.8526     99.7323     32.6671
  1025.5000      8.2972      1.7308      0.0378     55.7105     97.8452     32.3248
  1025.6000      8.2972      1.6497      0.0001     60.6253     96.5634     32.2303
  1025.7000      8.2972      1.5501     -0.0080     66.6634     95.7820     32.4514
  1025.8000      8.1591      1.4473     -0.0806     72.8904     92.3421     32.8025
  1025.9000      8.1591      1.3798     -0.0605     76.9832     83.3288     32.9440
  1026.0000      8.2002      1.3803     -0.0881     76.9499     73.0625     32.8059
  1026.1000      8.2002      1.4532      0.0389     72.5326     68.2517     32.7506
  1026.2000      8.2002      1.5673      0.0894     65.6163     68.7909     32.9921
  1026.3000      8.2493      1.6852      0.1367     58.4745     71.3432     33.3722
  1026.4000      8.2493      1.7952      0.1545     51.8077     73.4156     33.8269
  1026.5000      8.5040      1.8935      0.2064     45.8471     73.1091     34.2476
  1026.6000      8.5040      1.9575      0.2358     41.9715     71.3085     34.2841
  1026.7000      8.5040      1.9660      0.2082     41.4530     70.8296     34.0042
  1026.8000      8.6538      1.9268      0.1138     43.8297     73.4024     33.7008
  1026.9000      8.6538      1.8623      0.0401     47.7392     76.3294     33.3242
  1027.0000      8.4979      1.7828     -0.0184     52.5553     76.6645     32.9812
  1027.1000      8.4979      1.6922     -0.1157     58.0468     75.0159     33.0347
  1027.2000      8.4979      1.6084     -0.1024     63.1269     72.2027     33.5184
  1027.3000      8.3306      1.5613     -0.1167     65.9801     69.9563     33.7370
  1027.4000      8.3306      1.5726     -0.0458     65.2971     71.4255     33.2769
  1027.5000      8.3170      1.6397      0.0180     61.2308     75.4649     32.7585
  1027.6000      8.3170      1.7422      0.1231     55.0163     79.0628     32.7840
  1027.7000      8.3170      1.8625      0.1486     47.7281     82.8247     33.1845
  1027.8000      8.2663      2.0015      0.2036     39.3012     87.4135     33.5028
  1027.9000      8.2663      2.1562      0.2344     29.9272     91.7767     33.6618
  1028.0000      8.2193      2.2922      0.2801     21.6819     95.5799     33.8496
  1028.1000      8.2193      2.3793      0.2405     16.4046     99.7171     33.9401
  1028.2000      8.2193      2.4318      0.1302     13.2221    105.1810     33.5728
  1028.3000      8.1296      2.4736      0.1338     10.6931    111.4366     32.8548
  1028.4000      8.1296      2.4997      0.1374      9.1088    115.3350     32.2578
  1028.5000      8.1126      2.5032      0.0821      8.8971    114.2345     31.8483
  1028.6000      8.1126      2.4947      0.0979      9.4147    108.8851     31.4944
  1028.7000      8.1126      2.4891      0.0666      9.7490    102.8269     31.2196
  1028.8000      8.0991      2.4906      0.0668      9.6584     99.2751     30.7842
  1028.9000      8.0991      2.4915      0.0851      9.6075     99.6984     30.0666
  1029.0000      8.0913      2.4860      0.0952      9.9381    104.1287     29.4568
  1029.1000      8.0913      2.4773      0.0913     10.4650    111.0003     29.2433
