~Version Information
 VERS.                                  2.0 : CWLS LAS VERSION
 WRAP.                                   NO : WRAPING MODE
 SWARE .                 MController 2.5.0J : SOFTWARE VERSION
~Well Information
 WELL.                      Victory 12-14Tr : WELL
 COMP.    Pioneer Natural Resources USA Inc : COMPANY
 FLD.                      Purgatoire River : FIELD
 LOC.                SW/NW Sec 14 T32S R66W : LOCATION
 DATE.                           7/16-17/05 : DATE(S) LOGGED
 SRVC.       BLANCO Geological Services LLC : SERVICE COMPANY
 STAT.                                   CO : STATE
 CNTY.                           Las Animas : COUNTY
 CTRY.                                  USA : COUNTRY
 API.                       05-071-08433-00 : API NUMBER
 STRT.FT                             797.00 : START DEPTH
 STOP.FT                            1900.00 : STOP DEPTH
 STEP.FT                               1.00 : DEPTH INCREMENT
 NULL.                                -9999 : NULL VALUE
~Curve information
 DEPTH.FT                                   :
 ROP.MIN/FT                                 :
 GAS.UNITS                                  :
~ASCII Log data
# ...
      1797.0         0.33        247.9 
      1798.0         0.20        247.4 
      1799.0         0.27        247.4 
      1800.0         0.40        245.9 
      1801.0         0.37        211.2 
      1802.0         0.40        190.0 
      1803.0         0.27        158.4 
      1804.0         0.35        155.4 
      1805.0         0.33        167.0 
      1806.0         0.37        168.3 
      1807.0         0.43        166.7 
      1808.0         0.37        152.2 
      1809.0         0.20        142.5 
      1810.0         0.23        138.2 
      1811.0         0.27        136.6 
      1812.0         0.23        122.3 
      1813.0         0.17        114.5 
      1814.0         0.20        113.9 
      1815.0         0.20        113.5 
      1816.0         0.23        113.4 
      1817.0         0.18        113.4 
      1818.0         0.23        113.9 
      1819.0         0.30        115.6 
      1820.0         0.20        115.7 
      1821.0         0.37        119.2 
      1822.0         0.20        121.9 
      1823.0         0.20        117.3 
      1824.0         0.27        108.5 
      1825.0         0.23        101.3 
      1826.0         2.82        224.2 
      1827.0         0.27        225.2 
      1828.0         0.30        212.8 
      1829.0         0.30        197.4 
      1830.0         0.27        184.4 
      1831.0         0.20        166.3 
      1832.0         0.20        156.0 
      1833.0         0.28        159.7 
      1834.0         0.23        161.5 
      1835.0         0.23        160.7 
      1836.0         0.20        156.7 
      1837.0         0.17        152.3 
      1838.0         0.20        149.4 
      1839.0         0.23        148.2 
      1840.0         0.30        142.6 
      1841.0         0.40        134.9 
      1842.0         0.20        129.4 
      1843.0         0.23        130.6 
      1844.0         0.20        133.3 
      1845.0         0.20        146.4 
      1846.0         0.30        148.5 
      1847.0         0.28        140.0 
      1848.0         0.17        124.8 
      1849.0         0.17        124.8 
      1850.0         0.30        129.1 
      1851.0         0.33        119.2 
      1852.0         0.27        117.5 
      1853.0         0.20         92.2 
      1854.0         0.20         84.1 
      1855.0         0.13         74.4 
      1856.0         2.32        203.0 
      1857.0         0.27        215.6 
      1858.0         0.40        245.0 
      1859.0         0.33        244.0 
      1860.0         0.37        214.2 
      1861.0         0.40        201.4 
      1862.0         0.43        183.5 
      1863.0         0.42        174.9 
      1864.0         0.27        173.2 
      1865.0         0.37        157.5 
      1866.0         0.37        153.7 
      1867.0         0.27        146.3 
      1868.0         0.27        138.3 
      1869.0         0.33        123.5 
      1870.0         0.33        119.7 
      1871.0         0.27        110.9 
      1872.0         0.23        108.9 
      1873.0         0.20        110.2 
      1874.0         0.27        111.9 
      1875.0         0.28        110.2 
      1876.0         0.33        108.1 
      1877.0         0.37        106.6 
      1878.0         0.27        107.9 
      1879.0         0.20        107.9 
      1880.0         0.20        107.2 
      1881.0         0.20        104.2 
      1882.0         0.20        103.1 
      1883.0         0.17         99.0 
      1884.0         0.20         86.7 
      1885.0         0.20         86.7 
      1886.0         3.85        244.1 
      1887.0         0.32        204.7 
      1888.0         0.33        180.5 
      1889.0         0.27        165.6 
      1890.0         0.33        167.7 
      1891.0         0.30        166.4 
      1892.0         0.30        160.4 
      1893.0         0.27        150.7 
      1894.0         0.23        143.2 
      1895.0         0.23        136.7 
      1896.0         0.20        135.1 
      1897.0         0.23        121.1 
      1898.0         0.20        107.2 
      1899.0         0.17        107.2 
      1900.0         0.13         88.9 
