~Version Information
VERS.                      2.0: CWLS Log ASCII Standard - VERSION 2.0
WRAP.                       NO: One line per depth step
~Well Information Block
STRT.FT               588.6000: 
STOP.FT              2281.0000: 
STEP.FT                 0.1000: 
NULL.                -999.2500: 
COMP.          Petrogulf Corporation: COMPANY
WELL.             State 16-41V: WELL
FLD.           Purgatorie River: FIELD
LOC.           335' FNL & 823' FEL: LOCATION
CNTY.               Las Animas: COUNTY
SRVC.                         : SERVICE COMPANY
DATE.          Tue Aug 02 07:31:25 2005: LOG DATE
UWI.                          : UNIQUE WELL ID
STAT.                 Colorado: STATE
~Curve Information Block
DEPT.FT            0 000 00 00: Depth
DCAL.in                       : CDL Caliper
RHOB.g/cc                     : CDL Bulk Density
RHOC.g/cc                     : CDL Density Correction
DPOR.pu                       : CDL Density Porosity
GR.GAPI                       : Gamma Ray
NPOR.pu                       : Neutron Porosity
~Parameter Information Block
~A  Depth       DCAL        RHOB        RHOC        DPOR         GR         NPOR    
# ...
  1366.2000      8.2274      2.6406      0.1358      0.5703    134.7249     26.0887
  1366.3000      8.1466      2.6225      0.0621      1.6680    128.7611     26.4593
  1366.4000      8.1466      2.6064      0.0737      2.6448    124.8181     26.7798
  1366.5000      8.0847      2.5905     -0.0012      3.6045    122.4038     27.0356
  1366.6000      8.0847      2.5811      0.0360      4.1760    118.1810     27.2160
  1366.7000      8.0847      2.5761      0.0463      4.4770    112.7816     27.3143
  1366.8000      8.0639      2.5696     -0.0101      4.8757    109.1977     27.3271
  1366.9000      8.0639      2.5598      0.0483      5.4665    108.0027     27.2546
  1367.0000      8.0848      2.5491     -0.0373      6.1178    109.2258     27.0998
  1367.1000      8.0848      2.5482      0.0180      6.1725    113.1462     26.8687
  1367.2000      8.0848      2.5518      0.0347      5.9528    118.2620     26.5703
  1367.3000      8.0867      2.5430      0.0437      6.4818    122.5186     26.2167
  1367.4000      8.0867      2.5237      0.0491      7.6524    125.5383     25.8228
  1367.5000      8.0355      2.5040      0.0748      8.8467    128.9683     25.4063
  1367.6000      8.0355      2.4855      0.0245      9.9707    134.5495     24.9869
  1367.7000      8.0355      2.4659      0.0233     11.1561    140.4910     24.5857
  1367.8000      8.0581      2.4429      0.0145     12.5497    145.1611     24.2237
  1367.9000      8.0581      2.4118      0.0751     14.4362    149.3977     23.9207
  1368.0000      8.0498      2.3735      0.0213     16.7548    150.9484     23.6940
  1368.1000      8.0498      2.3427      0.0472     18.6215    148.5637     23.5571
  1368.2000      8.0498      2.3265      0.1141     19.6069    143.8348     23.5189
  1368.3000      8.0343      2.3125      0.1606     20.4572    138.7118     23.5822
  1368.4000      8.0343      2.2936      0.1549     21.5998    134.4909     23.7436
  1368.5000      8.1046      2.2888      0.0926     21.8894    129.2375     23.9935
  1368.6000      8.1046      2.3222      0.1224     19.8691    121.2119     24.3159
  1368.7000      8.1046      2.3846      0.2034     16.0860    113.2104     24.6895
  1368.8000      8.0854      2.4360      0.2980     12.9667    109.6418     25.0892
  1368.9000      8.0854      2.4545      0.1625     11.8492    109.0471     25.4883
  1369.0000      8.1203      2.4610      0.0880     11.4531    104.9345     25.8599
  1369.1000      8.1203      2.4861      0.0307      9.9313     97.7238     26.1801
  1369.2000      8.1203      2.5315      0.0475      7.1818     94.5443     26.4297
  1369.3000      8.0409      2.5762      0.0800      4.4735     94.8758     26.5955
  1369.4000      8.0409      2.6111      0.0641      2.3558     93.7917     26.6719
  1369.5000      8.0095      2.6355      0.1633      0.8800     92.5127     26.6598
  1369.6000      8.0095      2.6441      0.1423      0.3592     92.2139     26.5670
  1369.7000      8.0095      2.6448      0.1016      0.3132     91.3711     26.4058
  1369.8000      7.9766      2.6538      0.1060     -0.2292     91.2882     26.1921
  1369.9000      7.9766      2.6692      0.1582     -1.1613     93.3849     25.9434
  1370.0000      7.9137      2.6740      0.1286     -1.4543     96.6573     25.6771
  1370.1000      7.9137      2.6623      0.1386     -0.7472     99.8918     25.4096
  1370.2000      7.9137      2.6425      0.0856      0.4570    101.8642     25.1557
  1370.3000      7.9168      2.6212      0.1099      1.7481    100.9053     24.9276
  1370.4000      7.9168      2.5980      0.0848      3.1521     98.0531     24.7350
  1370.5000      7.9081      2.5785      0.0420      4.3307     97.9299     24.5851
  1370.6000      7.9081      2.5702      0.0628      4.8345    102.5395     24.4826
  1370.7000      7.9081      2.5690      0.0697      4.9120    110.2004     24.4295
  1370.8000      7.9327      2.5685      0.0329      4.9412    119.6449     24.4256
  1370.9000      7.9327      2.5665      0.0957      5.0628    127.4296     24.4687
  1371.0000      8.0552      2.5648      0.0426      5.1646    128.6895     24.5542
  1371.1000      8.0552      2.5653      0.1015      5.1331    126.8633     24.6765
  1371.2000      8.0552      2.5641      0.1054      5.2064    128.7571     24.8287
  1371.3000      8.0305      2.5611      0.1404      5.3857    134.1629     25.0034
  1371.4000      8.0305      2.5595      0.0978      5.4820    139.3708     25.1929
  1371.5000      7.9736      2.5626      0.0903      5.2967    143.7014     25.3895
  1371.6000      7.9736      2.5676      0.1442      4.9935    148.5560     25.5865
  1371.7000      7.9736      2.5644      0.1512      5.1909    152.8400     25.7773
  1371.8000      7.9962      2.5545      0.0980      5.7864    155.3985     25.9571
  1371.9000      7.9962      2.5508      0.0963      6.0092    157.6425     26.1223
  1372.0000      8.0038      2.5544      0.1123      5.7961    158.8458     26.2711
  1372.1000      8.0038      2.5594      0.0886      5.4899    156.6395     26.4037
  1372.2000      8.0038      2.5640      0.1230      5.2096    152.1037     26.5216
  1372.3000      8.0332      2.5632      0.1099      5.2602    148.9016     26.6278
  1372.4000      8.0332      2.5608      0.0621      5.4056    148.7053     26.7259
  1372.5000      8.0593      2.5667      0.1004      5.0491    150.1180     26.8191
  1372.6000      8.0593      2.5709      0.1054      4.7965    151.6638     26.9095
  1372.7000      8.0593      2.5617      0.0777      5.3537    153.1571     26.9983
  1372.8000      8.0548      2.5481      0.0852      6.1764    154.6419     27.0847
  1372.9000      8.0548      2.5426      0.0741      6.5099    156.2947     27.1673
  1373.0000      8.0558      2.5479      0.0637      6.1892    158.2618     27.2442
  1373.1000      8.0558      2.5558      0.0902      5.7099    159.4025     27.3140
  1373.2000      8.0558      2.5516      0.0929      5.9653    157.7355     27.3766
  1373.3000      8.0637      2.5317      0.0456      7.1684    153.6781     27.4332
  1373.4000      8.0637      2.5093      0.0283      8.5272    149.8877     27.4866
  1373.5000      8.0828      2.4954      0.0468      9.3676    149.3595     27.5403
  1373.6000      8.0828      2.4940      0.0014      9.4563    152.6596     27.5979
  1373.7000      8.0828      2.5081      0.0407      8.5983    155.9889     27.6626
  1373.8000      8.0875      2.5295      0.0762      7.3043    156.9509     27.7362
  1373.9000      8.0875      2.5435      0.0605      6.4569    156.5755     27.8188
  1374.0000      8.1043      2.5476      0.0891      6.2063    155.4315     27.9087
  1374.1000      8.1043      2.5468      0.0791      6.2526    154.7520     28.0027
  1374.2000      8.1043      2.5389      0.0940      6.7323    156.7827     28.0964
  1374.3000      8.1105      2.5140      0.0556      8.2424    160.2849     28.1848
  1374.4000      8.1105      2.4772      0.0201     10.4716    163.6561     28.2627
  1374.5000      8.1576      2.4490     -0.0100     12.1828    168.0244     28.3255
  1374.6000      8.1576      2.4369      0.0575     12.9131    172.2693     28.3693
  1374.7000      8.1576      2.4372      0.0374     12.8954    171.8537     28.3916
  1374.8000      8.1554      2.4566      0.0489     11.7183    167.4168     28.3911
  1374.9000      8.1554      2.4993      0.0994      9.1343    165.4949     28.3679
  1375.0000      8.1498      2.5465      0.1831      6.2754    167.9838     28.3234
  1375.1000      8.1498      2.5751      0.1957      4.5392    172.3189     28.2605
  1375.2000      8.1498      2.5839      0.2088      4.0079    177.0768     28.1821
  1375.3000      8.1615      2.5867      0.2224      3.8342    180.3584     28.0920
  1375.4000      8.1615      2.5948      0.2026      3.3481    181.1508     27.9940
  1375.5000      8.1505      2.6049      0.2106      2.7333    180.9863     27.8918
  1375.6000      8.1505      2.6026      0.2324      2.8709    179.4344     27.7893
  1375.7000      8.1505      2.5811      0.1675      4.1781    174.9990     27.6905
