~Version Information
VERS.                      2.0: CWLS Log ASCII Standard - VERSION 2.0
WRAP.                       NO: One line per depth step
~Well Information Block
STRT.FT                 0.5000: 
STOP.FT              2891.5000: 
STEP.FT                 0.2500: 
NULL.                -999.2500: 
COMP.          Petrogulf Corporation: COMPANY
WELL.            Montoya 1-41V: WELL
FLD.           Purgatoire River: FIELD
LOC.           610' FNL & 1205' FEL--: LOCATION
PROV.                 Colorado: PROVINCE
CNTY.               Las Animas: COUNTRY
SRVC.                Patterson: SERVICE COMPANY
DATE.          Mon Sep 12 11:42:30 2005: LOG DATE
UWI.           05 071 08144 00: UNIQUE WELL ID
~Curve Information Block
DEPT.FT            0 000 00 00: Depth
CCL.                          : Casing Collar Locator
TT3.usec                      : CBL 3' Travel Time
AMP3.mV                       : CBL 3' Amplitude
GR.GAPI                       : Gamma Ray
~Parameter Information Block
~A  Depth       CCL         TT3         AMP3         GR     
     0.5000   -999.2500   -999.2500   -999.2500     45.5258
     0.7500   -999.2500   -999.2500   -999.2500     50.8505
     1.0000   -999.2500   -999.2500   -999.2500     56.1960
     1.2500   -999.2500   -999.2500   -999.2500     61.7631
     1.5000   -999.2500   -999.2500   -999.2500     66.5054
     1.7500   -999.2500   -999.2500   -999.2500     68.4262
     2.0000   -999.2500   -999.2500   -999.2500     66.4515
     2.2500   -999.2500   -999.2500   -999.2500     61.8164
     2.5000   -999.2500   -999.2500   -999.2500     57.3489
     2.7500   -999.2500   -999.2500   -999.2500     55.3046
     3.0000   -999.2500   -999.2500   -999.2500     55.6913
     3.2500   -999.2500   -999.2500   -999.2500     56.6227
     3.5000   -999.2500   -999.2500   -999.2500     56.4780
     3.7500   -999.2500   -999.2500   -999.2500     55.5702
     4.0000   -999.2500   -999.2500   -999.2500     55.3909
     4.2500   -999.2500   -999.2500   -999.2500     56.5739
     4.5000   -999.2500   -999.2500   -999.2500     58.3259
     4.7500   -999.2500   -999.2500   -999.2500     59.8320
     5.0000   -999.2500   -999.2500   -999.2500     61.4921
     5.2500   -999.2500   -999.2500   -999.2500     64.3133
     5.5000   -999.2500   -999.2500   -999.2500     68.3312
     5.7500   -999.2500   1413.0000      1.6717     72.1093
     6.0000   -999.2500   1413.0000      1.6799     74.0495
     6.2500   -999.2500   1413.0000      1.6775     73.9538
     6.5000   -999.2500   1413.0000      1.6661     73.0161
     6.7500   -999.2500   1413.0000      1.6491     72.4396
     7.0000   -999.2500   1413.0000      1.6304     72.3628
     7.2500   -999.2500   1413.0000      1.6151     72.0227
     7.5000   -999.2500   1413.0000      1.6051     70.6371
     7.7500   -999.2500   1413.0000      1.5974     67.9954
     8.0000   -999.2500   1413.0000      1.5874     64.3519
     8.2500   -999.2500   1413.0000      1.5753     60.0978
     8.5000   -999.2500   1413.0000      1.5673     55.8495
     8.7500   -999.2500   1413.0000      1.5692     52.6777
     9.0000   -999.2500   1413.0000      1.5808     51.6259
     9.2500   -999.2500   1413.0000      1.5959     52.5880
     9.5000   -999.2500   1413.0000      1.6080     54.0073
     9.7500   -999.2500   1413.0000      1.6158     54.2251
    10.0000   -999.2500   1413.0000      1.6222     53.0776
    10.2500   -999.2500   1413.0000      1.6298     51.8218
    10.5000   -999.2500   1413.0000      1.6391     51.6884
    10.7500   -999.2500   1413.0000      1.6502     52.9246
    11.0000   -999.2500   1413.0000      1.6619     55.0869
    11.2500   -999.2500   1413.0000      1.6695     57.5820
    11.5000      0.0000   1413.0000      1.6660     59.6026
    11.7500      0.0000   1413.0000      1.6490     60.0632
    12.0000      0.0000   1413.0000      1.6244     58.4299
    12.2500      0.0000   1413.0000      1.6021     55.6775
    12.5000      0.0000   1413.0000      1.5892     53.8353
    12.7500      0.0000   1413.0000      1.5862     54.3955
    13.0000      0.0000   1413.0000      1.5878     57.3962
    13.2500      0.0000   1413.0000      1.5875     61.8642
    13.5000      0.0000   1413.0000      1.5814     66.6601
    13.7500      0.0000   1413.0000      1.5715     70.7920
    14.0000      0.0000   1413.0000      1.5643     73.3545
    14.2500      0.0000   1413.0000      1.5657     73.7118
    14.5000      0.0000   1412.9569      1.5765     71.9443
    14.7500      0.0000   1412.6470      1.5928     68.9104
    15.0000      0.0000   1411.0264      1.6203     65.7366
    15.2500      0.0000   1404.3928      1.7110     63.2605
    15.5000      0.0000   1383.0597      2.0681     61.7872
    15.7500      0.0000   1329.0563      3.2455     61.1174
    16.0000      0.0000   1221.2135      6.3466     60.7861
    16.2500      0.0000   1050.9153     12.8484     60.2659
    16.5000      0.0000    837.7126     23.6840     59.0520
    16.7500      0.0000    625.5484     38.0061     57.0249
    17.0000      0.0000    457.3029     52.9857     54.9232
    17.2500      0.0000    350.7440     65.3583     53.9574
    17.5000      0.0000    296.7419     73.4168     54.5220
    17.7500      0.0000    274.8175     77.5569     55.6109
    18.0000      0.0000    267.6860     79.2489     55.9507
    18.2500      0.0000    265.8318     79.8254     55.4972
    18.5000      0.0000    265.4485     80.0177     55.4039
    18.7500      0.0000    265.3887     80.0857     56.6868
    19.0000      0.0000    265.3806     80.0793     59.3280
    19.2500      0.0000    265.3792     80.0073     62.5824
    19.5000      0.0000    265.3832     79.8923     65.7563
    19.7500      0.0000    265.3912     79.7627     68.5194
    20.0000      0.0000    265.4007     79.6438     70.6130
    20.2500      0.0000    265.4111     79.5540     71.5344
    20.5000      0.0000    265.4233     79.4968     70.7974
    20.7500      0.0000    265.4377     79.4555     68.5789
    21.0000      0.0000    265.4534     79.4110     65.8420
    21.2500      0.0000    265.4692     79.3651     63.6280
    21.5000      0.0000    265.4839     79.3356     62.4480
    21.7500      0.0000    265.4972     79.3299     62.4110
    22.0000      0.0000    265.5082     79.3348     63.4070
    22.2500      0.0000    265.5141     79.3368     64.9246
    22.5000      0.0000    265.5108     79.3405     66.2930
    22.7500      0.0000    265.4977     79.3600     67.3834
    23.0000      0.0000    265.4803     79.3959     68.5368
    23.2500      0.0000    265.4650     79.4253     69.6394
    23.5000      0.0000    265.4519     79.4122     69.8232
    23.7500      0.0000    265.4370     79.3334     68.3187
    24.0000      0.0000    265.4199     79.2037     65.2963
    24.2500      0.0000    265.4075     79.0737     61.7912
    24.5000      0.0000    265.4071     78.9916     59.0526
    24.7500      0.0000    265.4171     78.9671     57.9194
    25.0000      0.0000    265.4265     78.9758     58.4173
    25.2500      0.0000    265.4250     78.9935     59.7687
    25.5000      0.0000    265.4152     79.0145     60.9148
    25.7500      0.0000    265.4088     79.0447     61.0909
    26.0000      0.0000    265.4112     79.0916     60.0560
    26.2500      0.0000    265.4133     79.1579     58.1310
    26.5000      0.0000    265.4012     79.2335     56.2101
    26.7500      0.0000    265.3715     79.2966     55.5272
    27.0000      0.0000    265.3340     79.3303     57.0950
    27.2500      0.0000    265.3012     79.3392     61.0572
    27.5000      0.0000    265.2798     79.3415     66.3992
    27.7500      0.0000    265.2697     79.3454     71.3845
    28.0000      0.0000    265.2710     79.3354     74.5815
    28.2500      0.0000    265.2947     79.2881     75.6499
    28.5000      0.0000    265.3971     79.1901     75.0978
    28.7500      0.0000    265.7877     78.9808     73.3656
    29.0000      0.0000    266.9967     78.4224     70.4856
    29.2500      0.0000    269.9177     77.0325     66.6726
    29.5000      0.0000    275.3324     74.3330     62.7701
    29.7500      0.0000    282.9439     70.3828     59.8243
    30.0000      0.0000    290.9582     66.0253     58.2897
    30.2500      0.0000    297.2390     62.3252     57.6019
    30.5000      0.0000    301.0563     59.7220     56.5543
    30.7500      0.0000    303.2814     57.9439     54.4466
    31.0000      0.0000    304.9764     56.6244     51.8588
    31.2500      0.0000    306.4197     55.6626     49.9421
    31.5000      0.0000    307.4303     55.0599     49.1450
    31.7500     -2.0000    307.9280     54.7563     49.0486
    32.0000      2.0000    307.9456     54.6759     49.1532
    32.2500      0.0000    307.3337     54.8641     49.3365
    32.5000      0.0000    305.6337     55.6165     49.7334
    32.7500      0.0000    302.3066     57.4370     50.4928
    33.0000      0.0000    297.1789     60.6419     51.6102
    33.2500      0.0000    290.6900     64.9190     52.9508
    33.5000      0.0000    283.7066     69.4588     54.4940
    33.7500      0.0000    277.1994     73.5075     56.3598
