~Version Information
 VERS.                                  2.0 : CWLS LAS VERSION
 WRAP.                                   NO : WRAPING MODE
 SWARE .                  MController 2.5.1 : SOFTWARE VERSION
~Well Information
 WELL.                 Big Cat Federal 44-1 : WELL
 COMP.  Pioneer Natural Resources USA, Inc. : COMPANY
 FLD.                      Purgatoire River : FIELD
 LOC.               SE/SE Sec.1, T34S, R66W : LOCATION
 DATE.                04/23/2006-04/23/2006 : DATE(S) LOGGED
 SRVC.                  Entrada GeoSciences : SERVICE COMPANY
 STAT.                             Colorado : STATE
 CNTY.                           Las Animas : COUNTY
 CTRY.                        United States : COUNTRY
 API.                          071-08042-00 : API NUMBER
 STRT.FT                             266.00 : START DEPTH
 STOP.FT                            1570.00 : STOP DEPTH
 STEP.FT                               1.00 : DEPTH INCREMENT
 NULL.                                -9999 : NULL VALUE
~Curve information
 DEPTH.FT                                   :
 ROP.MIN/FT                                 :
 GAS.UNITS                                  :
~ASCII Log data
# ...
      466.00         0.17         10.5 
      467.00         0.20         11.1 
      468.00         0.17         11.6 
      469.00         0.17         11.6 
      470.00         0.17         10.6 
      471.00         0.22         12.2 
      472.00         0.17         11.3 
      473.00         0.17         10.8 
      474.00         0.17         11.2 
      475.00         0.17         11.1 
      476.00         0.17         10.9 
      477.00         0.17         12.0 
      478.00         0.17         11.2 
      479.00         0.13         10.7 
      480.00         0.13         10.1 
      481.00         0.30         11.4 
      482.00         0.27         10.3 
      483.00         0.27         10.9 
      484.00         0.30         10.7 
      485.00         0.28         11.8 
      486.00         0.20         12.1 
      487.00         0.20         11.0 
      488.00         0.17         11.5 
      489.00         0.17         11.4 
      490.00         0.17         10.8 
      491.00         0.13         11.2 
      492.00         0.17         11.0 
      493.00         0.17         11.9 
      494.00         0.17         10.8 
      495.00         0.17         10.8 
      496.00         0.17          9.8 
      497.00         0.17         11.0 
      498.00         0.20         10.8 
      499.00         0.20         10.4 
      500.00         0.17         10.5 
      501.00         0.13         10.5 
      502.00         0.13         10.2 
      503.00         0.17         11.2 
      504.00         0.15         10.1 
      505.00         0.13         10.0 
      506.00         0.17         10.3 
      507.00         0.13          9.9 
      508.00         0.13         10.9 
      509.00         0.13          9.9 
      510.00         0.17         10.0 
      511.00         0.13         10.0 
      512.00         0.17         10.0 
      513.00         0.27         10.4 
      514.00         0.27         10.3 
      515.00         0.38         10.4 
      516.00         0.23         10.1 
      517.00         0.17         10.3 
      518.00         0.20         10.5 
      519.00         0.17         10.6 
      520.00         0.20         10.2 
      521.00         0.13         10.1 
      522.00         0.33         10.0 
      523.00         0.17         10.6 
      524.00         0.13          9.9 
      525.00         0.17         10.9 
      526.00         0.17          9.8 
      527.00         0.20         10.4 
      528.00         0.20         10.2 
      529.00         0.20          9.7 
      530.00         0.20          9.9 
      531.00         0.20          9.5 
      532.00         0.22          9.6 
      533.00         0.17         10.5 
      534.00         0.17          9.7 
      535.00         0.17         10.1 
      536.00         0.20          9.6 
      537.00         0.17          9.5 
      538.00         0.17         10.5 
      539.00         0.17         10.0 
      540.00         0.17          9.6 
      541.00         0.27         10.0 
      542.00         0.27         10.5 
      543.00         0.27         10.5 
      544.00         0.28         10.1 
      545.00         0.30         10.3 
      546.00         0.20         10.3 
      547.00         0.17         10.7 
      548.00         0.20         10.1 
      549.00         0.20         10.2 
      550.00         0.17          9.7 
      551.00         0.20         10.2 
      552.00         0.10          9.8 
      553.00         0.17          9.9 
      554.00         0.17          9.8 
      555.00         0.20          9.4 
      556.00         0.13          9.7 
      557.00         0.20         10.7 
      558.00         0.20         10.4 
      559.00         0.13          9.8 
      560.00         0.13          9.7 
      561.00         0.17          9.8 
      562.00         0.18         10.2 
      563.00         0.17         10.4 
      564.00         0.17          9.3 
      565.00         0.13         11.2 
      566.00         0.17          9.7 
      567.00         0.13         10.1 
      568.00         0.13         10.0 
      569.00         0.20          9.9 
      570.00         0.17          9.5 
      571.00         0.17          9.7 
      572.00         0.17         10.0 
      573.00         0.27          9.8 
      574.00         0.30         10.1 
      575.00         0.20         10.3 
      576.00         0.23         10.8 
      577.00         0.23         10.1 
      578.00         0.20          9.9 
      579.00         0.20          9.6 
      580.00         0.17          9.2 
      581.00         0.17          9.6 
      582.00         0.23         10.9 
      583.00         0.23         10.7 
      584.00         0.17         10.2 
      585.00         0.20         10.2 
      586.00         0.13         10.2 
      587.00         0.38         10.3 
      588.00         0.27         10.0 
      589.00         0.27         10.6 
      590.00         0.27         10.2 
      591.00         0.17          9.9 
      592.00         0.27          9.9 
      593.00         0.23         10.6 
      594.00         0.27         10.6 
      595.00         0.17         10.0 
      596.00         0.20         10.5 
      597.00         0.17         10.0 
      598.00         0.13         10.3 
      599.00         0.17          9.8 
      600.00         0.27         10.7 
      601.00         0.20          9.9 
      602.00         0.13         10.1 
      603.00         0.18         10.4 
      604.00         0.20         10.9 
      605.00         0.20         11.2 
      606.00         0.13         10.0 
      607.00         0.17         10.8 
      608.00         0.23         10.3 
      609.00         0.27          9.9 
      610.00         0.25         10.2 
      611.00         0.10          9.8 
      612.00         0.10         10.8 
      613.00         0.13         10.4 
      614.00         0.27         11.2 
      615.00         0.23         10.2 
      616.00         0.20         11.4 
      617.00         0.17         12.2 
      618.00         0.17         11.8 
      619.00         0.20         11.4 
      620.00         0.13         11.4 
      621.00         0.10         10.5 
      622.00         0.13          9.7 
      623.00         0.17          9.9 
      624.00         0.10          9.9 
      625.00         0.17          9.9 
      626.00         0.17         10.0 
      627.00         0.10          9.6 
      628.00         0.27          9.6 
      629.00         0.28         10.1 
      630.00         0.27         10.4 
      631.00         0.27          9.6 
      632.00         0.13         10.3 
      633.00         0.10         10.5 
      634.00         0.23         10.2 
      635.00         0.20         11.3 
      636.00         0.20         11.0 
      637.00         0.27         11.5 
      638.00         0.23         11.6 
      639.00         0.20         10.3 
      640.00         0.23         10.7 
      641.00         0.17          9.8 
      642.00         0.28          9.5 
      643.00         0.20          9.5 
      644.00         0.13          9.6 
      645.00         0.17          9.9 
      646.00         0.23         10.2 
      647.00         0.20         10.3 
      648.00         0.17         10.0 
      649.00         0.27         10.3 
      650.00         0.17         11.1 
      651.00         0.13         13.5 
      652.00         0.17         13.6 
      653.00         0.13         13.3 
      654.00         0.13         11.9 
      655.00         0.13         10.8 
      656.00         0.27          9.8 
      657.00         0.07         10.1 
      658.00         0.13          9.9 
      659.00         0.17          9.9 
      660.00         0.13          9.5 
      661.00         0.28         10.1 
      662.00         0.27         10.3 
      663.00         0.27         10.2 
      664.00         0.23         10.4 
      665.00         0.10         10.6 
