~Version Information
VERS.                      2.0: CWLS Log ASCII Standard - VERSION 2.0
WRAP.                       NO: One line per depth step
~Well Information Block
STRT.FT                -7.2500: 
STOP.FT               868.2500: 
STEP.FT                 0.2500: 
NULL.                -999.2500: 
COMP.          Pioneer Natural Resources: COMPANY
WELL.              Venom 32-22: WELL
FLD.           Purgatorie River: FIELD
LOC.           2307' FNL & 2024' FWL--: LOCATION
PROV.                       CO: PROVINCE
CNTY.               Las Animas: COUNTRY
SRVC.          Patterson Wireline: SERVICE COMPANY
DATE.          Mon May 16 15:26:38 2005: LOG DATE
UWI.           05 071 08361 00: UNIQUE WELL ID
~Curve Information Block
DEPT.FT            0 000 00 00: Depth
CCL.                          : Casing Collar Locator
TT3.usec                      : CBL 3' Travel Time
AMP3.mV                       : CBL 3' Amplitude
GR.GAPI                       : Gamma Ray
~Parameter Information Block
~A  Depth       CCL         TT3         AMP3         GR     
# ...
   662.7500      0.0000    795.8992      5.4035     54.4845
   663.0000      0.0000    799.0697      5.4491     53.4354
   663.2500      0.0000    799.4774      5.4769     52.3466
   663.5000      0.0000    797.3727      5.4840     50.7481
   663.7500      0.0000    795.1095      5.4620     49.0084
   664.0000      0.0000    795.0154      5.4079     47.9612
   664.2500      0.0000    797.3366      5.3406     47.9896
   664.5000      0.0000    800.3108      5.2909     48.8858
   664.7500      0.0000    802.2214      5.2715     50.3772
   665.0000      0.0000    803.0807      5.2592     52.1158
   665.2500      0.0000    803.9773      5.2139     53.3795
   665.5000      0.0000    805.1979      5.1160     53.7275
   665.7500      0.0000    805.8682      4.9861     53.9125
   666.0000      0.0000    805.5012      4.8682     55.3798
   666.2500      0.0000    805.2955      4.7920     58.7980
   666.5000      0.0000    807.6711      4.7520     63.5020
   666.7500      0.0000    814.3638      4.7254     68.2599
   667.0000      0.0000    824.6256      4.7018     72.3492
   667.2500      0.0000    835.4628      4.6941     76.1102
   667.5000      0.0000    844.0555      4.7224     80.5723
   667.7500      0.0000    849.5473      4.7954     86.2563
   668.0000      0.0000    852.0930      4.9023     92.1728
   668.2500      0.0000    850.7379      5.0141     96.2497
   668.5000      0.0000    843.1955      5.0964     96.9379
   668.7500      0.0000    828.1889      5.1305     94.2392
   669.0000      0.0000    807.6872      5.1235     89.2929
   669.2500      0.0000    786.2822      5.0921     83.5327
   669.5000      0.0000    768.4325      5.0420     78.3678
   669.7500      0.0000    757.0710      4.9696     75.0278
   670.0000      0.0000    753.8225      4.8843     74.2000
   670.2500      0.0000    758.5098      4.8189     75.6988
   670.5000      0.0000    768.9355      4.8047     78.4224
   670.7500      0.0000    782.7166      4.8410     80.7485
   671.0000      0.0000    798.7075      4.8963     81.3744
   671.2500      0.0000    815.8679      4.9383     79.9386
   671.5000      0.0000    831.9498      4.9575     76.8362
   671.7500      0.0000    844.2138      4.9693     72.7208
   672.0000      0.0000    850.9238      5.0031     68.3265
   672.2500      0.0000    851.8736      5.0843     64.3399
   672.5000      0.0000    848.2216      5.2154     61.0072
   672.7500      0.0000    842.1440      5.3672     58.0311
   673.0000      0.0000    836.0610      5.4914     55.1499
   673.2500      0.0000    831.6699      5.5454     52.7869
   673.5000      0.0000    829.5041      5.5127     52.0489
   673.7500      0.0000    829.3805      5.4086     53.9841
   674.0000      0.0000    831.0040      5.2740     58.6024
   674.2500      0.0000    834.1047      5.1574     64.6040
   674.5000      0.0000    838.1476      5.0985     70.3257
   674.7500      0.0000    842.2993      5.1179     74.9752
   675.0000      0.0000    845.8580      5.2087     78.7353
   675.2500      0.0000    848.4900      5.3314     81.8436
   675.5000      0.0000    849.5524      5.4308     84.1945
   675.7500      0.0000    847.3425      5.4721     86.0202
   676.0000      0.0000    839.9201      5.4616     88.2639
   676.2500      0.0000    827.5162      5.4253     91.6641
   676.5000      0.0000    813.6588      5.3747     95.8115
   676.7500      0.0000    802.9899      5.2974     99.6739
   677.0000      0.0000    797.8201      5.1811    102.8422
   677.2500      0.0000    797.1355      5.0360    105.5816
   677.5000      0.0000    798.5161      4.8948    107.6084
   677.7500      0.0000    800.3549      4.7934    107.5763
   678.0000      0.0000    802.4877      4.7564    104.3242
   678.2500      0.0000    805.4657      4.7939     98.2922
   678.5000      0.0000    809.5190      4.8967     91.2039
   678.7500      0.0000    814.2582      5.0293     84.5899
   679.0000      0.0000    819.5561      5.1393     79.0976
   679.2500      0.0000    826.2155      5.1874     74.9629
   679.5000      0.0000    834.6282      5.1733     72.5463
   679.7500      0.0000    843.1818      5.1250     72.1639
   680.0000      0.0000    849.3781      5.0658     73.5040
   680.2500      0.0000    852.4819      4.9989     75.4676
   680.5000      0.0000    853.9599      4.9149     76.7842
   680.7500      0.0000    855.4851      4.8029     76.8186
   681.0000      0.0000    857.3349      4.6638     75.8946
   681.2500      0.0000    858.7844      4.5269     74.9048
   681.5000      0.0000    859.2749      4.4433     74.3555
   681.7500      0.0000    858.8821      4.4454     73.6692
   682.0000      0.0000    858.0162      4.5178     71.8588
   682.2500      0.0000    857.0358      4.6148     69.1031
   682.5000      0.0000    856.1425      4.6987     67.1346
   682.7500      0.0000    855.4125      4.7579     67.7170
   683.0000      0.0000    854.8306      4.8005     71.0656
   683.2500      0.0000    854.3148      4.8414     75.8979
   683.5000      0.0000    853.6943      4.8932     80.6246
   683.7500      0.0000    852.6132      4.9529     84.2328
   684.0000      0.0000    850.2402      4.9933     86.4799
   684.2500      0.0000    845.0298      4.9775     87.8431
   684.5000      0.0000    834.8936      4.8904     89.2576
   684.7500      0.0000    818.5316      4.7606     91.3198
   685.0000      0.0000    798.2062      4.6540     93.5691
   685.2500      0.0000    781.5771      4.6411     94.8673
   685.5000      0.0000    778.1284      4.7549     94.4097
   685.7500      0.0000    790.9921      4.9677     92.0441
   686.0000      0.0000    813.2695      5.2022     87.9949
   686.2500      0.0000    834.1683      5.3688     82.8909
   686.5000      0.0000    847.5225      5.4035     77.9102
   686.7500      0.0000    853.6704      5.2955     74.4412
   687.0000      0.0000    855.7754      5.0915     73.5273
   687.2500      0.0000    856.4680      4.8722     75.4995
   687.5000      0.0000    856.9600      4.7089     79.8019
   687.7500      0.0000    857.4421      4.6369     85.1631
   688.0000      0.0000    857.6325      4.6536     90.2420
   688.2500      0.0000    857.1979      4.7309     94.2683
   688.5000      0.0000    855.8085      4.8289     97.1204
   688.7500      0.0000    853.0999      4.9181     98.9349
   689.0000      0.0000    848.9398      4.9982     99.8005
   689.2500      0.0000    844.0051      5.0901     99.7367
   689.5000      0.0000    839.9019      5.2043     98.7604
   689.7500      0.0000    838.3269      5.3212     96.8883
   690.0000      0.0000    839.8859      5.4089     94.2543
   690.2500      0.0000    843.5184      5.4499     91.4410
   690.5000      0.0000    846.8177      5.4428     89.5271
   690.7500      0.0000    846.8431      5.3877     89.4000
   691.0000      0.0000    841.0363      5.2852     90.9009
   691.2500      0.0000    828.6569      5.1551     92.8186
   691.5000      0.0000    812.5934      5.0419     93.8092
   691.7500      0.0000    799.0458      4.9889     93.3036
   692.0000      0.0000    792.9780      5.0074     91.6901
   692.2500      0.0000    792.7899      5.0743     89.9343
   692.5000      0.0000    790.5325      5.1491     88.9722
   692.7500      0.0000    777.9653      5.1884     89.0888
   693.0000      0.0000    752.5006      5.1711     89.6477
   693.2500      0.0000    718.9294      5.1243     89.5194
   693.5000      0.0000    687.1792      5.1100     87.9219
   693.7500      0.0000    667.1211      5.1666     84.8243
   694.0000      0.0000    662.5663      5.2670     80.6703
   694.2500      0.0000    669.6058      5.3419     76.0238
   694.5000      0.0000    681.5763      5.3324     71.4210
   694.7500      0.0000    695.1571      5.2125     67.1624
   695.0000      0.0000    711.2515      4.9805     63.1299
   695.2500      0.0000    731.4490      4.6648     58.9505
   695.5000      0.0000    754.9041      4.3313     54.4576
   695.7500      0.0000    778.3928      4.0571     50.1031
   696.0000      0.0000    798.2839      3.8984     46.9017
