~Version Information
VERS.                      2.0: CWLS Log ASCII Standard - VERSION 2.0
WRAP.                       NO: One line per depth step
~Well Information Block
STRT.FT               554.1000: 
STOP.FT              2173.5000: 
STEP.FT                 0.1000: 
NULL.                -999.2500: 
COMP.          Petrogulf Corporation: COMPANY
WELL.            Montoya 6-14R: WELL
FLD.           Purgatorie River: FIELD
LOC.           867' FSL & 751' FWL: LOCATION
CNTY.               Las Animas: COUNTY
SRVC.                         : SERVICE COMPANY
DATE.          Mon Nov 15 06:14:10 2004: LOG DATE
UWI.           05 071 08242 00: UNIQUE WELL ID
STAT.                 Colorado: STATE
~Curve Information Block
DEPT.FT            0 000 00 00: Depth
DCAL.in                       : CDL Caliper
RHOB.g/cc                     : CDL Bulk Density
RHOC.g/cc                     : CDL Density Correction
DPOR.pu                       : CDL Density Porosity
GR.GAPI                       : Gamma Ray
NPOR.pu                       : Neutron Porosity
~Parameter Information Block
~A  Depth       DCAL        RHOB        RHOC        DPOR         GR         NPOR    
# ...
   678.9000      8.2768      2.4626      0.0333     11.3571     63.2365     19.2396
   679.0000      8.2781      2.4622      0.0539     11.3830     63.2120     19.3302
   679.1000      8.2781      2.4691      0.0837     10.9629     63.3952     19.1732
   679.2000      8.2781      2.4733      0.0687     10.7116     62.0857     18.8211
   679.3000      8.2786      2.4730      0.0785     10.7277     60.4549     18.2992
   679.4000      8.2786      2.4754      0.0839     10.5812     58.7215     17.6939
   679.5000      8.2786      2.4832      0.1019     10.1065     56.9088     17.2129
   679.6000      8.2786      2.4904      0.1188      9.6713     56.4057     17.1147
   679.7000      8.2786      2.4923      0.1084      9.5589     56.9242     17.3349
   679.8000      8.2786      2.4894      0.1321      9.7360     57.4817     17.4298
   679.9000      8.2786      2.4810      0.1053     10.2441     58.5435     17.1777
   680.0000      8.2788      2.4715      0.0647     10.8191     59.0703     16.9009
   680.1000      8.2788      2.4646      0.0836     11.2334     59.6425     16.7917
   680.2000      8.2788      2.4574      0.0543     11.6739     61.6762     16.7203
   680.3000      8.2786      2.4574      0.0128     11.6741     61.4418     16.6650
   680.4000      8.2786      2.4729      0.0620     10.7327     57.3444     16.6045
   680.5000      8.2781      2.4937      0.0518      9.4727     54.2903     16.4988
   680.6000      8.2781      2.5092      0.0902      8.5344     54.7178     16.5713
   680.7000      8.2781      2.5171      0.0689      8.0524     56.3649     16.8818
   680.8000      8.2778      2.5182      0.1019      7.9898     58.3716     17.1984
   680.9000      8.2778      2.5130      0.1014      8.3000     61.2073     17.3561
   681.0000      8.2777      2.5024      0.0784      8.9478     63.2925     17.2650
   681.1000      8.2777      2.4917      0.0649      9.5942     61.1466     16.9963
   681.2000      8.2777      2.4880      0.0611      9.8190     56.7570     16.7554
   681.3000      8.2769      2.4897      0.0723      9.7157     57.1484     16.7057
   681.4000      8.2769      2.4909      0.0541      9.6430     62.5866     17.0698
   681.5000      8.2756      2.4884      0.0590      9.7965     68.9843     17.7640
   681.6000      8.2756      2.4829      0.0387     10.1276     74.8369     18.0907
   681.7000      8.2756      2.4784      0.0245     10.3975     79.5915     17.7502
   681.8000      8.2752      2.4717      0.0518     10.8035     82.9930     17.1303
   681.9000      8.2752      2.4540      0.0467     11.8807     85.3418     16.4962
   682.0000      8.2757      2.4318      0.0194     13.2261     86.9573     15.8721
   682.1000      8.2757      2.4177     -0.0036     14.0781     88.0744     15.1208
   682.2000      8.2757      2.3972      0.0564     15.3199     89.5802     14.1700
   682.3000      8.2761      2.3448      0.0026     18.4985     93.7572     13.4315
   682.4000      8.2761      2.2646     -0.0417     23.3584    102.4973     13.3706
   682.5000      8.2771      2.1698      0.0089     29.1024    113.0296     13.9044
   682.6000      8.2771      2.0609     -0.0283     35.7038    120.5328     14.5022
   682.7000      8.2771      1.9490     -0.0932     42.4861    125.5543     14.8187
   682.8000      8.2798      1.8483     -0.0853     48.5889    128.5199     14.9563
   682.9000      8.2798      1.7591     -0.0945     53.9936    127.5087     15.1122
   683.0000      8.2832      1.6877     -0.1100     58.3188    125.7760     15.4214
   683.1000      8.2832      1.6452     -0.0598     60.8994    126.9311     16.0224
   683.2000      8.2832      1.6289     -0.0131     61.8842    128.1313     16.8398
   683.3000      8.2860      1.6330      0.0373     61.6342    124.8511     17.6615
   683.4000      8.2860      1.6605      0.0421     59.9707    116.5314     18.3191
   683.5000      8.2879      1.7127      0.1023     56.8049    110.2894     18.8905
   683.6000      8.2879      1.7797      0.1465     52.7474    114.2319     19.6617
   683.7000      8.2879      1.8558      0.0998     48.1349    125.4061     20.7215
   683.8000      8.2873      1.9430      0.1778     42.8508    136.2510     21.6679
   683.9000      8.2873      2.0317      0.2392     37.4751    141.8655     22.1318
   684.0000      8.2839      2.1113      0.2186     32.6502    138.6561     22.3617
   684.1000      8.2839      2.1833      0.2230     28.2873    131.0377     22.8295
   684.2000      8.2839      2.2430      0.2641     24.6661    128.5103     23.3412
   684.3000      8.2804      2.2690      0.2803     23.0892    134.2502     23.4846
   684.4000      8.2804      2.2473      0.1500     24.4085    142.7771     23.2908
   684.5000      8.2791      2.1910      0.0879     27.8153    147.1564     22.9352
   684.6000      8.2791      2.1239      0.0371     31.8826    145.7951     22.5629
   684.7000      8.2791      2.0583      0.0424     35.8608    140.4156     22.0802
   684.8000      8.2789      1.9969     -0.0345     39.5791    139.5752     21.5434
   684.9000      8.2789      1.9474     -0.0391     42.5808    148.3352     21.5058
   685.0000      8.2784      1.9207     -0.0657     44.2008    157.5346     22.0050
   685.1000      8.2784      1.9190     -0.0211     44.3059    160.4521     22.3622
   685.2000      8.2784      1.9367     -0.0201     43.2320    159.9724     22.4724
   685.3000      8.2786      1.9743      0.0202     40.9490    161.7264     22.7360
   685.4000      8.2786      2.0337      0.0932     37.3498    168.9177     23.3199
   685.5000      8.2785      2.1023      0.1530     33.1957    176.4114     23.9404
   685.6000      8.2785      2.1613      0.1588     29.6163    176.2640     24.2413
   685.7000      8.2785      2.2079      0.1163     26.7941    170.1243     24.3595
   685.8000      8.2771      2.2493      0.1493     24.2857    167.0455     24.5608
   685.9000      8.2771      2.2789      0.1395     22.4920    172.1750     24.8372
   686.0000      8.2753      2.2858      0.1060     22.0707    181.7983     25.1620
   686.1000      8.2753      2.2749      0.1050     22.7309    187.8584     25.4008
   686.2000      8.2753      2.2621      0.0517     23.5092    188.0442     25.2978
   686.3000      8.2744      2.2600      0.0553     23.6373    185.2305     24.9735
   686.4000      8.2744      2.2660      0.0622     23.2719    179.6331     24.7900
   686.5000      8.2744      2.2737      0.0375     22.8068    169.6560     24.7340
   686.6000      8.2744      2.2807      0.1118     22.3836    160.7505     24.7011
   686.7000      8.2744      2.2809      0.1147     22.3708    160.0893     24.7405
   686.8000      8.2760      2.2743      0.0929     22.7701    164.9177     24.9968
   686.9000      8.2760      2.2723      0.0913     22.8882    168.0689     25.4236
   687.0000      8.2789      2.2856      0.1107     22.0856    166.7687     25.6594
   687.1000      8.2789      2.3113      0.1661     20.5251    165.1541     25.4944
   687.2000      8.2789      2.3372      0.1973     18.9550    168.1993     25.1532
   687.3000      8.2811      2.3642      0.1426     17.3235    173.1988     25.1040
   687.4000      8.2811      2.4116      0.1535     14.4468    172.8398     25.6168
   687.5000      8.2806      2.4817      0.2213     10.1987    167.3700     26.4627
   687.6000      8.2806      2.5464      0.2410      6.2766    163.1583     26.9643
   687.7000      8.2806      2.5810      0.2586      4.1846    161.3332     26.7398
   687.8000      8.2749      2.5819      0.2494      4.1261    158.6893     26.2775
   687.9000      8.2749      2.5645      0.1863      5.1843    153.6048     26.1014
   688.0000      8.2651      2.5447      0.1758      6.3800    147.2638     26.1072
   688.1000      8.2651      2.5204      0.1535      7.8529    143.5716     26.0548
   688.2000      8.2651      2.4830      0.0787     10.1194    147.1490     25.9141
   688.3000      8.2572      2.4373      0.0488     12.8907    154.6316     25.8018
   688.4000      8.2572      2.4015     -0.0071     15.0576    156.9282     25.8033
