~Version Information
VERS.                      2.0: CWLS Log ASCII Standard - VERSION 2.0
WRAP.                       NO: One line per depth step
~Well Information Block
STRT.FT                -6.7500: 
STOP.FT              2058.2500: 
STEP.FT                 0.2500: 
NULL.                -999.2500: 
COMP.          Petrogulf Corporation: COMPANY
WELL.           Schedler 9-23R: WELL
FLD.           Purgatorie River: FIELD
LOC.           2084' FSL & 2331' FWL--: LOCATION
PROV.                       CO: PROVINCE
CNTY.               Las Animas: COUNTRY
SRVC.                         : SERVICE COMPANY
DATE.          Fri Nov 12 13:22:46 2004: LOG DATE
UWI.       005 071 08040 : UNIQUE WELL ID
~Curve Information Block
DEPT.FT            0 000 00 00: Depth
GR.GAPI                       : Gamma Ray
CCL.                          : Casing Collar Locator
TT3.usec                      : CBL 3' Travel Time
AMP3.mV                       : CBL 3' Amplitude
~Parameter Information Block
~A  Depth        GR         CCL         TT3         AMP3    
# ...
   127.2500    104.0689      0.0000    301.3718     25.5825
   127.5000    104.9488      0.0000    301.1525     25.6094
   127.7500    102.9612      0.0000    301.0222     25.5679
   128.0000     98.7540      0.0000    300.8824     25.4710
   128.2500     93.8148      0.0000    300.7224     25.3794
   128.5000     89.8110      0.0000    300.5746     25.3737
   128.7500     87.7609      0.0000    300.4640     25.5225
   129.0000     87.7405      0.0000    300.3908     25.8595
   129.2500     89.3059      0.0000    300.3435     26.3614
   129.5000     92.0561      0.0000    300.3253     26.9372
   129.7500     95.6141      0.0000    300.3511     27.4573
   130.0000     99.1629      0.0000    300.4169     27.8091
   130.2500    101.5423      0.0000    300.4868     27.9233
   130.5000    102.2393      0.0000    300.5241     27.7734
   130.7500    101.9383      0.0000    300.5270     27.3872
   131.0000    101.5315      0.0000    300.5236     26.8638
   131.2500    100.8081      0.0000    300.5381     26.3501
   131.5000     98.7205      0.0000    300.5688     25.9927
   131.7500     94.7855      0.0000    300.5936     25.8941
   132.0000     89.6447      0.0000    300.5926     26.0769
   132.2500     84.4727      0.0000    300.5679     26.4591
   132.5000     80.6746      0.0000    300.5482     26.8780
   132.7500     79.9546      0.0000    300.5731     27.1694
   133.0000     83.4842      0.0000    300.6657     27.2431
   133.2500     90.5652      0.0000    300.8152     27.0988
   133.5000     98.5898      0.0000    300.9805     26.7902
   133.7500    104.4700      0.0000    301.1194     26.3856
   134.0000    106.1068      0.0000    301.2182     25.9469
   134.2500    103.1927      0.0000    301.2930     25.5277
   134.5000     97.4594      0.0000    301.3569     25.1848
   134.7500     92.0047      0.0000    301.3942     24.9803
   135.0000     89.6983      0.0000    301.3795     24.9544
   135.2500     91.7317      0.0000    301.3205     25.0920
   135.5000     97.1205      0.0000    301.2706     25.3214
   135.7500    103.1634      0.0000    301.2943     25.5510
   136.0000    106.8173      0.0000    301.4258     25.7049
   136.2500    106.4382      0.0000    301.6540     25.7344
   136.5000    102.6121      0.0000    301.9360     25.6176
   136.7500     97.4192      0.0000    302.2189     25.3647
   137.0000     92.9820      0.0000    302.4597     25.0242
   137.2500     90.3981      0.0000    302.6336     24.6742
   137.5000     89.3697      0.0000    302.7341     24.3928
   137.7500     88.5421      0.0000    302.7756     24.2263
   138.0000     86.6146      0.0000    302.7908     24.1852
   138.2500     83.5028      0.0000    302.8071     24.2688
   138.5000     80.2852      0.0000    302.8206     24.4792
   138.7500     77.9001      0.0000    302.8010     24.8012
   139.0000     76.0839      0.0000    302.7250     25.1823
   139.2500     73.6534      0.0000    302.5964     25.5502
   139.5000     69.9608      0.0000    302.4391     25.8467
   139.7500     66.2582      0.0000    302.2840     26.0416
   140.0000     65.4111      0.0000    302.1621     26.1328
   140.2500     69.9127      0.0000    302.0922     26.1528
   140.5000     79.9566      0.0000    302.0703     26.1577
   140.7500     92.9896      0.0000    302.0771     26.1887
   141.0000    104.9277      0.0000    302.1013     26.2456
   141.2500    112.6453      0.0000    302.1485     26.3020
   141.5000    115.9457      0.0000    302.2290     26.3313
   141.7500    116.7968      0.0000    302.3493     26.3072
   142.0000    116.6442      0.0000    302.5077     26.2061
   142.2500    115.2461      0.0000    302.6753     26.0396
   142.5000    112.2209      0.0000    302.7790     25.8773
   142.7500    108.7237      0.0000    302.7411     25.8037
   143.0000    106.7587      0.0000    302.5600     25.8440
   143.2500    107.0224      0.0000    302.3331     25.9468
   143.5000    108.1198      0.0000    302.1802     26.0335
   143.7500    107.9334      0.0000    302.1556     26.0448
   144.0000    105.2692      0.0000    302.2317     25.9569
   144.2500    100.2659      0.0000    302.3401     25.7886
   144.5000     93.9678      0.0000    302.4177     25.6041
   144.7500     87.9024      0.0000    302.4305     25.4862
   145.0000     83.6478      0.0000    302.3691     25.4919
   145.2500     82.1080      0.0000    302.2338     25.6286
   145.5000     82.8600      0.0000    302.0316     25.8614
   145.7500     84.4629      0.0000    301.7905     26.1287
   146.0000     85.7540      0.0000    301.5672     26.3523
   146.2500     86.8310      0.0000    301.4294     26.4526
   146.5000     88.6986      0.0000    301.4208     26.3818
   146.7500     92.1134      0.0000    301.5340     26.1587
   147.0000     96.6595      0.0000    301.7177     25.8642
   147.2500    100.6954      0.0000    301.9143     25.5888
   147.5000    102.4326      0.0000    302.0910     25.3848
   147.7500    101.2754      0.0000    302.2352     25.2685
   148.0000     98.0684      0.0000    302.3304     25.2496
   148.2500     94.2526      0.0000    302.3518     25.3340
   148.5000     91.0044      0.0000    302.2899     25.5029
   148.7500     88.7900      0.0000    302.1733     25.7044
   149.0000     87.2389      0.0000    302.0640     25.8726
   149.2500     85.5829      0.0000    302.0218     25.9584
   149.5000     83.4450      0.0000    302.0617     25.9593
   149.7500     81.0226      0.0000    302.1368     25.9323
   150.0000     78.4253      0.0000    302.1740     25.9636
   150.2500     75.2362      0.0000    302.1392     26.1051
   150.5000     71.1099      0.0000    302.0679     26.3352
   150.7500     66.5932      0.0000    302.0241     26.5827
   151.0000     62.8252      0.0000    302.0386     26.7775
   151.2500     60.4687      0.0000    302.0926     26.8790
   151.5000     59.2882      0.0000    302.1470     26.8848
   151.7500     58.5705      0.0000    302.1771     26.8265
   152.0000     57.7326      0.0000    302.1891     26.7382
   152.2500     56.8159      0.0000    302.2138     26.6176
   152.5000     56.4676      0.0000    302.2812     26.4321
   152.7500     57.1752      0.0000    302.3944     26.1646
   153.0000     58.7408      0.0000    302.5297     25.8420
   153.2500     60.9325      0.0000    302.6595     25.5158
   153.5000     64.2371      0.0000    302.7736     25.2274
   153.7500     69.3255      0.0000    302.8785     24.9926
   154.0000     75.8601      0.0000    302.9824     24.8028
   154.2500     82.2621      0.0000    303.0847     24.6310
   154.5000     86.7103      0.0000    303.1818     24.4449
   154.7500     88.1813      0.0000    303.2791     24.2257
   155.0000     86.7364      0.0000    303.3885     23.9826
   155.2500     83.3764      0.0000    303.5061     23.7529
   155.5000     79.5970      0.0000    303.5995     23.5874
   155.7500     76.4732      0.0000    303.6320     23.5152
   156.0000     74.0787      0.0000    303.6112     23.5047
   156.2500     72.0393      0.0000    303.6020     23.4663
   156.5000     70.3218      0.0000    303.7069     23.3207
   156.7500     69.0585      0.0000    304.0801     23.0703
   157.0000     68.0375      0.0000    305.3355     22.7893
   157.2500     67.0391      0.0000    309.6649     22.5436
   157.5000     66.4918      0.0000    322.5607     22.3280
   157.7500     67.2725      0.0000    353.2620     22.0651
   158.0000     69.8250      0.0000    410.5240     21.6295
   158.2500     73.6790      0.0000    493.9246     20.8707
   158.5000     77.7817      0.0000    589.0406     19.6711
   158.7500     81.0975      0.0000    675.1467     18.0635
   159.0000     82.8737      0.0000    739.9483     16.3037
   159.2500     82.6915      0.0000    785.6570     14.7684
   159.5000     80.6496      0.0000    820.9948     13.7388
   159.7500     77.4473      0.0000    850.3287     13.2728
   160.0000     74.1970      0.0000    871.8732     13.2440
   160.2500     72.1451      0.0000    883.6260     13.4586
   160.5000     72.2040      2.0000    887.3260     13.7473
