~Version Information
 VERS.                                  2.0 : CWLS LAS VERSION
 WRAP.                                   NO : WRAPING MODE
 SWARE .                 MController 2.5.0J : SOFTWARE VERSION
~Well Information
 WELL.                    Oink-Oink 14-36Tr : WELL
 COMP.    Pioneer Natural Resources USA Inc : COMPANY
 FLD.                      Purgatoire River : FIELD
 LOC.                SW/SW Sec 36 T32S R67W : LOCATION
 DATE.                         6/09-10/2005 : DATE(S) LOGGED
 SRVC.       Blanco Geological Services LLC : SERVICE COMPANY
 STAT.                                   CO : STATE
 CNTY.                           Las Animas : COUNTY
 CTRY.                                  USA : COUNTRY
 API.                       05-071-08393-00 : API NUMBER
 STRT.FT                             231.00 : START DEPTH
 STOP.FT                            1924.00 : STOP DEPTH
 STEP.FT                               1.00 : DEPTH INCREMENT
 NULL.                                -9999 : NULL VALUE
~Curve information
 DEPTH.FT                                   :
 ROP.MIN/FT                                 :
 GAS.UNITS                                  :
~ASCII Log data
# ...
       831.0         0.23        101.2 
       832.0         0.13         98.9 
       833.0         0.20         94.9 
       834.0         0.17         91.0 
       835.0         0.13         89.9 
       836.0         3.25         35.6 
       837.0         0.30         37.5 
       838.0         0.23         35.2 
       839.0         0.20         32.6 
       840.0         0.23         36.8 
       841.0         0.33         41.3 
       842.0         0.27         45.0 
       843.0         0.30         51.6 
       844.0         0.42         63.2 
       845.0         0.33         67.5 
       846.0         0.33         75.0 
       847.0         0.27         77.1 
       848.0         0.27         76.3 
       849.0         0.27         77.8 
       850.0         0.30         81.3 
       851.0         0.27         81.4 
       852.0         0.27         79.3 
       853.0         0.30         79.7 
       854.0         0.23         77.9 
       855.0         0.10         77.0 
       856.0         0.10         76.1 
       857.0         0.10         75.0 
       858.0         0.12         79.3 
       859.0         0.10         85.4 
       860.0         0.13         81.7 
       861.0         0.17         65.5 
       862.0         0.13         58.9 
       863.0         0.17         57.6 
       864.0         0.20         61.0 
       865.0         0.20         60.7 
       866.0         2.88         17.1 
       867.0         0.33         17.0 
       868.0         0.40         17.5 
       869.0         0.30         16.7 
       870.0         0.33         21.6 
       871.0         0.37         24.6 
       872.0         0.30         24.4 
       873.0         0.27         23.3 
       874.0         0.20         24.5 
       875.0         0.22         26.6 
       876.0         0.20         22.2 
       877.0         0.17         18.2 
       878.0         0.13         17.7 
       879.0         0.20         18.2 
       880.0         0.20         18.2 
       881.0         0.17         17.7 
       882.0         0.17         19.1 
       883.0         0.13         19.7 
       884.0         0.10         21.5 
       885.0         0.13         22.3 
       886.0         0.10         22.4 
       887.0         0.23         31.8 
       888.0         0.20         12.0 
       889.0         0.17         -1.9 
       890.0         0.10         -5.2 
       891.0         0.10         -7.0 
       892.0         0.13         -8.0 
       893.0         0.23         -9.4 
       894.0         0.17         -8.6 
       895.0         0.25         -8.9 
       896.0         4.62         -8.7 
       897.0         0.47        -10.5 
       898.0         0.40        -10.2 
       899.0         0.20        -10.3 
       900.0         0.20        -10.3 
       901.0         0.20         27.4 
       902.0         0.23         51.5 
       903.0         0.35         37.2 
       904.0         0.23         31.1 
       905.0         0.23         23.1 
       906.0         0.20         17.6 
       907.0         0.20         24.9 
       908.0         0.23         57.0 
       909.0         0.17        116.3 
       910.0         0.10        153.9 
       911.0         0.20        204.0 
       912.0         0.13        222.5 
       913.0         0.13        231.9 
       914.0         0.13        228.3 
       915.0         0.17        220.2 
       916.0         0.17        216.8 
       917.0         0.23        223.6 
       918.0         0.17        235.7 
       919.0         0.20        241.0 
       920.0         0.13        235.4 
       921.0         0.10        233.8 
       922.0         0.18        233.1 
       923.0         0.20        239.7 
       924.0         0.23        232.6 
       925.0         0.33        219.9 
       926.0         2.55         49.1 
       927.0         0.33         56.3 
       928.0         0.27         71.2 
       929.0         0.27        106.1 
       930.0         0.30        266.9 
       931.0         0.23        469.3 
       932.0         0.27        951.5 
       933.0         0.37        795.5 
       934.0         0.23        661.0 
       935.0         0.13        561.5 
       936.0         0.13        484.0 
       937.0         0.30        440.2 
       938.0         0.20        440.0 
       939.0         0.25        233.5 
       940.0         0.23        188.9 
       941.0         0.17        173.9 
       942.0         0.20        163.1 
       943.0         0.20        153.0 
       944.0         0.20        144.7 
       945.0         0.20        139.3 
       946.0         0.20        134.6 
       947.0         0.20        128.8 
       948.0         0.20        122.1 
       949.0         0.17        116.2 
       950.0         0.17        112.0 
       951.0         0.17        108.7 
       952.0         0.17        108.6 
       953.0         0.17        109.0 
       954.0         0.20        109.3 
       955.0         0.23        109.6 
       956.0         2.95         39.4 
       957.0         0.85         40.7 
       958.0         0.27         39.2 
       959.0         0.20         45.6 
       960.0         0.20         58.1 
       961.0         0.23         87.9 
       962.0         0.13        129.6 
       963.0         0.13        193.0 
       964.0         0.10        244.0 
       965.0         0.13        317.4 
       966.0         0.30       1063.1 
       967.0         0.23        826.2 
       968.0         0.17        687.5 
       969.0         0.27        564.5 
       970.0         0.23        509.2 
       971.0         0.17        457.5 
       972.0         0.20        440.0 
       973.0         0.22        235.3 
       974.0         0.20        213.7 
       975.0         0.17        205.6 
       976.0         0.17        197.7 
       977.0         0.27        181.1 
       978.0         0.20        169.6 
       979.0         0.17        166.3 
       980.0         0.23        148.2 
       981.0         0.23        124.6 
       982.0         0.23        116.3 
       983.0         0.20        107.5 
       984.0         0.17        101.4 
       985.0         0.20         96.3 
       986.0         3.12         23.3 
       987.0         0.40         23.4 
       988.0         0.33         24.3 
       989.0         0.33         31.2 
       990.0         0.45         50.3 
       991.0         0.23         55.6 
       992.0         0.23         55.4 
       993.0         0.23         59.7 
       994.0         0.23         84.3 
       995.0         0.20        124.4 
       996.0         0.20        183.0 
       997.0         0.20        219.2 
       998.0         0.17        248.7 
       999.0         0.20        286.0 
      1000.0         0.20        318.3 
      1001.0         0.20        341.5 
      1002.0         0.17        343.3 
      1003.0         0.20        319.7 
      1004.0         0.38        262.0 
      1005.0         0.23        188.0 
      1006.0         0.27        106.2 
      1007.0         0.23         74.7 
      1008.0         0.23         61.9 
      1009.0         0.27         57.3 
      1010.0         0.23         53.3 
      1011.0         0.23         49.6 
      1012.0         0.23         47.9 
      1013.0         0.27         44.8 
      1014.0         0.23         43.2 
      1015.0         0.20         42.0 
      1016.0         3.92          3.5 
      1017.0         0.25          1.7 
      1018.0         0.27          0.5 
      1019.0         0.23         -0.4 
      1020.0         0.17         -1.4 
      1021.0         0.10         -1.5 
      1022.0         0.23         -2.1 
      1023.0         0.13         -3.1 
      1024.0         0.13         -3.3 
      1025.0         0.13         -5.4 
      1026.0         0.10         -3.6 
      1027.0         0.17          0.4 
      1028.0         0.17          6.0 
      1029.0         0.10          7.4 
      1030.0         0.27          2.7 
