~Version Information
VERS.                      2.0: CWLS Log ASCII Standard - VERSION 2.0
WRAP.                       NO: One line per depth step
~Well Information Block
STRT.FT               840.0000: 
STOP.FT              2266.0000: 
STEP.FT                 0.1000: 
NULL.                -999.2500: 
COMP.          Pioneer Natural Resources: COMPANY
WELL.              Tonto 42-23: WELL
FLD.           Purgatoire River: FIELD
LOC.           2217' FNL & 423' FEL: LOCATION
PROV.                 Colorado: PROVINCE
CNTY.               Las Animas: COUNTRY
SRVC.                Patterson: SERVICE COMPANY
DATE.          Mon Apr 18 07:15:48 2005: LOG DATE
UWI.           05 071 08335 00: UNIQUE WELL ID
~Curve Information Block
DEPT.FT            0 000 00 00: Depth
DCAL.in                       : CDL Caliper
RHOB.g/cc                     : CDL Bulk Density
RHOC.g/cc                     : CDL Density Correction
DPOR.pu                       : CDL Density Porosity
GR.GAPI                       : Gamma Ray
NPOR.pu                       : Neutron Porosity
~Parameter Information Block
~A  Depth       DCAL        RHOB        RHOC        DPOR         GR         NPOR    
# ...
  1684.8000      7.9346      2.5678     -0.0080      4.9800    149.7316     28.9280
  1684.9000      7.9346      2.5606      0.0508      5.4155    148.5519     27.7895
  1685.0000      7.9364      2.5678      0.0160      4.9844    144.1379     27.1800
  1685.1000      7.9364      2.6049      0.0112      2.7336    139.7867     27.2774
  1685.2000      7.9364      2.6560      0.0825     -0.3662    134.5321     27.7802
  1685.3000      7.9416      2.6907      0.0587     -2.4689    129.0470     28.1629
  1685.4000      7.9416      2.7163      0.0652     -4.0170    129.4690     27.8840
  1685.5000      7.9413      2.7517      0.0942     -6.1662    135.9507     26.9421
  1685.6000      7.9413      2.7784      0.1376     -7.7803    139.4864     26.1754
  1685.7000      7.9413      2.7691      0.0855     -7.2202    134.1944     25.8316
  1685.8000      7.9105      2.7341      0.0577     -5.0946    122.7508     25.1868
  1685.9000      7.9105      2.7007      0.0325     -3.0724    111.0143     24.3134
  1686.0000      7.8805      2.6844      0.0033     -2.0874    101.8430     24.0351
  1686.1000      7.8805      2.6943     -0.0105     -2.6839     94.0344     24.3426
  1686.2000      7.8805      2.7314      0.0520     -4.9331     86.8222     24.3298
  1686.3000      7.8734      2.7673      0.1012     -7.1098     80.4622     24.0014
  1686.4000      7.8734      2.7661      0.0740     -7.0392     74.7719     24.1931
  1686.5000      7.8699      2.7385      0.0361     -5.3626     70.4632     24.6418
  1686.6000      7.8699      2.7120      0.0661     -3.7551     68.6067     24.6154
  1686.7000      7.8699      2.6846      0.0665     -2.0944     67.9784     24.4424
  1686.8000      7.8644      2.6527     -0.0093     -0.1655     67.2689     25.2361
  1686.9000      7.8644      2.6247     -0.0095      1.5361     67.3133     27.2633
  1687.0000      7.8656      2.6057      0.0167      2.6867     69.9284     29.0641
  1687.1000      7.8656      2.5902      0.0422      3.6239     75.2695     29.2102
  1687.2000      7.8656      2.5644      0.0498      5.1878     80.4533     28.3181
  1687.3000      7.8637      2.5262     -0.0098      7.5016     84.8620     27.9817
  1687.4000      7.8637      2.4965     -0.0245      9.3038     91.7932     28.1130
  1687.5000      7.9187      2.4872      0.0327      9.8684    104.3097     27.7869
  1687.6000      7.9187      2.4810     -0.0032     10.2433    121.2935     27.5017
  1687.7000      7.9187      2.4729      0.0035     10.7341    135.0191     27.6426
  1687.8000      7.9286      2.4850     -0.0099      9.9971    137.5855     27.9048
  1687.9000      7.9286      2.5191      0.0453      7.9354    130.9274     28.3708
  1688.0000      7.9174      2.5467      0.0336      6.2585    125.0120     28.8541
  1688.1000      7.9174      2.5661      0.0385      5.0866    127.7933     28.7120
  1688.2000      7.9174      2.5961      0.1072      3.2638    137.0907     27.8592
  1688.3000      7.9056      2.6284      0.1199      1.3102    144.6416     27.1191
  1688.4000      7.9056      2.6400      0.1063      0.6062    144.5965     27.1199
  1688.5000      7.9072      2.6335      0.0616      1.0017    139.7949     27.3009
  1688.6000      7.9072      2.6263      0.0816      1.4357    137.5613     27.2156
  1688.7000      7.9072      2.6191      0.0733      1.8701    138.8460     27.5893
  1688.8000      7.9066      2.6070      0.0309      2.6031    142.2161     28.7628
  1688.9000      7.9066      2.6014      0.0105      2.9469    146.3292     29.8929
  1689.0000      7.9141      2.6082      0.0762      2.5347    148.0043     30.3480
  1689.1000      7.9141      2.6079      0.0747      2.5506    145.9650     30.3026
  1689.2000      7.9141      2.5814      0.0411      4.1599    140.8756     29.8962
  1689.3000      7.9266      2.5405     -0.0099      6.6356    134.6678     29.4101
  1689.4000      7.9266      2.5178     -0.0338      8.0143    130.7359     29.4422
  1689.5000      7.9251      2.5289      0.0094      7.3383    131.4192     30.0179
  1689.6000      7.9251      2.5629     -0.0178      5.2767    137.6540     30.0782
  1689.7000      7.9251      2.5976      0.0643      3.1786    144.1014     29.4024
  1689.8000      7.9295      2.6118      0.0647      2.3142    145.3616     28.8976
  1689.9000      7.9295      2.6027      0.0613      2.8695    146.1669     28.7678
  1690.0000      7.9341      2.5765      0.0466      4.4520    153.3714     28.6694
  1690.1000      7.9341      2.5454     -0.0635      6.3379    162.3797     28.6311
  1690.2000      7.9341      2.5331     -0.0061      7.0850    163.9359     28.7837
  1690.3000      7.9260      2.5459      0.0129      6.3105    159.2871     29.2247
  1690.4000      7.9260      2.5674      0.0362      5.0064    155.5340     29.5719
  1690.5000      7.9216      2.5819      0.0513      4.1247    154.8425     28.8211
  1690.6000      7.9216      2.5912      0.0415      3.5648    154.6442     27.1415
  1690.7000      7.9216      2.6110      0.0445      2.3610    152.6456     26.0210
  1690.8000      7.9131      2.6483      0.0671      0.1050    148.9683     26.2619
  1690.9000      7.9131      2.6836      0.1351     -2.0375    144.9136     26.9486
  1691.0000      7.8973      2.6935      0.1040     -2.6359    141.0962     26.7648
  1691.1000      7.8973      2.6913      0.0958     -2.5036    135.8375     25.7499
  1691.2000      7.8973      2.7060      0.0386     -3.3914    127.4925     24.9917
  1691.3000      7.8455      2.7315      0.0987     -4.9395    119.0544     25.2488
  1691.4000      7.8455      2.7465      0.0688     -5.8515    116.0812     25.9448
  1691.5000      7.8370      2.7510      0.0383     -6.1221    117.1248     26.0109
  1691.6000      7.8370      2.7349      0.1277     -5.1453    116.7603     25.6403
  1691.7000      7.8370      2.6821      0.0684     -1.9443    115.1220     25.8559
  1691.8000      7.8280      2.6215      0.0025      1.7246    113.7520     26.5545
  1691.9000      7.8280      2.5945      0.0684      3.3634    114.7554     27.0390
  1692.0000      7.8306      2.6007      0.0301      2.9870    118.5592     27.5568
  1692.1000      7.8306      2.6148      0.0667      2.1314    120.7996     28.6699
  1692.2000      7.8306      2.6157      0.0843      2.0796    118.6556     29.9923
  1692.3000      7.8620      2.6053      0.0549      2.7115    116.2279     30.0741
  1692.4000      7.8620      2.5992      0.1025      3.0808    118.0450     28.5517
  1692.5000      7.9206      2.6065      0.0534      2.6373    123.8843     27.2355
  1692.6000      7.9206      2.6205      0.1155      1.7860    130.6510     27.3260
  1692.7000      7.9206      2.6180      0.1117      1.9403    134.2176     28.2243
  1692.8000      7.9315      2.6000      0.0297      3.0279    133.3180     28.7906
  1692.9000      7.9315      2.5947      0.0854      3.3526    130.6974     28.8188
  1693.0000      7.9328      2.6062      0.1177      2.6553    129.3626     28.9636
  1693.1000      7.9328      2.6238      0.0465      1.5865    131.0277     29.3297
  1693.2000      7.9328      2.6380      0.1088      0.7262    133.7152     29.0985
  1693.3000      7.9284      2.6384      0.0837      0.7023    134.1335     27.7958
  1693.4000      7.9284      2.6239      0.0659      1.5840    134.5895     26.2474
  1693.5000      7.9266      2.5992      0.0282      3.0813    135.5139     25.6069
  1693.6000      7.9266      2.5819      0.0364      4.1271    133.2673     26.0245
  1693.7000      7.9266      2.5937      0.0163      3.4098    129.8291     26.7688
  1693.8000      7.9364      2.6259      0.0532      1.4616    128.6317     27.2601
  1693.9000      7.9364      2.6420      0.1016      0.4852    129.7763     27.4615
  1694.0000      7.9269      2.6293      0.0017      1.2553    130.6382     27.4554
  1694.1000      7.9269      2.6127      0.0392      2.2593    128.4128     27.2214
  1694.2000      7.9269      2.6088      0.0451      2.4948    124.5060     27.1907
  1694.3000      7.9239      2.6140      0.0902      2.1831    121.1553     27.5572
