~Version Information
VERS.                      2.0: CWLS Log ASCII Standard - VERSION 2.0
WRAP.                       NO: One line per depth step
~Well Information Block
STRT.FT                 0.0000: 
STOP.FT              2430.7500: 
STEP.FT                 0.2500: 
NULL.                -999.2500: 
COMP.          Petrogulf Corporation: COMPANY
WELL.             Leier 17-42V: WELL
FLD.           Purgatorie River: FIELD
LOC.           2309' FNL & 1062' FEL: LOCATION
PROV.                 Colorado: PROVINCE
CNTY.               Las Animas: COUNTRY
SRVC.                Patterson: SERVICE COMPANY
DATE.          Thu Oct 06 10:18:00 2005: LOG DATE
UWI.                          : UNIQUE WELL ID
~Curve Information Block
DEPT.FT            0 000 00 00: Depth
CCL.                          : Casing Collar Locator
TT3.usec                      : CBL 3' Travel Time
AMP3.mV                       : CBL 3' Amplitude
GR.GAPI                       : Gamma Ray
~Parameter Information Block
~A  Depth       CCL         TT3         AMP3         GR     
# ...
  2244.5000      0.0000    757.3500      2.2668     71.9925
  2244.7500      0.0000    748.6722      2.2396     73.2246
  2245.0000      0.0000    730.3191      2.2652     71.3950
  2245.2500      0.0000    714.3208      2.3258     66.7679
  2245.5000      0.0000    711.4158      2.4062     62.0819
  2245.7500      0.0000    724.0687      2.5555     60.5095
  2246.0000      0.0000    746.0254      2.8136     63.0497
  2246.2500      0.0000    763.3508      3.0708     67.9602
  2246.5000      0.0000    766.2741      3.1824     72.4250
  2246.7500      0.0000    764.4323      3.1852     74.4073
  2247.0000      0.0000    776.6813      3.2175     73.2919
  2247.2500     -2.0000    803.8802      3.3358     69.6214
  2247.5000      2.0000    829.2379      3.5115     64.5182
  2247.7500      0.0000    841.3817      3.7045     59.0575
  2248.0000      0.0000    839.4944      3.8981     54.0020
  2248.2500      0.0000    828.8215      4.1031     49.9184
  2248.5000      0.0000    820.0150      4.3470     47.1464
  2248.7500      0.0000    814.7637      4.6036     45.5280
  2249.0000      0.0000    797.6943      4.7263     44.4836
  2249.2500      0.0000    761.2294      4.6202     43.6307
  2249.5000      0.0000    723.5341      4.4145     43.3030
  2249.7500      0.0000    707.3260      4.2592     44.2769
  2250.0000      0.0000    717.0090      4.1478     46.9038
  2250.2500      0.0000    739.3206      4.0327     50.6049
  2250.5000      0.0000    755.0258      3.9135     54.3371
  2250.7500      0.0000    753.3779      3.8004     57.5080
  2251.0000      0.0000    738.6229      3.6830     60.2993
  2251.2500      0.0000    723.3386      3.5475     63.1323
  2251.5000      0.0000    717.9879      3.3940     66.0204
  2251.7500      0.0000    725.0739      3.2309     68.4054
  2252.0000      0.0000    740.0870      3.0801     69.4184
  2252.2500      0.0000    756.4167      2.9930     68.4034
  2252.5000      0.0000    767.5374      3.0200     65.4359
  2252.7500      0.0000    767.9453      3.1655     61.3731
  2253.0000      0.0000    759.1801      3.3961     57.4789
  2253.2500      0.0000    751.8224      3.6723     55.0051
  2253.5000      0.0000    754.8042      3.9517     54.7267
  2253.7500      0.0000    765.3024      4.1897     56.4460
  2254.0000      0.0000    774.4532      4.3722     58.9940
  2254.2500      0.0000    778.3225      4.5209     60.9757
  2254.5000      0.0000    778.4658      4.6404     61.6665
  2254.7500      0.0000    776.3012      4.6843     61.2996
  2255.0000      0.0000    770.4089      4.5935     60.5608
  2255.2500      0.0000    758.9794      4.3614     59.8364
  2255.5000      0.0000    744.3911      4.0414     58.9614
  2255.7500      0.0000    732.6965      3.7015     57.6198
  2256.0000      0.0000    727.8439      3.3877     55.8721
  2256.2500      0.0000    729.0365      3.1184     54.3505
  2256.5000      0.0000    732.7144      2.8872     54.0379
  2256.7500      0.0000    736.3865      2.6718     55.7294
  2257.0000      0.0000    743.7844      2.4593     59.4703
  2257.2500      0.0000    766.7616      2.2643     64.4090
  2257.5000      0.0000    813.9036      2.1135     69.1873
  2257.7500      0.0000    866.4689      2.0185     72.7084
  2258.0000      0.0000    880.0084      1.9739     74.8060
  2258.2500      0.0000    835.2281      1.9787     76.0445
  2258.5000      0.0000    765.9761      2.0280     76.7355
  2258.7500      0.0000    714.2007      2.0879     76.6451
  2259.0000      0.0000    690.4302      2.1148     75.9484
  2259.2500      0.0000    687.8308      2.0951     75.7734
  2259.5000      0.0000    699.5013      2.0439     77.1922
  2259.7500      0.0000    715.7624      1.9723     79.9693
  2260.0000      0.0000    726.2280      1.8827     82.7151
  2260.2500      0.0000    729.4523      1.7970     84.1310
  2260.5000      0.0000    730.1348      1.7546     83.8835
  2260.7500      0.0000    729.7292      1.7644     82.4749
  2261.0000      0.0000    729.4402      1.7876     80.6643
  2261.2500      0.0000    736.0394      1.7870     79.1308
  2261.5000      0.0000    753.4804      1.7738     78.3639
  2261.7500      0.0000    772.6446      1.7863     78.5499
  2262.0000      0.0000    779.7205      1.8379     79.4576
  2262.2500      0.0000    770.0279      1.9089     80.4343
  2262.5000      0.0000    747.6347      1.9706     80.6829
  2262.7500      0.0000    720.9416      2.0049     79.9372
  2263.0000      0.0000    701.2764      2.0069     78.9395
  2263.2500      0.0000    696.1710      1.9802     78.7904
  2263.5000      0.0000    701.9310      1.9457     79.7055
  2263.7500      0.0000    708.4193      1.9367     80.8785
  2264.0000      0.0000    710.7629      1.9642     81.6890
  2264.2500      0.0000    712.5901      2.0050     82.5097
  2264.5000      0.0000    719.9603      2.0360     84.0669
  2264.7500      0.0000    734.3268      2.0613     86.2871
  2265.0000      0.0000    749.3865      2.0994     87.9603
  2265.2500      0.0000    755.2249      2.1644     87.5289
  2265.5000      0.0000    749.1606      2.2601     84.3607
  2265.7500      0.0000    738.5534      2.3701     79.5042
  2266.0000      0.0000    730.5455      2.4534     75.1364
  2266.2500      0.0000    727.0595      2.4665     73.0348
  2266.5000      0.0000    726.1139      2.4037     73.4806
  2266.7500      0.0000    722.5413      2.3106     75.5253
  2267.0000      0.0000    713.0664      2.2467     77.9281
  2267.2500      0.0000    700.5550      2.2345     79.6026
  2267.5000      0.0000    692.0557      2.2382     79.5833
  2267.7500      0.0000    693.7084      2.2012     77.1908
  2268.0000      0.0000    704.2115      2.1069     72.5359
  2268.2500      0.0000    713.9244      1.9856     66.6934
  2268.5000      0.0000    714.3698      1.8723     60.9804
  2268.7500      0.0000    706.9155      1.7733     55.9628
  2269.0000      0.0000    698.9525      1.6823     51.4305
  2269.2500      0.0000    694.5791      1.6106     47.2905
  2269.5000      0.0000    692.9670      1.5677     44.0103
  2269.7500      0.0000    692.5615      1.5363     42.0511
  2270.0000      0.0000    692.9595      1.4958     41.2703
  2270.2500      0.0000    694.9230      1.4511     41.2073
  2270.5000      0.0000    701.8256      1.4257     41.8168
  2270.7500      0.0000    718.6227      1.4351     43.5599
  2271.0000      0.0000    740.7986      1.4750     46.6135
  2271.2500      0.0000    747.5834      1.5321     50.3116
  2271.5000      0.0000    725.8845      1.5966     53.6906
  2271.7500      0.0000    693.4259      1.6645     56.3724
  2272.0000      0.0000    675.5735      1.7280     58.7535
  2272.2500      0.0000    675.7538      1.7678     61.5962
  2272.5000      0.0000    682.3815      1.7682     65.4567
  2272.7500      0.0000    687.3419      1.7336     70.1030
  2273.0000      0.0000    689.7335      1.6895     74.5094
  2273.2500      0.0000    691.4279      1.6724     77.6962
  2273.5000      0.0000    695.3667      1.7068     79.4415
  2273.7500      0.0000    706.2485      1.7791     79.9997
  2274.0000      0.0000    728.6967      1.8531     79.5042
  2274.2500      0.0000    761.0856      1.9113     77.9538
  2274.5000      0.0000    789.8160      1.9628     75.4918
  2274.7500      0.0000    795.1326      2.0185     72.4501
  2275.0000      0.0000    771.9440      2.0798     69.1696
  2275.2500      0.0000    737.4346      2.1389     65.7785
  2275.5000      0.0000    709.1531      2.1905     62.1571
  2275.7500      0.0000    691.1328      2.2448     58.3668
  2276.0000      0.0000    681.1730      2.3195     55.2078
  2276.2500      0.0000    673.9032      2.4127     53.9894
  2276.5000      0.0000    659.7957      2.4967     55.3266
  2276.7500      0.0000    636.6654      2.5443     58.1861
  2277.0000      0.0000    621.4281      2.5594     60.3811
  2277.2500      0.0000    629.9485      2.5700     60.0471
  2277.5000      0.0000    651.7567      2.5974     56.7674
  2277.7500      0.0000    667.4948      2.6335     51.6686
