~Version Information
VERS.                      2.0: CWLS Log ASCII Standard - VERSION 2.0
WRAP.                       NO: One line per depth step
~Well Information Block
STRT.FT               456.0000: 
STOP.FT              1700.7000: 
STEP.FT                 0.1000: 
NULL.                -999.2500: 
COMP.          Pioneer Natural Resources: COMPANY
WELL.                Mead 11-9: WELL
FLD.           Purgatoire River: FIELD
LOC.           1127' FNL & 668' FWL: LOCATION
PROV.                 Colorado: PROVINCE
CNTY.               Las Animas: COUNTRY
SRVC.                Patterson: SERVICE COMPANY
DATE.          Sat Feb 19 09:18:18 2005: LOG DATE
UWI.           05 071 08160 00: UNIQUE WELL ID
~Curve Information Block
DEPT.FT            0 000 00 00: Depth
DCAL.in                       : CDL Caliper
RHOB.g/cc                     : CDL Bulk Density
RHOC.g/cc                     : CDL Density Correction
DPOR.pu                       : CDL Density Porosity
GR.GAPI                       : Gamma Ray
NPOR.pu                       : Neutron Porosity
~Parameter Information Block
~A  Depth       DCAL        RHOB        RHOC        DPOR         GR         NPOR    
   456.0000      3.0955      2.1572      0.5322     29.8684     64.6987     20.8545
   456.1000      3.0955      2.1422      0.5200     30.7772     62.9030     21.7199
   456.2000      3.0955      2.1213      0.4983     32.0398     64.9757     23.1377
   456.3000      3.0935      2.1035      0.5026     33.1193     70.1040     23.6900
   456.4000      3.0935      2.0963      0.4821     33.5570     74.7614     23.1442
   456.5000      3.0942      2.1024      0.5145     33.1879     74.6055     22.6842
   456.6000      3.0942      2.1163      0.4977     32.3456     69.7800     22.8381
   456.7000      3.0942      2.1311      0.5030     31.4504     64.0274     23.0819
   456.8000      3.0967      2.1423      0.4874     30.7725     60.4464     23.2296
   456.9000      3.0967      2.1460      0.5516     30.5480     60.8124     23.5460
   457.0000      3.0980      2.1385      0.5320     31.0017     64.8806     23.8695
   457.1000      3.0980      2.1207      0.5411     32.0811     69.7456     23.7362
   457.2000      3.0980      2.1010      0.4964     33.2723     71.8981     23.3794
   457.3000      3.0986      2.1011      0.4690     33.2656     69.6564     23.4378
   457.4000      3.0986      2.1368      0.5020     31.1056     63.9246     23.7578
   457.5000      3.1002      2.1921      0.5524     27.7489     58.0502     23.9693
   457.6000      3.1002      2.2414      0.5526     24.7637     56.2926     24.1023
   457.7000      3.1002      2.2747      0.5596     22.7435     59.9174     24.0689
   457.8000      3.1000      2.2920      0.5809     21.6967     65.3835     23.9731
   457.9000      3.1000      2.3006      0.5573     21.1783     69.2238     23.9883
   458.0000      3.0975      2.3078      0.5684     20.7419     72.3930     23.7930
   458.1000      3.0975      2.3083      0.5386     20.7089     76.2313     23.3516
   458.2000      3.0975      2.2994      0.5253     21.2501     78.0679     23.0759
   458.3000      3.0963      2.2884      0.5053     21.9140     74.0604     23.1880
   458.4000      3.0963      2.2780      0.5476     22.5467     66.0589     23.3782
   458.5000      3.0958      2.2678      0.5129     23.1614     58.8308     23.1630
   458.6000      3.0958      2.2693      0.5026     23.0703     54.3901     22.7754
   458.7000      3.0958      2.2892      0.5174     21.8690     54.5879     22.6897
   458.8000      3.0954      2.3223      0.5215     19.8615     60.1113     22.7833
   458.9000      3.0954      2.3633      0.5392     17.3738     66.1505     22.8945
   459.0000      3.0950      2.4030      0.5603     14.9685     67.5397     23.1288
   459.1000      3.0950      2.4290      0.5725     13.3929     64.9668     23.1800
   459.2000      3.0950      2.4360      0.5779     12.9703     63.4796     22.7859
   459.3000      3.0943      2.4307      0.5597     13.2933     65.7566     22.2756
   459.4000      3.0943      2.4197      0.5893     13.9562     68.0777     21.8895
   459.5000      3.0930      2.4048      0.5338     14.8621     67.4033     21.7745
   459.6000      3.0930      2.3934      0.5233     15.5530     65.4121     22.1304
   459.7000      3.0930      2.3957      0.5213     15.4106     63.7069     22.6609
   459.8000      3.0919      2.4138      0.5165     14.3123     62.6313     22.8361
   459.9000      3.0919      2.4295      0.5959     13.3621     62.1675     22.6688
   460.0000      3.0912      2.4144      0.5576     14.2779     61.6833     22.5191
   460.1000      3.0912      2.3649      0.5434     17.2802     60.9370     22.4227
   460.2000      3.0912      2.3061      0.4834     20.8436     60.7686     22.3321
   460.3000      3.0913      2.2654      0.4664     23.3109     62.1782     22.2102
   460.4000      3.0913      2.2605      0.4071     23.6055     63.4546     21.7611
   460.5000      3.0924      2.2932      0.4655     21.6254     62.4527     21.2227
   460.6000      3.0924      2.3398      0.5211     18.8023     61.3173     21.0310
   460.7000      3.0924      2.3712      0.5494     16.8944     61.7704     21.0260
   460.8000      3.0929      2.3760      0.5417     16.6070     62.1164     21.2788
   460.9000      3.0929      2.3604      0.5390     17.5506     61.7712     21.8396
   461.0000      3.0922      2.3386      0.5236     18.8703     61.2278     22.3780
   461.1000      3.0922      2.3196      0.4740     20.0239     59.2329     22.6301
   461.2000      3.0922      2.3068      0.4887     20.7988     58.1204     22.4789
   461.3000      3.0912      2.3047      0.4621     20.9244     60.9119     22.0322
   461.4000      3.0912      2.3161      0.4775     20.2381     64.6661     21.6332
   461.5000      3.0912      2.3330      0.5052     19.2127     65.3108     21.3664
   461.6000      3.0912      2.3417      0.5067     18.6820     63.1883     21.0801
   461.7000      3.0912      2.3374      0.4948     18.9465     60.9747     20.6814
   461.8000      3.0919      2.3228      0.5001     19.8287     59.1652     20.3184
   461.9000      3.0919      2.3057      0.4937     20.8666     56.7939     20.4549
   462.0000      3.0934      2.3012      0.4743     21.1416     52.9286     21.3029
   462.1000      3.0934      2.3136      0.5102     20.3860     49.2308     22.1113
   462.2000      3.0934      2.3266      0.5135     19.5973     50.0536     22.1524
   462.3000      3.0953      2.3302      0.4950     19.3843     55.4036     21.8238
   462.4000      3.0953      2.3310      0.4710     19.3308     60.7910     21.5888
   462.5000      3.0950      2.3311      0.5033     19.3250     62.4507     21.4825
   462.6000      3.0950      2.3248      0.4951     19.7064     59.0951     21.4705
   462.7000      3.0950      2.3166      0.4908     20.2039     53.4198     21.4341
   462.8000      3.0933      2.3130      0.4870     20.4264     51.1059     21.3283
   462.9000      3.0933      2.3106      0.4833     20.5704     55.6614     21.2407
   463.0000      3.0927      2.3106      0.4388     20.5698     61.9200     21.2223
   463.1000      3.0927      2.3235      0.4616     19.7887     62.0978     21.4654
   463.2000      3.0927      2.3444      0.5279     18.5198     58.1044     22.0820
   463.3000      3.0926      2.3570      0.5411     17.7570     55.5075     22.5509
   463.4000      3.0926      2.3606      0.5236     17.5384     55.3341     22.6472
   463.5000      3.0925      2.3586      0.5417     17.6599     55.6274     22.5030
   463.6000      3.0925      2.3459      0.5242     18.4308     54.3082     22.1841
   463.7000      3.0925      2.3279      0.4955     19.5241     52.4282     21.7911
   463.8000      3.0930      2.3173      0.5192     20.1640     52.4845     21.5327
   463.9000      3.0930      2.3194      0.4930     20.0342     53.4459     21.6534
   464.0000      3.0931      2.3373      0.4788     18.9495     53.5422     21.9961
   464.1000      3.0931      2.3719      0.4707     16.8569     54.1192     22.2260
   464.2000      3.0931      2.4127      0.5021     14.3837     53.9801     22.5166
   464.3000      3.0919      2.4322      0.5532     13.1970     52.0399     22.7203
   464.4000      3.0919      2.4071      0.5605     14.7199     51.7333     22.3639
   464.5000      3.0904      2.3553      0.4671     17.8620     52.4511     21.8118
   464.6000      3.0904      2.3155      0.4426     20.2742     51.1862     21.6192
   464.7000      3.0904      2.3006      0.4244     21.1767     50.7406     21.6621
   464.8000      3.0902      2.3064      0.4280     20.8234     53.3447     21.8767
   464.9000      3.0902      2.3299      0.4346     19.4003     55.6223     22.3052
   465.0000      3.0909      2.3626      0.4872     17.4171     55.7180     22.7488
   465.1000      3.0909      2.3939      0.4812     15.5184     55.0297     22.9854
   465.2000      3.0909      2.4156      0.5320     14.2078     54.5470     22.7785
   465.3000      3.0916      2.4212      0.5055     13.8669     53.2435     22.3195
   465.4000      3.0916      2.4161      0.4841     14.1760     50.7598     22.1299
   465.5000      3.0920      2.4143      0.4771     14.2840     49.6362     22.2094
