~Version Information
VERS.                      2.0: CWLS Log ASCII Standard - VERSION 2.0
WRAP.                       NO: One line per depth step
~Well Information Block
STRT.FT               595.0000: 
STOP.FT              1508.7500: 
STEP.FT                 0.2500: 
NULL.                -999.2500: 
COMP.          Pioneer Natural Resources: COMPANY
WELL.          Sumatra 34-22 Tr: WELL
FLD.           Purgatoire River: FIELD
LOC.           443' FSL & 2424' FEL--: LOCATION
PROV.                 Colorado: PROVINCE
CNTY.               Las Animas: COUNTRY
SRVC.                Patterson: SERVICE COMPANY
DATE.          Wed Jun 08 23:53:01 2005: LOG DATE
UWI.           05 071 08383 00: UNIQUE WELL ID
~Curve Information Block
DEPT.FT            0 000 00 00: Depth
SN.Ohm-m                      : IEL Short Normal
SP.mV                         : IEL Spontaneous Potential
DIR.Ohm-m                     : IEL Induction Resistivity
GR.GAPI                       : Gamma Ray
~Parameter Information Block
~A  Depth        SN          SP         DIR          GR     
# ...
   896.5000    674.5949   -529.3071     11.1456    110.0071
   896.7500    678.4498   -529.3176     10.6039    111.1140
   897.0000    681.0388   -529.3256     10.0767    112.4518
   897.2500    682.2887   -529.3309      9.5882    113.1289
   897.5000    682.7377   -529.3336      9.1610    113.6384
   897.7500    682.8597   -529.3344      8.8090    113.7695
   898.0000    682.8850   -529.3337      8.5337    114.1991
   898.2500    682.8896   -529.3322      8.3245    114.9898
   898.5000    682.8896   -529.3307      8.1636    117.3160
   898.7500    682.8896   -529.3294      8.0318    119.4804
   899.0000    682.8896   -529.3285      7.9139    122.5967
   899.2500    682.8896   -529.3279      7.8019    123.9151
   899.5000    682.8896   -529.3276      7.6944    124.5178
   899.7500    682.8896   -529.3271      7.5931    124.4257
   900.0000    682.8896   -529.3264      7.4999    124.3051
   900.2500    682.8896   -529.3251      7.4146    124.3188
   900.5000    682.8896   -529.3235      7.3354    124.2288
   900.7500    682.8896   -529.3215      7.2606    124.0231
   901.0000    682.8896   -529.3195      7.1904    123.5890
   901.2500    682.8896   -529.3175      7.1267    123.2401
   901.5000    682.8896   -529.3158      7.0723    122.5893
   901.7500    682.8896   -529.3145      7.0303    122.1443
   902.0000    682.8896   -529.3136      7.0031    121.7523
   902.2500    682.8896   -529.3131      6.9920    121.7264
   902.5000    682.8896   -529.3128      6.9969    121.7695
   902.7500    682.8896   -529.3124      7.0157    121.7380
   903.0000    682.8896   -529.3118      7.0450    121.9794
   903.2500    682.8896   -529.3107      7.0812    122.7335
   903.5000    682.8896   -529.3088      7.1203    124.9044
   903.7500    682.8896   -529.3063      7.1581    126.6240
   904.0000    682.8896   -529.3029      7.1894    128.6751
   904.2500    682.8896   -529.2986      7.2080    129.4627
   904.5000    682.8896   -529.2933      7.2086    129.8740
   904.7500    682.8896   -529.2866      7.1879    129.6980
   905.0000    682.8896   -529.2781      7.1458    128.9472
   905.2500    682.8896   -529.2676      7.0843    128.4944
   905.5000    682.8896   -529.2545      7.0068    128.6990
   905.7500    682.8896   -529.2384      6.9171    129.5446
   906.0000    682.8896   -529.2195      6.8200    131.1292
   906.2500    682.8896   -529.1981      6.7223    131.7366
   906.5000    682.8896   -529.1750      6.6344    131.5070
   906.7500    682.8896   -529.1517      6.5696    130.9084
   907.0000    682.8896   -529.1301      6.5423    130.0244
   907.2500    682.8896   -529.1119      6.5640    129.3135
   907.5000    682.8896   -529.0992      6.6401    127.0400
   907.7500    682.8896   -529.0936      6.7669    124.2887
   908.0000    682.8860   -529.0958      6.9308    118.4858
   908.2500    682.8661   -529.1062      7.1097    113.9166
   908.5000    682.7702   -529.1237      7.2787    106.9080
   908.7500    682.4175   -529.1469      7.4172    102.9520
   909.0000    681.4355   -529.1736      7.5150    100.1435
   909.2500    679.4014   -529.2015      7.5731    101.3842
   909.5000    676.3727   -529.2282      7.5993    107.9721
   909.7500    673.4076   -529.2520      7.5996    114.3901
   910.0000    672.1451   -529.2715      7.5720    124.3664
   910.2500    673.4076   -529.2863      7.5074    130.0412
   910.5000    676.3727   -529.2964      7.3968    136.1006
   910.7500    679.4014   -529.3026      7.2410    138.3556
   911.0000    681.4355   -529.3057      7.0542    139.2175
   911.2500    682.4175   -529.3066      6.8592    138.4361
   911.5000    682.7702   -529.3063      6.6778    136.0722
   911.7500    682.8661   -529.3055      6.5250    134.1369
   912.0000    682.8860   -529.3046      6.4072    131.0017
   912.2500    682.8896   -529.3037      6.3236    128.7614
   912.5000    682.8896   -529.3030      6.2686    125.3905
   912.7500    682.8896   -529.3028      6.2327    123.5125
   913.0000    682.8896   -529.3030      6.2044    122.0146
   913.2500    682.8896   -529.3038      6.1729    122.1591
   913.5000    682.8896   -529.3054      6.1310    123.9809
   913.7500    682.8896   -529.3077      6.0778    125.9406
   914.0000    682.8896   -529.3104      6.0181    129.5531
   914.2500    682.8896   -529.3132      5.9598    132.6029
   914.5000    682.8896   -529.3156      5.9108    139.1647
   914.7500    682.8896   -529.3171      5.8770    145.1502
   915.0000    682.8896   -529.3174      5.8613    155.0849
   915.2500    682.8896   -529.3162      5.8650    160.3114
   915.5000    682.8896   -529.3135      5.8872    162.1393
   915.7500    682.8896   -529.3095      5.9261    158.1140
   916.0000    682.8896   -529.3044      5.9791    145.4738
   916.2500    682.8896   -529.2987      6.0447    135.0040
   916.5000    682.8896   -529.2927      6.1236    120.4496
   916.7500    682.8896   -529.2866      6.2186    112.8170
   917.0000    682.8896   -529.2808      6.3335    104.5582
   917.2500    682.8896   -529.2755      6.4706    100.7660
   917.5000    682.8896   -529.2708      6.6285     97.3135
   917.7500    682.8896   -529.2666      6.8013     96.4690
   918.0000    682.8896   -529.2631      6.9807     96.9173
   918.2500    682.8896   -529.2599      7.1578     97.7242
   918.5000    682.8896   -529.2570      7.3261     98.4772
   918.7500    682.8896   -529.2540      7.4823     98.2638
   919.0000    682.8896   -529.2507      7.6256     96.9769
   919.2500    682.8896   -529.2468      7.7559     95.8710
   919.5000    682.8896   -529.2425      7.8729     94.5290
   919.7500    682.8896   -529.2378      7.9757     94.0055
   920.0000    682.8896   -529.2330      8.0635     93.5769
   920.2500    682.8896   -529.2286      8.1366     93.3419
   920.5000    682.8896   -529.2252      8.1961     93.0742
   920.7500    682.8896   -529.2233      8.2443     93.1412
   921.0000    682.8896   -529.2232      8.2853     93.7564
   921.2500    682.8896   -529.2250      8.3256     94.3118
   921.5000    682.8896   -529.2288      8.3728     94.8826
   921.7500    682.8896   -529.2343      8.4328     95.0340
   922.0000    682.8896   -529.2407      8.5082     95.2533
   922.2500    682.8896   -529.2478      8.5982     95.5555
   922.5000    682.8896   -529.2549      8.7001     96.1687
   922.7500    682.8896   -529.2615      8.8115     96.5909
   923.0000    682.8896   -529.2672      8.9303     97.2977
   923.2500    682.8896   -529.2716      9.0545     97.9096
   923.5000    682.8896   -529.2747      9.1839     98.9950
   923.7500    682.8896   -529.2766      9.3212     99.6734
   924.0000    682.8896   -529.2772      9.4728    100.3936
   924.2500    682.8896   -529.2769      9.6477    100.6306
   924.5000    682.8896   -529.2761      9.8550    100.4375
   924.7500    682.8896   -529.2750     10.1012     99.6766
   925.0000    682.8896   -529.2742     10.3894     97.1509
   925.2500    682.8896   -529.2739     10.7188     94.5158
   925.5000    682.8896   -529.2745     11.0875     89.6064
   925.7500    682.8896   -529.2760     11.4942     86.3233
   926.0000    682.8896   -529.2784     11.9403     82.9334
   926.2500    682.8896   -529.2814     12.4303     82.4751
   926.5000    682.8896   -529.2847     12.9668     84.7556
   926.7500    682.8896   -529.2878     13.5437     87.7325
   927.0000    682.8896   -529.2902     14.1395     92.8856
   927.2500    682.8896   -529.2914     14.7168     95.8686
   927.5000    682.8896   -529.2914     15.2299     98.6027
   927.7500    682.8896   -529.2901     15.6398     99.2057
   928.0000    682.8896   -529.2876     15.9266     99.2276
   928.2500    682.8896   -529.2845     16.0919     99.5404
   928.5000    682.8896   -529.2814     16.1536    101.7192
   928.7500    682.8896   -529.2790     16.1380    104.5244
   929.0000    682.8896   -529.2778     16.0744    110.1393
   929.2500    682.8896   -529.2782     15.9908    114.1341
   929.5000    682.8896   -529.2798     15.9098    119.2992
   929.7500    682.8896   -529.2824     15.8480    121.6559
