~Version Information
VERS.                      2.0: CWLS Log ASCII Standard - VERSION 2.0
WRAP.                       NO: One line per depth step
~Well Information Block
STRT.FT               250.0000: 
STOP.FT              1687.7000: 
STEP.FT                 0.1000: 
NULL.                -999.2500: 
COMP.          Pioneer Natural Resources: COMPANY
WELL.          Moneypenny 31-36: WELL
FLD.           Purgatoire River: FIELD
LOC.           280' FNL & 1976' FEL: LOCATION
PROV.                 Colorado: PROVINCE
CNTY.               Las Animas: COUNTRY
SRVC.                Patterson: SERVICE COMPANY
DATE.          Fri Oct 01 13:54:40 2004: LOG DATE
UWI.           05 071 08183 00: UNIQUE WELL ID
~Curve Information Block
DEPT.FT            0 000 00 00: Depth
DCAL.in                       : CDL Caliper
RHOB.g/cc                     : CDL Bulk Density
RHOC.g/cc                     : CDL Density Correction
DPOR.pu                       : CDL Density Porosity
NPOR.pu                       : Neutron Porosity
GR.GAPI                       : Gamma Ray
~Parameter Information Block
~A  Depth       DCAL        RHOB        RHOC        DPOR        NPOR         GR     
# ...
  1094.8000      8.0308      2.3202      0.0795     19.9886     10.9376     54.2871
  1094.9000      8.0308      2.3300      0.1003     19.3917     10.3367     54.6142
  1095.0000      8.0350      2.3482      0.1292     18.2885      9.9066     51.3292
  1095.1000      8.0350      2.3607      0.1125     17.5329      9.4677     49.7083
  1095.2000      8.0350      2.3659      0.0822     17.2194      8.9358     52.4721
  1095.3000      8.0349      2.3718      0.1089     16.8582      8.6718     56.6367
  1095.4000      8.0349      2.3797      0.1145     16.3822      8.8847     58.9434
  1095.5000      8.0377      2.3828      0.1066     16.1960      9.2671     58.1480
  1095.6000      8.0377      2.3823      0.0653     16.2268      9.4291     55.8600
  1095.7000      8.0377      2.3896      0.0576     15.7829      9.4011     54.6509
  1095.8000      8.0418      2.4030      0.1081     14.9724      9.3175     54.6835
  1095.9000      8.0418      2.4113      0.0716     14.4693      9.2625     55.0750
  1096.0000      8.0471      2.4180      0.0731     14.0628      9.2924     56.9822
  1096.1000      8.0471      2.4315      0.0568     13.2408      9.4492     59.9507
  1096.2000      8.0471      2.4469      0.0866     12.3066      9.9016     61.4684
  1096.3000      8.0519      2.4539      0.0579     11.8840     10.7429     60.8280
  1096.4000      8.0519      2.4543      0.0699     11.8605     11.7122     59.7516
  1096.5000      8.0498      2.4563      0.0503     11.7400     12.5159     60.4913
  1096.6000      8.0498      2.4654      0.0546     11.1849     13.1932     63.1376
  1096.7000      8.0498      2.4835      0.0366     10.0932     13.8356     66.8833
  1096.8000      8.0454      2.5025      0.0573      8.9390     14.6259     70.6296
  1096.9000      8.0454      2.5081      0.0798      8.6006     15.7350     73.7179
  1097.0000      8.0447      2.4996      0.0270      9.1141     16.6597     77.0574
  1097.1000      8.0447      2.4897      0.0259      9.7131     17.0578     81.2871
  1097.2000      8.0447      2.4806      0.0349     10.2643     17.5695     86.5261
  1097.3000      8.0482      2.4710      0.0598     10.8465     18.5737     93.5450
  1097.4000      8.0482      2.4723      0.0240     10.7716     19.9458    100.5291
  1097.5000      8.0535      2.4860      0.0484      9.9378     21.4209    102.6396
  1097.6000      8.0535      2.4986      0.0564      9.1780     22.4517    101.3543
  1097.7000      8.0535      2.5044      0.0741      8.8260     22.7737    102.0089
  1097.8000      8.0560      2.4989      0.0824      9.1563     22.8225    106.1942
  1097.9000      8.0560      2.4842      0.0293     10.0484     23.1252    114.4063
  1098.0000      8.0589      2.4760      0.0626     10.5437     23.5056    124.9886
  1098.1000      8.0589      2.4715      0.0952     10.8207     23.4992    131.5286
  1098.2000      8.0589      2.4514      0.0807     12.0361     23.3923    129.3911
  1098.3000      8.0603      2.4215      0.0117     13.8507     23.4865    124.6781
  1098.4000      8.0603      2.4090      0.0479     14.6087     23.2976    124.4033
  1098.5000      8.0605      2.4197      0.0717     13.9596     22.7526    126.9673
  1098.6000      8.0605      2.4393      0.0492     12.7705     22.3247    127.7821
  1098.7000      8.0605      2.4599      0.0717     11.5192     21.9918    123.0448
  1098.8000      8.0615      2.4789      0.0788     10.3712     21.6593    115.1740
  1098.9000      8.0615      2.4931      0.1205      9.5119     21.4059    114.4016
  1099.0000      8.0597      2.5001      0.1149      9.0874     21.1384    121.5957
  1099.1000      8.0597      2.4987      0.1477      9.1684     20.8949    124.9844
  1099.2000      8.0597      2.4954      0.0691      9.3669     20.8579    119.0381
  1099.3000      8.0575      2.4992      0.0966      9.1416     20.9948    112.2639
  1099.4000      8.0575      2.5095      0.1039      8.5177     21.1629    113.6165
  1099.5000      8.0567      2.5248      0.1061      7.5881     21.1605    119.5871
  1099.6000      8.0567      2.5405      0.1267      6.6364     21.0042    122.4533
  1099.7000      8.0567      2.5462      0.0934      6.2902     20.9769    120.7977
  1099.8000      8.0565      2.5430      0.0900      6.4854     21.1677    116.6218
  1099.9000      8.0565      2.5427      0.0549      6.5004     21.3716    113.3690
  1100.0000      8.0566      2.5508      0.0678      6.0104     21.3136    112.6649
  1100.1000      8.0566      2.5676      0.0335      4.9938     21.1305    110.8460
  1100.2000      8.0566      2.5937      0.0850      3.4146     21.2316    106.2062
  1100.3000      8.0554      2.6170      0.0903      2.0024     21.6074    100.3203
  1100.4000      8.0554      2.6172      0.1051      1.9901     22.1049     94.3334
  1100.5000      8.0532      2.5878      0.0456      3.7713     22.8505     89.7028
  1100.6000      8.0532      2.5477     -0.0167      6.1984     23.5885     87.0611
  1100.7000      8.0532      2.5188     -0.0186      7.9493     23.8796     88.3815
  1100.8000      8.0522      2.5017     -0.0164      8.9905     23.9804     94.5200
  1100.9000      8.0522      2.4865     -0.0045      9.9070     24.2143     99.8395
  1101.0000      8.0543      2.4754     -0.0275     10.5844     24.3623    100.7734
  1101.1000      8.0543      2.4688      0.0075     10.9833     24.2746     98.9664
  1101.2000      8.0543      2.4548     -0.0268     11.8326     24.1501     93.9187
  1101.3000      8.0594      2.4315     -0.0289     13.2438     24.0100     87.1693
  1101.4000      8.0594      2.4023     -0.0053     15.0099     23.6788     83.0897
  1101.5000      8.0630      2.3602     -0.0280     17.5609     23.1431     81.4293
  1101.6000      8.0630      2.3062     -0.0473     20.8344     22.3228     79.9517
  1101.7000      8.0630      2.2656     -0.0963     23.2954     21.1691     80.4481
  1101.8000      8.0604      2.2615     -0.0432     23.5456     19.9653     84.0933
  1101.9000      8.0604      2.2867      0.0069     22.0193     18.9535     89.3776
  1102.0000      8.0570      2.3209      0.0323     19.9434     18.0389     92.4286
  1102.1000      8.0570      2.3569      0.0625     17.7634     16.9826     90.3324
  1102.2000      8.0570      2.4024      0.1029     15.0038     15.9159     87.0658
  1102.3000      8.0536      2.4567      0.1525     11.7164     15.2549     87.2723
  1102.4000      8.0536      2.4963      0.1289      9.3144     15.2447     87.8837
  1102.5000      8.0456      2.5062      0.0812      8.7175     15.6640     85.9950
  1102.6000      8.0456      2.5019      0.0349      8.9749     16.1719     85.2343
  1102.7000      8.0456      2.5007      0.0437      9.0505     16.8930     88.6845
  1102.8000      8.0379      2.4985      0.0638      9.1827     17.7780     91.0764
  1102.9000      8.0379      2.4971      0.0192      9.2644     18.2998     88.2010
  1103.0000      8.0347      2.5121      0.0115      8.3588     18.5562     84.7089
  1103.1000      8.0347      2.5409      0.0354      6.6130     18.9910     83.8925
  1103.2000      8.0347      2.5618      0.0689      5.3425     19.5943     83.7652
  1103.3000      8.0351      2.5615      0.0633      5.3666     20.3046     82.3639
  1103.4000      8.0351      2.5484      0.0226      6.1581     20.9156     80.2687
  1103.5000      8.0365      2.5369      0.0355      6.8571     21.2553     79.4375
  1103.6000      8.0365      2.5212      0.0433      7.8071     21.5616     81.2104
  1103.7000      8.0365      2.4910      0.0283      9.6369     22.0828     84.8758
  1103.8000      8.0377      2.4614     -0.0087     11.4315     22.8602     88.4639
  1103.9000      8.0377      2.4510     -0.0047     12.0618     23.6002     90.1038
  1104.0000      8.0398      2.4557      0.0045     11.7753     24.0959     89.4084
  1104.1000      8.0398      2.4635      0.0176     11.3012     24.4260     89.4765
  1104.2000      8.0398      2.4727      0.0013     10.7431     24.3576     92.9455
  1104.3000      8.0387      2.4878      0.0398      9.8326     23.8342     97.6428
