~Version Information
VERS.                      2.0: CWLS Log ASCII Standard - VERSION 2.0
WRAP.                       NO: One line per depth step
~Well Information Block
STRT.FT               752.0000: 
STOP.FT              2474.2000: 
STEP.FT                 0.1000: 
NULL.                -999.2500: 
COMP.          Petrogulf Corporation: COMPANY
WELL.            Montoya 7-14V: WELL
FLD.           Purgatorie River: FIELD
LOC.           535' FSL & 491' FWL: LOCATION
CNTY.               Las Animas: COUNTY
SRVC.                         : SERVICE COMPANY
DATE.          Mon Aug 23 10:41:01 2004: LOG DATE
UWI.           05 071 08019 00: UNIQUE WELL ID
STAT.                 Colorado: STATE
~Curve Information Block
DEPT.FT            0 000 00 00: Depth
DCAL.in                       : CDL Caliper
RHOB.g/cc                     : CDL Bulk Density
RHOC.g/cc                     : CDL Density Correction
DPOR.pu                       : CDL Density Porosity
GR.GAPI                       : Gamma Ray
NPOR.pu                       : Neutron Porosity
~Parameter Information Block
~A  Depth       DCAL        RHOB        RHOC        DPOR         GR         NPOR    
# ...
  2345.6000      7.4693      2.5059      0.0479      8.7354     88.1854     21.0721
  2345.7000      7.4693      2.4768      0.0324     10.4971     88.1665     21.4672
  2345.8000      7.4678      2.4274      0.0250     13.4934     91.3197     21.6618
  2345.9000      7.4678      2.3633      0.0006     17.3771     91.6331     22.0130
  2346.0000      7.4487      2.2998     -0.0435     21.2241     89.5573     22.6424
  2346.1000      7.4487      2.2423     -0.0117     24.7073     87.8997     23.0458
  2346.2000      7.4487      2.1774     -0.0135     28.6446     87.2651     23.1114
  2346.3000      7.4478      2.0996     -0.0269     33.3567     87.3543     23.2538
  2346.4000      7.4478      2.0291     -0.0320     37.6326     88.5940     23.3512
  2346.5000      7.4477      1.9901     -0.0264     39.9967     89.7438     23.3270
  2346.6000      7.4477      1.9955      0.0092     39.6683     87.6201     23.3188
  2346.7000      7.4477      2.0386      0.1094     37.0540     82.5484     23.4459
  2346.8000      7.4538      2.1045      0.0720     33.0611     80.4155     23.5094
  2346.9000      7.4538      2.1934      0.1572     27.6723     83.4981     23.1860
  2347.0000      7.4770      2.2939      0.2939     21.5793     85.8882     22.9751
  2347.1000      7.4770      2.3627      0.3882     17.4099     83.6048     23.1112
  2347.2000      7.4770      2.3750      0.2881     16.6667     80.7139     23.0602
  2347.3000      7.4746      2.3551      0.2542     17.8738     81.6163     23.1191
  2347.4000      7.4746      2.3370      0.1870     18.9726     85.1804     23.4686
  2347.5000      7.3338      2.3374      0.1225     18.9452     88.6541     23.2970
  2347.6000      7.3338      2.3567      0.1304     17.7746     91.0048     22.6002
  2347.7000      7.3338      2.3851      0.1366     16.0539     91.5377     22.0671
  2347.8000      7.2523      2.4173      0.1475     14.1038     90.1574     21.9347
  2347.9000      7.2523      2.4509      0.1810     12.0652     89.2329     22.3161
  2348.0000      7.2458      2.4780      0.2041     10.4268     90.0023     22.9975
  2348.1000      7.2458      2.4929      0.1963      9.5228     89.8955     23.2378
  2348.2000      7.2458      2.4968      0.2028      9.2833     86.2076     22.8249
  2348.3000      7.2710      2.4917      0.2046      9.5928     81.3516     22.4761
  2348.4000      7.2710      2.4840      0.1537     10.0589     80.9176     22.9032
  2348.5000      7.3819      2.4842      0.1570     10.0508     84.0753     23.8977
  2348.6000      7.3819      2.4907      0.1611      9.6538     86.4939     24.3266
  2348.7000      7.3819      2.4903      0.1859      9.6768     87.0348     23.6671
  2348.8000      7.4209      2.4766      0.1887     10.5071     85.6390     22.7796
  2348.9000      7.4209      2.4592      0.1586     11.5645     81.7473     22.4853
  2349.0000      7.4079      2.4511      0.1693     12.0568     78.3988     22.4940
  2349.1000      7.4079      2.4537      0.1171     11.8949     79.0577     22.1850
  2349.2000      7.4079      2.4586      0.0882     11.5990     80.7321     21.6105
  2349.3000      7.3455      2.4574      0.1017     11.6703     79.8112     21.1890
  2349.4000      7.3455      2.4520      0.1000     11.9974     77.3981     21.4247
  2349.5000      7.3386      2.4495      0.0971     12.1503     74.1015     22.0471
  2349.6000      7.3386      2.4534      0.1141     11.9136     71.7858     21.8056
  2349.7000      7.3386      2.4600      0.1286     11.5179     73.7396     20.7936
  2349.8000      7.2795      2.4562      0.1389     11.7485     78.2455     20.3501
  2349.9000      7.2795      2.4381      0.1363     12.8422     82.0619     20.6212
  2350.0000      7.1870      2.4240      0.1250     13.6997     84.2134     21.0902
  2350.1000      7.1870      2.4360      0.1525     12.9715     84.2031     21.5665
  2350.2000      7.1870      2.4783      0.1804     10.4075     82.5255     21.8214
  2350.3000      7.1713      2.5297      0.2533      7.2934     81.6746     21.6672
  2350.4000      7.1713      2.5662      0.2361      5.0813     82.0582     21.2592
  2350.5000      7.2409      2.5863      0.2507      3.8597     80.9727     21.1196
  2350.6000      7.2409      2.5931      0.2630      3.4479     77.4093     21.5581
  2350.7000      7.2409      2.5791      0.2147      4.2980     75.9164     21.9002
  2350.8000      7.2969      2.5436      0.1877      6.4508     80.0796     21.4971
  2350.9000      7.2969      2.5044      0.1181      8.8228     86.2433     20.7948
  2351.0000      7.3860      2.4832      0.0922     10.1064     91.0015     20.5372
  2351.1000      7.3860      2.4827      0.0506     10.1380     93.0208     20.7758
  2351.2000      7.3860      2.4913      0.0807      9.6162     90.2617     21.0853
  2351.3000      7.4660      2.4956      0.0824      9.3597     82.7864     21.3395
  2351.4000      7.4660      2.4902      0.0383      9.6819     74.3889     21.7141
  2351.5000      7.4732      2.4835      0.0357     10.0896     71.2001     21.8717
  2351.6000      7.4732      2.4754      0.0786     10.5792     74.9577     21.1541
  2351.7000      7.4732      2.4625      0.0490     11.3611     79.9191     19.9279
  2351.8000      7.4717      2.4585      0.0528     11.6038     83.0081     18.9542
  2351.9000      7.4717      2.4688      0.0649     10.9795     85.5385     18.4380
  2352.0000      7.4660      2.4798      0.0488     10.3154     85.2587     18.1911
  2352.1000      7.4660      2.4822      0.0709     10.1725     82.0907     17.8903
  2352.2000      7.4660      2.4798      0.0513     10.3148     80.8173     17.4780
  2352.3000      7.4696      2.4809      0.0648     10.2507     81.2614     17.3520
  2352.4000      7.4696      2.4887      0.0659      9.7736     81.4229     17.9401
  2352.5000      7.4711      2.5010      0.0683      9.0326     83.9821     18.9521
  2352.6000      7.4711      2.5078      0.0826      8.6209     87.8335     19.6330
  2352.7000      7.4711      2.4980      0.0837      9.2092     87.3390     19.7726
  2352.8000      7.4749      2.4749      0.0196     10.6103     84.4850     19.8045
  2352.9000      7.4749      2.4524      0.0124     11.9755     83.6443     19.9226
  2353.0000      7.4744      2.4461     -0.0016     12.3592     82.4397     19.8143
  2353.1000      7.4744      2.4605      0.0292     11.4834     80.8820     19.5073
  2353.2000      7.4744      2.4769      0.0755     10.4934     83.6597     19.2205
  2353.3000      7.4796      2.4801      0.0376     10.2947     89.9227     19.2130
  2353.4000      7.4796      2.4817      0.0424     10.2013     92.4190     19.6534
  2353.5000      7.4615      2.4933      0.0569      9.4956     88.8652     19.8836
  2353.6000      7.4615      2.5071      0.0810      8.6578     82.9581     19.5715
  2353.7000      7.4615      2.5088      0.1033      8.5594     77.7738     19.5068
  2353.8000      7.4573      2.4981      0.0747      9.2077     74.7562     19.8653
  2353.9000      7.4573      2.4892      0.0691      9.7461     74.6235     20.2112
  2354.0000      7.4699      2.4905      0.0639      9.6666     77.1557     20.3716
  2354.1000      7.4699      2.4920      0.0934      9.5784     79.5580     20.1411
  2354.2000      7.4699      2.4768      0.0723     10.4971     79.7472     19.7058
  2354.3000      7.4859      2.4496      0.0300     12.1428     78.9841     19.4633
  2354.4000      7.4859      2.4362     -0.0226     12.9585     78.7703     19.7049
  2354.5000      7.5374      2.4486      0.0203     12.2042     79.9989     20.4011
  2354.6000      7.5374      2.4707      0.0547     10.8651     81.8035     20.9406
  2354.7000      7.5374      2.4786      0.0908     10.3884     82.2832     20.8559
  2354.8000      7.5155      2.4679      0.0147     11.0351     80.8769     20.7358
  2354.9000      7.5155      2.4600      0.0076     11.5158     78.2253     21.2228
  2355.0000      7.4749      2.4664      0.0402     11.1281     77.1849     21.6355
  2355.1000      7.4749      2.4664      0.0753     11.1245     79.6554     21.3014
