~Version Information
VERS.                      2.0: CWLS Log ASCII Standard - VERSION 2.0
WRAP.                       NO: One line per depth step
~Well Information Block
STRT.FT               -12.2500: 
STOP.FT              1948.2500: 
STEP.FT                 0.2500: 
NULL.                -999.2500: 
COMP.          Petrogulf Corporation: COMPANY
WELL.            Torcom 17-33R: WELL
FLD.           Purgatorie River: FIELD
LOC.           1483' FSL & 1804' FEL--: LOCATION
PROV.                       CO: PROVINCE
CNTY.               Las Animas: COUNTRY
SRVC.          Patterson Wireline: SERVICE COMPANY
DATE.          Fri Sep 30 10:11:43 2005: LOG DATE
UWI.           05 071 08096 00: UNIQUE WELL ID
~Curve Information Block
DEPT.FT            0 000 00 00: Depth
CCL.                          : Casing Collar Locator
TT3.usec                      : CBL 3' Travel Time
AMP3.mV                       : CBL 3' Amplitude
GR.GAPI                       : Gamma Ray
~Parameter Information Block
~A  Depth       CCL         TT3         AMP3         GR     
# ...
   490.2500      0.0000    277.4879     72.0762     75.9509
   490.5000      0.0000    277.5132     72.1481     73.4716
   490.7500      0.0000    277.5465     72.2622     69.3235
   491.0000      0.0000    277.5728     72.3603     63.9207
   491.2500      0.0000    277.5929     72.4183     58.1316
   491.5000      0.0000    277.6379     72.4322     53.4530
   491.7500      0.0000    277.7643     72.3148     51.5331
   492.0000      0.0000    278.0270     71.7625     52.7895
   492.2500      0.0000    278.4609     70.2579     55.7856
   492.5000      0.0000    279.1021     67.4243     58.5025
   492.7500      0.0000    280.0105     63.5744     60.1086
   493.0000      0.0000    281.2108     59.7765     61.1198
   493.2500      0.0000    282.5828     57.0740     61.9409
   493.5000      0.0000    283.8546     55.6934     61.8095
   493.7500      0.0000    284.7600     55.2123     59.5646
   494.0000      0.0000    285.2192     55.2356     55.4493
   494.2500      0.0000    285.3650     55.5824     51.7508
   494.5000      0.0000    285.4338     56.0484     51.1686
   494.7500      0.0000    285.6852     56.3611     54.3265
   495.0000      2.0000    286.4320     56.3422     59.0561
   495.2500      0.0000    287.9763     56.0353     62.3048
   495.5000      0.0000    290.2157     55.7869     62.7229
   495.7500      0.0000    292.2170     56.2171     61.4055
   496.0000      0.0000    292.5591     57.8581     60.4128
   496.2500      0.0000    290.5324     60.6546     60.8575
   496.5000      0.0000    286.9069     63.9756     62.2669
   496.7500      0.0000    283.2575     67.1509     63.3521
   497.0000      0.0000    280.6847     69.8212     63.1945
   497.2500      0.0000    279.3263     71.8428     61.9252
   497.5000      0.0000    278.7718     73.1726     60.4393
   497.7500      0.0000    278.5926     73.8976     59.4552
   498.0000      0.0000    278.5444     74.2138     58.8991
   498.2500      0.0000    278.5310     74.3186     58.2831
   498.5000      0.0000    278.5271     74.3382     57.5599
   498.7500      0.0000    278.5269     74.3341     57.2900
   499.0000      0.0000    278.5290     74.3288     57.7774
   499.2500      0.0000    278.5330     74.3270     58.3935
   499.5000      0.0000    278.5408     74.3259     58.3050
   499.7500      0.0000    278.5551     74.3221     57.6996
   500.0000      0.0000    278.5770     74.3209     57.6255
   500.2500      0.0000    278.6041     74.3380     58.6134
   500.5000      0.0000    278.6317     74.3868     59.9742
   500.7500      0.0000    278.6553     74.4600     60.6380
   501.0000      0.0000    278.6723     74.5304     60.3927
   501.2500      0.0000    278.6827     74.5744     60.0281
   501.5000      0.0000    278.6887     74.5929     60.3545
   501.7500      0.0000    278.6928     74.6020     61.4101
   502.0000      0.0000    278.6955     74.6083     62.5622
   502.2500      0.0000    278.6954     74.6011     62.9858
   502.5000      0.0000    278.6926     74.5735     62.0220
   502.7500      0.0000    278.6897     74.5383     59.5275
   503.0000      0.0000    278.6902     74.5127     56.1340
   503.2500      0.0000    278.6953     74.4940     53.0912
   503.5000      0.0000    278.7021     74.4617     51.6096
   503.7500      0.0000    278.7051     74.4002     52.0582
   504.0000      0.0000    278.7004     74.3143     53.6448
   504.2500      0.0000    278.6898     74.2277     55.0087
   504.5000      0.0000    278.6798     74.1718     55.3629
   504.7500      0.0000    278.6799     74.1641     55.2004
   505.0000      0.0000    278.6974     74.1924     55.8630
   505.2500      0.0000    278.7327     74.2284     58.2973
   505.5000      0.0000    278.7774     74.2554     62.2043
   505.7500      0.0000    278.8190     74.2739     66.4423
   506.0000      0.0000    278.8482     74.2870     70.1055
   506.2500      0.0000    278.8628     74.2947     73.0874
   506.5000      0.0000    278.8640     74.3028     75.8645
   506.7500      0.0000    278.8523     74.3260     79.0728
   507.0000      0.0000    278.8265     74.3836     83.1518
   507.2500      0.0000    278.7894     74.4860     87.9234
   507.5000      0.0000    278.7502     74.6200     92.2730
   507.7500      0.0000    278.7211     74.7502     94.5185
   508.0000      0.0000    278.7108     74.8420     93.6430
   508.2500      0.0000    278.7209     74.8841     90.5642
   508.5000      0.0000    278.7469     74.8910     88.1009
   508.7500      0.0000    278.7814     74.8909     89.1134
   509.0000      0.0000    278.8168     74.9121     94.1405
   509.2500      0.0000    278.8467     74.9760    100.7765
   509.5000      0.0000    278.8657     75.0972    105.6302
   509.7500      0.0000    278.8693     75.2795    107.0210
   510.0000      0.0000    278.8559     75.5076    105.7222
   510.2500      0.0000    278.8285     75.7467    103.3537
   510.5000      0.0000    278.7933     75.9598    100.7031
   510.7500      0.0000    278.7580     76.1279     97.8474
   511.0000      0.0000    278.7275     76.2536     95.2206
   511.2500      0.0000    278.7022     76.3487     93.7251
   511.5000      0.0000    278.6797     76.4200     93.9509
   511.7500      0.0000    278.6586     76.4694     95.8762
   512.0000      0.0000    278.6398     76.5101     99.1518
   512.2500      0.0000    278.6255     76.5745    103.0137
   512.5000      0.0000    278.6152     76.6957    106.0165
   512.7500      0.0000    278.6036     76.8733    106.6592
   513.0000      0.0000    278.5807     77.0528    104.7783
   513.2500      0.0000    278.5370     77.1387    102.2060
   513.5000      0.0000    278.4701     77.0256    101.7639
   513.7500      0.0000    278.3880     76.6201    105.3055
   514.0000      0.0000    278.3044     75.8418    112.2675
   514.2500      0.0000    278.2301     74.6237    119.7317
   514.5000      0.0000    278.1685     72.9237    124.1395
   514.7500      0.0000    278.1213     70.7264    123.6414
   515.0000      0.0000    278.1002     68.0263    119.0998
   515.2500      0.0000    278.1379     64.8152    112.8372
   515.5000      0.0000    278.3187     61.0964    106.6061
   515.7500      0.0000    278.8557     56.9254    100.8197
   516.0000      0.0000    280.2145     52.4464     95.2712
   516.2500      0.0000    283.1323     47.8829     89.9822
   516.5000      0.0000    288.2666     43.4745     85.5086
   516.7500      0.0000    295.5015     39.4106     82.9644
   517.0000      0.0000    303.5768     35.8047     83.5719
   517.2500      0.0000    310.7025     32.7021     87.5422
   517.5000      0.0000    315.7172     30.0972     93.3592
   517.7500      0.0000    318.6206     27.9623     98.5166
   518.0000      0.0000    320.1184     26.2767    101.0993
   518.2500      0.0000    320.9093     25.0213    100.8453
   518.5000      0.0000    321.3811     24.1402     99.1584
   518.7500      0.0000    321.6830     23.5278     98.2643
   519.0000      0.0000    321.8589     23.0767     99.8318
   519.2500      0.0000    321.9074     22.7377    103.7806
   519.5000      0.0000    321.8119     22.5203    108.3062
   519.7500      0.0000    321.5817     22.4332    111.3430
   520.0000      0.0000    321.2841     22.4332    112.1266
   520.2500      0.0000    321.0247     22.4397    111.3432
   520.5000      0.0000    320.8920     22.3951    109.9682
   520.7500      0.0000    320.9160     22.3003    108.1808
   521.0000      0.0000    321.0767     22.1901    105.4382
   521.2500      0.0000    321.3387     22.0833    101.5104
   521.5000      0.0000    321.6758     21.9628     97.1968
   521.7500      0.0000    322.0590     21.8082     93.7500
   522.0000      0.0000    322.4272     21.6582     91.6424
   522.2500      0.0000    322.6843     21.6358     90.1986
   522.5000      0.0000    322.7385     21.8982     88.5639
   522.7500      0.0000    322.5486     22.5554     86.7185
   523.0000      0.0000    322.1021     23.6399     85.2124
   523.2500      0.0000    321.2939     25.1494     84.1185
   523.5000      0.0000    319.7427     27.0949     82.8348
