~Version Information
 VERS.                                  2.0 : CWLS LAS VERSION
 WRAP.                                   NO : WRAPING MODE
 SWARE .                 MController 2.5.0J : SOFTWARE VERSION
~Well Information
 WELL.                       Galloway 32-13 : WELL
 COMP.   Pioneer Natural Resources USA Inc. : COMPANY
 FLD.                         Spanish Peaks : FIELD
 LOC.                SW/NE Sec 13 T32S R66W : LOCATION
 DATE.                             7/6-7/05 : DATE(S) LOGGED
 SRVC.       BLANCO Geological Services LLC : SERVICE COMPANY
 STAT.                                   CO : STATE
 CNTY.                           Las Animas : COUNTY
 CTRY.                                  USA : COUNTRY
 API.                       05-071-08423-00 : API NUMBER
 STRT.FT                             596.00 : START DEPTH
 STOP.FT                            2075.00 : STOP DEPTH
 STEP.FT                               1.00 : DEPTH INCREMENT
 NULL.                                -9999 : NULL VALUE
~Curve information
 DEPTH.FT                                   :
 ROP.MIN/FT                                 :
 GAS.UNITS                                  :
~ASCII Log data
# ...
       996.0         0.27         71.8 
       997.0         0.20         77.7 
       998.0         0.38         79.2 
       999.0         0.17         70.6 
      1000.0         0.27         57.6 
      1001.0         0.30         56.1 
      1002.0         0.20         58.6 
      1003.0         0.30         63.3 
      1004.0         0.23         67.2 
      1005.0         0.23         70.7 
      1006.0         0.20         74.6 
      1007.0         0.23         81.2 
      1008.0         0.30         84.4 
      1009.0         0.30         72.7 
      1010.0         0.17         65.4 
      1011.0         0.20         62.4 
      1012.0         0.22         62.1 
      1013.0         0.20         62.2 
      1014.0         0.20         63.4 
      1015.0         0.20         66.6 
      1016.0         0.20         70.5 
      1017.0         0.23         76.2 
      1018.0         0.20         83.5 
      1019.0         0.27         83.0 
      1020.0         0.20         75.4 
      1021.0         0.20         69.7 
      1022.0         0.23         66.2 
      1023.0         0.20         64.6 
      1024.0         0.23         57.0 
      1025.0         0.27         49.7 
      1026.0         0.22         47.5 
      1027.0         0.23         45.8 
      1028.0         0.20         45.3 
      1029.0         0.20         47.9 
      1030.0         0.20         51.7 
      1031.0         0.20         51.9 
      1032.0         0.27         41.5 
      1033.0         0.17         35.9 
      1034.0         0.37         31.8 
      1035.0         0.27         38.8 
      1036.0         0.20         38.4 
      1037.0         0.30         35.3 
      1038.0         0.20         37.6 
      1039.0         0.30         39.1 
      1040.0         0.22         36.4 
      1041.0         0.30         32.9 
      1042.0         0.20         31.4 
      1043.0         0.13         29.0 
      1044.0         0.30         29.0 
      1045.0         0.20         31.2 
      1046.0         0.30         34.7 
      1047.0         0.17         35.8 
      1048.0         0.20         39.6 
      1049.0         0.27         43.5 
      1050.0         0.20         43.4 
      1051.0         0.20         42.9 
      1052.0         0.30         46.4 
      1053.0         0.27         40.6 
      1054.0         0.22         31.7 
      1055.0         0.43         25.0 
      1056.0         0.37         27.2 
      1057.0         0.37         33.8 
      1058.0         0.30         30.0 
      1059.0         0.30         22.8 
      1060.0         0.30         21.9 
      1061.0         0.37         29.2 
      1062.0         0.57         33.4 
      1063.0         0.22         29.9 
      1064.0         0.43         24.8 
      1065.0         0.33         43.8 
      1066.0         0.50         70.8 
      1067.0         0.20         49.0 
      1068.0         0.53         30.0 
      1069.0         0.47         37.8 
      1070.0         0.33         42.5 
      1071.0         0.27         42.9 
      1072.0         0.32         39.5 
      1073.0         0.23         36.1 
      1074.0         0.30         33.0 
      1075.0         0.23         34.2 
      1076.0         0.20         31.6 
      1077.0         0.33         28.5 
      1078.0         0.27         29.8 
      1079.0         0.27         29.3 
      1080.0         0.43         27.7 
      1081.0         0.30         28.4 
      1082.0         0.38         29.7 
      1083.0         0.43         33.1 
      1084.0         0.23         30.8 
      1085.0         0.33         30.0 
      1086.0         0.27         30.1 
      1087.0         0.27         30.9 
      1088.0         0.33         30.3 
      1089.0         0.30         29.9 
      1090.0         0.27         26.1 
      1091.0         0.33         27.5 
      1092.0         0.40         34.2 
      1093.0         0.35         34.4 
      1094.0         0.37         37.6 
      1095.0         0.30         37.0 
      1096.0         0.30         37.9 
      1097.0         0.23         38.3 
      1098.0         0.37         40.5 
      1099.0         0.20         38.7 
      1100.0         0.17         38.3 
      1101.0         0.30         35.8 
      1102.0         0.20         36.8 
      1103.0         0.23         37.4 
      1104.0         0.23         39.3 
      1105.0         0.22         38.3 
      1106.0         0.23         33.4 
      1107.0         0.23         29.4 
      1108.0         0.23         29.9 
      1109.0         0.27         57.9 
      1110.0         0.27         91.7 
      1111.0         0.27         62.3 
      1112.0         0.23         43.9 
      1113.0         0.30         40.9 
      1114.0         0.20         43.3 
      1115.0         0.23         45.3 
      1116.0         0.27         46.4 
      1117.0         0.20         45.1 
      1118.0         0.27         40.9 
      1119.0         0.22         39.1 
      1120.0         0.30         37.1 
      1121.0         0.27         34.2 
      1122.0         0.30         30.0 
      1123.0         0.23         30.9 
      1124.0         0.23         31.8 
      1125.0         0.23         33.8 
      1126.0         0.20         36.6 
      1127.0         0.27         39.1 
      1128.0         0.23         40.8 
      1129.0         0.30         41.2 
      1130.0         0.27         42.8 
      1131.0         0.30         35.4 
      1132.0         0.25         35.9 
      1133.0         0.27        110.4 
      1134.0         0.27         98.2 
      1135.0         0.30         54.6 
      1136.0         0.30         36.8 
      1137.0         0.23         38.6 
      1138.0         0.20         43.5 
      1139.0         0.30         48.9 
      1140.0         0.23         49.1 
      1141.0         0.27         46.8 
      1142.0         0.30         42.7 
      1143.0         0.28         39.5 
      1144.0         0.23         38.1 
      1145.0         0.23         35.9 
      1146.0         0.27         35.5 
      1147.0         0.20         36.1 
      1148.0         0.23         51.4 
      1149.0         0.27         51.9 
      1150.0         0.23         41.0 
      1151.0         0.27         33.3 
      1152.0         0.27         33.1 
      1153.0         0.27         38.0 
      1154.0         0.20         43.1 
      1155.0         0.25         44.7 
      1156.0         0.20         44.3 
      1157.0         0.20         41.1 
      1158.0         0.27         34.4 
      1159.0         0.23         30.0 
      1160.0         0.23         25.4 
      1161.0         0.17         26.2 
      1162.0         0.30         30.8 
      1163.0         0.23         33.2 
      1164.0         0.27         36.8 
      1165.0         0.27         37.0 
      1166.0         0.27         37.5 
      1167.0         0.27         38.0 
      1168.0         0.22         38.6 
      1169.0         0.30         36.7 
      1170.0         0.23         35.3 
      1171.0         0.30         37.1 
      1172.0         0.37         35.7 
      1173.0         0.23         36.0 
      1174.0         0.23         39.4 
      1175.0         0.33         45.4 
      1176.0         0.27         36.4 
      1177.0         0.33         28.9 
      1178.0         0.27         32.2 
      1179.0         0.25         36.0 
      1180.0         0.20         38.5 
      1181.0         0.20         39.3 
      1182.0         0.23         39.1 
      1183.0         0.23         39.8 
      1184.0         0.27         38.7 
      1185.0         0.23         38.7 
      1186.0         0.23         37.6 
      1187.0         0.17         37.3 
      1188.0         0.23         48.0 
      1189.0         0.33         87.0 
      1190.0         0.17        102.5 
      1191.0         0.30        109.7 
      1192.0         0.30        107.5 
      1193.0         0.32        106.9 
      1194.0         0.23        103.7 
      1195.0         0.23        104.8 
