~Version Information
VERS.                      2.0: CWLS Log ASCII Standard - VERSION 2.0
WRAP.                       NO: One line per depth step
~Well Information Block
STRT.FT               450.0000: 
STOP.FT              2753.5000: 
STEP.FT                 0.1000: 
NULL.                -999.2500: 
COMP.          Pioneer Natural Resources: COMPANY
WELL.             Squeal 11-26: WELL
FLD.           Purgatoire River: FIELD
LOC.           1186' FNL & 152' FWL: LOCATION
PROV.                 Colorado: PROVINCE
CNTY.               Las Animas: COUNTRY
SRVC.                Patterson: SERVICE COMPANY
DATE.          Wed Jun 15 09:11:52 2005: LOG DATE
UWI.           05 071 08404 00: UNIQUE WELL ID
~Curve Information Block
DEPT.FT            0 000 00 00: Depth
DCAL.in                       : CDL Caliper
RHOB.g/cc                     : CDL Bulk Density
RHOC.g/cc                     : CDL Density Correction
DPOR.pu                       : CDL Density Porosity
GR.GAPI                       : Gamma Ray
NPOR.pu                       : Neutron Porosity
~Parameter Information Block
~A  Depth       DCAL        RHOB        RHOC        DPOR         GR         NPOR    
# ...
  2274.0000      7.9436      2.6244      0.0936      1.5540     26.9682     15.8216
  2274.1000      7.9436      2.6135      0.0598      2.2102     31.6848     15.7640
  2274.2000      7.9436      2.6043      0.0999      2.7719     36.5969     16.0540
  2274.3000      7.9036      2.5926      0.0799      3.4806     37.1859     16.4053
  2274.4000      7.9036      2.5782      0.0699      4.3490     35.5082     16.7496
  2274.5000      7.8914      2.5640      0.0741      5.2103     35.1187     17.2768
  2274.6000      7.8914      2.5569      0.0268      5.6446     35.1649     17.5267
  2274.7000      7.8914      2.5660      0.0677      5.0890     33.8577     17.4362
  2274.8000      7.9209      2.5903      0.0730      3.6162     31.3720     17.5177
  2274.9000      7.9209      2.6225      0.0080      1.6644     30.1172     17.4815
  2275.0000      7.9293      2.6465      0.1203      0.2110     33.2505     17.0767
  2275.1000      7.9293      2.6470      0.0704      0.1832     40.3642     17.2067
  2275.2000      7.9293      2.6297      0.0811      1.2280     46.6173     18.2525
  2275.3000      7.9133      2.6066      0.0901      2.6302     49.2002     19.2740
  2275.4000      7.9133      2.5874      0.0432      3.7926     48.1316     19.5869
  2275.5000      7.9317      2.5802      0.0350      4.2317     43.4347     19.4019
  2275.6000      7.9317      2.5750      0.0659      4.5431     37.5720     19.1472
  2275.7000      7.9317      2.5532      0.0662      5.8646     33.9205     18.9710
  2275.8000      7.9409      2.5206      0.0365      7.8423     33.6481     19.0365
  2275.9000      7.9409      2.5056      0.0320      8.7543     36.9995     19.5498
  2276.0000      7.9405      2.5181      0.0511      7.9940     42.0024     19.9341
  2276.1000      7.9405      2.5427      0.0863      6.5015     44.0508     19.9000
  2276.2000      7.9405      2.5590      0.0877      5.5146     42.4753     19.8312
  2276.3000      7.9363      2.5558      0.0926      5.7088     40.0038     19.5184
  2276.4000      7.9363      2.5441      0.0274      6.4169     37.3427     19.0173
  2276.5000      7.9549      2.5431      0.0351      6.4768     34.8953     18.9935
  2276.6000      7.9549      2.5495      0.0589      6.0920     34.3137     19.4041
  2276.7000      7.9549      2.5502      0.0467      6.0496     36.0230     20.0779
  2276.8000      7.9654      2.5413      0.0535      6.5888     37.9076     20.7557
  2276.9000      7.9654      2.5314      0.0113      7.1879     38.4077     20.6606
  2277.0000      7.9604      2.5374      0.0485      6.8267     37.7677     19.6825
  2277.1000      7.9604      2.5579      0.0655      5.5788     38.2335     18.5176
  2277.2000      7.9604      2.5749      0.0662      4.5517     40.8645     18.0474
  2277.3000      7.9680      2.5820      0.0480      4.1197     40.9615     18.4805
  2277.4000      7.9680      2.5829      0.0205      4.0677     36.0761     18.9230
  2277.5000      7.9895      2.5728      0.0811      4.6786     30.3182     18.2147
  2277.6000      7.9895      2.5525      0.0770      5.9070     28.8119     16.6456
  2277.7000      7.9895      2.5349      0.0319      6.9769     32.1953     15.7342
  2277.8000      8.0071      2.5283      0.0358      7.3733     35.6948     15.8695
  2277.9000      8.0071      2.5277      0.0229      7.4132     34.6964     16.2884
  2278.0000      7.9918      2.5219      0.0492      7.7639     30.8324     16.5815
  2278.1000      7.9918      2.5193      0.0042      7.9226     28.2049     16.8641
  2278.2000      7.9918      2.5401      0.0590      6.6612     27.7010     17.1086
  2278.3000      7.9792      2.5706      0.1023      4.8093     28.8240     16.9070
  2278.4000      7.9792      2.5743      0.0895      4.5858     30.3222     16.3149
  2278.5000      7.9678      2.5485      0.0330      6.1536     30.2818     15.9304
  2278.6000      7.9678      2.5249      0.0067      7.5825     29.1271     15.7160
  2278.7000      7.9678      2.5182      0.0362      7.9851     27.3564     15.2005
  2278.8000      7.9759      2.5167      0.0273      8.0799     24.2278     14.7062
  2278.9000      7.9759      2.5134      0.0312      8.2782     21.6436     14.8563
  2279.0000      7.9851      2.5126      0.0004      8.3300     22.0059     15.2947
  2279.1000      7.9851      2.5149      0.0597      8.1858     24.3126     15.5757
  2279.2000      7.9851      2.5173      0.0169      8.0441     26.7087     15.7909
  2279.3000      7.9824      2.5229      0.0782      7.7036     29.0534     15.7043
  2279.4000      7.9824      2.5348      0.0579      6.9820     32.1070     15.1348
  2279.5000      8.0064      2.5512      0.0853      5.9856     36.2565     14.8818
  2279.6000      8.0064      2.5680      0.0731      4.9715     39.2707     15.4965
  2279.7000      8.0064      2.5768      0.0964      4.4365     38.1833     16.1131
  2279.8000      8.0178      2.5741      0.0857      4.5981     34.0754     16.0871
  2279.9000      8.0178      2.5761      0.0196      4.4803     31.1703     16.1690
  2280.0000      8.0013      2.5902      0.0865      3.6246     30.3845     17.1201
  2280.1000      8.0013      2.5991      0.0958      3.0871     29.0281     18.3305
  2280.2000      8.0013      2.5976      0.0693      3.1733     26.7039     18.5189
  2280.3000      8.0053      2.5920      0.0645      3.5169     25.2159     17.9488
  2280.4000      8.0053      2.5875     -0.0008      3.7862     25.7309     17.6289
  2280.5000      8.0103      2.5912      0.0350      3.5648     28.0681     17.4581
  2280.6000      8.0103      2.5954      0.0587      3.3086     28.8283     16.9084
  2280.7000      8.0103      2.5918      0.0985      3.5269     26.5617     16.1526
  2280.8000      8.0186      2.5860      0.0907      3.8790     24.3818     15.8845
  2280.9000      8.0186      2.5810      0.0728      4.1815     23.5997     16.2034
  2281.0000      8.0295      2.5681      0.1162      4.9625     23.4127     16.7360
  2281.1000      8.0295      2.5473      0.0871      6.2264     23.3260     17.4192
  2281.2000      8.0295      2.5389      0.0288      6.7336     23.1593     18.0359
  2281.3000      8.0083      2.5472      0.1126      6.2290     22.7487     18.1755
  2281.4000      8.0083      2.5454      0.0671      6.3387     23.0653     18.3112
  2281.5000      8.0320      2.5261      0.0515      7.5061     25.5454     19.0430
  2281.6000      8.0320      2.5101      0.0093      8.4765     29.3787     19.8471
  2281.7000      8.0320      2.5029      0.0894      8.9167     33.6303     20.3408
  2281.8000      8.0372      2.4918      0.0389      9.5881     35.6445     20.6358
  2281.9000      8.0372      2.4816      0.0276     10.2080     32.0466     20.5413
  2282.0000      8.0409      2.4860      0.0144      9.9405     27.1420     20.0947
  2282.1000      8.0409      2.5056      0.0495      8.7520     26.9269     19.8350
  2282.2000      8.0409      2.5297      0.0898      7.2935     29.0593     19.9327
  2282.3000      8.0354      2.5449      0.0793      6.3680     28.6340     20.0093
  2282.4000      8.0354      2.5486      0.0863      6.1474     27.4645     19.9409
  2282.5000      8.0231      2.5551      0.0392      5.7525     29.3598     19.8378
  2282.6000      8.0231      2.5665      0.1509      5.0595     32.5368     19.6100
  2282.7000      8.0231      2.5632      0.0916      5.2578     34.4410     19.1629
  2282.8000      8.0100      2.5500      0.0589      6.0580     34.2453     18.9082
  2282.9000      8.0100      2.5414      0.0847      6.5793     31.1640     19.3441
  2283.0000      7.9937      2.5273      0.0801      7.4339     27.2772     20.0055
  2283.1000      7.9937      2.5025      0.0271      8.9392     25.7994     20.3381
  2283.2000      7.9937      2.4825      0.0379     10.1525     25.9604     20.6832
  2283.3000      7.9816      2.4835      0.0038     10.0935     25.9609     20.7963
  2283.4000      7.9816      2.5018      0.0438      8.9811     25.4151     20.1883
  2283.5000      7.9776      2.5099      0.1301      8.4921     24.5807     19.4212
