~Version Information
VERS.                      2.0: CWLS Log ASCII Standard - VERSION 2.0
WRAP.                       NO: One line per depth step
~Well Information Block
STRT.FT               521.0000: 
STOP.FT              2732.5000: 
STEP.FT                 0.2500: 
NULL.                -999.2500: 
COMP.          Petrogulf Corporation: COMPANY
WELL.              Silva 6-22V: WELL
FLD.           Purgatorie River: FIELD
LOC.           1936' FNL & 1798' FWL: LOCATION
CNTY.               Las Animas: COUNTY
SRVC.                         : SERVICE COMPANY
DATE.          Tue Nov 09 08:09:38 2004: LOG DATE
UWI.           05 071 08143 00: UNIQUE WELL ID
STAT.                 Colorado: STATE
~Curve Information Block
DEPT.FT            0 000 00 00: Depth
SP.mV                         : DIL Spontaneous Potential
RILD.Ohm-m                    : DIL Deep Resistivity
RILM.Ohm-m                    : DIL Medium Resistivity
RLL3.Ohm-m                    : DIL Shallow Resistivity
GR.GAPI                       : Gamma Ray
~Parameter Information Block
~A  Depth        SP         RILD        RILM        RLL3         GR     
# ...
  1977.0000      2.9535     12.2556     12.5053     17.1174    154.7107
  1977.2500      3.7738     12.6648     12.9853     17.9483    154.4878
  1977.5000      4.3249     13.1117     13.5138     18.8762    153.7592
  1977.7500      4.5791     13.5951     14.0934     19.9305    152.3014
  1978.0000      4.5223     14.1143     14.7289     21.1480    148.3426
  1978.2500      4.1661     14.6684     15.4265     22.5678    144.9858
  1978.5000      3.5531     15.2553     16.1942     24.2181    140.0250
  1978.7500      2.7609     15.8713     17.0408     26.1034    137.1802
  1979.0000      1.8964     16.5102     17.9742     28.1957    133.5887
  1979.2500      1.0738     17.1639     19.0001     30.4394    131.4224
  1979.5000      0.3966     17.8228     20.1202     32.7652    128.3393
  1979.7500     -0.0723     18.4775     21.3304     35.1077    126.5842
  1980.0000     -0.3203     19.1194     22.6196     37.4128    125.0913
  1980.2500     -0.3829     19.7411     23.9690     39.6354    125.0369
  1980.5000     -0.3251     20.3365     25.3514     41.7324    125.3532
  1980.7500     -0.2103     20.9006     26.7322     43.6667    124.6920
  1981.0000     -0.0801     21.4295     28.0696     45.4278    121.4970
  1981.2500      0.0605     21.9214     29.3177     47.0624    118.7007
  1981.5000      0.2317     22.3773     30.4265     48.6912    115.8372
  1981.7500      0.4533     22.8011     31.3460     50.4871    115.3310
  1982.0000      0.7222     23.1993     32.0313     52.6038    115.2205
  1982.2500      0.9944     23.5791     32.4505     55.0770    114.2801
  1982.5000      1.1854     23.9457     32.5937     57.7426    110.8420
  1982.7500      1.1843     24.3016     32.4808     60.2235    107.9031
  1983.0000      0.8872     24.6449     32.1617     62.0121    104.1741
  1983.2500      0.2199     24.9713     31.7082     62.6312    102.6197
  1983.5000     -0.8330     25.2752     31.2026     61.8113    101.7981
  1983.7500     -2.2241     25.5513     30.7215     59.6121    102.3456
  1984.0000     -3.8428     25.7967     30.3261     56.4283    105.1990
  1984.2500     -5.5344     26.0087     30.0553     52.8733    108.5830
  1984.5000     -7.1213     26.1848     29.9270     49.5899    115.3585
  1984.7500     -8.4377     26.3214     29.9394     47.0688    120.0932
  1985.0000     -9.3589     26.4130     30.0770     45.5380    125.3938
  1985.2500     -9.8187     26.4523     30.3147     44.9686    126.9021
  1985.5000     -9.8229     26.4331     30.6239     45.1805    126.4562
  1985.7500     -9.4357     26.3524     30.9752     45.9885    125.2579
  1986.0000     -8.7650     26.2122     31.3399     47.3170    123.3901
  1986.2500     -7.9238     26.0195     31.6908     49.2216    122.2502
  1986.5000     -7.0043     25.7859     32.0003     51.8046    120.2353
  1986.7500     -6.0503     25.5248     32.2385     55.0630    118.2817
  1987.0000     -5.0546     25.2492     32.3731     58.7557    113.9483
  1987.2500     -3.9740     24.9679     32.3702     62.3719    110.2711
  1987.5000     -2.7654     24.6837     32.1963     65.2378    104.9039
  1987.7500     -1.4226     24.3920     31.8252     66.7269    102.4859
  1988.0000      0.0010     24.0813     31.2405     66.4750    101.7231
  1988.2500      1.3988     23.7351     30.4429     64.4973    103.0836
  1988.5000      2.6420     23.3370     29.4499     61.1529    107.0334
  1988.7500      3.6224     22.8739     28.2944     56.9824    110.2050
  1989.0000      4.2951     22.3407     27.0204     52.5067    114.4357
  1989.2500      4.6924     21.7420     25.6762     48.0808    116.3834
  1989.5000      4.9073     21.0903     24.3088     43.8546    118.2828
  1989.7500      5.0509     20.4036     22.9602     39.8295    119.7638
  1990.0000      5.2058     19.7013     21.6642     35.9590    124.0357
  1990.2500      5.3852     19.0002     20.4468     32.2325    128.6649
  1990.5000      5.5228     18.3140     19.3260     28.7074    137.6611
  1990.7500      5.4904     17.6518     18.3126     25.4914    144.2536
  1991.0000      5.1342     17.0203     17.4106     22.6974    153.5545
  1991.2500      4.3244     16.4244     16.6190     20.4022    158.5090
  1991.5000      2.9924     15.8676     15.9324     18.6260    163.2414
  1991.7500      1.1537     15.3537     15.3420     17.3343    164.8361
  1992.0000     -1.0891     14.8862     14.8370     16.4525    165.9593
  1992.2500     -3.5690     14.4684     14.4058     15.8906    166.1780
  1992.5000     -6.0844     14.1030     14.0369     15.5595    165.5439
  1992.7500     -8.4412     13.7917     13.7199     15.3821    164.4128
  1993.0000    -10.4869     13.5348     13.4463     15.2971    161.7298
  1993.2500    -12.1351     13.3312     13.2104     15.2613    159.1690
  1993.5000    -13.3695     13.1777     13.0092     15.2480    154.0141
  1993.7500    -14.2280     13.0698     12.8421     15.2459    150.1519
  1994.0000    -14.7781     13.0019     12.7112     15.2583    145.3477
  1994.2500    -15.0730     12.9681     12.6198     15.2983    143.4712
  1994.5000    -15.1376     12.9631     12.5717     15.3827    142.2843
  1994.7500    -14.9528     12.9834     12.5701     15.5252    141.8554
  1995.0000    -14.4740     13.0273     12.6174     15.7294    141.0067
  1995.2500    -13.6659     13.0950     12.7138     15.9881    140.3265
  1995.5000    -12.5340     13.1880     12.8582     16.2866    139.2662
  1995.7500    -11.1467     13.3084     13.0481     16.6108    138.5275
  1996.0000     -9.6382     13.4574     13.2806     16.9561    137.6293
  1996.2500     -8.1845     13.6355     13.5527     17.3328    137.4901
  1996.5000     -6.9627     13.8417     13.8626     17.7651    138.1559
  1996.7500     -6.1082     14.0741     14.2092     18.2857    138.7827
  1997.0000     -5.6796     14.3309     14.5919     18.9254    138.6591
  1997.2500     -5.6583     14.6106     15.0104     19.7023    137.2209
  1997.5000     -5.9536     14.9125     15.4632     20.6153    133.0681
  1997.7500     -6.4357     15.2368     15.9475     21.6405    129.6278
  1998.0000     -6.9655     15.5840     16.4586     22.7340    124.6485
  1998.2500     -7.4277     15.9544     16.9904     23.8386    121.7779
  1998.5000     -7.7452     16.3479     17.5360     24.8911    118.3232
  1998.7500     -7.8804     16.7641     18.0888     25.8315    116.7271
  1999.0000     -7.8371     17.2028     18.6439     26.6105    115.5310
  1999.2500     -7.6461     17.6651     19.1989     27.1974    115.3147
  1999.5000     -7.3632     18.1535     19.7541     27.5884    115.1591
  1999.7500     -7.0561     18.6729     20.3136     27.8115    114.9991
  2000.0000     -6.7961     19.2294     20.8845     27.9287    115.1027
  2000.2500     -6.6440     19.8288     21.4775     28.0317    115.7145
  2000.5000     -6.6405     20.4751     22.1053     28.2315    117.4010
  2000.7500     -6.7972     21.1674     22.7824     28.6427    118.7296
  2001.0000     -7.0956     21.8989     23.5234     29.3680    120.4691
  2001.2500     -7.4865     22.6552     24.3418     30.4867    121.1511
  2001.5000     -7.9045     23.4151     25.2468     32.0509    120.9087
  2001.7500     -8.2734     24.1532     26.2423     34.0909    119.7411
  2002.0000     -8.5197     24.8420     27.3231     36.6251    116.7421
  2002.2500     -8.5796     25.4577     28.4726     39.6663    114.2123
  2002.5000     -8.4174     25.9821     29.6610     43.2200    109.8565
  2002.7500     -8.0264     26.4052     30.8440     47.2698    106.4651
  2003.0000     -7.4454     26.7227     31.9627     51.7628    100.2291
  2003.2500     -6.7532     26.9333     32.9467     56.5970     95.1164
  2003.5000     -6.0602     27.0331     33.7182     61.6253     86.1633
  2003.7500     -5.4929     27.0142     34.1981     66.6695     79.7847
  2004.0000     -5.1704     26.8644     34.3161     71.5323     70.5597
  2004.2500     -5.1833     26.5720     34.0220     75.9910     64.8989
  2004.5000     -5.5798     26.1314     33.2987     79.7694     56.9440
  2004.7500     -6.3605     25.5493     32.1699     82.5071     51.9430
