~Version Information
VERS.                      2.0: CWLS Log ASCII Standard - VERSION 2.0
WRAP.                       NO: One line per depth step
~Well Information Block
STRT.FT                -8.2500: 
STOP.FT               836.2500: 
STEP.FT                 0.2500: 
NULL.                -999.2500: 
COMP.          Pioneer Natural Res.: COMPANY
WELL.            Hustler 12-17: WELL
FLD.           Purgatorie River: FIELD
LOC.           2150' FNL & 450' FWL----------: LOCATION
PROV.                       CO: PROVINCE
CNTY.               Las Animas: COUNTRY
SRVC.                Patterson: SERVICE COMPANY
DATE.          Wed Dec 29 13:37:10 2004: LOG DATE
UWI.           05 071 08236 00: UNIQUE WELL ID
~Curve Information Block
DEPT.FT            0 000 00 00: Depth
AMP3.mV                       : CBL 3' Amplitude
CCL.                          : Casing Collar Locator
GR.GAPI                       : Gamma Ray
TT3.usec                      : CBL 3' Travel Time
~Parameter Information Block
~A  Depth       AMP3        CCL          GR         TT3     
# ...
   795.7500     33.5233      0.0000    127.2845    310.9853
   796.0000     33.7869      0.0000    126.3937    310.9317
   796.2500     33.8205      0.0000    124.2314    310.9156
   796.5000     33.7149      0.0000    121.2630    310.9139
   796.7500     33.5968      0.0000    119.0564    310.9076
   797.0000     33.5549      0.0000    119.3542    310.9025
   797.2500     33.5697      0.0000    122.4023    310.9161
   797.5000     33.5162      0.0000    126.4283    310.9528
   797.7500     33.2838      0.0000    129.4324    310.9980
   798.0000     32.8827      0.0000    131.3513    311.0360
   798.2500     32.3892      0.0000    133.8488    311.0711
   798.5000     31.8162      0.0000    138.1799    311.1279
   798.7500     31.1189      0.0000    143.7303    311.2245
   799.0000     30.3203      0.0000    148.3854    311.3512
   799.2500     29.5504      0.0000    150.0386    311.4782
   799.5000     28.9446      0.0000    148.1164    311.5817
   799.7500     28.5453      0.0000    143.9905    311.6551
   800.0000     28.3135      0.0000    139.8428    311.7015
   800.2500     28.1955      0.0000    136.9490    311.7287
   800.5000     28.1512      0.0000    134.9303    311.7489
   800.7500     28.1313      0.0000    132.5780    311.7738
   801.0000     28.0808      0.0000    129.3735    311.8057
   801.2500     28.0106      0.0000    126.0818    311.8364
   801.5000     28.0295      0.0000    123.8403    311.8575
   801.7500     28.2351      0.0000    123.1873    311.8674
   802.0000     28.5855      0.0000    124.2322    311.8668
   802.2500     28.9427      0.0000    126.9780    311.8511
   802.5000     29.2278      0.0000    130.8212    311.8132
   802.7500     29.4697      0.0000    134.2922    311.7534
   803.0000     29.7159      0.0000    136.0565    311.6797
   803.2500     29.9656      0.0000    135.9429    311.5973
   803.5000     30.1974      0.0000    134.6741    311.5043
   803.7500     30.4103      0.0000    132.9950    311.4008
   804.0000     30.6128      0.0000    131.3804    311.2963
   804.2500     30.7902      0.0000    129.9373    311.2070
   804.5000     30.8984      0.0000    128.0698    311.1462
   804.7500     30.8912      0.0000    124.7695    311.1189
   805.0000     30.7544      0.0000    119.8154    311.1233
   805.2500     30.5188      0.0000    114.4730    311.1545
   805.5000     30.2310      0.0000    110.7493    311.2075
   805.7500     29.8992      0.0000    110.0230    311.2798
   806.0000     29.4732      0.0000    112.1017    311.3726
   806.2500     28.8880      0.0000    115.2015    311.4895
   806.5000     28.1257      0.0000    117.2137    311.6343
   806.7500     27.2346      0.0000    117.5216    311.8414
   807.0000     26.2973      0.0000    117.3435    312.2238
   807.2500     25.3854      0.0000    118.0373    313.3407
   807.5000     24.5352      0.0000    119.5472    316.9377
   807.7500     23.7525      0.0000    120.7908    327.0146
   808.0000     23.0260      0.0000    121.1024    349.7148
   808.2500     22.3349      0.0000    120.8318    390.4248
   808.5000     21.6551      0.0000    120.7167    449.2717
   808.7500     20.9745      0.0000    120.9903    519.1044
   809.0000     20.3130      0.0000    121.1262    586.6682
   809.2500     19.7287      0.0000    120.4245    634.7363
   809.5000     19.2815      0.0000    118.7719    648.4091
   809.7500     18.9548      0.0000    116.6961    627.7531
   810.0000     18.6028      0.0000    114.7008    593.1761
   810.2500     17.9892      0.0000    112.6955    570.4722
   810.5000     16.9229      0.0000    110.1637    570.1597
   810.7500     15.4225      0.0000    107.0277    585.5858
   811.0000     13.7855      0.0000    104.4134    606.7646
   811.2500     12.4548      0.0000    104.1542    628.9271
   811.5000     11.7450      0.0000    107.1318    651.1711
   811.7500     11.6727      0.0000    112.3199    674.3279
   812.0000     12.0181      0.0000    117.5702    698.9808
   812.2500     12.5074      0.0000    120.9563    722.2881
   812.5000     12.9548      0.0000    121.6279    737.5422
   812.7500     13.3123     -2.0000    120.3097    738.0691
   813.0000     13.6353     -2.0000    119.0296    721.0470
   813.2500     14.0430      0.0000    119.6108    687.6647
   813.5000     14.7159      0.0000    122.2877    640.2405
   813.7500     15.8399      0.0000    125.9185    580.4649
   814.0000     17.4228      0.0000    129.0114    512.0349
   814.2500     19.1754      0.0000    130.3708    443.9135
   814.5000     20.6972      0.0000    129.5283    387.4013
   814.7500     21.7750      0.0000    127.1445    348.9915
   815.0000     22.4300      0.0000    124.7593    327.4977
   815.2500     22.7469      0.0000    123.6851    317.4322
   815.5000     22.7851      0.0000    123.8721    313.4308
   815.7500     22.6273      0.0000    123.8527    312.0919
   816.0000     22.4035      0.0000    122.0366    311.7273
   816.2500     22.2270      0.0000    118.2601    311.6645
   816.5000     22.1244      0.0000    114.1878    311.6892
   816.7500     22.0384      0.0000    112.2374    311.7644
   817.0000     21.8873      0.0000    113.9588    311.8951
   817.2500     21.6331      0.0000    119.0198    312.0659
   817.5000     21.3103      0.0000    125.3942    312.2369
   817.7500     21.0035      0.0000    130.4930    312.3629
   818.0000     20.7899      0.0000    132.4684    312.4256
   818.2500     20.6893      0.0000    130.9389    312.4524
   818.5000     20.6567      0.0000    126.8379    312.5016
   818.7500     20.6193      0.0000    121.7335    312.6182
   819.0000     20.5216      0.0000    117.1518    312.8009
   819.2500     20.3435      0.0000    114.1639    313.0123
   819.5000     20.0984      0.0000    113.1921    313.2142
   819.7500     19.8341      0.0000    114.0501    313.3830
   820.0000     19.6301      0.0000    116.2068    313.5021
   820.2500     19.5607      0.0000    119.0197    313.5616
   820.5000     19.6330      0.0000    121.7441    313.5690
   820.7500     19.7634      0.0000    123.5576    313.5516
   821.0000     19.8321      0.0000    123.9524    313.5483
   821.2500     19.7766      0.0000    123.2046    313.5900
   821.5000     19.6424      0.0000    122.1653    313.6653
   821.7500     19.5474      0.0000    121.5002    313.6999
   822.0000     19.5982      0.0000    121.3059    313.5959
   822.2500     19.8303      0.0000    121.1524    313.3163
   822.5000     20.2143      0.0000    119.6610    312.9244
   822.7500     20.7003      0.0000    113.9727    312.5289
   823.0000     21.2535      0.0000    100.8530    312.1952
   823.2500     21.8651      0.0000     79.6432    311.9157
   823.5000     22.5356      0.0000     54.1767    311.6516
   823.7500     23.2401      0.0000     30.8745    311.3839
   824.0000     23.9086      0.0000     14.4378    311.1296
   824.2500     24.4490      0.0000      5.4574    310.9217
   824.5000     24.7981      0.0000      1.6492    310.7808
   824.7500     24.9556      0.0000      0.3951    310.7041
   825.0000     24.9706      0.0000      0.0737    310.6812
   825.2500     24.8880      0.0000      0.0102    310.7121
   825.5000     24.7073      0.0000      0.0000    310.8034
   825.7500     24.4056      0.0000   -999.2500    310.9527
   826.0000     23.9992      0.0000   -999.2500    311.1405
   826.2500     23.5618      0.0000   -999.2500    311.3375
   826.5000     23.1739      0.0000   -999.2500    311.5186
   826.7500     22.8639      0.0000   -999.2500    311.6740
   827.0000     22.6094      0.0000   -999.2500    311.7874
   827.2500     22.3930      0.0000   -999.2500    311.7662
   827.5000     22.2292      0.0000   -999.2500    311.1552
   827.7500     22.0876      0.0000   -999.2500    308.4413
   828.0000     21.7333      0.0000   -999.2500    299.9713
   828.2500     20.6559      0.0000   -999.2500    279.6791
   828.5000     18.3029      0.0000   -999.2500    241.8549
   828.7500     14.5834      0.0000   -999.2500    186.9076
   829.0000     10.1766      0.0000   -999.2500    124.7041
