~Version Information
VERS.                      2.0: CWLS Log ASCII Standard - VERSION 2.0
WRAP.                       NO: One line per depth step
~Well Information Block
STRT.FT                 3.7500: 
STOP.FT               979.7500: 
STEP.FT                 0.2500: 
NULL.                -999.2500: 
COMP.          Pioneer Natural Resources: COMPANY
WELL.          Rising Star 22-11: WELL
FLD.           Purgatoire River: FIELD
LOC.           2152' FNL & 2105' FWL: LOCATION
PROV.                 Colorado: PROVINCE
CNTY.               Las Animas: COUNTRY
SRVC.                Patterson: SERVICE COMPANY
DATE.          Sat Apr 16 09:17:01 2005: LOG DATE
UWI.           05 071 08354 00: UNIQUE WELL ID
~Curve Information Block
DEPT.FT            0 000 00 00: Depth
GR.GAPI                       : Gamma Ray
CCL.                          : Casing Collar Locator
TT3.usec                      : CBL 3' Travel Time
AMP3.mV                       : CBL 3' Amplitude
~Parameter Information Block
~A  Depth        GR         CCL         TT3         AMP3    
# ...
    70.7500     52.4866      0.0000    981.9661      4.7007
    71.0000     53.6706      0.0000    978.6923      4.6200
    71.2500     55.7001      0.0000   1005.7592      4.4744
    71.5000     57.5947      0.0000   1064.1292      4.3112
    71.7500     58.7742      0.0000   1145.2046      4.2086
    72.0000     58.9556      0.0000   1226.7925      4.1952
    72.2500     57.9633      0.0000   1285.3832      4.2465
    72.5000     55.9467      0.0000   1309.3690      4.3418
    72.7500     53.7187      0.0000   1299.2087      4.5179
    73.0000     52.4409      0.0000   1262.3314      4.8774
    73.2500     52.6751      0.0000   1210.4878      5.5201
    73.5000     53.7933      0.0000   1153.6514      6.4074
    73.7500     54.4585      0.0000   1090.6589      7.3084
    74.0000     53.8004      0.0000   1012.5798      7.9490
    74.2500     52.2376      0.0000    920.1727      8.2246
    74.5000     51.1248      0.0000    831.0015      8.2353
    74.7500     51.4932      0.0000    764.7723      8.1461
    75.0000     53.1383      0.0000    727.2813      8.0610
    75.2500     54.9038      0.0000    711.0320      8.0068
    75.5000     55.7689      0.0000    705.5645      7.9721
    75.7500     55.6056      0.0000    704.0596      7.9416
    76.0000     54.9264      0.0000    703.6069      7.9067
    76.2500     54.1217      0.0000    703.3546      7.8648
    76.5000     53.1725      0.0000    703.1334      7.8144
    76.7500     52.0383      0.0000    702.9399      7.7557
    77.0000     51.0242      0.0000    702.8023      7.6906
    77.2500     50.6072      0.0000    702.7088      7.6204
    77.5000     51.0227      0.0000    702.6182      7.5465
    77.7500     52.2305      0.0000    702.4973      7.4727
    78.0000     54.1699      0.0000    702.3398      7.4043
    78.2500     56.7153      0.0000    702.1584      7.3427
    78.5000     59.3144      0.0000    701.9812      7.2849
    78.7500     60.9179      0.0000    701.8621      7.2285
    79.0000     60.4626      0.0000    701.8766      7.1743
    79.2500     57.6296      0.0000    702.0825      7.1234
    79.5000     53.3248      0.0000    702.4667      7.0748
    79.7500     49.2451      0.0000    702.9594      7.0276
    80.0000     46.6233      0.0000    703.5572      6.9836
    80.2500     45.3812      0.0000    704.7622      6.9468
    80.5000     44.6533      0.0000    708.4956      6.9205
    80.7500     44.0506      0.0000    719.4431      6.9045
    81.0000     44.1185      0.0000    745.0828      6.8927
    81.2500     45.4648      0.0000    791.4810      6.8720
    81.5000     47.7211      0.0000    855.2153      6.8313
    81.7500     49.7250      0.0000    919.7979      6.7734
    82.0000     50.7694      0.0000    964.9600      6.7174
    82.2500     51.4802      0.0000    981.8995      6.6863
    82.5000     53.3390      0.0000    976.7261      6.6889
    82.7500     57.2709      0.0000    960.0591      6.7145
    83.0000     62.5137      0.0000    939.2330      6.7453
    83.2500     66.8793      0.0000    919.3337      6.7710
    83.5000     68.3660      0.0000    902.6658      6.7918
    83.7500     66.5811      0.0000    887.5228      6.8104
    84.0000     62.5266      0.0000    876.3287      6.8270
    84.2500     57.3237      0.0000    882.7312      6.8384
    84.5000     51.5975      0.0000    920.4146      6.8398
    84.7500     45.8814      0.0000    985.6042      6.8295
    85.0000     40.9547      0.0000   1058.3093      6.8128
    85.2500     37.5328      0.0000   1120.3894      6.7982
    85.5000     35.7880      0.0000   1167.3165      6.7873
    85.7500     35.3081      0.0000   1203.9886      6.7765
    86.0000     35.5666      0.0000   1235.1486      6.7659
    86.2500     36.3589      0.0000   1260.7761      6.7613
    86.5000     37.6744      0.0000   1276.3627      6.7653
    86.7500     39.4012      0.0000   1276.0542      6.7720
    87.0000     41.5875      0.0000   1258.3080      6.7722
    87.2500     44.8345      0.0000   1230.2700      6.7617
    87.5000     49.9145      0.0000   1205.3905      6.7438
    87.7500     56.8656      0.0000   1196.0010      6.7250
    88.0000     64.6566      0.0000   1207.4202      6.7073
    88.2500     71.8091      0.0000   1236.4391      6.6828
    88.5000     77.3767      0.0000   1273.3439      6.6393
    88.7500     81.3262      0.0000   1306.8931      6.5746
    89.0000     84.0456      0.0000   1330.1305      6.5046
    89.2500     85.8084      0.0000   1342.5916      6.4521
    89.5000     86.9265      0.0000   1347.7894      6.4279
    89.7500     88.0305      0.0000   1349.4766      6.4236
    90.0000     89.6990      0.0000   1349.9032      6.4234
    90.2500     91.8570      0.0000   1349.9871      6.4210
    90.5000     93.7975      0.0000   1350.0000      6.4219
    90.7500     94.8451      0.0000   1350.0000      6.4293
    91.0000     94.9468      0.0000   1350.0000      6.4343
    91.2500     94.7190      0.0000   1350.0000      6.4240
    91.5000     95.0260      0.0000   1350.0000      6.3936
    91.7500     96.3139      0.0000   1350.0000      6.3510
    92.0000     98.1963      0.0000   1350.0000      6.3110
    92.2500     99.7872      0.0000   1350.0000      6.2876
    92.5000    100.6064      0.0000   1350.0000      6.2874
    92.7500    101.0652      0.0000   1350.0000      6.3051
    93.0000    101.7970      0.0000   1350.0000      6.3264
    93.2500    102.5734      0.0000   1350.0000      6.3373
    93.5000    102.4356      0.0000   1350.0000      6.3299
    93.7500    100.9541      0.0000   1350.0000      6.2998
    94.0000     98.7597      0.0000   1350.0000      6.2472
    94.2500     96.7609      0.0000   1350.0000      6.1821
    94.5000     95.3429      0.0000   1350.0000      6.1230
    94.7500     94.4616      0.0000   1350.0000      6.0827
    95.0000     94.3005      0.0000   1349.9597      6.0597
    95.2500     95.5868      0.0000   1349.7245      6.0452
    95.5000     98.8844      0.0000   1348.5503      6.0337
    95.7500    103.5115      0.0000   1344.0897      6.0241
    96.0000    107.7363      0.0000   1331.0060      6.0133
    96.2500    110.2726      0.0000   1301.6431      5.9955
    96.5000    111.1143      0.0000   1251.8114      5.9687
    96.7500    110.7515      0.0000   1189.6705      5.9402
    97.0000    109.1218      0.0000   1137.2058      5.9238
    97.2500    105.7393      0.0000   1116.6987      5.9330
    97.5000    100.6684      0.0000   1131.4479      5.9754
    97.7500     95.0026      0.0000   1160.2653      6.0503
    98.0000     90.1330      0.0000   1174.2573      6.1471
    98.2500     86.5951      0.0000   1161.9154      6.2451
    98.5000     83.9580      0.0000   1136.0867      6.3214
    98.7500     81.7657      0.0000   1113.0695      6.3637
    99.0000     80.0047      0.0000   1089.5590      6.3799
    99.2500     78.6903      0.0000   1049.5221      6.3891
    99.5000     77.8126      0.0000    993.0941      6.4024
    99.7500     77.9174      0.0000    948.1763      6.4105
   100.0000     79.9855      0.0000    947.8923      6.3921
   100.2500     84.1838      0.0000    999.2518      6.3329
   100.5000     89.1217      0.0000   1075.3826      6.2344
   100.7500     92.8093      0.0000   1137.1517      6.1091
   101.0000     94.2093      0.0000   1160.9629      5.9720
   101.2500     93.7181      0.0000   1148.0272      5.8382
   101.5000     92.4074      0.0000   1114.9479      5.7229
   101.7500     91.0532      0.0000   1081.9180      5.6391
   102.0000     89.7715      0.0000   1065.0026      5.5961
   102.2500     88.4206      0.0000   1069.5265      5.5970
   102.5000     87.2844      0.0000   1088.2471      5.6373
   102.7500     87.0899      0.0000   1108.7023      5.7053
   103.0000     88.2019      0.0000   1122.6703      5.7856
   103.2500     90.1491      0.0000   1128.7949      5.8647
   103.5000     92.1146      0.0000   1129.7106      5.9359
   103.7500     93.4581      0.0000   1129.1611      5.9986
   104.0000     93.6022      0.0000   1130.6508      6.0543
