~Version Information
 VERS.                                  2.0 : CWLS LAS VERSION
 WRAP.                                   NO : WRAPING MODE
 SWARE .                 MController 2.5.0J : SOFTWARE VERSION
~Well Information
 WELL.                        McLeod 09-42R : WELL
 COMP.                Petrogulf Corporation : COMPANY
 FLD.                      Purgatoire River : FIELD
 LOC.                SE/NE Sec 09 T33S R67W : LOCATION
 DATE.                          08/13-14/05 : DATE(S) LOGGED
 SRVC.       BLANCO Geological Services LLC : SERVICE COMPANY
 STAT.                                   CO : STATE
 CNTY.                           Las Animas : COUNTY
 CTRY.                                  USA : COUNTRY
 API.                       05 071 08092 00 : API NUMBER
 STRT.FT                               6.00 : START DEPTH
 STOP.FT                            1775.00 : STOP DEPTH
 STEP.FT                               1.00 : DEPTH INCREMENT
 NULL.                                -9999 : NULL VALUE
~Curve information
 DEPTH.FT                                   :
 ROP.MIN/FT                                 :
 GAS.UNITS                                  :
~ASCII Log data
# ...
       206.0         2.05          9.6 
       207.0         0.30          8.4 
       208.0         0.53          8.6 
       209.0         0.50          8.7 
       210.0         0.50          8.9 
       211.0         0.42          9.3 
       212.0         0.47          9.1 
       213.0         0.47          9.3 
       214.0         0.33          9.9 
       215.0         0.27         10.1 
       216.0         0.23          9.8 
       217.0         0.23         10.2 
       218.0         0.13          9.9 
       219.0         0.13          9.3 
       220.0         0.17          9.8 
       221.0         0.30          9.7 
       222.0         0.30          9.1 
       223.0         0.32          9.6 
       224.0         0.33          9.3 
       225.0         0.37          9.5 
       226.0         0.33          9.2 
       227.0         0.37          9.2 
       228.0         0.37          9.4 
       229.0         0.37          9.3 
       230.0         0.37          9.3 
       231.0         0.37          9.0 
       232.0         0.38          9.0 
       233.0         0.37          9.0 
       234.0         0.37          8.9 
       235.0         0.40          8.9 
       236.0         2.12          9.2 
       237.0         0.37          9.0 
       238.0         0.40          8.6 
       239.0         0.37          8.7 
       240.0         0.37          8.9 
       241.0         0.47          8.9 
       242.0         0.40          8.7 
       243.0         0.37          8.5 
       244.0         0.37          9.2 
       245.0         0.38          8.5 
       246.0         0.37          8.4 
       247.0         0.33          8.6 
       248.0         0.33          8.8 
       249.0         0.33          8.4 
       250.0         0.37          8.7 
       251.0         0.30          8.4 
       252.0         0.33          8.7 
       253.0         0.30          8.5 
       254.0         0.32          8.7 
       255.0         0.30          8.6 
       256.0         0.37          8.0 
       257.0         0.33          8.5 
       258.0         0.40          8.6 
       259.0         0.43          8.6 
       260.0         0.47          8.6 
       261.0         0.43          9.1 
       262.0         0.40          8.8 
       263.0         0.38          8.6 
       264.0         0.37          8.1 
       265.0         0.30          8.3 
       266.0         2.27          8.8 
       267.0         0.35          8.5 
       268.0         0.30          8.6 
       269.0         0.27          8.4 
       270.0         0.27          8.8 
       271.0         0.30          8.7 
       272.0         0.33          8.5 
       273.0         0.33          8.2 
       274.0         0.30          8.6 
       275.0         0.27          8.4 
       276.0         0.27          8.4 
       277.0         0.27          8.2 
       278.0         0.28          8.5 
       279.0         0.23          8.4 
       280.0         0.30          8.7 
       281.0         0.33          8.5 
       282.0         0.20          8.4 
       283.0         0.27          8.6 
       284.0         0.30          8.1 
       285.0         0.30          8.5 
       286.0         0.47          8.7 
       287.0         0.50          8.3 
       288.0         0.32          8.6 
       289.0         0.20          8.5 
       290.0         0.30          8.3 
       291.0         0.30          8.1 
       292.0         0.33          8.8 
       293.0         0.37          8.6 
       294.0         0.33          8.5 
       295.0         0.33          8.2 
       296.0         1.82          8.6 
       297.0         0.23          8.4 
       298.0         0.20          8.5 
       299.0         0.37          8.8 
       300.0         0.23          8.3 
       301.0         0.23          8.6 
       302.0         0.27          8.4 
       303.0         0.40          8.5 
       304.0         0.23          8.1 
       305.0         0.20          8.7 
       306.0         0.35          8.4 
       307.0         0.30          8.6 
       308.0         0.30          8.6 
       309.0         0.37          8.5 
       310.0         0.40          8.6 
       311.0         0.43          8.4 
       312.0         0.43          8.4 
       313.0         0.55          8.7 
       314.0         0.33          8.6 
       315.0         0.40          8.9 
       316.0         0.33          8.9 
       317.0         0.30          8.8 
       318.0         0.30          8.9 
       319.0         0.33          9.1 
       320.0         0.30          9.1 
       321.0         0.27          8.9 
       322.0         0.30          9.0 
       323.0         0.32          9.2 
       324.0         0.30          9.5 
       325.0         0.27          9.0 
       326.0         4.72         10.8 
       327.0         0.40          9.5 
       328.0         0.33          9.4 
       329.0         0.32          9.4 
       330.0         0.30          9.3 
       331.0         0.33          9.1 
       332.0         0.37          9.8 
       333.0         0.37          9.7 
       334.0         0.33          9.7 
       335.0         0.33          9.7 
       336.0         0.33          9.9 
       337.0         0.37          9.6 
       338.0         0.30          9.5 
       339.0         0.35         10.1 
       340.0         0.37          9.9 
       341.0         0.30         10.1 
       342.0         0.30          9.7 
       343.0         0.33          9.8 
       344.0         0.30          9.9 
       345.0         0.33          9.2 
       346.0         0.30          9.3 
       347.0         0.33          9.7 
       348.0         0.30          9.5 
       349.0         0.35          9.7 
       350.0         0.30         10.0 
       351.0         0.57          9.7 
       352.0         0.57          9.8 
       353.0         0.43          9.5 
       354.0         0.37          9.5 
       355.0         0.33          9.2 
       356.0         1.65          9.7 
       357.0         0.30          9.9 
       358.0         0.20          9.6 
       359.0         0.23          9.1 
       360.0         0.27          9.5 
       361.0         0.20          9.6 
       362.0         0.23          9.6 
       363.0         0.33          9.5 
       364.0         0.33          9.7 
       365.0         0.52          9.6 
       366.0         0.20          9.0 
       367.0         0.37          9.3 
       368.0         0.43          9.5 
       369.0         0.37          9.3 
       370.0         0.40          9.4 
       371.0         0.57          9.6 
       372.0         0.37          9.6 
       373.0         0.22          9.6 
       374.0         0.17          9.9 
       375.0         0.17         10.4 
       376.0         0.13          9.6 
       377.0         0.20         10.4 
       378.0         0.17         10.4 
       379.0         0.17         10.6 
       380.0         0.17         10.6 
       381.0         0.17         10.3 
       382.0         0.17         10.2 
       383.0         0.23          9.7 
       384.0         0.27          9.9 
       385.0         0.23          9.1 
       386.0         1.98          9.9 
       387.0         0.33          9.7 
       388.0         0.13          9.7 
       389.0         0.13         10.4 
       390.0         0.13          9.6 
       391.0         0.30          9.7 
       392.0         0.33         10.0 
       393.0         0.37         10.5 
       394.0         0.48         10.4 
       395.0         0.33         10.1 
       396.0         0.33         10.1 
       397.0         0.33          9.5 
       398.0         0.40          9.8 
       399.0         0.40          9.8 
       400.0         0.43          9.7 
       401.0         0.33          9.8 
       402.0         0.37          9.5 
       403.0         0.42          9.6 
       404.0         0.37          9.6 
       405.0         0.33          9.6 
