~Version Information
 VERS.                                  2.0 : CWLS LAS VERSION
 WRAP.                                   NO : WRAPING MODE
 SWARE .                 MController 2.5.0J : SOFTWARE VERSION
~Well Information
 WELL.                         Hill 33-22Tr : WELL
 COMP.    Pioneer Natural Resources USA Inc : COMPANY
 FLD.                      Purgatoire River : FIELD
 LOC.                 NW/SE Sec22 T32S R66W : LOCATION
 DATE.                           4/13-14/05 : DATE(S) LOGGED
 SRVC.       Blanco Geological Services LLC : SERVICE COMPANY
 STAT.                                   CO : STATE
 CNTY.                           Las Animas : COUNTY
 CTRY.                                  USA : COUNTRY
 API.                       05-071-08316-00 : API NUMBER
 STRT.FT                             642.00 : START DEPTH
 STOP.FT                            1810.00 : STOP DEPTH
 STEP.FT                               1.00 : DEPTH INCREMENT
 NULL.                                -9999 : NULL VALUE
~Curve information
 DEPTH.FT                                   :
 ROP.MIN/FT                                 :
 GAS.UNITS                                  :
~ASCII Log data
# ...
      1242.0         0.50        143.6 
      1243.0         0.47        136.4 
      1244.0         0.45        129.5 
      1245.0         0.47        126.8 
      1246.0         0.27        122.2 
      1247.0         0.20        120.5 
      1248.0         0.27        118.7 
      1249.0         0.30        118.1 
      1250.0         0.23        115.4 
      1251.0         0.23         97.1 
      1252.0         0.23         95.1 
      1253.0         0.20        103.7 
      1254.0         0.20        178.3 
      1255.0         0.27        287.7 
      1256.0         1.18       1236.5 
      1257.0         0.27       1086.6 
      1258.0         0.17        822.3 
      1259.0         0.37        712.7 
      1260.0         0.23        560.9 
      1261.0         0.23        445.1 
      1262.0         0.20        440.0 
      1263.0         0.23        170.5 
      1264.0         0.17        169.0 
      1265.0         0.17        173.0 
      1266.0         0.17        176.6 
      1267.0         0.20        177.0 
      1268.0         0.18        173.7 
      1269.0         0.13        173.7 
      1270.0         0.17        164.2 
      1271.0         0.20        152.0 
      1272.0         0.20        150.0 
      1273.0         0.23        135.6 
      1274.0         0.20        132.4 
      1275.0         0.20        127.1 
      1276.0         0.17        124.7 
      1277.0         0.17        124.7 
      1278.0         0.20        122.0 
      1279.0         0.27        110.9 
      1280.0         0.27        109.2 
      1281.0         0.23        105.3 
      1282.0         0.23        111.1 
      1283.0         0.17        111.1 
      1284.0         0.20        172.6 
      1285.0         0.22        191.7 
      1286.0         1.33       1240.4 
      1287.0         0.40        924.0 
      1288.0         0.30        804.9 
      1289.0         0.37        678.0 
      1290.0         0.23        487.9 
      1291.0         0.27        497.4 
      1292.0         0.20        497.4 
      1293.0         0.15        520.7 
      1294.0         0.17        515.1 
      1295.0         0.20        483.4 
      1296.0         0.20        483.4 
      1297.0         0.27        453.3 
      1298.0         0.30        440.0 
      1299.0         0.27        168.8 
      1300.0         0.23        161.4 
      1301.0         0.23        160.0 
      1302.0         0.23        153.6 
      1303.0         0.23        148.3 
      1304.0         0.27        147.2 
      1305.0         0.23        138.7 
      1306.0         0.20        134.7 
      1307.0         0.20        135.5 
      1308.0         0.22        135.5 
      1309.0         0.33        135.9 
      1310.0         0.33        132.3 
      1311.0         0.30        127.1 
      1312.0         0.30        103.1 
      1313.0         0.27         85.4 
      1314.0         0.23         81.8 
      1315.0         0.27         91.1 
      1316.0         2.58       1635.2 
      1317.0         0.37        772.6 
      1318.0         0.30        543.9 
      1319.0         0.27        507.2 
      1320.0         0.27        464.7 
      1321.0         0.17        458.5 
      1322.0         0.13        463.1 
      1323.0         0.13        457.5 
      1324.0         0.20        451.6 
      1325.0         0.22        450.3 
      1326.0         0.20        447.4 
      1327.0         0.20        442.8 
      1328.0         0.20        456.2 
      1329.0         0.13        480.7 
      1330.0         0.13        499.1 
      1331.0         0.13        499.1 
      1332.0         0.13        467.0 
      1333.0         0.13        467.0 
      1334.0         0.13        445.1 
      1335.0         0.17        440.0 
      1336.0         0.13        440.0 
      1337.0         0.33        173.3 
      1338.0         0.17        173.3 
      1339.0         0.20        175.6 
      1340.0         0.23        164.0 
      1341.0         0.20        147.4 
      1342.0         0.27        143.3 
      1343.0         0.25        116.3 
      1344.0         0.20        113.9 
      1345.0         0.20        127.8 
      1346.0         2.57       1190.7 
      1347.0         0.28        939.7 
      1348.0         0.20        792.5 
      1349.0         0.33        700.3 
      1350.0         0.27        583.1 
      1351.0         0.20        493.5 
      1352.0         0.20        476.2 
      1353.0         0.20        473.2 
      1354.0         0.20        494.5 
      1355.0         0.17        494.5 
      1356.0         0.17        507.2 
      1357.0         0.17        501.3 
      1358.0         0.20        486.0 
      1359.0         0.30        462.1 
      1360.0         0.40        440.8 
      1361.0         0.28        163.4 
      1362.0         0.23        159.6 
      1363.0         0.27        152.8 
      1364.0         0.23        146.6 
      1365.0         0.23        145.8 
      1366.0         0.23        141.3 
      1367.0         0.23        141.1 
      1368.0         0.33        139.5 
      1369.0         0.37        137.1 
      1370.0         0.33        135.2 
      1371.0         0.30        131.3 
      1372.0         0.27         89.3 
      1373.0         0.23         85.5 
      1374.0         0.22         93.3 
      1375.0         0.27        115.8 
      1376.0         1.33        283.4 
      1377.0         0.33        284.5 
      1378.0         0.30        249.3 
      1379.0         0.17        245.3 
      1380.0         0.33        214.7 
      1381.0         0.27        189.2 
      1382.0         0.25        168.7 
      1383.0         0.23        161.6 
      1384.0         0.23        167.0 
      1385.0         0.20        171.5 
      1386.0         0.20        177.8 
      1387.0         0.20        177.0 
      1388.0         0.23        161.7 
      1389.0         0.23        165.5 
      1390.0         0.33        172.0 
      1391.0         0.20        182.4 
      1392.0         0.10        188.6 
      1393.0         0.13        189.6 
      1394.0         0.23        184.6 
      1395.0         0.13        184.6 
      1396.0         0.33        174.6 
      1397.0         0.20        166.5 
      1398.0         0.22        151.1 
      1399.0         0.27        148.3 
      1400.0         0.20        102.1 
      1401.0         0.20        101.1 
      1402.0         0.17        100.5 
      1403.0         0.17        103.9 
      1404.0         0.27        136.1 
      1405.0         0.27        175.3 
      1406.0         1.07        370.3 
      1407.0         0.40        350.2 
      1408.0         0.35        312.1 
      1409.0         0.23        266.4 
      1410.0         0.23        222.6 
      1411.0         0.20        182.4 
      1412.0         0.20        175.2 
      1413.0         0.23        176.5 
      1414.0         0.23        185.1 
      1415.0         0.23        190.4 
      1416.0         0.23        191.3 
      1417.0         0.20        186.2 
      1418.0         0.27        176.5 
      1419.0         0.30        165.4 
      1420.0         0.20        164.4 
      1421.0         0.23        150.9 
      1422.0         0.25        147.7 
      1423.0         0.23        145.4 
      1424.0         0.20        143.9 
      1425.0         0.20        141.9 
      1426.0         0.23        140.4 
      1427.0         0.23        131.0 
      1428.0         0.30        125.4 
      1429.0         0.27        112.4 
      1430.0         0.27         82.2 
      1431.0         0.20         82.2 
      1432.0         0.20         82.0 
      1433.0         0.17         88.9 
      1434.0         0.33         94.6 
      1435.0         0.27        103.8 
      1436.0         2.82       1340.5 
      1437.0         0.10        921.1 
      1438.0         0.20        769.3 
      1439.0         0.20        640.1 
      1440.0         0.32        571.0 
      1441.0         0.47        562.5 
