~Version Information
VERS.                      2.0: CWLS Log ASCII Standard - VERSION 2.0
WRAP.                       NO: One line per depth step
~Well Information Block
STRT.FT               750.0000: 
STOP.FT              2431.5000: 
STEP.FT                 0.1000: 
NULL.                -999.2500: 
COMP.          Petrogulf Corporation: COMPANY
WELL.           McDaniel 9-34V: WELL
FLD.           Purgatorie River: FIELD
LOC.           620' FSL & 1800' FEL: LOCATION
PROV.                 Colorado: PROVINCE
CNTY.               Las Animas: COUNTRY
SRVC.                Patterson: SERVICE COMPANY
DATE.          Wed Sep 28 07:18:04 2005: LOG DATE
UWI.                          : UNIQUE WELL ID
~Curve Information Block
DEPT.FT            0 000 00 00: Depth
DCAL.in                       : CDL Caliper
RHOB.g/cc                     : CDL Bulk Density
RHOC.g/cc                     : CDL Density Correction
DPOR.pu                       : CDL Density Porosity
GR.GAPI                       : Gamma Ray
NPOR.pu                       : Neutron Porosity
~Parameter Information Block
~A  Depth       DCAL        RHOB        RHOC        DPOR         GR         NPOR    
# ...
   865.2000      8.1011      2.6502      0.1014     -0.0144    103.5288     21.3443
   865.3000      8.0959      2.6386      0.0159      0.6904    108.1134     21.7628
   865.4000      8.0959      2.6263      0.0122      1.4385    113.1789     22.2476
   865.5000      8.0928      2.6374      0.0759      0.7654    113.9408     22.3786
   865.6000      8.0928      2.6579      0.0977     -0.4797    110.8640     22.2569
   865.7000      8.0928      2.6638      0.0283     -0.8379    108.0517     22.3212
   865.8000      8.0976      2.6521      0.0656     -0.1286    108.5332     22.6738
   865.9000      8.0976      2.6260      0.0296      1.4553    112.4557     22.9769
   866.0000      8.0983      2.5968     -0.0496      3.2250    117.4416     23.0080
   866.1000      8.0983      2.5839     -0.0069      4.0070    121.1038     22.8622
   866.2000      8.0983      2.5853      0.0562      3.9231    121.2262     22.7650
   866.3000      8.0980      2.5856      0.0411      3.9051    119.4159     22.8201
   866.4000      8.0980      2.5784      0.0803      4.3422    119.9830     22.9809
   866.5000      8.0956      2.5641      0.0914      5.2037    120.9618     23.2640
   866.6000      8.0956      2.5543      0.0615      5.7999    120.0752     23.7039
   866.7000      8.0956      2.5601      0.0601      5.4500    119.8304     24.2392
   866.8000      8.0946      2.5717      0.1027      4.7474    122.4208     24.6846
   866.9000      8.0946      2.5769      0.0624      4.4310    128.0027     24.8187
   867.0000      8.1023      2.5805      0.0632      4.2124    133.3787     24.6785
   867.1000      8.1023      2.5805      0.1299      4.2107    136.6849     24.4667
   867.2000      8.1023      2.5646      0.1002      5.1737    140.4593     24.3461
   867.3000      8.0955      2.5419      0.0270      6.5518    140.9693     24.3430
   867.4000      8.0955      2.5375      0.0089      6.8158    133.4698     24.4514
   867.5000      8.1027      2.5566      0.0125      5.6632    124.2338     24.6321
   867.6000      8.1027      2.5783      0.0554      4.3447    121.1251     24.5839
   867.7000      8.1027      2.5884      0.0271      3.7323    123.3761     24.2775
   867.8000      8.0981      2.5907      0.1077      3.5958    127.7447     24.1207
   867.9000      8.0981      2.5931      0.0452      3.4457    130.9209     24.3091
   868.0000      8.0995      2.6002      0.0870      3.0175    129.0595     24.6293
   868.1000      8.0995      2.5991      0.1234      3.0876    124.8782     24.6834
   868.2000      8.0995      2.5800      0.0357      4.2395    124.9685     24.2825
   868.3000      8.1009      2.5592      0.0559      5.5026    130.7448     23.8201
   868.4000      8.1009      2.5473      0.0092      6.2256    137.7124     23.7734
   868.5000      8.1014      2.5332     -0.0020      7.0794    142.6129     24.1072
   868.6000      8.1014      2.5047     -0.0101      8.8053    143.9866     24.4860
   868.7000      8.1014      2.4701     -0.0381     10.9048    142.3708     24.7409
   868.8000      8.0958      2.4495     -0.0114     12.1501    142.0101     24.9127
   868.9000      8.0958      2.4501     -0.0192     12.1166    142.9206     25.1270
   869.0000      8.0909      2.4680     -0.0637     11.0288    142.1990     25.4785
   869.1000      8.0909      2.4976      0.0329      9.2336    144.2910     26.1863
   869.2000      8.0909      2.5337      0.0094      7.0503    151.0601     27.1355
   869.3000      8.0900      2.5706      0.0844      4.8114    153.7288     27.6783
   869.4000      8.0900      2.5960      0.0926      3.2738    150.2219     27.7880
   869.5000      8.0857      2.6086      0.0632      2.5081    147.7538     27.7928
   869.6000      8.0857      2.6188      0.1475      1.8906    148.8425     27.6656
   869.7000      8.0857      2.6260      0.1455      1.4570    152.8562     27.5416
   869.8000      8.0763      2.6280      0.1037      1.3329    157.4534     27.8234
   869.9000      8.0763      2.6281      0.0920      1.3260    159.8377     28.3886
   870.0000      8.0727      2.6258      0.0801      1.4687    162.6541     28.6349
   870.1000      8.0727      2.6213      0.1015      1.7420    167.1386     28.4197
   870.2000      8.0727      2.6147      0.0633      2.1379    170.5439     28.1951
   870.3000      8.0904      2.6141      0.0289      2.1756    170.6109     28.3081
   870.4000      8.0904      2.6381      0.0355      0.7230    168.5283     28.7159
   870.5000      8.0836      2.6887      0.1052     -2.3461    166.8322     29.0982
   870.6000      8.0836      2.7452      0.0884     -5.7672    165.6533     29.2925
   870.7000      8.0836      2.7830      0.0900     -8.0628    163.9619     29.4959
   870.8000      8.0795      2.7882      0.0652     -8.3781    162.3878     29.6392
   870.9000      8.0795      2.7673      0.0846     -7.1079    161.8051     29.1747
   871.0000      8.0661      2.7408      0.0593     -5.5006    163.0202     28.1152
   871.1000      8.0661      2.7232      0.0400     -4.4339    164.7876     27.4738
   871.2000      8.0661      2.7079      0.0024     -3.5069    161.7019     27.6281
   871.3000      8.0730      2.6762     -0.0271     -1.5893    154.5327     27.7976
   871.4000      8.0730      2.6272     -0.1213      1.3806    153.3866     27.6032
   871.5000      8.1357      2.5905     -0.1216      3.6054    159.6491     27.3411
   871.6000      8.1357      2.5874     -0.0566      3.7948    164.9224     27.3213
   871.7000      8.1357      2.6045      0.0130      2.7570    164.1647     27.8506
   871.8000      8.1772      2.6255      0.0603      1.4868    160.5698     28.7130
   871.9000      8.1772      2.6439      0.0570      0.3684    158.3540     29.2519
   872.0000      8.1188      2.6443      0.0743      0.3445    156.5929     29.3209
   872.1000      8.1188      2.6205      0.0161      1.7867    153.7615     29.2962
   872.2000      8.1188      2.5982     -0.0159      3.1406    150.8012     29.3316
   872.3000      8.1099      2.5980      0.0034      3.1519    150.7903     29.4344
   872.4000      8.1099      2.6093      0.0336      2.4674    154.5132     29.6629
   872.5000      8.1073      2.6135      0.0269      2.2124    157.9095     29.7469
   872.6000      8.1073      2.6026      0.0614      2.8737    159.7616     29.6021
   872.7000      8.1073      2.5748      0.0825      4.5563    160.6749     29.4536
   872.8000      8.1042      2.5402      0.0322      6.6574    159.4440     29.2156
   872.9000      8.1042      2.5207      0.0116      7.8387    155.6463     28.7222
   873.0000      8.1087      2.5273      0.0482      7.4359    151.3308     28.1185
   873.1000      8.1087      2.5462      0.0362      6.2915    149.9070     27.6671
   873.2000      8.1087      2.5677      0.0059      4.9894    149.2838     27.5266
   873.3000      8.1319      2.6034      0.0480      2.8245    144.2940     27.7322
   873.4000      8.1319      2.6605      0.1073     -0.6380    136.1135     28.1849
   873.5000      8.1518      2.7281      0.1738     -4.7310    129.6168     28.6660
   873.6000      8.1518      2.7901      0.1846     -8.4930    125.9916     28.8933
   873.7000      8.1518      2.8365      0.2274    -11.3004    122.6033     28.7319
   873.8000      8.1539      2.8590      0.1818    -12.6640    119.6003     28.3077
   873.9000      8.1539      2.8561      0.1584    -12.4903    118.1913     27.9305
   874.0000      8.1222      2.8474      0.0771    -11.9622    118.1950     27.9209
   874.1000      8.1222      2.8572      0.0735    -12.5571    120.3239     28.1367
   874.2000      8.1222      2.8769      0.1070    -13.7486    122.4190     27.9992
   874.3000      8.1171      2.8931      0.0373    -14.7332    121.3406     27.5193
   874.4000      8.1171      2.9110      0.0636    -15.8183    119.1438     27.1279
   874.5000      8.1222      2.9203      0.0266    -16.3799    118.7283     26.8785
   874.6000      8.1222      2.9034      0.0097    -15.3591    119.7364     26.6283
   874.7000      8.1222      2.8657      0.0089    -13.0747    121.8249     26.3487
