~Version Information
VERS.                      2.0: CWLS Log ASCII Standard - VERSION 2.0
WRAP.                       NO: One line per depth step
~Well Information Block
STRT.FT               245.0000: 
STOP.FT              2464.2000: 
STEP.FT                 0.1000: 
NULL.                -999.2500: 
COMP.          Pioneer Natural Resources: COMPANY
WELL.          Oink Oink 14-36: WELL
FLD.           Purgatoire River: FIELD
LOC.           216' FSL & 263' FWL--: LOCATION
PROV.                 Colorado: PROVINCE
CNTY.               Las Animas: COUNTRY
SRVC.                Patterson: SERVICE COMPANY
DATE.          Wed Jun 08 16:53:09 2005: LOG DATE
UWI.           05 071 08394 00: UNIQUE WELL ID
~Curve Information Block
DEPT.FT            0 000 00 00: Depth
DCAL.in                       : CDL Caliper
RHOB.g/cc                     : CDL Bulk Density
RHOC.g/cc                     : CDL Density Correction
DPOR.pu                       : CDL Density Porosity
NPOR.pu                       : Neutron Porosity
GR.GAPI                       : Gamma Ray
~Parameter Information Block
~A  Depth       DCAL        RHOB        RHOC        DPOR        NPOR         GR     
# ...
  1262.6000      7.9595      2.5470      0.0598      6.2449     25.3923    117.5375
  1262.7000      7.9595      2.5726      0.1355      4.6919     25.1827    117.0482
  1262.8000      7.9528      2.5932      0.0859      3.4413     25.1501    114.4958
  1262.9000      7.9528      2.6034      0.1150      2.8223     25.2482    109.7514
  1263.0000      7.9526      2.5992      0.1281      3.0810     25.3608    102.2868
  1263.1000      7.9526      2.5700      0.1011      4.8460     25.6902     95.4148
  1263.2000      7.9526      2.5224      0.0379      7.7335     26.1980     94.6924
  1263.3000      7.9503      2.4747      0.0498     10.6237     26.3686     99.8214
  1263.4000      7.9503      2.4387     -0.0132     12.8085     25.8488    104.1582
  1263.5000      7.9439      2.4183      0.0032     14.0437     25.0687    103.1756
  1263.6000      7.9439      2.4120     -0.0098     14.4262     24.8655     98.8133
  1263.7000      7.9439      2.4227     -0.0299     13.7767     25.2458     97.2693
  1263.8000      7.9388      2.4580      0.0247     11.6349     25.6559    100.3566
  1263.9000      7.9388      2.5135      0.0949      8.2722     26.1555    103.7793
  1264.0000      7.9372      2.5787      0.1101      4.3194     27.0429    106.7950
  1264.1000      7.9372      2.6554      0.1587     -0.3288     27.9996    110.8878
  1264.2000      7.9372      2.7483      0.1626     -5.9580     28.6346    113.2851
  1264.3000      7.9385      2.8493      0.2357    -12.0760     29.4261    110.8824
  1264.4000      7.9385      2.9405      0.2431    -17.6084     30.6460    104.5909
  1264.5000      7.9483      3.0039      0.2289    -21.4503     31.9373     96.7329
  1264.6000      7.9483      3.0330      0.1440    -23.2106     33.1818     92.2489
  1264.7000      7.9483      3.0403      0.1386    -23.6567     34.2367     94.1071
  1264.8000      7.9747      3.0232      0.1799    -22.6157     35.1677     98.0292
  1264.9000      7.9747      2.9635      0.0882    -19.0020     36.0958    100.6895
  1265.0000      8.0089      2.8878     -0.0790    -14.4135     36.3960    101.3596
  1265.1000      8.0089      2.8383     -0.0429    -11.4092     35.6712     99.9260
  1265.2000      8.0089      2.7992     -0.0541     -9.0409     34.4353    100.1283
  1265.3000      8.0323      2.7402     -0.1604     -5.4678     33.4104    105.7246
  1265.4000      8.0323      2.6793     -0.1774     -1.7784     32.6762    116.3687
  1265.5000      8.0418      2.6417     -0.1248      0.5000     31.7806    126.5576
  1265.6000      8.0418      2.6206     -0.0348      1.7802     30.5827    130.7625
  1265.7000      8.0418      2.6041     -0.0096      2.7801     29.4743    130.4493
  1265.8000      8.0449      2.5877      0.0563      3.7755     28.6786    128.5746
  1265.9000      8.0449      2.5752      0.0124      4.5343     28.1476    127.6064
  1266.0000      8.0435      2.5793      0.0096      4.2822     28.1983    129.8311
  1266.1000      8.0435      2.5875      0.0911      3.7865     29.1468    133.8641
  1266.2000      8.0435      2.5828      0.0105      4.0756     30.3933    138.1563
  1266.3000      8.0394      2.5833      0.0227      4.0394     30.7376    140.2888
  1266.4000      8.0394      2.5968      0.0746      3.2244     29.7801    138.1657
  1266.5000      8.0360      2.5982      0.0931      3.1406     28.3359    135.1954
  1266.6000      8.0360      2.5765      0.0511      4.4552     27.3463    135.4826
  1266.7000      8.0360      2.5520      0.0222      5.9376     27.2086    138.4023
  1266.8000      8.0346      2.5440     -0.0014      6.4218     27.6448    139.4813
  1266.9000      8.0346      2.5433      0.0418      6.4652     28.0241    135.9922
  1267.0000      8.0365      2.5237      0.0435      7.6574     28.1433    131.0398
  1267.1000      8.0365      2.4839      0.0175     10.0640     28.3230    130.2865
  1267.2000      8.0365      2.4551     -0.0086     11.8121     28.4654    134.6230
  1267.3000      8.0408      2.4539     -0.0034     11.8841     28.1033    140.2460
  1267.4000      8.0408      2.4574      0.0432     11.6746     27.1882    144.6134
  1267.5000      8.0442      2.4426      0.0154     12.5714     26.0157    145.2158
  1267.6000      8.0442      2.4182     -0.0093     14.0487     25.1143    140.4460
  1267.7000      8.0442      2.3957      0.0167     15.4092     24.6169    135.4892
  1267.8000      8.0448      2.3768     -0.0122     16.5560     24.3056    134.0890
  1267.9000      8.0448      2.3637     -0.0056     17.3503     24.2636    130.8524
  1268.0000      8.0448      2.3510      0.0373     18.1234     24.3080    124.7436
  1268.1000      8.0448      2.3324      0.0382     19.2507     24.0866    123.4977
  1268.2000      8.0448      2.3166      0.0291     20.2050     23.7548    131.0033
  1268.3000      8.0492      2.3206      0.0230     19.9651     23.5654    139.1252
  1268.4000      8.0492      2.3545      0.0386     17.9101     23.3445    138.4858
  1268.5000      8.0548      2.4027      0.1202     14.9884     22.8745    131.9609
  1268.6000      8.0548      2.4256      0.1642     13.6023     22.2508    128.3871
  1268.7000      8.0548      2.4113      0.0723     14.4639     22.0103    128.0889
  1268.8000      8.0456      2.3999      0.0479     15.1553     22.1004    124.1171
  1268.9000      8.0456      2.4248      0.0978     13.6487     21.8030    117.1235
  1269.0000      8.0225      2.4707      0.1599     10.8647     21.2861    114.4414
  1269.1000      8.0225      2.5068      0.1087      8.6807     21.2186    120.5141
  1269.2000      8.0225      2.5246      0.1124      7.5974     21.5708    132.2531
  1269.3000      8.0039      2.5263      0.0938      7.4994     21.9324    141.4337
  1269.4000      8.0039      2.5125      0.0630      8.3346     22.2736    143.7300
  1269.5000      7.9952      2.4953      0.0312      9.3732     22.9121    142.6734
  1269.6000      7.9952      2.4909      0.0275      9.6426     23.7984    144.3796
  1269.7000      7.9952      2.4987      0.0344      9.1708     24.2589    148.4908
  1269.8000      7.9922      2.5046      0.0613      8.8113     24.1694    149.2936
  1269.9000      7.9922      2.5019      0.0336      8.9738     23.9578    145.0112
  1270.0000      7.9897      2.4926      0.0661      9.5415     23.6718    139.0818
  1270.1000      7.9897      2.4774      0.0501     10.4629     23.3932    135.4736
  1270.2000      7.9897      2.4630      0.0887     11.3316     23.4546    136.4694
  1270.3000      7.9845      2.4617      0.0313     11.4144     23.7799    139.9178
  1270.4000      7.9845      2.4762      0.0825     10.5362     23.9092    141.2153
  1270.5000      7.9808      2.4913      0.0994      9.6205     23.6307    139.2100
  1270.6000      7.9808      2.5030      0.0428      8.9107     22.9501    135.3127
  1270.7000      7.9808      2.5248      0.0478      7.5897     22.0655    129.9271
  1270.8000      7.9804      2.5493      0.1261      6.1059     21.4392    125.3379
  1270.9000      7.9804      2.5543      0.0958      5.8021     21.3447    124.5126
  1271.0000      7.9743      2.5415      0.0764      6.5768     21.4544    126.7535
  1271.1000      7.9743      2.5251      0.0796      7.5699     21.2892    127.9143
  1271.2000      7.9743      2.5047      0.0639      8.8083     20.9956    124.8961
  1271.3000      7.9528      2.4695      0.0860     10.9398     20.6555    118.5392
  1271.4000      7.9528      2.4113      0.0896     14.4651     19.9443    112.5014
  1271.5000      7.9284      2.3419      0.0168     18.6704     18.9927    109.3485
  1271.6000      7.9284      2.2934     -0.0186     21.6102     17.9647    106.4148
  1271.7000      7.9284      2.2794      0.0091     22.4619     16.9646    100.6649
  1271.8000      7.9144      2.2792      0.0289     22.4733     16.1159     93.1792
  1271.9000      7.9144      2.2728      0.0542     22.8586     15.2838     88.6718
  1272.0000      7.9009      2.2601      0.0582     23.6320     14.4532     88.2402
  1272.1000      7.9009      2.2368      0.1504     25.0422     13.5498     84.6017
