~Version Information
VERS.                      2.0: CWLS Log ASCII Standard - VERSION 2.0
WRAP.                       NO: One line per depth step
~Well Information Block
STRT.FT               550.0000: 
STOP.FT              1577.7000: 
STEP.FT                 0.1000: 
NULL.                -999.2500: 
COMP.          Pioneer Natural Resources: COMPANY
WELL.          Kristin 22-23 Tr: WELL
FLD.           Purgatoire River: FIELD
LOC.           2273' FNL & 2029' FWL: LOCATION
PROV.                 Colorado: PROVINCE
CNTY.               Las Animas: COUNTRY
SRVC.                Patterson: SERVICE COMPANY
DATE.          Fri Jan 21 06:58:50 2005: LOG DATE
UWI.           05 071 08259 00: UNIQUE WELL ID
~Curve Information Block
DEPT.FT            0 000 00 00: Depth
DCAL.in                       : CDL Caliper
RHOB.g/cc                     : CDL Bulk Density
RHOC.g/cc                     : CDL Density Correction
DPOR.pu                       : CDL Density Porosity
NPOR.pu                       : Neutron Porosity
GR.GAPI                       : Gamma Ray
~Parameter Information Block
~A  Depth       DCAL        RHOB        RHOC        DPOR        NPOR         GR     
# ...
  1481.2000      7.9947      2.5339      0.1185      7.0349     25.7881    143.2026
  1481.3000      7.9934      2.5348      0.0840      6.9803     25.4760    136.5034
  1481.4000      7.9934      2.5277      0.0376      7.4133     26.1039    131.9240
  1481.5000      7.9920      2.5317      0.0656      7.1722     27.0044    132.4077
  1481.6000      7.9920      2.5422      0.0875      6.5308     27.0801    134.4238
  1481.7000      7.9920      2.5410      0.0649      6.6061     26.7406    132.0178
  1481.8000      7.9930      2.5286      0.0295      7.3574     26.7340    128.3922
  1481.9000      7.9930      2.5168      0.0311      8.0719     26.7421    129.0650
  1482.0000      7.9938      2.5066      0.0336      8.6911     26.1658    132.9213
  1482.1000      7.9938      2.4953      0.0473      9.3778     25.3129    137.9237
  1482.2000      7.9938      2.4863      0.0405      9.9195     25.2049    140.0398
  1482.3000      7.9913      2.4902      0.0064      9.6859     25.8559    137.0076
  1482.4000      7.9913      2.5081      0.0762      8.5996     26.3169    135.3713
  1482.5000      7.9895      2.5198      0.0700      7.8893     26.2014    138.2144
  1482.6000      7.9895      2.5115      0.0349      8.3924     25.8439    140.8704
  1482.7000      7.9895      2.4935      0.0465      9.4826     25.9025    141.0969
  1482.8000      7.9895      2.4857      0.0188      9.9596     26.3487    140.6724
  1482.9000      7.9895      2.4948      0.0124      9.4088     26.6711    140.2994
  1483.0000      7.9887      2.5050      0.0638      8.7903     26.8424    138.7829
  1483.1000      7.9887      2.5009      0.0739      9.0334     26.9078    134.7073
  1483.2000      7.9887      2.4947      0.0447      9.4146     26.7769    129.8603
  1483.3000      7.9880      2.5037      0.0844      8.8692     26.7973    130.7706
  1483.4000      7.9880      2.5208      0.0644      7.8273     27.1544    138.4297
  1483.5000      7.9901      2.5294      0.0889      7.3092     27.4019    145.2290
  1483.6000      7.9901      2.5288      0.0871      7.3432     27.4335    146.9205
  1483.7000      7.9901      2.5349      0.0727      6.9785     27.1439    146.8291
  1483.8000      7.9987      2.5558      0.0874      5.7099     26.5378    147.4543
  1483.9000      7.9987      2.5777      0.1204      4.3790     26.2597    147.4787
  1484.0000      8.0159      2.5810      0.1003      4.1839     26.2235    146.4673
  1484.1000      8.0159      2.5637      0.0826      5.2312     26.0287    145.3060
  1484.2000      8.0159      2.5387      0.0609      6.7442     25.7020    142.0324
  1484.3000      8.0343      2.5163      0.0337      8.1053     25.3250    138.2574
  1484.4000      8.0343      2.4982      0.0485      9.2009     25.1212    139.4861
  1484.5000      8.0446      2.4802      0.0205     10.2903     25.5430    146.9024
  1484.6000      8.0446      2.4649      0.0151     11.2177     26.7189    155.7454
  1484.7000      8.0446      2.4619      0.0161     11.3988     27.8647    161.4546
  1484.8000      8.0480      2.4685     -0.0029     11.0008     28.4859    163.5747
  1484.9000      8.0480      2.4709      0.0331     10.8542     29.0906    161.3758
  1485.0000      8.0476      2.4643      0.0196     11.2532     29.7117    154.0823
  1485.1000      8.0476      2.4539      0.0304     11.8860     29.8989    146.4886
  1485.2000      8.0476      2.4366      0.0239     12.9336     30.0969    139.8545
  1485.3000      8.0459      2.3978      0.0191     15.2849     30.8612    135.1437
  1485.4000      8.0459      2.3322     -0.0240     19.2581     31.6719    136.2246
  1485.5000      8.0459      2.2482     -0.0276     24.3485     32.0461    138.8726
  1485.6000      8.0459      2.1449     -0.0262     30.6131     32.3522    138.3485
  1485.7000      8.0459      2.0153     -0.0685     38.4677     32.6817    134.3027
  1485.8000      8.0456      1.8704     -0.1404     47.2507     32.8390    126.7893
  1485.9000      8.0456      1.7299     -0.2081     55.7657     33.0047    117.0438
  1486.0000      8.0434      1.5884     -0.1817     64.3380     33.5230    106.8121
  1486.1000      8.0434      1.4357     -0.2230     73.5959     34.5268     97.3302
  1486.2000      8.0434      1.3063     -0.2777     81.4387     35.5437     88.3845
  1486.3000      8.0441      1.2393     -0.1754     85.4967     36.2713     79.6557
  1486.4000      8.0441      1.2180     -0.0794     86.7908     36.9847     70.5780
  1486.5000      8.0490      1.2078     -0.0571     87.4081     37.6063     60.5402
  1486.6000      8.0490      1.2031     -0.0209     87.6920     37.7673     52.0582
  1486.7000      8.0490      1.2090      0.0267     87.3360     37.3187     45.9351
  1486.8000      8.0464      1.2220      0.0475     86.5457     36.4871     39.8916
  1486.9000      8.0464      1.2384      0.0575     85.5531     35.7933     36.6472
  1487.0000      8.0201      1.2567      0.0798     84.4436     35.1948     37.0655
  1487.1000      8.0201      1.2746      0.0915     83.3570     34.4544     35.2987
  1487.2000      8.0201      1.2941      0.0859     82.1747     34.3621     31.6855
  1487.3000      7.9748      1.3153      0.1232     80.8885     35.2001     30.5647
  1487.4000      7.9748      1.3283      0.1291     80.1011     35.6736     31.6282
  1487.5000      7.9762      1.3279      0.1013     80.1251     34.9241     34.4784
  1487.6000      7.9762      1.3206      0.0940     80.5714     33.7893     38.2779
  1487.7000      7.9762      1.3128      0.0863     81.0402     33.4412     39.0276
  1487.8000      8.0870      1.3062      0.0717     81.4421     33.8041     36.7803
  1487.9000      8.0870      1.2978      0.0872     81.9529     34.0430     36.2541
  1488.0000      8.2830      1.2933      0.0251     82.2222     33.9176     38.0648
  1488.1000      8.2830      1.3111      0.0391     81.1451     33.7857     38.2442
  1488.2000      8.2830      1.3553      0.0803     78.4696     34.0536     35.4760
  1488.3000      8.4591      1.4135      0.0812     74.9380     34.5641     31.9364
  1488.4000      8.4591      1.4754      0.0931     71.1887     34.9039     30.5091
  1488.5000      8.5100      1.5284      0.1287     67.9737     34.8004     34.2722
  1488.6000      8.5100      1.5622      0.1274     65.9249     34.1374     42.8546
  1488.7000      8.5100      1.5799      0.1640     64.8523     33.3082     52.1230
  1488.8000      8.4610      1.5855      0.1715     64.5179     32.8954     60.2221
  1488.9000      8.4610      1.5751      0.1507     65.1443     33.2093     67.5013
  1489.0000      8.3767      1.5465      0.1095     66.8771     34.0412     72.6799
  1489.1000      8.3767      1.5021      0.0300     69.5675     35.1615     74.9849
  1489.2000      8.3767      1.4437      0.0104     73.1072     36.4959     74.0800
  1489.3000      8.2947      1.3809     -0.0805     76.9136     37.3697     69.1232
  1489.4000      8.2947      1.3396     -0.0851     79.4191     37.0079     62.2778
  1489.5000      8.3253      1.3327      0.0169     79.8391     35.5063     57.9320
  1489.6000      8.3253      1.3509      0.0670     78.7333     33.8225     56.5041
  1489.7000      8.3253      1.3916      0.0713     76.2689     32.9891     55.5258
  1489.8000      8.4314      1.4578      0.1080     72.2563     32.9088     52.4545
  1489.9000      8.4314      1.5436      0.1380     67.0533     32.7588     49.0154
  1490.0000      8.4248      1.6465      0.1486     60.8156     32.3347     50.9153
  1490.1000      8.4248      1.7678      0.1780     53.4686     31.9821     58.8724
  1490.2000      8.4248      1.8920      0.2474     45.9387     31.5746     67.2343
  1490.3000      8.2912      2.0061      0.2496     39.0240     30.7571     73.7912
  1490.4000      8.2912      2.1288      0.2534     31.5881     29.6453     83.1991
  1490.5000      8.1499      2.2675      0.3261     23.1832     28.5659     97.4430
  1490.6000      8.1499      2.3823      0.3463     16.2238     27.7788    110.0643
  1490.7000      8.1499      2.4436      0.2449     12.5104     26.9554    115.1973
