~Version Information
VERS.                      2.0: CWLS Log ASCII Standard - VERSION 2.0
WRAP.                       NO: One line per depth step
~Well Information Block
STRT.FT               245.0000: 
STOP.FT              2464.2000: 
STEP.FT                 0.1000: 
NULL.                -999.2500: 
COMP.          Pioneer Natural Resources: COMPANY
WELL.          Oink Oink 14-36: WELL
FLD.           Purgatoire River: FIELD
LOC.           216' FSL & 263' FWL--: LOCATION
PROV.                 Colorado: PROVINCE
CNTY.               Las Animas: COUNTRY
SRVC.                Patterson: SERVICE COMPANY
DATE.          Wed Jun 08 16:53:09 2005: LOG DATE
UWI.           05 071 08394 00: UNIQUE WELL ID
~Curve Information Block
DEPT.FT            0 000 00 00: Depth
DCAL.in                       : CDL Caliper
RHOB.g/cc                     : CDL Bulk Density
RHOC.g/cc                     : CDL Density Correction
DPOR.pu                       : CDL Density Porosity
NPOR.pu                       : Neutron Porosity
GR.GAPI                       : Gamma Ray
~Parameter Information Block
~A  Depth       DCAL        RHOB        RHOC        DPOR        NPOR         GR     
# ...
   830.6000      8.0781      2.5262      0.0688      7.5053     29.6267    126.9514
   830.7000      8.0781      2.5429      0.0696      6.4914     29.5627    121.2457
   830.8000      8.0784      2.5592      0.0793      5.5018     29.2036    116.9758
   830.9000      8.0784      2.5663      0.0610      5.0752     27.9977    112.6838
   831.0000      8.0778      2.5691      0.0694      4.9059     26.4534    110.1844
   831.1000      8.0778      2.5743      0.0439      4.5904     25.3804    111.1893
   831.2000      8.0778      2.5790      0.1025      4.3032     24.8282    113.6163
   831.3000      8.0766      2.5801      0.0811      4.2341     24.4048    113.9596
   831.4000      8.0766      2.5803      0.0746      4.2264     24.0354    111.8506
   831.5000      8.0756      2.5782      0.0704      4.3491     23.9720    109.0482
   831.6000      8.0756      2.5749      0.0442      4.5514     24.1104    105.8626
   831.7000      8.0756      2.5794      0.0626      4.2779     24.0546    102.0194
   831.8000      8.0746      2.5961      0.0467      3.2656     23.6804     97.1959
   831.9000      8.0746      2.6140      0.0821      2.1823     23.2560     91.8932
   832.0000      8.0740      2.6144      0.0833      2.1573     22.8456     89.5654
   832.1000      8.0740      2.5993      0.0365      3.0723     22.4763     90.3986
   832.2000      8.0740      2.5875      0.0529      3.7881     22.2862     88.3716
   832.3000      8.0752      2.5869      0.0266      3.8227     22.1687     81.4719
   832.4000      8.0752      2.5995      0.0401      3.0579     22.0722     74.7530
   832.5000      8.0755      2.6205      0.0828      1.7903     22.1385     72.0490
   832.6000      8.0755      2.6277      0.0953      1.3515     22.4658     74.6170
   832.7000      8.0755      2.6080      0.0699      2.5475     22.9040     79.2654
   832.8000      8.0728      2.5771      0.0127      4.4188     23.3102     80.1478
   832.9000      8.0728      2.5623     -0.0140      5.3145     23.7268     77.9598
   833.0000      8.0691      2.5717      0.0336      4.7453     24.0111     77.1974
   833.1000      8.0691      2.5928      0.0475      3.4667     24.0788     78.4298
   833.2000      8.0691      2.6154      0.0430      2.0941     24.2668     77.5349
   833.3000      8.0682      2.6318      0.1078      1.1057     24.6668     72.0083
   833.4000      8.0682      2.6352      0.0268      0.8974     25.0147     66.8779
   833.5000      8.0712      2.6215      0.0933      1.7292     25.2614     66.2702
   833.6000      8.0712      2.5861      0.0347      3.8719     25.7318     69.4850
   833.7000      8.0712      2.5473     -0.0271      6.2215     26.6196     76.4638
   833.8000      8.0748      2.5293     -0.0127      7.3167     27.5370     84.1031
   833.9000      8.0748      2.5303      0.0057      7.2551     28.1266     86.0383
   834.0000      8.0777      2.5427      0.0332      6.5058     28.4930     82.2127
   834.1000      8.0777      2.5720      0.0431      4.7244     28.8521     81.3351
   834.2000      8.0777      2.6158      0.0944      2.0749     29.3608     88.6966
   834.3000      8.0794      2.6519      0.0916     -0.1162     29.9615     97.7597
   834.4000      8.0794      2.6718      0.0585     -1.3219     30.4554    101.0400
   834.5000      8.0788      2.6834      0.1179     -2.0219     30.8184    102.6318
   834.6000      8.0788      2.6830      0.1191     -2.0015     31.3181    109.0335
   834.7000      8.0788      2.6619      0.1363     -0.7183     31.9925    115.2882
   834.8000      8.0783      2.6317      0.0663      1.1068     32.4794    113.9661
   834.9000      8.0783      2.6184      0.0416      1.9123     32.6938    109.7342
   835.0000      8.0795      2.6186      0.0722      1.9053     32.6057    111.3571
   835.1000      8.0795      2.6058      0.0286      2.6813     32.2715    119.6258
   835.2000      8.0795      2.5746     -0.0090      4.5693     32.0412    128.0696
   835.3000      8.0806      2.5401     -0.0239      6.6616     32.0384    128.7503
   835.4000      8.0806      2.5170      0.0199      8.0613     32.2384    124.2761
   835.5000      8.0818      2.5109      0.0397      8.4332     32.4586    122.2977
   835.6000      8.0818      2.5156      0.0479      8.1463     32.0821    124.7034
   835.7000      8.0818      2.5222      0.0469      7.7441     31.0958    132.3939
   835.8000      8.0848      2.5258      0.0739      7.5273     30.3528    141.9504
   835.9000      8.0848      2.5271      0.0519      7.4479     29.9899    144.4838
   836.0000      8.0917      2.5321      0.0676      7.1438     29.5237    140.3495
   836.1000      8.0917      2.5419      0.0477      6.5537     29.1568    136.5958
   836.2000      8.0917      2.5523      0.0140      5.9213     29.2052    135.0282
   836.3000      8.0996      2.5599      0.0697      5.4577     29.6514    136.6386
   836.4000      8.0996      2.5656      0.0493      5.1173     30.2289    139.7444
   836.5000      8.1038      2.5707      0.0799      4.8039     30.4994    137.8165
   836.6000      8.1038      2.5718      0.0888      4.7372     30.3678    131.6661
   836.7000      8.1038      2.5668      0.1082      5.0403     30.1221    129.4118
   836.8000      8.1050      2.5500      0.1171      6.0629     30.0251    131.7180
   836.9000      8.1050      2.5196      0.0403      7.9042     30.2472    132.8725
   837.0000      8.1048      2.4895      0.0476      9.7263     30.5107    131.0500
   837.1000      8.1048      2.4779      0.0067     10.4296     30.4169    128.5319
   837.2000      8.1048      2.4910      0.0592      9.6377     30.1237    127.5893
   837.3000      8.1048      2.5071      0.1088      8.6603     30.0799    130.7347
   837.4000      8.1048      2.5011      0.0795      9.0258     30.4055    138.2839
   837.5000      8.1049      2.4760      0.0206     10.5436     30.6467    143.9894
   837.6000      8.1049      2.4437      0.0552     12.5027     30.2582    142.4051
   837.7000      8.1049      2.4085      0.0196     14.6374     29.4352    136.7862
   837.8000      8.1030      2.3817      0.0428     16.2618     28.7320    135.0685
   837.9000      8.1030      2.3702      0.0307     16.9590     28.1951    136.5257
   838.0000      8.0958      2.3627      0.0523     17.4146     27.6118    134.0121
   838.1000      8.0958      2.3532      0.0058     17.9869     26.8674    128.0938
   838.2000      8.0958      2.3539      0.0229     17.9465     25.6511    122.5371
   838.3000      8.0846      2.3675      0.0892     17.1218     23.8195    117.2764
   838.4000      8.0846      2.3829      0.1094     16.1875     21.9001    112.2038
   838.5000      8.0766      2.4032      0.0847     14.9553     20.6375    108.3189
   838.6000      8.0766      2.4456      0.0971     12.3877     20.2184    106.6211
   838.7000      8.0766      2.5028      0.1811      8.9208     20.4171    107.2185
   838.8000      8.0697      2.5441      0.1558      6.4185     21.0304    107.7210
   838.9000      8.0697      2.5592      0.1013      5.5001     22.0484    107.5252
   839.0000      8.0605      2.5608      0.0657      5.4077     23.5159    109.0344
   839.1000      8.0605      2.5614      0.0759      5.3720     25.0906    111.8571
   839.2000      8.0605      2.5655      0.0824      5.1203     26.1338    113.6338
   839.3000      8.0547      2.5708      0.0970      4.7980     26.4247    112.6188
   839.4000      8.0547      2.5772      0.0868      4.4093     26.4827    109.5429
   839.5000      8.0597      2.5894      0.0741      3.6700     26.9456    106.0069
   839.6000      8.0597      2.6041      0.1178      2.7836     27.8244    102.2088
   839.7000      8.0597      2.6093      0.1282      2.4641     28.7629     97.3056
   839.8000      8.0758      2.6040      0.0789      2.7851     29.4126     92.0036
   839.9000      8.0758      2.5951      0.0514      3.3251     29.7903     88.6130
   840.0000      8.0945      2.5861      0.0330      3.8721     30.1370     89.4232
   840.1000      8.0945      2.5811      0.0285      4.1763     30.4333     94.8545
