~Version Information
VERS.                      2.0: CWLS Log ASCII Standard - VERSION 2.0
WRAP.                       NO: One line per depth step
~Well Information Block
STRT.FT               550.0000: 
STOP.FT              1577.7500: 
STEP.FT                 0.2500: 
NULL.                -999.2500: 
COMP.          Pioneer Natural Resources: COMPANY
WELL.          Kristin 22-23 Tr: WELL
FLD.           Purgatoire River: FIELD
LOC.           2273' FNL & 2029' FWL: LOCATION
PROV.                 Colorado: PROVINCE
CNTY.               Las Animas: COUNTRY
SRVC.                Patterson: SERVICE COMPANY
DATE.          Thu Jan 20 21:18:23 2005: LOG DATE
UWI.           05 071 08259 00: UNIQUE WELL ID
~Curve Information Block
DEPT.FT            0 000 00 00: Depth
SN.Ohm-m                      : IEL Short Normal
SP.mV                         : IEL Spontaneous Potential
DIR.Ohm-m                     : IEL Induction Resistivity
GR.GAPI                       : Gamma Ray
~Parameter Information Block
~A  Depth        SN          SP         DIR          GR     
# ...
   885.0000     19.9938   -210.5306     16.9057    135.8182
   885.2500     18.7441   -209.8647     16.1686    132.4608
   885.5000     17.6359   -209.3057     15.5253    125.9886
   885.7500     16.7389   -208.7949     14.9690    121.9624
   886.0000     16.0697   -208.2800     14.4986    119.0137
   886.2500     15.5771   -207.7249     14.1122    119.9554
   886.5000     15.1717   -207.1161     13.7997    125.0051
   886.7500     14.7686   -206.4633     13.5400    129.5444
   887.0000     14.3142   -205.7915     13.3048    135.9044
   887.2500     13.7932   -205.1285     13.0648    138.8754
   887.5000     13.2254   -204.4939     12.7978    140.4410
   887.7500     12.6598   -203.8947     12.4953    139.5488
   888.0000     12.1623   -203.3279     12.1654    136.6284
   888.2500     11.7956   -202.7880     11.8295    134.9639
   888.5000     11.5979   -202.2767     11.5148    134.8089
   888.7500     11.5718   -201.8076     11.2462    136.4491
   889.0000     11.6870   -201.4064     11.0406    140.3107
   889.2500     11.8945   -201.1045     10.9054    142.9718
   889.5000     12.1415   -200.9301     10.8403    146.3815
   889.7500     12.3823   -200.8985     10.8402    148.0106
   890.0000     12.5839   -201.0057     10.8987    148.5116
   890.2500     12.7329   -201.2287     11.0095    146.8838
   890.5000     12.8442   -201.5296     11.1651    141.3196
   890.7500     12.9609   -201.8657     11.3558    136.2267
   891.0000     13.1336   -202.1988     11.5731    128.4890
   891.2500     13.3919   -202.5017     11.8138    124.3581
   891.5000     13.7330   -202.7603     12.0819    120.8090
   891.7500     14.1337   -202.9709     12.3845    120.3175
   892.0000     14.5629   -203.1380     12.7238    121.8690
   892.2500     14.9787   -203.2714     13.0901    123.9409
   892.5000     15.3287   -203.3848     13.4603    127.8734
   892.7500     15.5678   -203.4945     13.8012    130.7750
   893.0000     15.6792   -203.6165     14.0794    135.2355
   893.2500     15.6790   -203.7628     14.2694    138.1237
   893.5000     15.6027   -203.9386     14.3601    142.0606
   893.7500     15.4880   -204.1403     14.3552    144.2119
   894.0000     15.3630   -204.3571     14.2716    146.4032
   894.2500     15.2469   -204.5746     14.1363    147.2612
   894.5000     15.1513   -204.7814     13.9794    148.3929
   894.7500     15.0782   -204.9743     13.8271    149.3994
   895.0000     15.0182   -205.1611     13.6957    150.9487
   895.2500     14.9545   -205.3585     13.5897    151.4442
   895.5000     14.8701   -205.5862     13.5045    150.8759
   895.7500     14.7534   -205.8599     13.4319    149.8792
   896.0000     14.6029   -206.1850     13.3652    148.4686
   896.2500     14.4337   -206.5548     13.3030    148.2153
   896.5000     14.2762   -206.9518     13.2508    149.7000
   896.7500     14.1614   -207.3518     13.2208    152.1409
   897.0000     14.0931   -207.7282     13.2288    157.7163
   897.2500     14.0392   -208.0567     13.2885    162.1927
   897.5000     13.9565   -208.3195     13.4041    168.5024
   897.7500     13.8316   -208.5098     13.5663    171.2847
   898.0000     13.6967   -208.6334     13.7542    171.9582
   898.2500     13.6111   -208.7057     13.9419    170.2405
   898.5000     13.6258   -208.7441     14.1061    165.9888
   898.7500     13.7594   -208.7578     14.2316    162.7952
   899.0000     13.9948   -208.7416     14.3109    157.4987
   899.2500     14.2917   -208.6769     14.3423    153.3258
   899.5000     14.6015   -208.5399     14.3271    146.3205
   899.7500     14.8766   -208.3131     14.2673    141.8087
   900.0000     15.0754   -207.9929     14.1652    136.2928
   900.2500     15.1700   -207.5914     14.0245    133.5250
   900.5000     15.1551   -207.1331     13.8525    130.3866
   900.7500     15.0506   -206.6485     13.6615    129.1009
   901.0000     14.8894   -206.1698     13.4674    129.4913
   901.2500     14.6990   -205.7276     13.2850    131.8405
   901.5000     14.4893   -205.3484     13.1240    137.9044
   901.7500     14.2587   -205.0524     12.9887    142.5412
   902.0000     14.0097   -204.8503     12.8800    148.7383
   902.2500     13.7572   -204.7411     12.7991    152.0337
   902.5000     13.5227   -204.7114     12.7475    155.8058
   902.7500     13.3235   -204.7370     12.7253    157.6304
   903.0000     13.1673   -204.7879     12.7287    159.5024
   903.2500     13.0539   -204.8346     12.7516    160.2791
   903.5000     12.9781   -204.8547     12.7869    160.6007
   903.7500     12.9329   -204.8382     12.8290    159.9885
   904.0000     12.9108   -204.7892     12.8748    157.7795
   904.2500     12.9018   -204.7217     12.9243    155.9861
   904.5000     12.8892   -204.6526     12.9806    154.1746
   904.7500     12.8545   -204.5931     13.0477    153.9770
   905.0000     12.7965   -204.5437     13.1241    154.9456
   905.2500     12.7484   -204.4951     13.2008    156.0087
   905.5000     12.7613   -204.4333     13.2634    157.5514
   905.7500     12.8604   -204.3475     13.2996    158.2825
   906.0000     13.0202   -204.2349     13.3030    158.6067
   906.2500     13.1912   -204.1022     13.2737    157.9491
   906.5000     13.3405   -203.9637     13.2162    154.6542
   906.7500     13.4633   -203.8369     13.1415    150.7348
   907.0000     13.5647   -203.7393     13.0678    143.9797
   907.2500     13.6477   -203.6858     13.0165    140.6901
   907.5000     13.7168   -203.6885     13.0038    139.4434
   907.7500     13.7852   -203.7561     13.0324    140.6347
   908.0000     13.8708   -203.8941     13.0932    143.3598
   908.2500     13.9862   -204.1036     13.1758    144.9413
   908.5000     14.1333   -204.3800     13.2826    146.7522
   908.7500     14.3029   -204.7125     13.4318    147.7843
   909.0000     14.4796   -205.0847     13.6446    149.0854
   909.2500     14.6520   -205.4762     13.9255    149.4782
   909.5000     14.8205   -205.8655     14.2511    148.6673
   909.7500     14.9960   -206.2337     14.5728    146.9817
   910.0000     15.1872   -206.5665     14.8345    142.9513
   910.2500     15.3895   -206.8555     14.9958    139.7974
   910.5000     15.5831   -207.0974     15.0520    135.8979
   910.7500     15.7424   -207.2912     15.0331    134.6719
   911.0000     15.8478   -207.4359     14.9835    135.1794
   911.2500     15.8945   -207.5289     14.9359    136.5723
   911.5000     15.8920   -207.5659     14.9002    139.1820
   911.7500     15.8564   -207.5439     14.8717    140.9913
   912.0000     15.8024   -207.4648     14.8464    143.8731
   912.2500     15.7383   -207.3378     14.8313    146.0135
   912.5000     15.6684   -207.1805     14.8431    149.5549
   912.7500     15.5973   -207.0157     14.8991    151.9499
   913.0000     15.5345   -206.8670     15.0046    154.9359
   913.2500     15.4933   -206.7529     15.1444    156.1474
   913.5000     15.4854   -206.6822     15.2833    156.7104
   913.7500     15.5136   -206.6535     15.3838    156.5926
   914.0000     15.5714   -206.6588     15.4329    156.4932
   914.2500     15.6493   -206.6893     15.4548    156.7201
   914.5000     15.7415   -206.7412     15.4947    157.0464
   914.7500     15.8490   -206.8187     15.5884    156.6542
   915.0000     15.9778   -206.9312     15.7430    154.5509
   915.2500     16.1350   -207.0872     15.9406    152.4045
   915.5000     16.3226   -207.2875     16.1545    149.0684
   915.7500     16.5313   -207.5210     16.3636    147.0591
   916.0000     16.7391   -207.7659     16.5551    143.9816
   916.2500     16.9205   -207.9961     16.7175    141.5858
   916.5000     17.0601   -208.1899     16.8341    137.7182
   916.7500     17.1570   -208.3364     16.8854    135.4087
   917.0000     17.2168   -208.4344     16.8566    132.6741
   917.2500     17.2390   -208.4845     16.7432    131.0748
   917.5000     17.2143   -208.4777     16.5506    128.4814
   917.7500     17.1305   -208.3890     16.2883    126.6793
   918.0000     16.9729   -208.1821     15.9655    124.3875
   918.2500     16.7170   -207.8264     15.5878    123.2407
