~Version Information
VERS.                      2.0: CWLS Log ASCII Standard - VERSION 2.0
WRAP.                       NO: One line per depth step
~Well Information Block
STRT.FT                -7.0000: 
STOP.FT              2389.2500: 
STEP.FT                 0.2500: 
NULL.                -999.2500: 
COMP.          Pioneer Natural Resources: COMPANY
WELL.            Victory 12-14: WELL
FLD.           Purgatorie River: FIELD
LOC.           2434' FNL & 188' FWL------: LOCATION
PROV.                       CO: PROVINCE
CNTY.               Las Animas: COUNTRY
SRVC.          Patterson Wireline: SERVICE COMPANY
DATE.          Fri Apr 22 14:29:17 2005: LOG DATE
UWI.           05 071 08332 00: UNIQUE WELL ID
~Curve Information Block
DEPT.FT            0 000 00 00: Depth
CCL.                          : Casing Collar Locator
TT3.usec                      : CBL 3' Travel Time
AMP3.mV                       : CBL 3' Amplitude
GR.GAPI                       : Gamma Ray
~Parameter Information Block
~A  Depth       CCL         TT3         AMP3         GR     
# ...
  2070.0000      0.0000    623.1194      6.3353     60.2751
  2070.2500      0.0000    601.6882      6.3224     59.2536
  2070.5000      0.0000    586.9582      6.3248     58.7781
  2070.7500      0.0000    587.6968      6.3367     58.4168
  2071.0000      0.0000    604.9849      6.3577     57.9833
  2071.2500      0.0000    632.1989      6.3900     57.8903
  2071.5000      0.0000    659.4943      6.4221     58.8257
  2071.7500      0.0000    679.5662      6.4245     61.1478
  2072.0000      0.0000    690.6824      6.3682     64.4201
  2072.2500      0.0000    695.8779      6.2443     67.2933
  2072.5000      0.0000    700.2278      6.0667     68.0794
  2072.7500      0.0000    707.8217      5.8707     65.9739
  2073.0000      0.0000    719.2149      5.7075     61.7713
  2073.2500      0.0000    731.0151      5.6016     57.0887
  2073.5000      0.0000    738.4315      5.4943     53.0070
  2073.7500      0.0000    738.1441      5.2809     49.7473
  2074.0000      0.0000    728.0317      4.9571     47.4245
  2074.2500      0.0000    704.7498      4.6868     46.6304
  2074.5000      0.0000    663.8423      4.6693     48.1220
  2074.7500      0.0000    605.2075      4.9498     51.9799
  2075.0000     -2.0000    539.1152      5.3842     57.1882
  2075.2500     -2.0000    484.1295      5.7661     62.2332
  2075.5000     -2.0000    455.9081      5.9699     66.1545
  2075.7500      0.0000    456.2552      6.0113     68.8617
  2076.0000      0.0000    471.6761      6.0233     70.5861
  2076.2500      0.0000    483.6273      6.1581     71.4316
  2076.5000      0.0000    484.4499      6.4603     71.4265
  2076.7500      0.0000    485.0369      6.8242     70.5336
  2077.0000      0.0000    504.6890      7.1059     68.5098
  2077.2500      0.0000    551.9994      7.2610     65.1896
  2077.5000      0.0000    615.7859      7.3442     61.0986
  2077.7500      0.0000    673.5981      7.4094     57.4325
  2078.0000      0.0000    707.4401      7.4660     55.1346
  2078.2500      0.0000    712.8768      7.5125     54.0903
  2078.5000      0.0000    698.3781      7.5618     53.4401
  2078.7500      0.0000    679.3840      7.6255     52.6102
  2079.0000      0.0000    669.4055      7.6900     51.8084
  2079.2500      0.0000    670.8691      7.7119     51.6709
  2079.5000      0.0000    673.3406      7.6402     52.8163
  2079.7500      0.0000    663.5567      7.4642     55.5243
  2080.0000      0.0000    638.2939      7.2468     59.2881
  2080.2500      0.0000    606.4134      7.0894     62.6377
  2080.5000      0.0000    579.5139      7.0489     63.8881
  2080.7500      0.0000    563.0906      7.0917     62.5064
  2081.0000      0.0000    555.9963      7.1339     59.7483
  2081.2500      0.0000    554.7205      7.1155     57.5893
  2081.5000      0.0000    556.3226      7.0312     56.7902
  2081.7500      0.0000    558.6828      6.9076     56.2643
  2082.0000      0.0000    560.4426      6.7723     54.5568
  2082.2500      0.0000    561.8931      6.6419     51.6299
  2082.5000      0.0000    565.5777      6.5259     48.8973
  2082.7500      0.0000    574.5700      6.4303     47.7927
  2083.0000      0.0000    588.5869      6.3552     48.7418
  2083.2500      0.0000    601.5866      6.2949     51.4087
  2083.5000      0.0000    605.1068      6.2457     55.4575
  2083.7500      0.0000    595.5718      6.2190     61.0085
  2084.0000      0.0000    577.2202      6.2431     68.8248
  2084.2500      0.0000    556.5933      6.3423     79.9197
  2084.5000      0.0000    535.5266      6.5087     94.0891
  2084.7500      0.0000    510.9604      6.6976    108.6612
  2085.0000      0.0000    480.7124      6.8539    119.8734
  2085.2500      0.0000    447.8326      6.9417    126.2356
  2085.5000      0.0000    418.8840      6.9575    129.7423
  2085.7500      0.0000    398.7238      6.9267    133.1492
  2086.0000      0.0000    387.6365      6.8837    136.7009
  2086.2500      0.0000    382.7899      6.8466    138.0102
  2086.5000      0.0000    381.2052      6.8130    134.6285
  2086.7500      0.0000    381.5199      6.7801    126.1396
  2087.0000      0.0000    384.6795      6.7606    113.9547
  2087.2500      0.0000    394.5230      6.7731     99.9102
  2087.5000      0.0000    417.4602      6.8232     85.6189
  2087.7500      0.0000    458.6097      6.8956     72.7318
  2088.0000      0.0000    514.6516      6.9567     62.8539
  2088.2500      0.0000    570.6317      6.9569     56.7055
  2088.5000      0.0000    608.1436      6.8496     53.6235
  2088.7500      0.0000    619.3012      6.6300     52.1791
  2089.0000      0.0000    611.6525      6.3601     51.4168
  2089.2500      0.0000    600.0055      6.1336     51.6876
  2089.5000      0.0000    596.1715      6.0038     54.5241
  2089.7500      0.0000    605.3051      5.9485     61.6433
  2090.0000      0.0000    626.5052      5.9025     73.4283
  2090.2500      0.0000    653.9496      5.8144     87.6956
  2090.5000      0.0000    679.6358      5.6766    100.0513
  2090.7500      0.0000    697.7211      5.5268    106.1234
  2091.0000      0.0000    706.6664      5.4195    104.0266
  2091.2500      0.0000    707.3869      5.3818     95.1605
  2091.5000      0.0000    700.4865      5.3909     83.0851
  2091.7500      0.0000    685.9167      5.4016     71.5695
  2092.0000      0.0000    664.7142      5.3886     63.0284
  2092.2500      0.0000    639.8909      5.3594     57.9798
  2092.5000      0.0000    615.2166      5.3389     55.6178
  2092.7500      0.0000    593.6566      5.3494     54.9351
  2093.0000      0.0000    576.9477      5.3976     55.3526
  2093.2500      0.0000    565.6210      5.4656     56.4912
  2093.5000      0.0000    558.9454      5.5148     57.8359
  2093.7500      0.0000    555.3957      5.5071     58.9003
  2094.0000      0.0000    553.5501      5.4379     59.5230
  2094.2500      0.0000    552.6093      5.3449     59.7805
  2094.5000      0.0000    552.4524      5.2728     59.5731
  2094.7500      0.0000    553.7088      5.2358     58.4480
  2095.0000      0.0000    558.1565      5.2255     56.1504
  2095.2500      0.0000    568.8788      5.2492     53.4418
  2095.5000      0.0000    589.2432      5.3325     52.0197
  2095.7500      0.0000    620.4709      5.4771     53.2760
  2096.0000      0.0000    659.5621      5.6330     57.1187
  2096.2500      0.0000    699.6453      5.7322     61.8498
  2096.5000      0.0000    732.8417      5.7444     64.9102
  2096.7500      0.0000    753.8859      5.6930     64.1154
  2097.0000      0.0000    762.4807      5.6256     59.0359
  2097.2500      0.0000    762.6599      5.5801     51.5146
  2097.5000      0.0000    759.4643      5.5750     44.6002
  2097.7500      0.0000    755.9584      5.6148     40.7104
  2098.0000      0.0000    752.9937      5.6887     40.4761
  2098.2500      0.0000    750.5740      5.7624     42.8840
  2098.5000      0.0000    748.3757      5.7890     46.3551
  2098.7500      0.0000    744.9762      5.7439     49.8031
  2099.0000      0.0000    737.6887      5.6480     52.7521
  2099.2500      0.0000    724.4196      5.5511     54.6326
  2099.5000      0.0000    706.3519      5.4920     54.4545
  2099.7500      0.0000    688.1302      5.4781     51.4684
  2100.0000      0.0000    674.3885      5.4915     46.0186
  2100.2500      0.0000    666.3320      5.5096     39.5571
  2100.5000      0.0000    662.3245      5.5160     33.8792
  2100.7500      0.0000    660.7866      5.4981     30.2537
  2101.0000      0.0000    661.4763      5.4477     28.9063
  2101.2500      0.0000    664.9805      5.3755     29.1133
  2101.5000      0.0000    672.4059      5.3243     29.8308
  2101.7500      0.0000    685.0036      5.3443     30.2642
  2102.0000      0.0000    702.5327      5.4492     30.0233
  2102.2500      0.0000    721.7374      5.5979     29.0915
  2102.5000      0.0000    737.3088      5.7265     27.7611
  2102.7500      0.0000    744.8662      5.8052     26.4153
  2103.0000      0.0000    743.2304      5.8688     25.3203
  2103.2500      0.0000    734.4276      5.9837     24.6231
