~Version Information
VERS.                      2.0: CWLS Log ASCII Standard - VERSION 2.0
WRAP.                       NO: One line per depth step
~Well Information Block
STRT.FT                 3.0000: 
STOP.FT              1884.7500: 
STEP.FT                 0.2500: 
NULL.                -999.2500: 
COMP.          Pioneer Natural Resources: COMPANY
WELL.          Blackjack 32-11 Tr: WELL
FLD.           Purgatoire River: FIELD
LOC.           2066' FNL & 1453' FEL: LOCATION
PROV.                 Colorado: PROVINCE
CNTY.               Las Animas: COUNTRY
SRVC.                Patterson: SERVICE COMPANY
DATE.          Fri Aug 19 11:07:11 2005: LOG DATE
UWI.           05 071 08310 00: UNIQUE WELL ID
~Curve Information Block
DEPT.FT            0 000 00 00: Depth
CCL.                          : Casing Collar Locator
TT3.usec                      : CBL 3' Travel Time
AMP3.mV                       : CBL 3' Amplitude
GR.GAPI                       : Gamma Ray
~Parameter Information Block
~A  Depth       CCL         TT3         AMP3         GR     
# ...
   137.0000      0.0000    756.2588     14.7224     41.8462
   137.2500      0.0000    762.7527     14.6866     43.8524
   137.5000      0.0000    780.3958     14.6340     45.6376
   137.7500      0.0000    813.0003     14.3617     46.9440
   138.0000      0.0000    856.3172     13.7626     47.9083
   138.2500      0.0000    899.9295     12.9862     48.8072
   138.5000      0.0000    935.0004     12.3028     49.5722
   138.7500     -3.0000    959.2951     11.8583     49.8973
   139.0000     -3.0000    974.5184     11.6047     49.7495
   139.2500      3.0000    981.3161     11.4117     49.3834
   139.5000      0.0000    976.6235     11.1997     48.9352
   139.7500      0.0000    953.7481     11.0133     48.4495
   140.0000      0.0000    908.3188     11.0236     48.2367
   140.2500      0.0000    848.1405     11.4385     48.7261
   140.5000      0.0000    793.1072     12.3430     49.8317
   140.7500      0.0000    760.1053     13.5959     50.7093
   141.0000      0.0000    749.9028     14.8841     50.4466
   141.2500      0.0000    751.0098     15.8948     49.0890
   141.5000      0.0000    752.4814     16.4755     47.7893
   141.7500      0.0000    750.3400     16.6701     47.7982
   142.0000      0.0000    745.4499     16.6299     49.3202
   142.2500      0.0000    739.7464     16.4984     51.3467
   142.5000      0.0000    734.6781     16.3577     52.6175
   142.7500      0.0000    731.0195     16.2375     52.7842
   143.0000      0.0000    728.8595     16.1424     52.3963
   143.2500      0.0000    727.8040     16.0702     51.7190
   143.5000      0.0000    727.3378     16.0202     50.2429
   143.7500      0.0000    727.1144     15.9906     47.6927
   144.0000      0.0000    726.9968     15.9734     44.8032
   144.2500      0.0000    726.9586     15.9564     42.5537
   144.5000      0.0000    726.9833     15.9354     41.1153
   144.7500      0.0000    727.0225     15.9198     40.0283
   145.0000      0.0000    727.0232     15.9248     39.0838
   145.2500      0.0000    726.9633     15.9580     38.5784
   145.5000      0.0000    726.8598     16.0166     38.7673
   145.7500      0.0000    726.7427     16.0946     39.3148
   146.0000      0.0000    726.6218     16.1884     39.4097
   146.2500      0.0000    726.4841     16.2984     38.4554
   146.5000      0.0000    726.3209     16.4242     36.6952
   146.7500      0.0000    726.1512     16.5604     35.1314
   147.0000      0.0000    726.0109     16.6950     34.6891
   147.2500      0.0000    725.9238     16.8153     35.4790
   147.5000      0.0000    725.8847     16.9156     36.9366
   147.7500      0.0000    725.8668     16.9977     38.4301
   148.0000      0.0000    725.8422     17.0625     39.5399
   148.2500      0.0000    725.7990     17.1025     40.0126
   148.5000      0.0000    725.7430     17.1050     39.8262
   148.7500      0.0000    725.6893     17.0632     39.4273
   149.0000      0.0000    725.6516     16.9885     39.6850
   149.2500      0.0000    725.6367     16.9122     41.2648
   149.5000      0.0000    725.6406     16.8702     43.9241
   149.7500      0.0000    725.6516     16.8743     46.6990
   150.0000      0.0000    725.6580     16.8947     48.8943
   150.2500      0.0000    725.6559     16.8797     50.6435
   150.5000      0.0000    725.6500     16.8001     52.4427
   150.7500      0.0000    725.6509     16.6721     54.3658
   151.0000      0.0000    725.6680     16.5340     55.8351
   151.2500      0.0000    725.7012     16.4103     56.1018
   151.5000      0.0000    725.7396     16.2997     54.9596
   151.7500      0.0000    725.7682     16.1860     52.9962
   152.0000      0.0000    725.7734     16.0523     51.1442
   152.2500      0.0000    725.7441     15.8906     50.0659
   152.5000      0.0000    725.6783     15.7060     49.9520
   152.7500      0.0000    725.5909     15.5150     50.5923
   153.0000      0.0000    725.5081     15.3464     51.3372
   153.2500      0.0000    725.4462     15.2462     51.2147
   153.5000      0.0000    725.4000     15.2613     49.6115
   153.7500      0.0000    725.3599     15.3864     47.0640
   154.0000      0.0000    725.3365     15.5195     45.1634
   154.2500      0.0000    725.3546     15.5085     45.3694
   154.5000      0.0000    725.4218     15.2777     47.7914
   154.7500      0.0000    725.5154     14.8987     51.1613
   155.0000      0.0000    725.6034     14.5191     53.9599
   155.2500      0.0000    725.6722     14.2390     55.3827
   155.5000      0.0000    725.7292     14.0642     55.3468
   155.7500      0.0000    725.7869     13.9493     54.1335
   156.0000      0.0000    725.8530     13.8569     52.3407
   156.2500      0.0000    725.9326     13.7804     50.8442
   156.5000      0.0000    726.0307     13.7256     50.4506
   156.7500      0.0000    726.1509     13.6901     51.5339
   157.0000      0.0000    726.2889     13.6631     53.8032
   157.2500      0.0000    726.4262     13.6380     56.2010
   157.5000      0.0000    726.5267     13.6183     57.3274
   157.7500      0.0000    726.5488     13.6133     56.4651
   158.0000      0.0000    726.4739     13.6295     54.1650
   158.2500      0.0000    726.3335     13.6611     51.6060
   158.5000      0.0000    726.2062     13.6850     49.5043
   158.7500      0.0000    726.1837     13.6707     47.7899
   159.0000      0.0000    726.3232     13.6024     46.0723
   159.2500      0.0000    726.6161     13.4939     44.1516
   159.5000      0.0000    726.9984     13.3844     42.2392
   159.7500      0.0000    727.3892     13.3167     40.9223
   160.0000      0.0000    727.7209     13.3131     40.8347
   160.2500      0.0000    727.9380     13.3677     42.1611
   160.5000      0.0000    727.9966     13.4575     44.3887
   160.7500      0.0000    727.8843     13.5610     46.6288
   161.0000      0.0000    727.6732     13.6700     48.2843
   161.2500      0.0000    727.5958     13.7873     49.4319
   161.5000      0.0000    728.0882     13.9170     50.5760
   161.7500      0.0000    729.6480     14.0627     52.0645
   162.0000      0.0000    732.4038     14.2339     53.6488
   162.2500      0.0000    735.7408     14.4422     54.6035
   162.5000      0.0000    738.5759     14.6835     54.4401
   162.7500      0.0000    740.1259     14.9311     53.4601
   163.0000      0.0000    740.2043     15.1560     52.2565
   163.2500      0.0000    738.8823     15.3474     50.7094
   163.5000      0.0000    736.4135     15.5115     48.0501
   163.7500      0.0000    733.4874     15.6572     44.2128
   164.0000      0.0000    730.9937     15.7858     40.6459
   164.2500      0.0000    729.4060     15.8931     39.2584
   164.5000      0.0000    728.6142     15.9757     40.7051
   164.7500      0.0000    728.2674     16.0349     44.0611
   165.0000      0.0000    728.0934     16.0728     48.0274
   165.2500      0.0000    727.9598     16.0856     51.9091
   165.5000      0.0000    727.8224     16.0629     55.2878
   165.7500      0.0000    727.6786     15.9990     57.3920
   166.0000      0.0000    727.5392     15.9039     57.4778
   166.2500      0.0000    727.4138     15.8036     55.7415
   166.5000      0.0000    727.3036     15.7273     53.3024
   166.7500      0.0000    727.2152     15.6925     51.0577
   167.0000      0.0000    727.1608     15.7005     48.7929
   167.2500      0.0000    727.1406     15.7430     45.7247
   167.5000      0.0000    727.1438     15.8105     41.8467
   167.7500      0.0000    727.1755     15.8954     38.3510
   168.0000      0.0000    727.2530     15.9902     36.5351
   168.2500      0.0000    727.3613     16.0845     36.5507
   168.5000      0.0000    727.4405     16.1604     37.4156
   168.7500      0.0000    727.4324     16.1931     38.0911
   169.0000      0.0000    727.3170     16.1619     38.4343
   169.2500      0.0000    727.0988     16.0647     39.1140
   169.5000      0.0000    726.7930     15.9194     40.7333
   169.7500      0.0000    726.4404     15.7536     43.3183
   170.0000      0.0000    726.1079     15.5946     46.7057
   170.2500      0.0000    725.8552     15.4657     50.8599
