~Version Information
VERS.                      2.0: CWLS Log ASCII Standard - VERSION 2.0
WRAP.                       NO: One line per depth step
~Well Information Block
STRT.FT                -9.2500: 
STOP.FT              2685.7500: 
STEP.FT                 0.2500: 
NULL.                -999.2500: 
COMP.          Pioneer Natural Resources: COMPANY
WELL.          Beacon 11-18 Tr: WELL
FLD.           Purgatorie River: FIELD
LOC.           409' FNL & 203' FWL--: LOCATION
PROV.                       CO: PROVINCE
CNTY.               Las Animas: COUNTRY
SRVC.                         : SERVICE COMPANY
DATE.          Fri Jan 21 09:45:44 2005: LOG DATE
UWI.        005 071 08251  : UNIQUE WELL ID
~Curve Information Block
DEPT.FT            0 000 00 00: Depth
CCL.                          : Casing Collar Locator
TT3.usec                      : CBL 3' Travel Time
AMP3.mV                       : CBL 3' Amplitude
GR.GAPI                       : Gamma Ray
~Parameter Information Block
~A  Depth       CCL         TT3         AMP3         GR     
# ...
  1565.2500      0.0000    704.8420      1.5997     81.9329
  1565.5000      0.0000    692.8425      1.5814     86.4176
  1565.7500      0.0000    678.5590      1.6126     87.8223
  1566.0000      0.0000    664.5658      1.7213     85.7895
  1566.2500      0.0000    654.2043      1.9156     81.8404
  1566.5000      0.0000    650.8685      2.1670     78.1100
  1566.7500      0.0000    657.1243      2.4236     76.8248
  1567.0000      0.0000    672.6503      2.6370     80.1719
  1567.2500      0.0000    692.3392      2.7770     89.5806
  1567.5000      0.0000    707.8632      2.8321    104.5409
  1567.7500      0.0000    713.0032      2.8095    122.1114
  1568.0000      0.0000    708.0076      2.7375    137.7916
  1568.2500      0.0000    698.4738      2.6602    147.4479
  1568.5000      0.0000    690.4077      2.6191    149.1695
  1568.7500      0.0000    687.2263      2.6330    143.7507
  1569.0000      0.0000    690.7098      2.6900    133.8295
  1569.2500      0.0000    702.0656      2.7591    123.0284
  1569.5000      0.0000    720.0850      2.8120    115.3953
  1569.7500      2.0000    739.3131      2.8413    114.0209
  1570.0000      2.0000    752.6003      2.8616    119.2647
  1570.2500      0.0000    756.6536      2.9023    128.5549
  1570.5000      0.0000    754.5731      2.9992    138.1048
  1570.7500      0.0000    752.5793      3.1765    144.8695
  1571.0000      0.0000    754.5444      3.4160    147.5633
  1571.2500      0.0000    759.5410      3.6605    146.9138
  1571.5000      0.0000    763.7290      3.8747    145.2166
  1571.7500      0.0000    763.9327      4.0960    144.9908
  1572.0000      0.0000    759.8194      4.3967    147.2956
  1572.2500      0.0000    753.6534      4.7966    151.0250
  1572.5000      0.0000    748.3297      5.2307    153.7389
  1572.7500      0.0000    745.0433      5.5953    152.9989
  1573.0000      0.0000    742.5884      5.8158    147.1719
  1573.2500      0.0000    739.3947      5.8799    136.2891
  1573.5000      0.0000    735.8918      5.8300    123.0885
  1573.7500      0.0000    733.8345      5.7364    112.1060
  1574.0000      0.0000    733.8777      5.6681    106.4540
  1574.2500      0.0000    735.1813      5.6668    105.7563
  1574.5000      0.0000    736.9238      5.7364    107.6231
  1574.7500      0.0000    738.8689      5.8546    110.3968
  1575.0000      0.0000    740.4529      5.9909    113.8567
  1575.2500      0.0000    740.1038      6.1170    117.7210
  1575.5000      0.0000    735.8132      6.2098    120.2166
  1575.7500      0.0000    726.6172      6.2522    118.6550
  1576.0000      0.0000    713.8323      6.2383    111.9147
  1576.2500      0.0000    701.2803      6.1752    102.5119
  1576.5000      0.0000    693.9974      6.0783     95.7828
  1576.7500      0.0000    695.1389      5.9627     96.4426
  1577.0000      0.0000    703.2579      5.8414    105.5096
  1577.2500      0.0000    713.4124      5.7268    120.0411
  1577.5000      0.0000    721.2394      5.6276    135.3252
  1577.7500      0.0000    725.2945      5.5447    147.4055
  1578.0000      0.0000    726.1423      5.4720    154.5282
  1578.2500      0.0000    724.7841      5.3991    157.2897
  1578.5000      0.0000    721.9839      5.3125    157.6547
  1578.7500      0.0000    717.9753      5.2019    157.3253
  1579.0000      0.0000    712.6688      5.0715    156.6457
  1579.2500      0.0000    706.5424      4.9463    155.1051
  1579.5000      0.0000    700.9276      4.8661    152.7381
  1579.7500      0.0000    697.0700      4.8657    150.4873
  1580.0000      0.0000    695.2292      4.9550    148.9546
  1580.2500      0.0000    694.9606      5.1159    147.5616
  1580.5000      0.0000    695.9650      5.3098    145.6020
  1580.7500      0.0000    698.4183      5.4819    143.5699
  1581.0000      0.0000    702.4174      5.5799    142.7012
  1581.2500      0.0000    707.1119      5.5929    143.5442
  1581.5000      0.0000    710.6809      5.5662    145.2611
  1581.7500      0.0000    711.8379      5.5585    146.1079
  1582.0000      0.0000    711.6029      5.5888    144.7348
  1582.2500      0.0000    713.0519      5.6339    141.4245
  1582.5000      0.0000    718.7846      5.6702    138.1487
  1582.7500      0.0000    728.3653      5.7032    137.1878
  1583.0000      0.0000    737.9380      5.7564    139.2942
  1583.2500      0.0000    742.4409      5.8387    142.9817
  1583.5000      0.0000    739.2164      5.9220    145.7538
  1583.7500      0.0000    730.3934      5.9569    146.0166
  1584.0000      0.0000    721.5298      5.9154    143.7751
  1584.2500      0.0000    717.2263      5.8216    140.1368
  1584.5000      0.0000    717.6766      5.7347    136.6295
  1584.7500      0.0000    719.1883      5.6975    134.4335
  1585.0000      0.0000    717.8967      5.7009    133.4932
  1585.2500      0.0000    713.1118      5.7002    132.4914
  1585.5000      0.0000    707.3788      5.6618    130.1360
  1585.7500      0.0000    703.8660      5.5873    126.6142
  1586.0000      0.0000    704.0739      5.4981    123.6057
  1586.2500      0.0000    707.7007      5.4133    122.9277
  1586.5000      0.0000    713.9629      5.3491    125.3092
  1586.7500      0.0000    722.3417      5.3168    130.1429
  1587.0000      0.0000    731.5688      5.3103    135.8993
  1587.2500      0.0000    738.4935      5.3090    140.8014
  1587.5000      0.0000    739.6979      5.3029    143.5082
  1587.7500      0.0000    734.9061      5.2985    143.5063
  1588.0000      0.0000    727.5886      5.2945    141.1620
  1588.2500      0.0000    721.4348      5.2699    137.5723
  1588.5000      0.0000    717.0615      5.2049    134.1324
  1588.7500      0.0000    712.7972      5.1042    131.8570
  1589.0000      0.0000    707.7877      4.9980    131.2433
  1589.2500      0.0000    703.2581      4.9258    132.7460
  1589.5000      0.0000    700.9923      4.9164    136.4929
  1589.7500      0.0000    701.3782      4.9751    141.1042
  1590.0000      0.0000    702.9670      5.0819    143.8997
  1590.2500      0.0000    703.6287      5.2042    143.2451
  1590.5000      0.0000    702.2280      5.3201    140.0871
  1590.7500      0.0000    699.3544      5.4277    136.4101
  1591.0000      0.0000    696.4865      5.5303    132.9531
  1591.2500      0.0000    694.6570      5.6155    129.2869
  1591.5000      0.0000    693.9938      5.6572    125.4114
  1591.7500      0.0000    694.2191      5.6330    122.3794
  1592.0000      0.0000    695.3157      5.5438    121.4129
  1592.2500      0.0000    697.7198      5.4243    122.6108
  1592.5000      0.0000    701.7509      5.3319    124.3502
  1592.7500      0.0000    706.6124      5.3108    124.0991
  1593.0000      0.0000    710.1535      5.3637    120.2835
  1593.2500      0.0000    710.3261      5.4589    113.4198
  1593.5000      0.0000    707.1595      5.5621    105.3006
  1593.7500      0.0000    702.9706      5.6577     97.3364
  1594.0000      0.0000    700.4765      5.7454     89.9051
  1594.2500      0.0000    700.8543      5.8279     83.0346
  1594.5000      0.0000    703.4557      5.9053     77.4915
  1594.7500      0.0000    707.0070      5.9734     75.1593
  1595.0000      0.0000    710.8448      6.0201     78.0923
  1595.2500      0.0000    714.9225      6.0318     86.6989
  1595.5000      0.0000    719.0284      6.0072     98.8284
  1595.7500      0.0000    722.6705      5.9647    110.9159
  1596.0000      0.0000    725.6247      5.9316    119.7985
  1596.2500      0.0000    727.9425      5.9218    123.5822
  1596.5000      0.0000    729.3929      5.9192    121.9972
  1596.7500      0.0000    729.2139      5.8899    116.9211
  1597.0000      0.0000    726.4223      5.8110    111.9509
  1597.2500      0.0000    720.6487      5.6883    110.2095
  1597.5000      0.0000    713.0198      5.5521    112.0473
  1597.7500      0.0000    705.9131      5.4416    115.1019
  1598.0000      0.0000    701.4781      5.3814    116.9413
  1598.2500      0.0000    700.4474      5.3592    117.8448
  1598.5000      0.0000    702.1393      5.3320    120.6372
