~Version Information
VERS.                      2.0: CWLS Log ASCII Standard - VERSION 2.0
WRAP.                       NO: One line per depth step
~Well Information Block
STRT.FT               240.0000: 
STOP.FT              1709.2000: 
STEP.FT                 0.1000: 
NULL.                -999.2500: 
COMP.          Pioneer Natural Resources: COMPANY
WELL.              Patten 22-2: WELL
FLD.           Purgatoire River: FIELD
LOC.           2157' FNL & 1528' FWL: LOCATION
PROV.                 Colorado: PROVINCE
CNTY.               Las Animas: COUNTRY
SRVC.                Patterson: SERVICE COMPANY
DATE.          Fri Dec 10 09:15:13 2004: LOG DATE
UWI.           05 071 08168 00: UNIQUE WELL ID
~Curve Information Block
DEPT.FT            0 000 00 00: Depth
DCAL.in                       : CDL Caliper
RHOB.g/cc                     : CDL Bulk Density
RHOC.g/cc                     : CDL Density Correction
DPOR.pu                       : CDL Density Porosity
NPOR.pu                       : Neutron Porosity
GR.GAPI                       : Gamma Ray
~Parameter Information Block
~A  Depth       DCAL        RHOB        RHOC        DPOR        NPOR         GR     
# ...
  1392.0000      7.9610      2.5217      0.1052      7.7770     15.9442     88.3044
  1392.1000      7.9610      2.5264      0.0581      7.4937     16.2046     91.2920
  1392.2000      7.9610      2.5193      0.0558      7.9185     16.3549     90.7924
  1392.3000      7.9675      2.5203      0.0648      7.8627     16.3135     85.7050
  1392.4000      7.9675      2.5360      0.0721      6.9070     15.9233     79.7743
  1392.5000      7.9687      2.5494      0.1060      6.0951     15.3516     76.3672
  1392.6000      7.9687      2.5390      0.1066      6.7251     15.1350     75.8198
  1392.7000      7.9687      2.5134      0.0279      8.2787     15.2121     77.6566
  1392.8000      7.9682      2.4933      0.0926      9.4985     15.1830     79.2988
  1392.9000      7.9682      2.4810      0.0541     10.2438     14.9878     78.2380
  1393.0000      7.9645      2.4729      0.0777     10.7342     14.7772     75.9982
  1393.1000      7.9645      2.4633      0.0738     11.3179     14.7553     75.9182
  1393.2000      7.9645      2.4526      0.0699     11.9656     14.9311     77.2386
  1393.3000      7.9625      2.4502      0.0532     12.1085     14.9675     78.0700
  1393.4000      7.9625      2.4528      0.0966     11.9520     14.7491     79.1075
  1393.5000      7.9740      2.4460      0.0751     12.3637     14.3109     80.0148
  1393.6000      7.9740      2.4355      0.0360     12.9988     13.7849     80.7360
  1393.7000      7.9740      2.4393      0.0409     12.7681     13.6081     82.0655
  1393.8000      7.9925      2.4529      0.0986     11.9442     13.9297     83.4823
  1393.9000      7.9925      2.4579      0.0762     11.6395     14.3687     82.1857
  1394.0000      8.0001      2.4514      0.0646     12.0350     14.5433     77.6510
  1394.1000      8.0001      2.4486      0.0319     12.2079     14.4127     73.5071
  1394.2000      8.0001      2.4611      0.0411     11.4491     14.1414     72.7760
  1394.3000      7.9975      2.4793      0.0714     10.3483     13.8760     74.9788
  1394.4000      7.9975      2.4852      0.0737      9.9871     13.6753     77.1404
  1394.5000      7.9890      2.4786      0.0307     10.3861     13.6535     76.8848
  1394.6000      7.9890      2.4695      0.0757     10.9422     13.8531     75.0148
  1394.7000      7.9890      2.4611      0.0254     11.4483     14.1249     75.0630
  1394.8000      7.9784      2.4555      0.0534     11.7850     14.3837     77.5409
  1394.9000      7.9784      2.4535      0.0296     11.9090     14.3931     78.7457
  1395.0000      7.9716      2.4540      0.0504     11.8758     13.9527     75.5151
  1395.1000      7.9716      2.4555      0.0536     11.7891     13.4423     70.6741
  1395.2000      7.9716      2.4573      0.0697     11.6769     13.1829     67.5066
  1395.3000      7.9683      2.4624      0.0669     11.3702     13.2679     65.7907
  1395.4000      7.9683      2.4742      0.0524     10.6564     13.6059     66.4536
  1395.5000      7.9674      2.4885      0.0835      9.7876     13.9362     70.7010
  1395.6000      7.9674      2.4968      0.0895      9.2870     14.0932     74.2036
  1395.7000      7.9674      2.4959      0.0891      9.3410     14.0862     74.2381
  1395.8000      7.9668      2.4895      0.0833      9.7278     13.9297     78.4662
  1395.9000      7.9668      2.4833      0.0705     10.1016     13.5869     89.3466
  1396.0000      7.9616      2.4823      0.0182     10.1652     13.2562     97.7698
  1396.1000      7.9616      2.4919      0.0434      9.5837     13.2404     98.3019
  1396.2000      7.9616      2.5072      0.0847      8.6539     13.5137     92.2645
  1396.3000      7.9520      2.5146      0.0606      8.2054     13.9340     83.0588
  1396.4000      7.9520      2.5103      0.0945      8.4670     14.4027     75.0210
  1396.5000      7.9477      2.4998      0.0574      9.1012     14.7498     72.4385
  1396.6000      7.9477      2.4994      0.0095      9.1260     14.8808     78.8395
  1396.7000      7.9477      2.5194      0.0522      7.9179     14.9664     89.8587
  1396.8000      7.9467      2.5393      0.0619      6.7112     15.2250     95.6178
  1396.9000      7.9467      2.5355      0.0726      6.9394     15.6030     93.5043
  1397.0000      7.9442      2.5124      0.0478      8.3388     15.9322     88.1320
  1397.1000      7.9442      2.4898      0.0066      9.7096     16.0789     82.6604
  1397.2000      7.9442      2.4795     -0.0150     10.3329     15.9392     77.4840
  1397.3000      7.9429      2.4762      0.0407     10.5340     15.6094     74.8988
  1397.4000      7.9429      2.4694      0.0369     10.9471     15.3847     76.3869
  1397.5000      7.9448      2.4634      0.0079     11.3120     15.3073     79.3390
  1397.6000      7.9448      2.4661      0.0368     11.1463     15.2356     78.7449
  1397.7000      7.9448      2.4659      0.0513     11.1582     15.2128     76.0962
  1397.8000      7.9519      2.4507      0.0000     12.0785     15.1684     77.8354
  1397.9000      7.9519      2.4328      0.0113     13.1651     14.9590     83.2759
  1398.0000      7.9638      2.4236      0.0707     13.7228     14.7400     88.1434
  1398.1000      7.9638      2.4178      0.0536     14.0702     14.6067     90.2237
  1398.2000      7.9638      2.4147      0.0157     14.2633     14.3551     87.7713
  1398.3000      7.9751      2.4215      0.0360     13.8491     14.0573     82.4260
  1398.4000      7.9751      2.4359      0.0535     12.9752     13.9805     78.1611
  1398.5000      7.9785      2.4494      0.0353     12.1603     14.0622     74.2233
  1398.6000      7.9785      2.4613      0.0459     11.4352     14.1850     70.7885
  1398.7000      7.9785      2.4692      0.0757     10.9558     14.3334     70.7136
  1398.8000      7.9661      2.4664      0.0675     11.1280     14.2935     71.5341
  1398.9000      7.9661      2.4588      0.0573     11.5895     14.1460     70.0060
  1399.0000      7.9457      2.4609      0.0378     11.4604     14.2937     68.4029
  1399.1000      7.9457      2.4689      0.0737     10.9771     14.6513     71.7935
  1399.2000      7.9457      2.4685      0.0518     10.9995     14.7953     80.3554
  1399.3000      7.9334      2.4608      0.0573     11.4697     14.7367     87.1400
  1399.4000      7.9334      2.4462      0.0509     12.3529     14.7555     86.5080
  1399.5000      7.9368      2.4259      0.0088     13.5815     14.8121     80.0593
  1399.6000      7.9368      2.4161     -0.0195     14.1783     14.7644     74.7496
  1399.7000      7.9368      2.4241      0.0416     13.6893     14.7541     74.8403
  1399.8000      7.9498      2.4353      0.0695     13.0119     14.9310     79.0175
  1399.9000      7.9498      2.4418      0.0303     12.6179     15.1469     85.0590
  1400.0000      7.9689      2.4527      0.0587     11.9555     15.2705     89.3617
  1400.1000      7.9689      2.4728      0.0639     10.7406     15.2632     88.7770
  1400.2000      7.9689      2.4948      0.0994      9.4067     15.1109     87.3498
  1400.3000      7.9859      2.5089      0.1003      8.5502     15.0608     90.5903
  1400.4000      7.9859      2.5171      0.0823      8.0544     15.2131     94.3481
  1400.5000      7.9880      2.5287      0.0919      7.3525     15.4286     95.2941
  1400.6000      7.9880      2.5437      0.0922      6.4406     15.7352     95.6248
  1400.7000      7.9880      2.5547      0.1261      5.7737     16.0361     94.6106
  1400.8000      7.9778      2.5565      0.0898      5.6681     16.1344     94.5780
  1400.9000      7.9778      2.5492      0.0979      6.1088     16.2115     99.8635
  1401.0000      7.9654      2.5305      0.0970      7.2414     16.5143    106.7332
  1401.1000      7.9654      2.5029      0.0322      8.9130     16.8648    110.7266
  1401.2000      7.9654      2.4812      0.0364     10.2275     16.9520    113.9298
  1401.3000      7.9559      2.4715      0.0332     10.8172     16.8454    115.5227
  1401.4000      7.9559      2.4677     -0.0092     11.0456     16.7848    112.2016
  1401.5000      7.9516      2.4663      0.0497     11.1341     16.8796    109.1829
