~Version Information
VERS.                      2.0: CWLS Log ASCII Standard - VERSION 2.0
WRAP.                       NO: One line per depth step
~Well Information Block
STRT.FT               557.0000: 
STOP.FT              2136.0000: 
STEP.FT                 0.2500: 
NULL.                -999.2500: 
COMP.          Petrogulf Corporation: COMPANY
WELL.           Montoya 12-41R: WELL
FLD.           Purgatorie River: FIELD
LOC.           1086' FNL & 610' FEL: LOCATION
CNTY.               Las Animas: COUNTY
SRVC.                         : SERVICE COMPANY
DATE.          Thu Nov 18 06:03:03 2004: LOG DATE
UWI.           05 071 08241 00: UNIQUE WELL ID
STAT.                 Colorado: STATE
~Curve Information Block
DEPT.FT            0 000 00 00: Depth
SP.mV                         : DIL Spontaneous Potential
RILD.Ohm-m                    : DIL Deep Resistivity
RILM.Ohm-m                    : DIL Medium Resistivity
RLL3.Ohm-m                    : DIL Shallow Resistivity
GR.GAPI                       : Gamma Ray
~Parameter Information Block
~A  Depth        SP         RILD        RILM        RLL3         GR     
# ...
  1089.0000   -164.1605     45.2503     55.1094     82.4958     99.2140
  1089.2500   -162.0474     45.2217     54.8379     82.5758     98.2619
  1089.5000   -159.8552     45.2949     54.4634     82.3952     96.6709
  1089.7500   -157.7890     45.4432     54.0640     81.9539     95.4755
  1090.0000   -156.0239     45.6288     53.7188     81.2830     94.1963
  1090.2500   -154.6892     45.8045     53.4893     80.4394     94.2780
  1090.5000   -153.8607     45.9229     53.4088     79.5016     95.9788
  1090.7500   -153.5449     45.9412     53.4757     78.5623     97.4833
  1091.0000   -153.6678     45.8283     53.6568     77.7185     98.5381
  1091.2500   -154.0835     45.5688     53.8928     77.0608     97.8459
  1091.5000   -154.5992     45.1657     54.1176     76.6636     95.1940
  1091.7500   -155.0170     44.6425     54.2687     76.5798     93.1778
  1092.0000   -155.1857     44.0429     54.3065     76.8383     90.8985
  1092.2500   -155.0422     43.4234     54.2221     77.4437     89.9728
  1092.5000   -154.6221     42.8452     54.0367     78.3783     88.9735
  1092.7500   -154.0435     42.3672     53.7968     79.6062     88.2228
  1093.0000   -153.4553     42.0325     53.5625     81.0811     86.6371
  1093.2500   -152.9860     41.8653     53.3920     82.7535     85.2161
  1093.5000   -152.6985     41.8675     53.3395     84.5776     82.6035
  1093.7500   -152.5610     42.0203     53.4500     86.5149     80.6560
  1094.0000   -152.4699     42.2882     53.7577     88.5328     77.6604
  1094.2500   -152.2778     42.6328     54.2858     90.6025     75.6351
  1094.5000   -151.8476     43.0173     55.0535     92.6977     72.2473
  1094.7500   -151.0949     43.4191     56.0746     94.7960     69.5775
  1095.0000   -150.0161     43.8332     57.3636     96.8840     65.2115
  1095.2500   -148.6896     44.2667     58.9357     98.9638     62.4959
  1095.5000   -147.2574     44.7370     60.8097    101.0582     59.2807
  1095.7500   -145.8783     45.2612     63.0112    103.2125     57.7452
  1096.0000   -144.6911     45.8497     65.5628    105.4950     56.1338
  1096.2500   -143.7819     46.4992     68.4833    107.9957     55.3803
  1096.5000   -143.1712     47.1921     71.7707    110.8290     54.5410
  1096.7500   -142.8297     47.8935     75.3956    114.1384     54.1187
  1097.0000   -142.7058     48.5560     79.2661    118.0998     53.7060
  1097.2500   -142.7557     49.1238     83.2131    122.9139     53.5641
  1097.5000   -142.9597     49.5380     86.9814    128.7718     53.2813
  1097.7500   -143.3261     49.7499     90.2311    135.7906     52.8024
  1098.0000   -143.8744     49.7255     92.5858    143.9262     51.5027
  1098.2500   -144.6123     49.4477     93.7279    152.8966     50.4592
  1098.5000   -145.5198     48.9168     93.4885    162.1573     49.2774
  1098.7500   -146.5399     48.1386     91.8971    170.9636     49.0374
  1099.0000   -147.5859     47.1229     89.1598    178.5134     49.5018
  1099.2500   -148.5622     45.8778     85.5627    184.1243     50.0891
  1099.5000   -149.3747     44.4140     81.3710    187.3720     50.8025
  1099.7500   -149.9482     42.7494     76.7593    188.1238     50.9675
  1100.0000   -150.2353     40.9156     71.8245    186.4549     50.7316
  1100.2500   -150.2165     38.9592     66.6115    182.4926     50.3392
  1100.5000   -149.9045     36.9353     61.1821    176.2753     49.6620
  1100.7500   -149.3448     34.9022     55.6411    167.7066     49.4749
  1101.0000   -148.6127     32.9118     50.1540    156.6358     50.4814
  1101.2500   -147.8071     31.0053     44.9055    143.0324     52.5682
  1101.5000   -147.0296     29.2125     40.0590    127.1683     58.5384
  1101.7500   -146.3616     27.5519     35.7258    109.7158     64.6466
  1102.0000   -145.8423     26.0330     31.9567     91.7022     76.9367
  1102.2500   -145.4481     24.6582     28.7503     74.3237     86.7485
  1102.5000   -145.0996     23.4254     26.0703     58.6901    102.3070
  1102.7500   -144.6846     22.3286     23.8613     45.5957    112.0180
  1103.0000   -144.0959     21.3593     22.0610     35.3954    123.4144
  1103.2500   -143.2665     20.5082     20.6085     28.0144    127.9366
  1103.5000   -142.1962     19.7646     19.4475     23.0635    129.8267
  1103.7500   -140.9500     19.1190     18.5279     20.0006    128.5617
  1104.0000   -139.6415     18.5626     17.8066     18.2771    124.8193
  1104.2500   -138.3922     18.0879     17.2470     17.4320    122.1048
  1104.5000   -137.3101     17.6884     16.8192     17.1280    118.9500
  1104.7500   -136.4657     17.3585     16.4986     17.1426    117.8621
  1105.0000   -135.8888     17.0927     16.2656     17.3368    117.7069
  1105.2500   -135.5895     16.8850     16.1040     17.6203    118.2181
  1105.5000   -135.5659     16.7286     16.0007     17.9262    119.2693
  1105.7500   -135.8294     16.6159     15.9440     18.1990    120.0701
  1106.0000   -136.4033     16.5382     15.9233     18.3949    121.9281
  1106.2500   -137.3221     16.4862     15.9284     18.4889    124.0074
  1106.5000   -138.6163     16.4507     15.9503     18.4811    128.1927
  1106.7500   -140.2955     16.4234     15.9810     18.3970    130.8791
  1107.0000   -142.3276     16.3971     16.0145     18.2801    133.2848
  1107.2500   -144.6305     16.3676     16.0471     18.1778    133.6186
  1107.5000   -147.0680     16.3331     16.0779     18.1250    133.0065
  1107.7500   -149.4631     16.2956     16.1090     18.1324    132.4344
  1108.0000   -151.6193     16.2599     16.1457     18.1849    131.9025
  1108.2500   -153.3585     16.2339     16.1964     18.2531    131.9216
  1108.5000   -154.5505     16.2269     16.2724     18.3141    132.8058
  1108.7500   -155.1464     16.2489     16.3875     18.3709    134.0924
  1109.0000   -155.1924     16.3095     16.5566     18.4591    136.6967
  1109.2500   -154.8261     16.4164     16.7943     18.6372    138.2514
  1109.5000   -154.2557     16.5751     17.1133     18.9626    139.2310
  1109.7500   -153.7192     16.7884     17.5232     19.4678    138.7560
  1110.0000   -153.4382     17.0566     18.0305     20.1484    136.5289
  1110.2500   -153.5704     17.3769     18.6376     20.9732    134.2233
  1110.5000   -154.1837     17.7439     19.3454     21.9090    130.0028
  1110.7500   -155.2485     18.1496     20.1534     22.9506    127.0952
  1111.0000   -156.6486     18.5841     21.0618     24.1376    123.2320
  1111.2500   -158.2198     19.0364     22.0701     25.5456    121.1263
  1111.5000   -159.7866     19.4960     23.1756     27.2509    118.5793
  1111.7500   -161.1966     19.9523     24.3683     29.2828    117.1850
  1112.0000   -162.3408     20.3963     25.6243     31.5853    115.4327
  1112.2500   -163.1677     20.8184     26.8995     34.0083    114.4051
  1112.5000   -163.6760     21.2069     28.1273     36.3343    112.7104
  1112.7500   -163.9047     21.5460     29.2227     38.3303    111.2283
  1113.0000   -163.9218     21.8146     30.0936     39.8009    108.3817
  1113.2500   -163.8004     21.9893     30.6604     40.6224    106.2385
  1113.5000   -163.6104     22.0467     30.8715     40.7480    102.9745
  1113.7500   -163.4129     21.9716     30.7140     40.1916    100.8812
  1114.0000   -163.2526     21.7609     30.2120     39.0066     98.1817
  1114.2500   -163.1668     21.4271     29.4175     37.2731     97.0523
  1114.5000   -163.1876     20.9966     28.3979     35.0969     97.1313
  1114.7500   -163.3352     20.5045     27.2257     32.6133     98.6244
  1115.0000   -163.6137     19.9878     25.9723     29.9844    102.9246
  1115.2500   -164.0005     19.4806     24.7034     27.3837    106.9365
  1115.5000   -164.4425     19.0093     23.4752     24.9720    114.2585
  1115.7500   -164.8691     18.5921     22.3324     22.8739    119.6960
  1116.0000   -165.2100     18.2387     21.3080     21.1630    127.8587
  1116.2500   -165.4151     17.9518     20.4227     19.8626    132.7006
  1116.5000   -165.4620     17.7276     19.6867     18.9579    138.0528
  1116.7500   -165.3535     17.5589     19.1019     18.4145    139.9251
