~Version Information
 VERS.                                  2.0 : CWLS LAS VERSION
 WRAP.                                   NO : WRAPING MODE
 SWARE .                 MController 2.5.0J : SOFTWARE VERSION
~Well Information
 WELL.                      Robinson 15-12V : WELL
 COMP.                Petrogulf Corporation : COMPANY
 FLD.                      Purgatoire River : FIELD
 LOC.                SW/NW Sec 15 T33S R67W : LOCATION
 DATE.                             09/10/05 : DATE(S) LOGGED
 SRVC.       BLANCO Geological Services LLC : SERVICE COMPANY
 STAT.                                   CO : STATE
 CNTY.                           Las Animas : COUNTY
 CTRY.                                  USA : COUNTRY
 API.                       05-071-08308-00 : API NUMBER
 STRT.FT                              52.00 : START DEPTH
 STOP.FT                            2041.00 : STOP DEPTH
 STEP.FT                               1.00 : DEPTH INCREMENT
 NULL.                                -9999 : NULL VALUE
~Curve information
 DEPTH.FT                                   :
 ROP.MIN/FT                                 :
 GAS.UNITS                                  :
~ASCII Log data
# ...
      1652.0         3.05       1500.1 
      1653.0         0.40       1466.1 
      1654.0         0.43       1324.9 
      1655.0         0.33       1297.0 
      1656.0         0.23       1281.4 
      1657.0         0.28       1251.3 
      1658.0         0.30       1212.6 
      1659.0         0.23       1166.9 
      1660.0         0.17       1128.8 
      1661.0         0.20       1113.8 
      1662.0         0.23       1108.5 
      1663.0         0.23       1105.3 
      1664.0         0.27       1102.4 
      1665.0         0.27       1096.1 
      1666.0         0.27       1091.0 
      1667.0         0.23       1081.5 
      1668.0         0.23       1068.1 
      1669.0         0.23       1055.8 
      1670.0         0.18       1049.1 
      1671.0         0.20       1042.4 
      1672.0         0.13       1033.9 
      1673.0         0.33       1033.6 
      1674.0         0.20       1039.9 
      1675.0         0.23       1046.2 
      1676.0         0.23       1045.9 
      1677.0         0.23       1045.0 
      1678.0         0.17       1043.1 
      1679.0         0.20       1043.1 
      1680.0         0.17       1037.0 
      1681.0         0.23       1031.6 
      1682.0         2.58       1370.9 
      1683.0         0.40       1369.7 
      1684.0         0.48       1322.4 
      1685.0         0.47       1323.3 
      1686.0         0.40       1278.3 
      1687.0         0.33       1215.1 
      1688.0         0.37       1170.7 
      1689.0         0.33       1143.7 
      1690.0         0.33       1130.0 
      1691.0         0.30       1116.4 
      1692.0         0.33       1098.9 
      1693.0         0.32       1082.4 
      1694.0         0.30       1072.0 
      1695.0         0.27       1064.7 
      1696.0         0.27       1059.3 
      1697.0         0.27       1051.0 
      1698.0         0.23       1044.7 
      1699.0         0.27       1041.8 
      1700.0         0.27       1035.8 
      1701.0         0.27       1030.7 
      1702.0         0.27       1025.6 
      1703.0         0.27       1020.2 
      1704.0         0.27       1018.6 
      1705.0         0.25       1015.1 
      1706.0         0.17       1012.3 
      1707.0         0.10       1012.3 
      1708.0         0.20       1011.0 
      1709.0         0.23       1007.8 
      1710.0         0.30       1016.7 
      1711.0         0.30       1018.3 
      1712.0         3.38       1539.1 
      1713.0         0.50       1452.5 
      1714.0         0.40       1300.5 
      1715.0         0.40       1293.5 
      1716.0         0.45       1257.9 
      1717.0         0.43       1198.6 
      1718.0         0.40       1141.5 
      1719.0         0.30       1105.3 
      1720.0         0.33       1099.9 
      1721.0         0.27       1102.4 
      1722.0         0.30       1100.2 
      1723.0         0.23       1092.9 
      1724.0         0.27       1085.6 
      1725.0         0.23       1076.4 
      1726.0         0.23       1071.0 
      1727.0         0.28       1065.3 
      1728.0         0.27       1053.9 
      1729.0         0.27       1042.4 
      1730.0         0.23       1034.8 
      1731.0         0.27       1029.4 
      1732.0         0.33       1025.6 
      1733.0         0.20       1020.2 
      1734.0         0.33       1018.6 
      1735.0         0.23       1014.8 
      1736.0         0.27       1012.9 
      1737.0         0.27       1009.7 
      1738.0         0.30       1008.5 
      1739.0         0.35       1006.9 
      1740.0         0.30       1004.7 
      1741.0         0.33       1005.0 
      1742.0         3.28       1397.0 
      1743.0         0.53       1306.2 
      1744.0         0.27       1280.8 
      1745.0         0.20       1252.9 
      1746.0         0.27       1231.6 
      1747.0         0.33       1192.6 
      1748.0         0.33       1164.0 
      1749.0         0.27       1144.0 
      1750.0         0.35       1138.6 
      1751.0         0.30       1137.3 
      1752.0         0.30       1136.7 
      1753.0         0.30       1130.0 
      1754.0         0.27       1115.8 
      1755.0         0.27       1106.2 
      1756.0         0.30       1097.7 
      1757.0         0.30       1083.1 
      1758.0         0.20       1072.0 
      1759.0         0.23       1062.8 
      1760.0         0.17       1055.1 
      1761.0         0.27       1048.5 
      1762.0         0.20       1040.9 
      1763.0         0.15       1036.7 
      1764.0         0.20       1035.1 
      1765.0         0.23       1031.6 
      1766.0         0.23       1032.6 
      1767.0         0.27       1035.1 
      1768.0         0.27       1034.8 
      1769.0         0.20       1032.0 
      1770.0         0.23       1029.1 
      1771.0         0.30       1027.5 
      1772.0         2.92       1454.4 
      1773.0         0.47       1447.1 
      1774.0         0.30       1344.3 
      1775.0         0.30       1325.5 
      1776.0         0.27       1310.6 
      1777.0         0.35       1283.0 
      1778.0         0.30       1240.8 
      1779.0         0.33       1199.5 
      1780.0         0.27       1152.9 
      1781.0         0.23       1132.3 
      1782.0         0.37       1136.7 
      1783.0         0.40       1136.1 
      1784.0         0.37       1121.1 
      1785.0         0.27       1103.7 
      1786.0         0.27       1086.9 
      1787.0         0.23       1073.2 
      1788.0         0.25       1072.3 
      1789.0         0.30       1067.5 
      1790.0         0.37       1058.3 
      1791.0         0.27       1048.2 
      1792.0         0.40       1039.9 
      1793.0         0.30       1033.9 
      1794.0         0.33       1039.6 
      1795.0         0.30       1040.9 
      1796.0         0.23       1041.2 
      1797.0         0.10       1040.2 
      1798.0         0.23       1037.7 
      1799.0         0.23       1036.7 
      1800.0         0.28       1037.7 
      1801.0         0.20       1037.7 
      1802.0         3.35       1535.3 
      1803.0         0.47       1521.4 
      1804.0         0.50       1456.6 
      1805.0         0.67       1336.0 
      1806.0         0.37       1103.1 
      1807.0         0.30       1107.5 
      1808.0         0.23       1151.3 
      1809.0         0.10       1166.5 
      1810.0         0.10       1177.3 
      1811.0         0.08       1179.2 
      1812.0         0.13       1185.3 
      1813.0         0.20       1190.3 
      1814.0         0.27       1201.4 
      1815.0         0.27       1215.1 
      1816.0         0.27       1221.8 
      1817.0         0.27       1217.0 
      1818.0         0.27       1200.5 
      1819.0         0.23       1181.1 
      1820.0         0.27       1164.6 
      1821.0         0.27       1150.0 
      1822.0         0.23       1133.2 
      1823.0         0.22       1119.9 
      1824.0         0.20       1110.4 
      1825.0         0.13       1100.5 
      1826.0         0.20       1091.9 
      1827.0         0.17       1080.5 
      1828.0         0.13       1075.4 
      1829.0         0.13       1072.3 
      1830.0         0.13       1069.4 
      1831.0         0.17       1065.3 
      1832.0         3.28       1546.1 
      1833.0         0.30       1533.7 
      1834.0         0.37       1438.8 
      1835.0         0.37       1383.3 
      1836.0         0.35       1361.7 
      1837.0         0.33       1308.7 
      1838.0         0.30       1254.4 
      1839.0         0.33       1214.1 
      1840.0         0.37       1179.2 
      1841.0         0.43       1153.2 
      1842.0         0.40       1126.2 
      1843.0         0.37       1105.0 
      1844.0         0.38       1095.1 
      1845.0         0.33       1094.8 
      1846.0         0.27       1090.4 
      1847.0         0.30       1086.6 
      1848.0         0.30       1081.5 
      1849.0         0.30       1080.8 
      1850.0         0.30       1077.7 
      1851.0         0.30       1078.0 
