~Version Information
VERS.                      2.0: CWLS Log ASCII Standard - VERSION 2.0
WRAP.                       NO: One line per depth step
~Well Information Block
STRT.FT                -4.2500: 
STOP.FT              2500.7500: 
STEP.FT                 0.2500: 
NULL.                -999.2500: 
COMP.          Pioneer Natural Resources: COMPANY
WELL.          Cock-a-doodle-doo 44-27: WELL
FLD.           Purgatoire River: FIELD
LOC.           163' FSL & 54' FEL--: LOCATION
PROV.                 Colorado: PROVINCE
CNTY.               Las Animas: COUNTRY
SRVC.                Patterson: SERVICE COMPANY
DATE.          Wed Jul 06 10:56:34 2005: LOG DATE
UWI.                071 08429 : UNIQUE WELL ID
~Curve Information Block
DEPT.FT            0 000 00 00: Depth
CCL.                          : Casing Collar Locator
TT3.usec                      : CBL 3' Travel Time
AMP3.mV                       : CBL 3' Amplitude
GR.GAPI                       : Gamma Ray
~Parameter Information Block
~A  Depth       CCL         TT3         AMP3         GR     
# ...
   163.2500      0.0000    785.6324     13.4225     86.9778
   163.5000      0.0000    785.2451     13.3360     84.5487
   163.7500      0.0000    782.4205     13.2625     81.5301
   164.0000      0.0000    777.3358     13.2104     79.6921
   164.2500      0.0000    772.2350     13.1852     79.2763
   164.5000      0.0000    769.3474     13.1905     79.1251
   164.7500      0.0000    767.9342     13.2184     78.4329
   165.0000      0.0000    764.7073     13.2495     77.6412
   165.2500      0.0000    757.8310     13.2678     77.5018
   165.5000      0.0000    750.1364     13.2692     77.9691
   165.7500      0.0000    747.3763     13.2534     78.3199
   166.0000      0.0000    752.6188     13.2154     77.8485
   166.2500      0.0000    762.8755     13.1512     76.1161
   166.5000      0.0000    772.1775     13.0680     73.0597
   166.7500      0.0000    777.7130     12.9845     69.4690
   167.0000      0.0000    781.7821     12.9191     67.0752
   167.2500      0.0000    787.7029     12.8769     67.3466
   167.5000      0.0000    795.5815     12.8454     69.8156
   167.7500      0.0000    802.7830     12.8076     71.9994
   168.0000      0.0000    806.9116     12.7626     71.5846
   168.2500      0.0000    806.9343     12.7281     68.6633
   168.5000      0.0000    802.1565     12.7164     65.4611
   168.7500      0.0000    791.6022     12.7107     64.1191
   169.0000      0.0000    774.9854     12.6760     65.1304
   169.2500      0.0000    754.0947     12.5949     67.6201
   169.5000      0.0000    732.7848     12.4853     70.4486
   169.7500      0.0000    715.4009     12.3839     72.8652
   170.0000      0.0000    704.8947     12.3138     74.5707
   170.2500      0.0000    701.7690     12.2729     75.6300
   170.5000      0.0000    704.1460     12.2498     76.2895
   170.7500      0.0000    709.2405     12.2427     76.6183
   171.0000      0.0000    715.7764     12.2613     76.3757
   171.2500      0.0000    725.2389     12.3126     75.4305
   171.5000      0.0000    740.1877     12.3905     74.1547
   171.7500      0.0000    761.1851     12.4748     73.1072
   172.0000      0.0000    785.5836     12.5353     72.4287
   172.2500      0.0000    808.9239     12.5428     71.7683
   172.5000      0.0000    827.3022     12.4834     70.5842
   172.7500      0.0000    838.8840     12.3672     68.3803
   173.0000      0.0000    843.5255     12.2235     65.0403
   173.2500      0.0000    841.0092     12.0848     61.2491
   173.5000      0.0000    830.1700     11.9698     58.3174
   173.7500      0.0000    810.5870     11.8793     57.2731
   174.0000      0.0000    785.8275     11.8089     58.1156
   174.2500      0.0000    764.5013     11.7621     59.9187
   174.5000      0.0000    755.8864     11.7438     61.5593
   174.7500      0.0000    762.3433     11.7447     62.4418
   175.0000      0.0000    776.2608     11.7418     62.7792
   175.2500      0.0000    786.0598     11.7168     63.3029
   175.5000      0.0000    785.5217     11.6731     64.5765
   175.7500      0.0000    777.1663     11.6341     66.3795
   176.0000      0.0000    768.5379     11.6261     67.8582
   176.2500      0.0000    767.0467     11.6586     68.5960
   176.5000      0.0000    776.1514     11.7182     69.2850
   176.7500      0.0000    792.6082     11.7821     70.5771
   177.0000      0.0000    807.3977     11.8361     71.3446
   177.2500      0.0000    811.6637     11.8736     69.2549
   177.5000      0.0000    802.5451     11.8801     63.5842
   177.7500      0.0000    783.2917     11.8339     56.6474
   178.0000      0.0000    759.2574     11.7291     51.8022
   178.2500      0.0000    735.1317     11.5925     50.4157
   178.5000      0.0000    714.6724     11.4664     51.0986
   178.7500      0.0000    700.2933     11.3706     51.4042
   179.0000      0.0000    692.1408     11.2883     49.8086
   179.2500      0.0000    688.4401     11.1946     46.3357
   179.5000      0.0000    687.0573     11.0930     42.0294
   179.7500      0.0000    686.5967     11.0165     38.3473
   180.0000      0.0000    686.4373     10.9926     36.8299
   180.2500      0.0000    686.3503     11.0126     38.4616
   180.5000      0.0000    686.2708     11.0391     42.7445
   180.7500      0.0000    686.2013     11.0394     47.7433
   181.0000      0.0000    686.1795     11.0052     51.4769
   181.2500      0.0000    686.2228     10.9417     53.0496
   181.5000      0.0000    686.3068     10.8512     52.4186
   181.7500      0.0000    686.3836     10.7385     49.8909
   182.0000      0.0000    686.4152     10.6277     46.3124
   182.2500      0.0000    686.3908     10.5621     43.1784
   182.5000      0.0000    686.3189     10.5773     41.9919
   182.7500      0.0000    686.2170     10.6716     43.4840
   183.0000      0.0000    686.1183     10.8046     47.3395
   183.2500      0.0000    686.0867     10.9246     52.4508
   183.5000      0.0000    686.1986     10.9991     57.5280
   183.7500      0.0000    686.4825     11.0231     61.7366
   184.0000      0.0000    686.8668     11.0079     65.0899
   184.2500      0.0000    687.2023     10.9719     68.5310
   184.5000      0.0000    687.3513     10.9390     73.3794
   184.7500      0.0000    687.2913     10.9383     79.9868
   185.0000      0.0000    687.1683     10.9917     86.7749
   185.2500      0.0000    687.3674     11.0950     91.1870
   185.5000      0.0000    688.6325     11.2118     91.8271
   185.7500      0.0000    692.3082     11.2953     89.5690
   186.0000      0.0000    700.1659     11.3196     86.8173
   186.2500      0.0000    713.0982     11.2891     85.9002
   186.5000      0.0000    729.2080     11.2259     87.7192
   186.7500      0.0000    743.6976     11.1613     91.4971
   187.0000      0.0000    752.0458     11.1334     95.8237
   187.2500      0.0000    754.2452     11.1638     99.9374
   187.5000      0.0000    755.8497     11.2294    103.8158
   187.7500      0.0000    763.7552     11.2781    107.1585
   188.0000      0.0000    779.7599     11.2792    108.8464
   188.2500      0.0000    798.4999     11.2399    107.8185
   188.5000      0.0000    812.4139     11.1773    104.4347
   188.7500      0.0000    818.1744     11.1020    100.5756
   189.0000      0.0000    817.9152     11.0276     98.1084
   189.2500      0.0000    815.6843     10.9738     97.4060
   189.5000      0.0000    814.0662     10.9532     97.4367
   189.7500      0.0000    813.3596     10.9626     96.9217
   190.0000      0.0000    811.8041     10.9897     95.3246
   190.2500      0.0000    805.8860     11.0256     93.1964
   190.5000      0.0000    791.9021     11.0731     91.5722
   190.7500      0.0000    769.2409     11.1430     90.8074
   191.0000      0.0000    742.1949     11.2393     90.2926
   191.2500      0.0000    717.2077     11.3498     89.3143
   191.5000      0.0000    697.8030     11.4537     87.4856
   191.7500      0.0000    682.9424     11.5424     84.3196
   192.0000      0.0000    670.7484     11.6265     79.3407
   192.2500      0.0000    663.2354     11.7168     73.0798
   192.5000      0.0000    666.0146     11.8059     67.4326
   192.7500      0.0000    682.1548     11.8752     64.2923
   193.0000      0.0000    706.8695     11.9204     63.7430
   193.2500      0.0000    730.1342     11.9563     64.1074
   193.5000      0.0000    745.3808     11.9969     63.9542
   193.7500      0.0000    754.5495     12.0393     63.5050
   194.0000      0.0000    763.3245     12.0717     63.8185
   194.2500      0.0000    772.4871     12.0873     65.1708
   194.5000      0.0000    776.3779     12.0897     66.8178
   194.7500      0.0000    769.7912     12.0887     68.1767
   195.0000      0.0000    753.7609     12.0924     69.6465
   195.2500      0.0000    734.0108     12.0979     72.0185
   195.5000      0.0000    716.0416     12.0927     75.4547
   195.7500      0.0000    702.7849     12.0680     79.4955
   196.0000      0.0000    695.0864     12.0283     83.9118
   196.2500      0.0000    692.8152     11.9853     89.0656
   196.5000      0.0000    695.2775     11.9422     95.1983
