~Version Information
VERS.                      2.0: CWLS Log ASCII Standard - VERSION 2.0
WRAP.                       NO: One line per depth step
~Well Information Block
STRT.FT               -12.5000: 
STOP.FT              2200.2500: 
STEP.FT                 0.2500: 
NULL.                -999.2500: 
COMP.          Pioneer Natural Resources: COMPANY
WELL.           Ogallela 44-12: WELL
FLD.           Purgatorie River: FIELD
LOC.           610' FSL & 671' FEL------: LOCATION
PROV.                       CO: PROVINCE
CNTY.               Las Animas: COUNTRY
SRVC.          Patterson Wireline: SERVICE COMPANY
DATE.          Tue Mar 22 17:18:22 2005: LOG DATE
UWI.           05 071 08283 00: UNIQUE WELL ID
~Curve Information Block
DEPT.FT            0 000 00 00: Depth
CCL.                          : Casing Collar Locator
TT3.usec                      : CBL 3' Travel Time
AMP3.mV                       : CBL 3' Amplitude
GR.GAPI                       : Gamma Ray
~Parameter Information Block
~A  Depth       CCL         TT3         AMP3         GR     
# ...
  2031.0000      0.0000    731.7380     12.3854     48.8498
  2031.2500      0.0000    737.2147     12.6947     47.9725
  2031.5000      0.0000    745.9376     13.0310     46.4975
  2031.7500      0.0000    754.5815     13.4052     45.2004
  2032.0000      0.0000    760.9580     13.8242     44.3676
  2032.2500      0.0000    764.7028     14.2979     43.7945
  2032.5000      0.0000    766.4966     14.8373     43.3412
  2032.7500      0.0000    766.6404     15.4562     43.3955
  2033.0000      0.0000    763.5247     16.1757     44.7463
  2033.2500      0.0000    751.9856     17.0160     48.0445
  2033.5000      0.0000    722.9927     17.9802     53.2947
  2033.7500      0.0000    667.8633     19.0573     59.5740
  2034.0000      0.0000    586.9548     20.2387     65.1833
  2034.2500      0.0000    494.7763     21.5159     68.4703
  2034.5000      0.0000    413.0532     22.8555     68.7821
  2034.7500      0.0000    356.5756     24.1785     66.5094
  2035.0000      0.0000    326.0836     25.3758     62.3228
  2035.2500      0.0000    313.1669     26.3472     56.8374
  2035.5000      0.0000    308.8353     27.0192     50.8906
  2035.7500      0.0000    307.6799     27.3468     45.3708
  2036.0000      0.0000    307.4802     27.3257     40.6233
  2036.2500      0.0000    307.5743     27.0048     36.6205
  2036.5000      0.0000    307.8139     26.4702     33.7499
  2036.7500      0.0000    308.1531     25.8066     32.7904
  2037.0000      0.0000    308.5696     25.0621     33.9355
  2037.2500      0.0000    309.0417     24.2474     36.2890
  2037.5000      0.0000    309.5509     23.3703     38.5454
  2037.7500      0.0000    310.0743     22.4662     39.9341
  2038.0000      0.0000    310.5775     21.5958     40.4554
  2038.2500      0.0000    311.0202     20.8181     40.5773
  2038.5000      0.0000    311.3708     20.1666     40.9270
  2038.7500      0.0000    311.6141     19.6493     41.9143
  2039.0000      0.0000    311.7507     19.2685     43.2151
  2039.2500      0.0000    311.7924     19.0318     43.7944
  2039.5000      0.0000    311.7610     18.9328     42.9466
  2039.7500      0.0000    311.6922     18.9248     41.3335
  2040.0000      0.0000    311.6342     18.9295     40.5608
  2040.2500      0.0000    311.6326     18.8787     41.6529
  2040.5000      0.0000    311.7125     18.7468     44.3028
  2040.7500      0.0000    311.8735     18.5553     47.5987
  2041.0000      0.0000    312.1155     18.3565     50.9175
  2041.2500      0.0000    312.4789     18.2029     53.9000
  2041.5000      0.0000    313.2863     18.1110     56.0930
  2041.7500      0.0000    315.6167     18.0535     57.2044
  2042.0000      0.0000    321.7594     17.9873     57.6013
  2042.2500      0.0000    334.4362     17.8859     58.0658
  2042.5000      0.0000    353.8358     17.7487     58.9381
  2042.7500      0.0000    374.9419     17.5915     59.8671
  2043.0000      0.0000    390.6047     17.4288     60.5755
  2043.2500      0.0000    399.9489     17.2652     61.5406
  2043.5000      0.0000    412.4307     17.1010     63.6852
  2043.7500      0.0000    441.3397     16.9420     67.6242
  2044.0000      0.0000    493.4230     16.7900     73.3714
  2044.2500      0.0000    563.8892     16.6233     80.5766
  2044.5000      0.0000    638.7564     16.3994     88.7119
  2044.7500      0.0000    702.3085     16.0872     96.9439
  2045.0000      0.0000    745.3210     15.6985    104.0404
  2045.2500      0.0000    768.3039     15.2839    108.6893
  2045.5000      0.0000    778.2437     14.8980    110.1602
  2045.7500      0.0000    782.9310     14.5657    108.8574
  2046.0000      0.0000    787.1572     14.2747    106.1762
  2046.2500      0.0000    791.9496     13.9900    103.6397
  2046.5000      0.0000    796.1146     13.6714    102.1577
  2046.7500      0.0000    798.2886     13.2884    102.0569
  2047.0000      0.0000    797.8558     12.8330    103.3197
  2047.2500      0.0000    794.8246     12.3249    105.3272
  2047.5000      0.0000    789.9938     11.8059    106.7159
  2047.7500      0.0000    785.4668     11.3285    106.2191
  2048.0000      0.0000    783.9976     10.9369    103.9005
  2048.2500      0.0000    786.8867     10.6485    101.4459
  2048.5000      0.0000    792.8415     10.4517    101.1790
  2048.7500      0.0000    799.5095     10.3221    104.6609
  2049.0000      0.0000    805.7089     10.2363    111.6447
  2049.2500      0.0000    811.5748     10.1738    119.7620
  2049.5000      0.0000    816.8697     10.1154    125.3266
  2049.7500      0.0000    819.9546     10.0448    125.2648
  2050.0000      0.0000    818.7856      9.9460    119.0563
  2050.2500      0.0000    812.6550      9.7985    109.1393
  2050.5000      0.0000    802.7056      9.5835     99.3722
  2050.7500      0.0000    791.1414      9.3029     92.7940
  2051.0000      0.0000    780.2983      8.9839     90.3303
  2051.2500      0.0000    771.7825      8.6627     91.0839
  2051.5000      0.0000    765.4193      8.3629     93.4872
  2051.7500      0.0000    759.0461      8.0915     96.1907
  2052.0000      0.0000    750.2625      7.8508     98.4174
  2052.2500      0.0000    738.8724      7.6478    100.0689
  2052.5000      0.0000    727.2529      7.4923    101.7005
  2052.7500      0.0000    718.1802      7.3844    104.2528
  2053.0000      0.0000    712.7228      7.3072    108.2982
  2053.2500      0.0000    710.2250      7.2336    113.1790
  2053.5000      0.0000    709.6223      7.1404    117.1000
  2053.7500      0.0000    710.4664      7.0216    118.3002
  2054.0000      0.0000    713.0664      6.8929    116.0011
  2054.2500      0.0000    717.9124      6.7808    110.4488
  2054.5000      0.0000    724.7972      6.6978    102.7068
  2054.7500      0.0000    732.3870      6.6287     94.5260
  2055.0000      0.0000    738.8061      6.5401     87.8295
  2055.2500      0.0000    742.6794      6.3969     83.8587
  2055.5000      0.0000    743.4932      6.1764     82.6756
  2055.7500      0.0000    741.1756      5.8872     83.5155
  2056.0000      0.0000    736.0307      5.5753     85.6931
  2056.2500      0.0000    729.5522      5.2934     89.1910
  2056.5000      0.0000    724.9166      5.0667     94.3149
  2056.7500      0.0000    725.4916      4.9041    100.6060
  2057.0000      0.0000    731.8345      4.8279    105.9962
  2057.2500      0.0000    740.3347      4.8583    107.5821
  2057.5000      0.0000    745.9265      4.9680    103.9293
  2057.7500      2.0000    746.7576      5.0796     96.5058
  2058.0000      2.0000    745.5657      5.1189     88.4624
  2058.2500      0.0000    746.2985      5.0689     82.1830
  2058.5000      0.0000    750.4301      4.9832     78.0406
  2058.7500      0.0000    757.1055      4.9507     74.9126
  2059.0000      0.0000    765.6213      5.0250     71.6015
  2059.2500      0.0000    776.2476      5.1729     68.0767
  2059.5000      0.0000    788.5530      5.3086     65.6610
  2059.7500      0.0000    800.3100      5.3822     66.1530
  2060.0000      0.0000    808.8066      5.4170     70.6056
  2060.2500      0.0000    812.2603      5.4560     78.4621
  2060.5000      0.0000    809.4975      5.5043     87.7137
  2060.7500      0.0000    799.6899      5.5394     96.1445
  2061.0000      0.0000    783.6503      5.5567    102.4007
  2061.2500      0.0000    764.7521      5.5760    105.8799
  2061.5000      0.0000    747.6390      5.6136    106.2856
  2061.7500      0.0000    736.1277      5.6707    103.8900
  2062.0000      0.0000    732.2290      5.7478     99.7846
  2062.2500      0.0000    736.0483      5.8466     95.2060
  2062.5000      0.0000    745.7628      5.9605     90.7396
  2062.7500      0.0000    758.0388      6.0786     86.5468
  2063.0000      0.0000    769.1655      6.1938     83.1359
  2063.2500      0.0000    776.3470      6.2976     81.4000
  2063.5000      0.0000    778.5216      6.3770     81.7883
  2063.7500      0.0000    776.6606      6.4273     83.6010
  2064.0000      0.0000    773.4905      6.4603     85.2445
  2064.2500      0.0000    772.1637      6.4931     85.3901
