~Version Information
VERS.                      2.0: CWLS Log ASCII Standard - VERSION 2.0
WRAP.                       NO: One line per depth step
~Well Information Block
STRT.FT               750.0000: 
STOP.FT              2433.0000: 
STEP.FT                 0.2500: 
NULL.                -999.2500: 
COMP.          Petrogulf Corporation: COMPANY
WELL.           McDaniel 9-34V: WELL
FLD.           Purgatorie River: FIELD
LOC.           620' FSL & 1800' FEL: LOCATION
PROV.                 Colorado: PROVINCE
CNTY.               Las Animas: COUNTRY
SRVC.                Patterson: SERVICE COMPANY
DATE.          Tue Sep 27 19:56:11 2005: LOG DATE
UWI.                          : UNIQUE WELL ID
~Curve Information Block
DEPT.FT            0 000 00 00: Depth
SP.mV                         : DIL Spontaneous Potential
RILD.Ohm-m                    : DIL Deep Resistivity
RILM.Ohm-m                    : DIL Medium Resistivity
RLL3.Ohm-m                    : DIL Shallow Resistivity
GR.GAPI                       : Gamma Ray
~Parameter Information Block
~A  Depth        SP         RILD        RILM        RLL3         GR     
# ...
  1310.0000    131.5510     12.4591     12.6147     15.5088    125.5364
  1310.2500    131.2000     12.6833     12.9390     16.5389    126.0539
  1310.5000    130.8980     12.8973     13.2889     17.4984    125.3605
  1310.7500    130.6317     13.0911     13.6495     18.2856    123.6307
  1311.0000    130.3828     13.2552     14.0008     18.8967    119.8949
  1311.2500    130.1326     13.3768     14.3179     19.3425    117.7160
  1311.5000    129.8671     13.4367     14.5714     19.5993    116.4858
  1311.7500    129.5809     13.4114     14.7277     19.6497    116.9513
  1312.0000    129.2781     13.2814     14.7525     19.5642    117.7287
  1312.2500    128.9694     13.0405     14.6166     19.5032    117.2347
  1312.5000    128.6669     12.7005     14.3046     19.5832    114.9356
  1312.7500    128.3783     12.2881     13.8222     19.7135    113.2517
  1313.0000    128.1039     11.8360     13.1986     19.5908    112.0535
  1313.2500    127.8364     11.3759     12.4820     18.9044    112.5515
  1313.5000    127.5644     10.9349     11.7283     17.5820    115.2394
  1313.7500    127.2785     10.5345     10.9905     15.8482    118.0894
  1314.0000    126.9767     10.1900     10.3104     14.0594    123.1564
  1314.2500    126.6681      9.9090      9.7164     12.4955    126.4100
  1314.5000    126.3731      9.6907      9.2242     11.2807    130.1077
  1314.7500    126.1198      9.5270      8.8403     10.4317    131.4954
  1315.0000    125.9394      9.4056      8.5647      9.9325    131.9196
  1315.2500    125.8608      9.3133      8.3931      9.7774    131.1864
  1315.5000    125.9065      9.2387      8.3184      9.9922    128.5733
  1315.7500    126.0895      9.1732      8.3307     10.6915    125.6285
  1316.0000    126.4125      9.1119      8.4162     12.1823    119.0741
  1316.2500    126.8671      9.0549      8.5574     14.9857    113.4280
  1316.5000    127.4336      9.0082      8.7324     19.5048    103.9312
  1316.7500    128.0808      8.9839      8.9167     25.3028     97.5710
  1317.0000    128.7675      8.9982      9.0875     30.6354     89.3013
  1317.2500    129.4447      9.0672      9.2284     33.1484     85.6054
  1317.5000    130.0607      9.2040      9.3345     31.5680     84.4751
  1317.7500    130.5669      9.4165      9.4135     26.7736     87.2709
  1318.0000    130.9252      9.7058      9.4838     21.0585     96.5524
  1318.2500    131.1136     10.0652      9.5696     16.4156    105.1850
  1318.5000    131.1305     10.4788      9.6954     13.5736    119.6314
  1318.7500    130.9949     10.9205      9.8834     12.2895    129.3685
  1319.0000    130.7438     11.3591     10.1510     12.0902    143.4636
  1319.2500    130.4260     11.7667     10.5110     12.6998    151.9246
  1319.5000    130.0941     12.1304     10.9715     14.0865    160.9552
  1319.7500    129.7951     12.4586     11.5366     16.3714    163.1780
  1320.0000    129.5624     12.7796     12.2065     19.7003    160.5011
  1320.2500    129.4103     13.1325     12.9778     24.0290    155.7126
  1320.5000    129.3323     13.5565     13.8444     28.8724    145.7332
  1320.7500    129.3035     14.0830     14.7978     33.2714    137.4556
  1321.0000    129.2877     14.7323     15.8292     36.1819    122.5303
  1321.2500    129.2462     15.5120     16.9300     37.0799    111.4475
  1321.5000    129.1465     16.4166     18.0935     36.2849     95.5324
  1321.7500    128.9687     17.4258     19.3135     34.7177     87.1408
  1322.0000    128.7077     18.5040     20.5823     33.3277     79.7561
  1322.2500    128.3710     19.6011     21.8865     32.6707     78.1149
  1322.5000    127.9733     20.6581     23.2025     32.8651     78.3283
  1322.7500    127.5299     21.6176     24.4931     33.7622     78.6396
  1323.0000    127.0518     22.4357     25.7093     35.0731     77.7920
  1323.2500    126.5433     23.0908     26.7967     36.4014     76.6282
  1323.5000    126.0028     23.5861     27.7080     37.3131     76.1546
  1323.7500    125.4264     23.9434     28.4149     37.5013     78.1803
  1324.0000    124.8117     24.1943     28.9156     36.9295     85.9326
  1324.2500    124.1613     24.3731     29.2334     35.8266     93.5185
  1324.5000    123.4840     24.5151     29.4082     34.5602    104.9540
  1324.7500    122.7948     24.6575     29.4857     33.4984    110.0917
  1325.0000    122.1127     24.8374     29.5087     32.9065    111.4840
  1325.2500    121.4577     25.0822     29.5134     32.8568    108.5809
  1325.5000    120.8481     25.3985     29.5296     33.1759    101.7299
  1325.7500    120.2971     25.7681     29.5823     33.5119     97.5802
  1326.0000    119.8117     26.1579     29.6931     33.5369     93.7956
  1326.2500    119.3917     26.5358     29.8802     33.1626     92.9114
  1326.5000    119.0311     26.8823     30.1561     32.6049     93.6767
  1326.7500    118.7208     27.1913     30.5245     32.2501     95.5300
  1327.0000    118.4518     27.4613     30.9780     32.4259     99.7776
  1327.2500    118.2198     27.6860     31.4962     33.2398    102.5504
  1327.5000    118.0274     27.8493     32.0461     34.5896    104.0880
  1327.7500    117.8847     27.9294     32.5838     36.3123    102.2363
  1328.0000    117.8078     27.9093     33.0577     38.2950     95.0514
  1328.2500    117.8149     27.7887     33.4134     40.3978     88.4328
  1328.5000    117.9216     27.5859     33.6013     42.2817     78.6996
  1328.7500    118.1368     27.3262     33.5844     43.4192     73.8408
  1329.0000    118.4608     27.0258     33.3445     43.3735     70.0211
  1329.2500    118.8849     26.6817     32.8855     42.0752     69.3804
  1329.5000    119.3943     26.2734     32.2292     39.8060     69.8911
  1329.7500    119.9710     25.7727     31.4063     36.9727     70.8529
  1330.0000    120.5964     25.1548     30.4454     33.9640     73.8200
  1330.2500    121.2532     24.4041     29.3655     31.1668     77.2057
  1330.5000    121.9250     23.5174     28.1734     28.9583     83.8948
  1330.7500    122.5955     22.5064     26.8681     27.5712     88.6212
  1331.0000    123.2472     21.3988     25.4496     26.9583     95.1060
  1331.2500    123.8616     20.2371     23.9290     26.8103     99.0354
  1331.5000    124.4211     19.0713     22.3351     26.7187    104.9114
  1331.7500    124.9120     17.9496     20.7146     26.3449    108.9919
  1332.0000    125.3280     16.9109     19.1252     25.4888    115.1256
  1332.2500    125.6724     15.9812     17.6247     24.0725    119.1333
  1332.5000    125.9581     15.1733     16.2613     22.1253    125.4318
  1332.7500    126.2047     14.4886     15.0673     19.8101    130.2041
  1333.0000    126.4341     13.9192     14.0582     17.4304    138.4279
  1333.2500    126.6655     13.4512     13.2349     15.3429    144.3093
  1333.5000    126.9104     13.0684     12.5883     13.8106    152.7369
  1333.7500    127.1700     12.7551     12.1028     12.9177    157.5339
  1334.0000    127.4343     12.4982     11.7607     12.6010    162.7571
  1334.2500    127.6838     12.2880     11.5439     12.7294    164.5204
  1334.5000    127.8924     12.1191     11.4360     13.1464    164.4852
  1334.7500    128.0325     11.9910     11.4231     13.6836    163.6064
  1335.0000    128.0809     11.9066     11.4940     14.1982    163.8538
  1335.2500    128.0241     11.8693     11.6392     14.6429    166.0076
  1335.5000    127.8629     11.8791     11.8492     15.0970    170.5773
  1335.7500    127.6148     11.9301     12.1123     15.7074    172.2469
  1336.0000    127.3130     12.0103     12.4115     16.5894    169.7676
  1336.2500    127.0024     12.1039     12.7225     17.8005    164.8601
  1336.5000    126.7335     12.1957     13.0136     19.3925    155.0073
  1336.7500    126.5550     12.2734     13.2487     21.3728    147.9826
  1337.0000    126.5075     12.3285     13.3942     23.4597    136.9206
  1337.2500    126.6173     12.3557     13.4276     24.9063    128.7733
  1337.5000    126.8934     12.3519     13.3438     24.8434    115.6275
  1337.7500    127.3260     12.3169     13.1562     23.0156    107.1846
