~Version Information
VERS.                      2.0: CWLS Log ASCII Standard - VERSION 2.0
WRAP.                       NO: One line per depth step
~Well Information Block
STRT.FT               554.1000: 
STOP.FT              2173.5000: 
STEP.FT                 0.1000: 
NULL.                -999.2500: 
COMP.          Petrogulf Corporation: COMPANY
WELL.            Montoya 6-14R: WELL
FLD.           Purgatorie River: FIELD
LOC.           867' FSL & 751' FWL: LOCATION
CNTY.               Las Animas: COUNTY
SRVC.                         : SERVICE COMPANY
DATE.          Mon Nov 15 06:14:10 2004: LOG DATE
UWI.           05 071 08242 00: UNIQUE WELL ID
STAT.                 Colorado: STATE
~Curve Information Block
DEPT.FT            0 000 00 00: Depth
DCAL.in                       : CDL Caliper
RHOB.g/cc                     : CDL Bulk Density
RHOC.g/cc                     : CDL Density Correction
DPOR.pu                       : CDL Density Porosity
GR.GAPI                       : Gamma Ray
NPOR.pu                       : Neutron Porosity
~Parameter Information Block
~A  Depth       DCAL        RHOB        RHOC        DPOR         GR         NPOR    
# ...
  1101.3000      8.0818      2.6082      0.2125      2.5327    124.6104     30.3337
  1101.4000      8.0818      2.6146      0.2049      2.1442    117.9121     30.4311
  1101.5000      8.0932      2.6062      0.1164      2.6560    116.1582     29.8499
  1101.6000      8.0932      2.5936      0.1195      3.4181    119.2998     29.2360
  1101.7000      8.0932      2.5902      0.1080      3.6225    122.7297     29.1317
  1101.8000      8.0782      2.5946      0.0762      3.3603    122.2658     29.2986
  1101.9000      8.0782      2.5990      0.0694      3.0939    114.6067     29.0295
  1102.0000      8.0244      2.6037      0.0836      2.8060    103.0935     28.4247
  1102.1000      8.0244      2.6185      0.0695      1.9117     98.6862     28.4767
  1102.2000      8.0244      2.6503      0.0538     -0.0169    104.4245     29.2451
  1102.3000      7.9853      2.6814      0.0712     -1.9033    111.1475     29.9967
  1102.4000      7.9853      2.6867      0.0372     -2.2238    111.6665     30.3941
  1102.5000      7.9753      2.6713      0.0498     -1.2920    106.2076     30.3352
  1102.6000      7.9753      2.6520      0.0602     -0.1217     99.7139     29.8888
  1102.7000      7.9753      2.6328      0.0289      1.0422     97.4539     29.3683
  1102.8000      7.9746      2.6145     -0.0196      2.1520     98.3361     28.9674
  1102.9000      7.9746      2.5996     -0.0316      3.0528    100.7073     28.9462
  1103.0000      7.9747      2.5893      0.0035      3.6818    106.0342     29.4990
  1103.1000      7.9747      2.5804      0.0413      4.2165    113.6402     29.9825
  1103.2000      7.9747      2.5710      0.0480      4.7885    120.9600     29.6682
  1103.3000      7.9738      2.5674      0.0264      5.0052    125.4841     29.0105
  1103.4000      7.9738      2.5762      0.0337      4.4749    125.5011     28.5977
  1103.5000      7.9728      2.5926      0.0539      3.4787    120.8972     28.1780
  1103.6000      7.9728      2.6078      0.0657      2.5547    114.7340     27.8290
  1103.7000      7.9728      2.6134      0.0668      2.2157    110.0513     27.7317
  1103.8000      7.9722      2.6052      0.0570      2.7165    108.2098     27.5320
  1103.9000      7.9722      2.5922      0.0281      3.5031    108.7718     27.2605
  1104.0000      7.9718      2.5876      0.0365      3.7829    109.1241     26.8983
  1104.1000      7.9718      2.5937      0.0225      3.4130    108.1637     26.0182
  1104.2000      7.9718      2.6073      0.0583      2.5900    105.8544     24.9318
  1104.3000      7.9712      2.6172      0.0894      1.9905    100.0576     24.6851
  1104.4000      7.9712      2.6056      0.0797      2.6895     91.9510     25.3754
  1104.5000      7.9704      2.5736      0.0262      4.6333     88.5105     26.0365
  1104.6000      7.9704      2.5451      0.0004      6.3604     91.9195     26.5240
  1104.7000      7.9704      2.5363      0.0169      6.8931     96.2185     27.3793
  1104.8000      7.9699      2.5385      0.0488      6.7579     95.8492     28.4841
  1104.9000      7.9699      2.5400      0.0393      6.6642     91.7090     29.2942
  1105.0000      7.9698      2.5438      0.0636      6.4393     87.0983     29.3327
  1105.1000      7.9698      2.5536      0.0731      5.8398     85.3859     28.4176
  1105.2000      7.9698      2.5622      0.0778      5.3230     87.6559     27.3121
  1105.3000      7.9699      2.5663      0.0678      5.0697     89.9040     26.7658
  1105.4000      7.9699      2.5735      0.0871      4.6365     88.4575     26.6025
  1105.5000      7.9690      2.5844      0.0678      3.9778     83.5326     26.1492
  1105.6000      7.9690      2.5918      0.0974      3.5302     77.0263     25.3811
  1105.7000      7.9690      2.5890      0.0810      3.6974     70.7680     25.0475
  1105.8000      7.9667      2.5823      0.0605      4.1036     67.9417     25.2928
  1105.9000      7.9667      2.5874      0.0552      3.7925     70.9287     25.2234
  1106.0000      7.9640      2.6041      0.0760      2.7820     77.1387     24.2162
  1106.1000      7.9640      2.6168      0.0824      2.0127     81.2307     22.8561
  1106.2000      7.9640      2.6211      0.0948      1.7491     80.3636     21.9785
  1106.3000      7.9619      2.6233      0.0867      1.6163     76.0290     21.7888
  1106.4000      7.9619      2.6242      0.1141      1.5607     71.3512     22.0066
  1106.5000      7.9611      2.6176      0.1089      1.9640     70.8608     22.4708
  1106.6000      7.9611      2.6062      0.0535      2.6523     75.5481     23.3440
  1106.7000      7.9611      2.6004      0.0580      3.0032     80.7458     24.3484
  1106.8000      7.9627      2.5962      0.0773      3.2604     83.2691     24.8241
  1106.9000      7.9627      2.5841      0.0462      3.9950     82.2941     24.5451
  1107.0000      7.9683      2.5628      0.0198      5.2830     78.4028     24.1946
  1107.1000      7.9683      2.5396      0.0038      6.6910     74.9931     24.4042
  1107.2000      7.9683      2.5268      0.0026      7.4680     75.2785     24.7483
  1107.3000      7.9812      2.5141      0.0429      8.2348     82.1345     24.9273
  1107.4000      7.9812      2.4676      0.0338     11.0525     93.8766     25.3742
  1107.5000      8.0033      2.3802     -0.0229     16.3532    102.8075     26.4230
  1107.6000      8.0033      2.2742     -0.0563     22.7741    104.6976     27.7708
  1107.7000      8.0033      2.1601     -0.1041     29.6916    101.7525     29.0956
  1107.8000      8.0343      2.0445     -0.0830     36.6995     96.8569     30.4279
  1107.9000      8.0343      1.9436     -0.1163     42.8100     90.9415     31.4407
  1108.0000      8.0713      1.8489     -0.1077     48.5499     85.5111     31.6890
  1108.1000      8.0713      1.7265     -0.0877     55.9670     80.9915     31.5873
  1108.2000      8.0713      1.5829     -0.1458     64.6724     76.1261     31.6207
  1108.3000      8.1007      1.4807     -0.1673     70.8654     71.8989     31.6785
  1108.4000      8.1007      1.4546     -0.0172     72.4461     68.3556     31.7820
  1108.5000      8.1197      1.4729      0.0219     71.3413     63.5949     32.0802
  1108.6000      8.1197      1.5109      0.0017     69.0344     61.4804     32.3805
  1108.7000      8.1197      1.5811      0.0411     64.7791     65.5401     32.5329
  1108.8000      8.1372      1.6842      0.1293     58.5332     71.3131     32.6313
  1108.9000      8.1372      1.8064      0.1806     51.1298     74.3078     33.0331
  1109.0000      8.1359      1.9426      0.1892     42.8738     74.7429     33.8556
  1109.1000      8.1359      2.0728      0.2401     34.9795     74.7347     34.3638
  1109.2000      8.1359      2.1614      0.2504     29.6133     74.7726     34.0699
  1109.3000      8.0879      2.2079      0.1757     26.7958     74.1115     33.1427
  1109.4000      8.0879      2.2443      0.1866     24.5876     74.9634     32.0791
  1109.5000      8.0298      2.2800      0.1635     22.4217     79.4464     31.8084
  1109.6000      8.0298      2.2953      0.1168     21.4965     87.3680     32.4685
  1109.7000      8.0298      2.2818      0.0513     22.3175     96.2145     32.9883
  1109.8000      8.0019      2.2610      0.0185     23.5778    102.0397     33.2097
  1109.9000      8.0019      2.2535      0.0498     24.0295    103.4585     33.6063
  1110.0000      7.9956      2.2545      0.0961     23.9673    101.4573     34.0359
  1110.1000      7.9956      2.2529      0.0675     24.0644     99.5054     34.1221
  1110.2000      7.9956      2.2493      0.1051     24.2827    100.2668     33.5968
  1110.3000      7.9841      2.2468      0.0847     24.4392    102.0585     32.8941
  1110.4000      7.9841      2.2378      0.1252     24.9846    102.3972     32.7134
  1110.5000      7.9617      2.2089      0.1062     26.7341     99.8988     33.0103
  1110.6000      7.9617      2.1713      0.0486     29.0104     95.1148     33.5599
  1110.7000      7.9617      2.1595      0.0211     29.7298     91.0988     34.2271
  1110.8000      7.9463      2.1882      0.0626     27.9871     90.7424     34.5862
