~Version Information
VERS.                      2.0: CWLS Log ASCII Standard - VERSION 2.0
WRAP.                       NO: One line per depth step
~Well Information Block
STRT.FT                 1.5000: 
STOP.FT              1895.2500: 
STEP.FT                 0.2500: 
NULL.                -999.2500: 
COMP.          Petrogulf Corporation: COMPANY
WELL.             State 16-32R: WELL
FLD.           Purgatorie River: FIELD
LOC.           1849' FNL & 1677' FEL: LOCATION
CNTY.               Las Animas: COUNTY
SRVC.                         : SERVICE COMPANY
DATE.          Thu May 20 08:40:19 2004: LOG DATE
UWI.           05 071 08033 00: UNIQUE WELL ID
STAT.                 Colorado: STATE
~Curve Information Block
DEPT.FT            0 000 00 00: Depth
GR.GAPI                       : Gamma Ray
CCL.                          : Casing Collar Locator
TT3.usec                      : CBL 3' Travel Time
AMP3.mV                       : CBL 3' Amplitude
~Parameter Information Block
~A  Depth        GR         CCL         TT3         AMP3    
# ...
  1375.0000    134.6671      0.0000    292.2498     20.2647
  1375.2500    129.0645      2.0000    292.6223     19.7874
  1375.5000    127.2429      2.0000    293.0944     19.5087
  1375.7500    129.0672      0.0000    294.1944     19.5645
  1376.0000    132.5754      0.0000    296.1190     20.0836
  1376.2500    135.3049      0.0000    297.2076     21.1165
  1376.5000    135.7655      0.0000    294.2515     22.5080
  1376.7500    133.6812      0.0000    287.0191     23.7518
  1377.0000    129.3579      0.0000    278.5057     24.8939
  1377.2500    123.5791      0.0000    269.4405     27.1922
  1377.5000    117.9061      0.0000    259.5004     31.2267
  1377.7500    114.1710      0.0000    251.0673     35.7673
  1378.0000    113.1668      0.0000    246.2630     39.5155
  1378.2500    113.8928      0.0000    244.4072     42.3533
  1378.5000    114.2362      0.0000    243.8704     44.7895
  1378.7500    112.6076      0.0000    243.7243     47.1753
  1379.0000    109.0272      0.0000    243.6836     49.4396
  1379.2500    104.7902      0.0000    243.6804     51.2549
  1379.5000    101.5170      0.0000    243.6826     52.3460
  1379.7500    100.7087      0.0000    243.6720     52.7201
  1380.0000    103.5595      0.0000    243.6414     52.7574
  1380.2500    110.2787      0.0000    243.5858     52.9199
  1380.5000    119.3932      0.0000    243.5130     53.2570
  1380.7500    128.2057      0.0000    243.4511     53.4112
  1381.0000    134.3015      0.0000    243.4239     53.1154
  1381.2500    136.6344      0.0000    243.4331     52.4810
  1381.5000    135.4300      0.0000    243.4726     51.7606
  1381.7500    131.5623      0.0000    243.5401     51.0068
  1382.0000    126.0484      0.0000    243.6265     50.1325
  1382.2500    119.5567      0.0000    243.7118     49.1505
  1382.5000    111.9737      0.0000    243.7831     48.2090
  1382.7500    102.6493      0.0000    243.8462     47.5261
  1383.0000     91.4990      0.0000    243.9135     47.2855
  1383.2500     80.0153      0.0000    243.9945     47.4095
  1383.5000     70.8690      0.0000    244.0889     47.5441
  1383.7500     66.3533      0.0000    244.1684     47.4839
  1384.0000     67.3469      0.0000    244.1877     47.4084
  1384.2500     73.3086      0.0000    244.1280     47.5115
  1384.5000     82.3006      0.0000    244.0222     47.6300
  1384.7500     91.1008      0.0000    243.9307     47.4147
  1385.0000     96.5557      0.0000    243.8925     46.7163
  1385.2500     97.6062      0.0000    243.9067     45.6533
  1385.5000     95.8312      0.0000    243.9601     44.4020
  1385.7500     93.9484      0.0000    244.0593     43.0866
  1386.0000     93.8600      0.0000    244.2178     41.8400
  1386.2500     95.6179      0.0000    244.4014     40.8641
  1386.5000     97.5955      0.0000    244.5238     40.3694
  1386.7500     97.8119      0.0000    244.5319     40.3949
  1387.0000     95.6151      0.0000    244.4597     40.7203
  1387.2500     92.2284      0.0000    244.3764     41.0335
  1387.5000     89.7324      0.0000    244.3188     41.1931
  1387.7500     89.6709      0.0000    244.2788     41.3084
  1388.0000     92.3414      0.0000    244.2276     41.5336
  1388.2500     96.8727      0.0000    244.1492     41.8185
  1388.5000    101.9012      0.0000    244.0463     41.9836
  1388.7500    106.5241      0.0000    243.9284     41.9929
  1389.0000    110.9171      0.0000    243.8141     41.9762
  1389.2500    116.1412      0.0000    243.7309     41.9789
  1389.5000    123.1654      0.0000    243.6930     41.8331
  1389.7500    131.8332      0.0000    243.6992     41.3115
  1390.0000    140.7967      0.0000    243.7658     40.3252
  1390.2500    148.4660      0.0000    243.9674     38.9955
  1390.5000    153.8678      0.0000    244.5656     37.5700
  1390.7500    156.7758      0.0000    246.3968     36.1882
  1391.0000    157.4586      0.0000    251.0747     34.7452
  1391.2500    156.5750      0.0000    259.5620     33.0865
  1391.5000    155.4429      0.0000    269.8178     31.2775
  1391.7500    156.1335      0.0000    277.8834     29.5900
  1392.0000    160.4200      0.0000    281.9626     28.2758
  1392.2500    167.9820      0.0000    283.2671     27.3280
  1392.5000    175.9190      0.0000    283.5247     26.4320
  1392.7500    180.4702      0.0000    283.5776     25.2857
  1393.0000    179.3028      0.0000    283.6498     23.9145
  1393.2500    172.4484      0.0000    283.7828     22.5357
  1393.5000    161.9600      0.0000    283.9723     21.2956
  1393.7500    151.2190      0.0000    284.1909     20.2357
  1394.0000    143.9252      0.0000    284.4300     19.3392
  1394.2500    142.4522      0.0000    284.6842     18.5822
  1394.5000    146.4123      0.0000    284.8748     18.0086
  1394.7500    153.0228      0.0000    284.8994     17.7106
  1395.0000    159.1660      0.0000    284.7842     17.7209
  1395.2500    162.9524      0.0000    284.6610     17.9557
  1395.5000    163.5507      0.0000    284.5782     18.2739
  1395.7500    160.7183      0.0000    284.4841     18.5542
  1396.0000    155.2848      0.0000    284.3655     18.7334
  1396.2500    149.2492      0.0000    284.2604     18.8023
  1396.5000    144.3867      0.0000    284.2187     18.7143
  1396.7500    140.9873      0.0000    284.3227     18.3397
  1397.0000    138.2504      0.0000    284.6131     17.6481
  1397.2500    135.2345      0.0000    284.9805     16.8695
  1397.5000    131.2360      0.0000    285.2746     16.2852
  1397.7500    126.1965      0.0000    285.4724     15.9400
  1398.0000    121.2309      0.0000    285.6140     15.7216
  1398.2500    118.0389      0.0000    285.7046     15.5557
  1398.5000    117.3711      0.0000    285.7607     15.3950
  1398.7500    118.3152      0.0000    285.7974     15.1962
  1399.0000    119.0295      0.0000    285.8058     14.9924
  1399.2500    118.0427      0.0000    285.8172     14.9028
  1399.5000    115.1009      0.0000    285.8731     15.0313
  1399.7500    111.1166      0.0000    285.9534     15.3191
  1400.0000    107.4861      0.0000    286.0116     15.5379
  1400.2500    105.3637      0.0000    286.0462     15.5226
  1400.5000    105.2199      0.0000    286.1039     15.3756
  1400.7500    106.6714      0.0000    286.1925     15.3804
  1401.0000    108.6741      0.0000    286.2463     15.7215
  1401.2500    110.1056      0.0000    286.2069     16.3121
  1401.5000    110.4301      0.0000    286.0619     16.9312
  1401.7500    109.8789      0.0000    285.8360     17.4555
  1402.0000    108.9799      0.0000    285.5748     17.9292
  1402.2500    107.9056      0.0000    285.3089     18.5072
  1402.5000    106.2281      0.0000    285.0579     19.2934
  1402.7500    103.2240      0.0000    284.8531     20.1947
  1403.0000     98.5075      0.0000    284.7184     21.0264
  1403.2500     92.5112      0.0000    284.6568     21.6931
  1403.5000     86.3338      0.0000    284.6590     22.1621
  1403.7500     81.1009      0.0000    284.7209     22.3968
  1404.0000     77.5373      0.0000    284.8612     22.4203
  1404.2500     75.8651      0.0000    285.0854     22.3673
  1404.5000     75.6779      0.0000    285.3149     22.4118
  1404.7500     76.1136      0.0000    285.3982     22.6516
  1405.0000     76.8812      0.0000    285.2439     23.0354
  1405.2500     79.3521      0.0000    284.9116     23.3889
  1405.5000     86.0337      0.0000    284.5396     23.4925
  1405.7500     98.3001      0.0000    284.2337     23.1586
  1406.0000    114.6284      0.0000    284.0352     22.3828
  1406.2500    131.3850      0.0000    283.9427     21.3850
  1406.5000    145.1633      0.0000    283.9461     20.3603
  1406.7500    154.0838      0.0000    284.1143     19.2948
  1407.0000    157.6364      0.0000    285.0266     18.0890
  1407.2500    156.5471      0.0000    289.5697     16.6801
  1407.5000    152.8022      0.0000    306.9176     15.0414
  1407.7500    148.6923      0.0000    353.6496     13.2104
  1408.0000    145.2411      0.0000    440.0110     11.2922
  1408.2500    141.7940      0.0000    549.0793      9.4354
