
~Version Information
 VERS.                                  2.0 : CWLS LAS VERSION
 WRAP.                                   NO : WRAPING MODE
 SWARE .                 MController 2.5.0N : SOFTWARE VERSION
~Well Information
 WELL.                          Whinny 42-4 : WELL
 COMP.                                  N/A : COMPANY
 FLD.                      Purgatoire River : FIELD
 LOC.                SE/NE Sec 2 T33S  R67W : LOCATION
 DATE.                           8/19-20/05 : DATE(S) LOGGED
 SRVC.       BLANCO Geological Services LLC : SERVICE COMPANY
 STAT.                                   CO : STATE
 CNTY.                           Las Animas : COUNTY
 CTRY.                                  USA : COUNTRY
 API.                       05-071-08406-00 : API NUMBER
 STRT.FT                             574.00 : START DEPTH
 STOP.FT                            2360.00 : STOP DEPTH
 STEP.FT                               1.00 : DEPTH INCREMENT
 NULL.                                -9999 : NULL VALUE
~Curve information
 DEPTH.FT                                   :
 ROP.MIN/FT                                 :
 GAS.UNITS                                  :
~ASCII Log data
# ...
      1774.0         0.37        204.7 
      1775.0         0.50        209.5 
      1776.0         0.52        197.9 
      1777.0         0.30        196.3 
      1778.0         0.23        195.9 
      1779.0         0.33        198.1 
      1780.0         0.40        201.5 
      1781.0         0.40        206.1 
      1782.0         0.40        206.0 
      1783.0         0.10        204.5 
      1784.0         0.30        201.9 
      1785.0         0.20        202.9 
      1786.0         0.30        206.2 
      1787.0         0.32        209.6 
      1788.0         0.20        207.7 
      1789.0         0.30        204.7 
      1790.0         0.10        204.1 
      1791.0         0.40        204.5 
      1792.0         0.30        207.4 
      1793.0         0.30        210.7 
      1794.0         0.30        219.8 
      1795.0         0.37        331.2 
      1796.0         0.47        219.9 
      1797.0         0.17        193.7 
      1798.0         0.48        168.9 
      1799.0         0.20        168.7 
      1800.0         0.40        184.4 
      1801.0         0.40        195.9 
      1802.0         0.27        198.7 
      1803.0         0.40        198.8 
      1804.0         0.40        198.8 
      1805.0         0.40        217.7 
      1806.0         0.30        310.7 
      1807.0         0.10        311.9 
      1808.0         0.17        275.2 
      1809.0         0.22        215.3 
      1810.0         0.23        175.4 
      1811.0         0.30        158.7 
      1812.0         0.20        156.4 
      1813.0         0.30        158.2 
      1814.0         0.10        160.0 
      1815.0         0.30        168.5 
      1816.0         0.20        178.4 
      1817.0         0.40        197.9 
      1818.0         0.20        197.0 
      1819.0         0.50        202.6 
      1820.0         0.10        205.2 
      1821.0         0.42        200.4 
      1822.0         0.30        193.6 
      1823.0         0.30        191.4 
      1824.0         0.30        191.2 
      1825.0         0.30        194.9 
      1826.0         0.20        198.8 
      1827.0         0.30        202.2 
      1828.0         0.30        201.3 
      1829.0         0.20        200.2 
      1830.0         0.20        199.3 
      1831.0         0.30        201.3 
      1832.0         0.30        202.2 
      1833.0         0.58        204.2 
      1834.0         0.30        205.6 
      1835.0         0.50        206.3 
      1836.0         0.40        196.9 
      1837.0         0.27        192.7 
      1838.0         0.43        191.6 
      1839.0         0.50        203.5 
      1840.0         0.58        203.2 
      1841.0         0.50        203.5 
      1842.0         0.60        222.7 
      1843.0         0.97        200.8 
      1844.0         0.43        196.5 
      1845.0         0.60        196.6 
      1846.0         0.22        192.3 
      1847.0         0.53        179.9 
      1848.0         0.70        193.0 
      1849.0         0.30        189.8 
      1850.0         0.50        186.4 
      1851.0         0.37        187.5 
      1852.0         0.47        247.6 
      1853.0         0.48        205.0 
      1854.0         0.70        160.6 
      1855.0         0.70        163.3 
      1856.0         0.67        146.0 
      1857.0         0.63         90.2 
      1858.0         0.65        170.2 
      1859.0         0.57        186.7 
      1860.0         0.53        192.9 
      1861.0         0.40        190.3 
      1862.0         0.30        190.2 
      1863.0         0.60        189.8 
      1864.0         0.50        190.5 
      1865.0         0.30        193.2 
      1866.0         0.42        195.2 
      1867.0         0.60        197.5 
      1868.0         0.40        199.5 
      1869.0         0.50        198.3 
      1870.0         0.40        197.5 
      1871.0         0.30        198.2 
      1872.0         0.20        196.3 
      1873.0         0.62        193.4 
      1874.0         0.60        194.2 
      1875.0         0.50        281.3 
      1876.0         0.63        186.0 
      1877.0         0.47        170.1 
      1878.0         0.60        182.9 
      1879.0         0.50        192.2 
      1880.0         0.55        187.6 
      1881.0         0.40        186.0 
      1882.0         0.50        187.5 
      1883.0         0.40        196.4 
      1884.0         0.70        193.5 
      1885.0         0.50        196.8 
      1886.0         0.42        194.5 
      1887.0         0.60        201.9 
      1888.0         0.70        198.0 
      1889.0         0.40        194.5 
      1890.0         0.50        191.4 
      1891.0         0.40        195.5 
      1892.0         0.50        203.5 
      1893.0         0.68        211.2 
      1894.0         0.53        190.0 
      1895.0         0.40        183.9 
      1896.0         0.43        185.0 
      1897.0         0.20        186.7 
      1898.0         0.40        196.4 
      1899.0         0.40        203.3 
      1900.0         0.30        207.8 
      1901.0         0.42        196.2 
      1902.0         0.50        176.9 
      1903.0         0.40        177.7 
      1904.0         0.50        184.9 
      1905.0         0.80        191.8 
      1906.0         0.50        204.3 
      1907.0         0.48        215.2 
      1908.0         0.67        234.6 
      1909.0         0.53        173.4 
      1910.0         0.40        167.2 
      1911.0         0.40        168.4 
      1912.0         0.40        169.7 
      1913.0         0.30        172.8 
      1914.0         4.93        164.9 
      1915.0         2.10        170.2 
      1916.0         2.08        288.3 
      1917.0         5.53        160.6 
      1918.0         7.20        197.2 
      1919.0        27.57        291.4 
      1920.0         0.60        180.4 
      1921.0         0.27        150.4 
      1922.0         0.32        140.5 
      1923.0         0.30        142.6 
      1924.0         0.53        167.1 
      1925.0         0.37        196.4 
      1926.0         0.40        217.1 
      1927.0         0.50        214.3 
      1928.0         0.10        212.4 
      1929.0         0.30        208.1 
      1930.0         0.50        205.4 
      1931.0         0.52        208.1 
      1932.0         0.10        208.3 
      1933.0         0.30        208.6 
      1934.0         0.30        220.2 
      1935.0         0.43        256.1 
      1936.0         0.30        237.1 
      1937.0         0.57        157.9 
      1938.0         0.37        138.6 
      1939.0         0.30        137.1 
      1940.0         0.52        138.4 
      1941.0         0.50        141.5 
      1942.0         0.50        141.7 
      1943.0         0.30        139.1 
      1944.0         0.40        131.9 
      1945.0         0.53        122.1 
      1946.0         0.27        144.5 
      1947.0         0.92        138.5 
      1948.0         0.80        126.1 
      1949.0         0.90        130.8 
      1950.0         0.57        116.9 
      1951.0         0.63        128.9 
      1952.0         0.62        124.6 
      1953.0         0.67        100.2 
      1954.0         0.73         90.0 
      1955.0         0.90         91.4 
      1956.0         0.82         97.8 
      1957.0         0.93        103.0 
      1958.0         0.73        148.5 
      1959.0         1.00        155.3 
      1960.0         0.78        111.5 
      1961.0         0.70        103.7 
      1962.0         0.40        105.4 
      1963.0         0.60        110.9 
      1964.0         0.40        109.0 
      1965.0         0.60         88.8 
      1966.0         1.08        136.8 
      1967.0         0.47        113.3 
      1968.0         0.80         75.5 
      1969.0         1.10        161.3 
      1970.0         0.78        117.0 
      1971.0         0.87         86.6 
      1972.0         0.70         80.7 
      1973.0         1.03         76.5 
