~Version Information
 VERS.                                  2.0 : CWLS LAS VERSION
 WRAP.                                   NO : WRAPING MODE
 SWARE .                 MController 2.5.0J : SOFTWARE VERSION
~Well Information
 WELL.                         State 16-41R : WELL
 COMP.                Petrogulf Corporation : COMPANY
 FLD.                      Purgatoire River : FIELD
 LOC.               NE/NE Sec 16 T33S R67W  : LOCATION
 DATE.                          10/17-18/05 : DATE(S) LOGGED
 SRVC.       BLANCO Geological Services LLC : SERVICE COMPANY
 STAT.                                   CO : STATE
 CNTY.                           Las Animas : COUNTY
 CTRY.                                  USA : COUNTRY
 API.                       05-071-08410-00 : API NUMBER
 STRT.FT                              11.00 : START DEPTH
 STOP.FT                            1635.00 : STOP DEPTH
 STEP.FT                               1.00 : DEPTH INCREMENT
 NULL.                                -9999 : NULL VALUE
~Curve information
 DEPTH.FT                                   :
 ROP.MIN/FT                                 :
 GAS.UNITS                                  :
~ASCII Log data
# ...
       611.0         0.25         37.4 
       612.0         0.23         36.6 
       613.0         0.23         35.5 
       614.0         0.23         35.2 
       615.0         0.27         34.3 
       616.0         0.27         33.7 
       617.0         0.30         33.3 
       618.0         0.27         32.6 
       619.0         0.23         31.8 
       620.0         0.27         31.2 
       621.0         0.20         30.7 
       622.0         0.23         30.4 
       623.0         0.20         30.3 
       624.0         0.32         29.3 
       625.0         0.33         27.8 
       626.0         2.70         63.4 
       627.0         0.32         56.6 
       628.0         0.30         53.2 
       629.0         0.33         49.9 
       630.0         0.27         46.9 
       631.0         0.17         45.1 
       632.0         0.30         43.6 
       633.0         0.20         42.0 
       634.0         0.23         40.9 
       635.0         0.23         40.3 
       636.0         0.13         40.1 
       637.0         0.07         39.8 
       638.0         0.10         39.7 
       639.0         0.13         39.7 
       640.0         0.13         39.7 
       641.0         0.17         39.9 
       642.0         0.17         39.9 
       643.0         0.22         39.7 
       644.0         0.17         38.9 
       645.0         0.13         38.8 
       646.0         0.13         38.8 
       647.0         0.17         38.5 
       648.0         0.27         38.4 
       649.0         0.37         37.8 
       650.0         0.23         36.6 
       651.0         0.20         36.2 
       652.0         0.20         35.8 
       653.0         0.20         35.3 
       654.0         0.17         34.6 
       655.0         0.20         34.1 
       656.0         1.45         75.7 
       657.0         0.33         76.9 
       658.0         0.27         76.4 
       659.0         0.27         73.1 
       660.0         0.23         68.7 
       661.0         0.27         64.9 
       662.0         0.20         60.4 
       663.0         0.20         57.5 
       664.0         0.17         54.9 
       665.0         0.20         52.7 
       666.0         0.23         50.4 
       667.0         0.20         48.9 
       668.0         0.22         46.7 
       669.0         0.20         45.4 
       670.0         0.20         44.8 
       671.0         0.20         45.2 
       672.0         0.13         45.5 
       673.0         0.13         46.2 
       674.0         0.13         46.1 
       675.0         0.17         46.1 
       676.0         0.20         46.2 
       677.0         0.13         46.4 
       678.0         0.17         46.2 
       679.0         0.10         45.2 
       680.0         0.20         45.5 
       681.0         0.20         45.2 
       682.0         0.17         45.1 
       683.0         0.20         44.7 
       684.0         0.27         44.0 
       685.0         0.23         41.8 
       686.0         1.68         90.5 
       687.0         0.30         89.1 
       688.0         0.27         83.9 
       689.0         0.23         79.0 
       690.0         0.20         73.9 
       691.0         0.20         69.8 
       692.0         0.15         66.5 
       693.0         0.13         64.2 
       694.0         0.13         62.2 
       695.0         0.20         60.3 
       696.0         0.20         58.2 
       697.0         0.23         56.4 
       698.0         0.23         54.5 
       699.0         0.30         53.0 
       700.0         0.30         51.3 
       701.0         0.23         50.0 
       702.0         0.23         49.3 
       703.0         0.27         49.2 
       704.0         0.20         48.2 
       705.0         0.15         47.6 
       706.0         0.20         47.6 
       707.0         0.23         47.4 
       708.0         0.23         47.1 
       709.0         0.23         45.7 
       710.0         0.23         45.5 
       711.0         0.23         45.0 
       712.0         0.20         42.5 
       713.0         0.23         41.1 
       714.0         0.20         46.7 
       715.0         0.30         69.4 
       716.0         1.52        116.5 
       717.0         0.27         87.5 
       718.0         0.30         78.5 
       719.0         0.27         70.0 
       720.0         0.33         65.2 
       721.0         0.27         60.6 
       722.0         0.23         56.9 
       723.0         0.23         54.6 
       724.0         0.25         53.7 
       725.0         0.17         53.0 
       726.0         0.17         52.8 
       727.0         0.13         52.3 
       728.0         0.20         52.1 
       729.0         0.20         51.3 
       730.0         0.27         50.9 
       731.0         0.17         50.8 
       732.0         0.17         50.8 
       733.0         0.17         50.3 
       734.0         0.23         50.2 
       735.0         0.23         50.1 
       736.0         0.27         50.5 
       737.0         0.27         51.2 
       738.0         0.28         51.0 
       739.0         0.27         49.8 
       740.0         0.30         48.8 
       741.0         0.27         45.2 
       742.0         0.27         41.1 
       743.0         0.20         38.2 
       744.0         0.13         40.6 
       745.0         0.23         49.7 
       746.0         1.62        128.4 
       747.0         0.30         95.9 
       748.0         0.20         83.2 
       749.0         0.23         76.4 
       750.0         0.17         70.1 
       751.0         0.20         66.1 
       752.0         0.23         62.2 
       753.0         0.17         58.5 
       754.0         0.20         56.4 
       755.0         0.22         54.2 
       756.0         0.20         52.3 
       757.0         0.17         50.9 
       758.0         0.17         50.1 
       759.0         0.17         49.3 
       760.0         0.17         49.5 
       761.0         0.20         49.2 
       762.0         0.20         48.8 
       763.0         0.20         48.7 
       764.0         0.20         48.5 
       765.0         0.23         48.7 
       766.0         0.23         48.8 
       767.0         0.20         49.0 
       768.0         0.37         49.4 
       769.0         0.23         47.4 
       770.0         0.28         47.3 
       771.0         0.27         47.1 
       772.0         0.27         44.5 
       773.0         0.17         41.0 
       774.0         0.17         40.5 
       775.0         0.27         49.0 
       776.0         1.82        135.1 
       777.0         0.20        122.7 
       778.0         0.07        116.3 
       779.0         0.13        114.2 
       780.0         0.23        109.4 
       781.0         0.23         96.0 
       782.0         0.23         70.1 
       783.0         0.17         41.5 
       784.0         0.20         61.1 
       785.0         0.20         76.6 
       786.0         0.20         84.2 
       787.0         0.23         87.6 
       788.0         0.23         88.7 
       789.0         0.17         89.5 
       790.0         0.23         90.0 
       791.0         0.28         88.4 
       792.0         0.20         89.3 
       793.0         0.23         96.1 
       794.0         0.20         96.9 
       795.0         0.20         91.2 
       796.0         0.27         78.1 
       797.0         0.20         66.2 
       798.0         0.17         82.2 
       799.0         0.13        106.7 
       800.0         0.13        139.0 
       801.0         0.10        167.0 
       802.0         0.17        231.4 
       803.0         0.17        309.3 
       804.0         0.17        329.3 
       805.0         0.17        327.5 
       806.0         1.62        304.3 
       807.0         0.30        101.0 
       808.0         0.23         92.5 
       809.0         0.23         87.6 
       810.0         0.23         83.7 
