~Version Information
VERS.                      2.0: CWLS Log ASCII Standard - VERSION 2.0
WRAP.                       NO: One line per depth step
~Well Information Block
STRT.FT               954.4000: 
STOP.FT              2380.0000: 
STEP.FT                 0.1000: 
NULL.                -999.2500: 
COMP.          Petrogulf Corporation: COMPANY
WELL.             State 16-24V: WELL
FLD.           Purgatorie River: FIELD
LOC.           481' FSL & 2419' FWL: LOCATION
CNTY.               Las Animas: COUNTY
SRVC.                         : SERVICE COMPANY
DATE.          Tue May 04 07:31:25 2004: LOG DATE
UWI.           05 071 08014 00: UNIQUE WELL ID
STAT.                 Colorado: STATE
~Curve Information Block
DEPT.FT            0 000 00 00: Depth
DCAL.in                       : CDL Caliper
RHOB.g/cc                     : CDL Bulk Density
RHOC.g/cc                     : CDL Density Correction
DPOR.pu                       : CDL Density Porosity
GR.GAPI                       : Gamma Ray
~Parameter Information Block
~A  Depth       DCAL        RHOB        RHOC        DPOR         GR     
# ...
  2276.0000      7.8837      2.5535      0.1787      5.8513    110.2500
  2276.1000      7.8837      2.5113      0.0931      8.4060    102.1401
  2276.2000      7.8837      2.4678      0.0514     11.0417     94.1953
  2276.3000      7.8808      2.4387      0.0240     12.8084     89.9695
  2276.4000      7.8808      2.4296     -0.0226     13.3567     84.0462
  2276.5000      7.8789      2.4510     -0.0535     12.0612     84.1003
  2276.6000      7.8789      2.5069      0.0123      8.6726     88.6857
  2276.7000      7.8789      2.5733      0.1921      4.6468     83.7162
  2276.8000      7.8722      2.6009      0.1505      2.9768     67.4734
  2276.9000      7.8722      2.5663      0.1310      5.0749     53.9533
  2277.0000      7.8733      2.5024      0.0717      8.9483     50.7982
  2277.1000      7.8733      2.4660      0.0642     11.1530     55.9543
  2277.2000      7.8733      2.4747      0.0370     10.6236     67.0137
  2277.3000      7.8663      2.4871      0.1788      9.8722     74.5184
  2277.4000      7.8663      2.4830      0.0016     10.1189     73.7511
  2277.5000      7.8610      2.4827      0.0929     10.1394     70.9446
  2277.6000      7.8610      2.4767      0.0924     10.5006     65.4855
  2277.7000      7.8610      2.4591      0.0504     11.5691     59.8403
  2277.8000      7.8582      2.4533      0.0919     11.9238     64.3022
  2277.9000      7.8582      2.4594      0.1166     11.5503     78.2161
  2278.0000      7.8631      2.4560      0.0624     11.7577     95.2486
  2278.1000      7.8631      2.4393      0.0723     12.7713    106.0852
  2278.2000      7.8631      2.4298      0.0148     13.3483     98.5567
  2278.3000      7.8662      2.4502      0.0467     12.1063     81.4996
  2278.4000      7.8662      2.4868      0.1448      9.8927     73.2421
  2278.5000      7.8633      2.4968      0.1765      9.2822     76.7202
  2278.6000      7.8633      2.4730     -0.0434     10.7263     85.3169
  2278.7000      7.8633      2.4454     -0.0056     12.4016     90.3849
  2278.8000      7.8678      2.4272      0.0191     13.5043     88.0249
  2278.9000      7.8678      2.4108      0.0604     14.4980     83.9581
  2279.0000      7.8687      2.3913      0.0152     15.6767     80.3967
  2279.1000      7.8687      2.3808     -0.0293     16.3146     72.4311
  2279.2000      7.8687      2.3988     -0.0142     15.2215     61.7613
  2279.3000      7.8618      2.4445      0.0713     12.4548     54.4303
  2279.4000      7.8618      2.4907      0.1394      9.6546     56.7465
  2279.5000      7.8534      2.5091      0.1332      8.5402     72.8366
  2279.6000      7.8534      2.5019      0.1320      8.9752     90.2374
  2279.7000      7.8534      2.4997      0.1024      9.1094     95.9041
  2279.8000      7.8549      2.5161      0.1264      8.1146     94.6791
  2279.9000      7.8549      2.5331      0.1291      7.0870     97.4413
  2280.0000      7.8600      2.5395      0.1126      6.6985    107.3717
  2280.1000      7.8600      2.5369      0.0646      6.8528    114.6167
  2280.2000      7.8600      2.5155      0.0767      8.1539    110.5416
  2280.3000      7.8673      2.4676      0.0755     11.0516     95.8430
  2280.4000      7.8673      2.4152     -0.0608     14.2295     80.0103
  2280.5000      7.8691      2.3868      0.0444     15.9525     71.9649
  2280.6000      7.8691      2.3838     -0.0117     16.1355     75.4689
  2280.7000      7.8691      2.3936      0.0579     15.5415     87.1808
  2280.8000      7.8827      2.4052      0.0366     14.8358     94.2490
  2280.9000      7.8827      2.4172     -0.0029     14.1109     89.6298
  2281.0000      7.8841      2.4346      0.0192     13.0567     81.1605
  2281.1000      7.8841      2.4536      0.0786     11.9002     79.5284
  2281.2000      7.8841      2.4671      0.0846     11.0876     86.2362
  2281.3000      7.8875      2.4860      0.0233      9.9419     97.0603
  2281.4000      7.8875      2.5118      0.1528      8.3785    105.5873
  2281.5000      7.8860      2.5219      0.0496      7.7625    106.8121
  2281.6000      7.8860      2.5188      0.0642      7.9528    102.0848
  2281.7000      7.8860      2.5085      0.0838      8.5776    100.1941
  2281.8000      7.8927      2.4793      0.1217     10.3437    102.7187
  2281.9000      7.8927      2.4413     -0.0158     12.6472    100.7886
  2282.0000      7.8946      2.4166      0.0968     14.1441     94.6457
  2282.1000      7.8946      2.4013      0.0242     15.0720    100.0607
  2282.2000      7.8946      2.3890     -0.0137     15.8175    114.9641
  2282.3000      7.8939      2.3932     -0.0550     15.5654    118.3890
  2282.4000      7.8939      2.4201     -0.0309     13.9308    108.3242
  2282.5000      7.8885      2.4488      0.0309     12.1924     96.6995
  2282.6000      7.8885      2.4525      0.0168     11.9701     93.2895
  2282.7000      7.8885      2.4301      0.0010     13.3272    108.4358
  2282.8000      7.8913      2.4035      0.0530     14.9399    129.3802
  2282.9000      7.8913      2.3923     -0.0212     15.6201    127.5652
  2283.0000      7.8888      2.4024     -0.0137     15.0061    105.4508
  2283.1000      7.8888      2.4238      0.0025     13.7109     85.5741
  2283.2000      7.8888      2.4438      0.0883     12.4976     75.5431
  2283.3000      7.8884      2.4603      0.0683     11.4971     74.4815
  2283.4000      7.8884      2.4746      0.1419     10.6294     84.4687
  2283.5000      7.8880      2.4796      0.1240     10.3259     98.1401
  2283.6000      7.8880      2.4677      0.1252     11.0477     96.2995
  2283.7000      7.8880      2.4467      0.0516     12.3203     78.3655
  2283.8000      7.8855      2.4349      0.0508     13.0344     64.7600
  2283.9000      7.8855      2.4475      0.0067     12.2715     64.3003
  2284.0000      7.8880      2.4678      0.1255     11.0407     74.2496
  2284.1000      7.8880      2.4505      0.0399     12.0897     90.3382
  2284.2000      7.8880      2.3986     -0.0016     15.2392    106.1622
  2284.3000      7.8875      2.3667     -0.1112     17.1692    114.7262
  2284.4000      7.8875      2.3836      0.0446     16.1465    109.2460
  2284.5000      7.8801      2.4242      0.0230     13.6830     95.7083
  2284.6000      7.8801      2.4545      0.0424     11.8508     88.0262
  2284.7000      7.8801      2.4606      0.0720     11.4809     92.2842
  2284.8000      7.8752      2.4535      0.0179     11.9064     99.1186
  2284.9000      7.8752      2.4486      0.0433     12.2032    101.1359
  2285.0000      7.8755      2.4283      0.1175     13.4356    105.1220
  2285.1000      7.8755      2.3859     -0.0850     16.0045    108.8293
  2285.2000      7.8755      2.3782     -0.0959     16.4751    107.6316
  2285.3000      7.8810      2.4306      0.0494     13.2955    104.3322
  2285.4000      7.8810      2.4870      0.1575      9.8818     98.3185
  2285.5000      7.8784      2.5088      0.0455      8.5589     93.7292
  2285.6000      7.8784      2.5216      0.0433      7.7792     95.4960
  2285.7000      7.8784      2.5382      0.1473      6.7736    103.0197
  2285.8000      7.8747      2.5355      0.0970      6.9414    114.9338
  2285.9000      7.8747      2.5119      0.1059      8.3722    122.1817
  2286.0000      7.8720      2.4944      0.0501      9.4287    114.1902
  2286.1000      7.8720      2.4987      0.0675      9.1707     96.7182
  2286.2000      7.8720      2.5169      0.0911      8.0651     80.2490
  2286.3000      7.8760      2.5390      0.0826      6.7278     70.2561
  2286.4000      7.8760      2.5500      0.1548      6.0603     68.4785
  2286.5000      7.8720      2.5327      0.0831      7.1111     72.5039
  2286.6000      7.8720      2.5043      0.0317      8.8302     82.8251
  2286.7000      7.8720      2.5082      0.0108      8.5951     95.0665
  2286.8000      7.8664      2.5549      0.1237      5.7666    101.4051
  2286.9000      7.8664      2.6108      0.1081      2.3782     99.2414
  2287.0000      7.8650      2.6500      0.1302     -0.0029     90.2807
  2287.1000      7.8650      2.6821      0.0785     -1.9446     79.9496
