~Version Information
 VERS.                                  2.0 : CWLS LAS VERSION
 WRAP.                                   NO : WRAPING MODE
 SWARE .                 MController 2.5.0I : SOFTWARE VERSION
~Well Information
 WELL.                                  N/A : WELL
 COMP.                                  N/A : COMPANY
 FLD.                                   N/A : FIELD
 LOC.                                   N/A : LOCATION
 DATE.                                  N/A : DATE(S) LOGGED
 SRVC.                                  N/A : SERVICE COMPANY
 STAT.                                  N/A : STATE
 CNTY.                                  N/A : COUNTY
 CTRY.                                  N/A : COUNTRY
 API.                                   N/A : API NUMBER
 STRT.FT                             801.00 : START DEPTH
 STOP.FT                            2405.00 : STOP DEPTH
 STEP.FT                               1.00 : DEPTH INCREMENT
 NULL.                                -9999 : NULL VALUE
~Curve information
 DEPTH.FT                                   :
 ROP.MIN/FT                                 :
 GAS.UNITS                                  :
~ASCII Log data
# ...
      1801.0          0.3         17.4 
      1802.0          3.7        101.2 
      1803.0          0.9         32.6 
      1804.0          1.0         44.6 
      1805.0          0.4         43.2 
      1806.0          0.3         38.0 
      1807.0          0.6         32.9 
      1808.0          0.5         22.3 
      1809.0          0.5         18.1 
      1810.0          0.4         16.3 
      1811.0          0.4         17.9 
      1812.0          0.4         20.1 
      1813.0          0.4         21.4 
      1814.0          0.3         21.2 
      1815.0          0.3         20.4 
      1816.0          0.3         19.6 
      1817.0          0.3         19.0 
      1818.0          0.3         18.6 
      1819.0          0.4         18.4 
      1820.0          0.3         20.1 
      1821.0          0.4         21.5 
      1822.0          0.6         23.0 
      1823.0          0.8         23.3 
      1824.0          0.6         22.9 
      1825.0          0.5         21.0 
      1826.0          0.4         18.5 
      1827.0          0.3         17.4 
      1828.0          0.4         16.5 
      1829.0          0.4         17.1 
      1830.0          0.3         18.0 
      1831.0          0.3         20.0 
      1832.0          6.3        168.9 
      1833.0          0.8         30.8 
      1834.0          0.6         29.1 
      1835.0          0.6         22.7 
      1836.0          0.5         19.0 
      1837.0          0.4         18.4 
      1838.0          0.4         18.9 
      1839.0          0.5         19.8 
      1840.0          0.4         20.3 
      1841.0          0.4         20.7 
      1842.0          0.4         20.1 
      1843.0          0.4         20.0 
      1844.0          0.4         19.6 
      1845.0          0.3         19.1 
      1846.0          0.4         19.2 
      1847.0          0.4         19.2 
      1848.0          0.4         19.1 
      1849.0          0.4         19.6 
      1850.0          0.3         19.3 
      1851.0          0.3         19.2 
      1852.0          0.4         18.9 
      1853.0          0.3         19.3 
      1854.0          0.4         18.9 
      1855.0          0.4         19.3 
      1856.0          0.4         19.7 
      1857.0          0.5         19.7 
      1858.0          0.5         19.6 
      1859.0          0.5         18.9 
      1860.0          0.5         18.2 
      1861.0          5.1         72.1 
      1862.0          1.1         39.4 
      1863.0          1.1         28.2 
      1864.0          0.8         19.5 
      1865.0          0.6         17.6 
      1866.0          0.5         18.2 
      1867.0          0.4         18.2 
      1868.0          0.4         17.5 
      1869.0          0.4         17.1 
      1870.0          0.4         19.0 
      1871.0          0.4         20.1 
      1872.0          0.4         21.0 
      1873.0          0.3         20.8 
      1874.0          0.4         20.8 
      1875.0          0.4         20.4 
      1876.0          0.6         20.9 
      1877.0          0.5         20.5 
      1878.0          0.4         20.1 
      1879.0          0.4         19.5 
      1880.0          0.3         18.2 
      1881.0          0.3         17.9 
      1882.0          0.3         17.5 
      1883.0          0.3         17.7 
      1884.0          0.3         17.6 
      1885.0          0.3         18.2 
      1886.0          0.3         19.3 
      1887.0          0.3         21.3 
      1888.0          0.3         21.7 
      1889.0          0.3         22.1 
      1890.0          0.3         23.2 
      1891.0          0.3         22.6 
      1892.0          5.3        131.6 
      1893.0          1.0         32.5 
      1894.0          1.1         30.5 
      1895.0          0.7         17.4 
      1896.0          0.5         17.5 
      1897.0          0.3         19.7 
      1898.0          0.5         20.7 
      1899.0          0.4         20.7 
      1900.0          0.4         19.3 
      1901.0          0.4         18.1 
      1902.0          0.4         17.5 
      1903.0          0.4         18.1 
      1904.0          0.4         19.3 
      1905.0          0.4         20.4 
      1906.0          0.3         21.4 
      1907.0          0.4         21.3 
      1908.0          0.3         21.4 
      1909.0          0.3         21.7 
      1910.0          0.3         23.1 
      1911.0          0.4         24.0 
      1912.0          0.4         25.1 
      1913.0          0.4         24.9 
      1914.0          0.4         24.2 
      1915.0          0.3         21.2 
      1916.0          0.4         19.6 
      1917.0          0.3         18.9 
      1918.0          0.3         19.6 
      1919.0          0.3         20.6 
      1920.0          0.2         20.9 
      1921.0          0.1         21.4 
      1922.0          4.6        124.9 
      1923.0          1.4         28.8 
      1924.0          0.8         32.9 
      1925.0          0.7         31.5 
      1926.0          0.9         26.2 
      1927.0          0.5         18.5 
      1928.0          0.4         20.0 
      1929.0          0.4         21.1 
      1930.0          0.4         21.8 
      1931.0          0.4         21.6 
      1932.0          0.4         21.2 
      1933.0          0.6         21.5 
      1934.0          0.6         20.9 
      1935.0          0.4         20.6 
      1936.0          0.5         19.4 
      1937.0          0.5         19.2 
      1938.0          0.5         19.9 
      1939.0          0.6         20.2 
      1940.0          0.5         19.4 
      1941.0          0.4         17.8 
      1942.0          0.3         17.3 
      1943.0          0.4         18.4 
      1944.0          0.4         19.1 
      1945.0          0.4         19.6 
      1946.0          0.4         19.6 
      1947.0          0.6         19.4 
      1948.0          0.6         18.3 
      1949.0          0.5         18.0 
      1950.0          0.5         18.6 
      1951.0          0.3         19.1 
      1952.0          9.2        154.0 
      1953.0          0.1         13.8 
      1954.0          0.8         14.7 
      1955.0          0.7         17.3 
      1956.0          0.6         18.7 
      1957.0          0.5         18.7 
      1958.0          0.5         18.3 
      1959.0          0.4         17.7 
      1960.0          0.4         17.9 
      1961.0          0.4         18.6 
      1962.0          0.5         19.6 
      1963.0          0.4         21.0 
      1964.0          0.5         21.1 
      1965.0          0.5         20.6 
      1966.0          0.7         20.1 
      1967.0          0.4         19.2 
      1968.0          0.3         19.0 
      1969.0          0.3         18.8 
      1970.0          0.3         19.2 
      1971.0          0.3         19.5 
      1972.0          0.4         19.3 
      1973.0          0.3         18.8 
      1974.0          0.4         18.8 
      1975.0          0.4         18.7 
      1976.0          0.4         18.5 
      1977.0          0.4         19.0 
      1978.0          0.4         18.5 
      1979.0          0.4         18.6 
      1980.0          0.3         19.0 
      1981.0          0.8         19.0 
      1982.0          4.0        125.9 
      1983.0          1.5         30.7 
      1984.0          0.8         32.4 
      1985.0          0.7         31.7 
      1986.0          0.7         27.1 
      1987.0          0.6         21.2 
      1988.0          0.4         16.3 
      1989.0          0.5         15.9 
      1990.0          0.5         16.9 
      1991.0          0.4         17.3 
      1992.0          0.4         17.6 
      1993.0          0.5         18.5 
      1994.0          0.4         18.7 
      1995.0          0.4         19.2 
      1996.0          0.3         18.3 
      1997.0          0.3         16.7 
      1998.0          0.2         16.1 
      1999.0          0.2         16.1 
      2000.0          0.1         16.6 
