~Version Information
VERS.                      2.0: CWLS Log ASCII Standard - VERSION 2.0
WRAP.                       NO: One line per depth step
~Well Information Block
STRT.FT                -7.7500: 
STOP.FT              1532.2500: 
STEP.FT                 0.2500: 
NULL.                -999.2500: 
COMP.          Pioneer Natural Resources: COMPANY
WELL.          Big Cat Federal 44-1: WELL
FLD.           Purgatorie River: FIELD
LOC.           197' FSL & 973' FEL--: LOCATION
CNTY.               Las Animas: COUNTY
SRVC.          Patterson Wireline: SERVICE COMPANY
DATE.          Fri Apr 28 12:21:06 2006: LOG DATE
UWI.           05 071 08042 00: UNIQUE WELL ID
STAT.                       CO: STATE
~Curve Information Block
DEPT.FT            0 000 00 00: Depth
CCL.                          : Casing Collar Locator
TT3.usec                      : CBL 3' Travel Time
AMP3.mV                       : CBL 3' Amplitude
GR.GAPI                       : Gamma Ray
~Parameter Information Block
~A  Depth       CCL         TT3         AMP3         GR     
# ...
   394.2500      0.0000    359.2204     23.7913    129.9838
   394.5000      0.0000    388.7978     23.5285    129.0800
   394.7500      0.0000    442.1929     23.1991    127.3646
   395.0000      0.0000    519.3167     22.7531    125.6375
   395.2500      0.0000    606.4623     22.1770    124.1160
   395.5000      0.0000    683.1046     21.5087    122.7033
   395.7500      0.0000    735.4195     20.8273    121.4296
   396.0000      0.0000    763.0008     20.2192    119.9582
   396.2500      0.0000    774.1370     19.7419    117.5027
   396.5000      0.0000    777.6195     19.4054    113.9442
   396.7500      0.0000    778.7343     19.1768    110.5788
   397.0000      0.0000    779.5704     18.9988    109.1692
   397.2500      0.0000    780.5709     18.8143    110.2804
   397.5000      0.0000    781.6525     18.5969    112.6984
   397.7500      0.0000    782.5693     18.3725    114.4519
   398.0000      0.0000    782.2222     18.2136    114.2849
   398.2500      0.0000    776.7912     18.2040    112.0855
   398.5000      0.0000    758.1126     18.3964    108.2621
   398.7500      0.0000    716.0690     18.7848    103.3809
   399.0000      0.0000    646.6725     19.3027     98.4743
   399.2500      0.0000    559.5012     19.8497     95.0543
   399.5000      0.0000    474.7080     20.3386     94.3432
   399.7500      0.0000    410.2136     20.7203     96.4912
   400.0000      0.0000    371.5995     20.9701    100.6180
   400.2500      0.0000    353.1911     21.0705    105.6349
   400.5000      0.0000    345.7215     21.0243    110.8324
   400.7500      0.0000    342.0755     20.8707    115.4430
   401.0000      0.0000    338.7298     20.6602    117.9851
   401.2500      0.0000    335.1578     20.4137    116.7543
   401.5000      0.0000    332.6908     20.1244    111.2048
   401.7500      0.0000    332.7567     19.7982    102.5591
   402.0000      0.0000    335.1974     19.4775     93.1298
   402.2500      0.0000    338.0700     19.2221     85.4277
   402.5000      0.0000    339.0075     19.0705     81.7398
   402.7500      0.0000    336.6802     19.0176     83.5837
   403.0000      0.0000    331.3683     19.0233     90.8590
   403.2500      0.0000    324.6931     19.0448    101.7152
   403.5000      0.0000    318.7488     19.0642    113.7095
   403.7500      0.0000    315.3847     19.0880    125.0924
   404.0000      0.0000    316.4792     19.1194    134.8320
   404.2500      0.0000    324.9543     19.1381    141.7854
   404.5000      0.0000    344.3421     19.1110    144.6732
   404.7500      0.0000    375.3338     19.0086    143.1288
   405.0000      0.0000    413.2686     18.7883    138.2507
   405.2500      0.0000    452.8500     18.3670    131.8639
   405.5000      0.0000    496.7685     17.6674    125.5203
   405.7500      0.0000    553.7383     16.7346    120.1384
   406.0000      0.0000    623.6190     15.7735    116.1599
   406.2500      0.0000    689.9362     15.0134    113.8030
   406.5000      0.0000    733.6406     14.5368    113.1214
   406.7500      0.0000    751.1254     14.2620    113.9245
   407.0000      0.0000    752.9103     14.0593    115.9863
   407.2500     -2.0000    747.4199     13.8521    119.2281
   407.5000      2.0000    732.3358     13.6353    123.0421
   407.7500      0.0000    701.5076     13.4497    125.6237
   408.0000      0.0000    655.7419     13.3818    125.1079
   408.2500      0.0000    606.0250     13.5757    121.5507
   408.5000      0.0000    566.8597     14.1632    117.1748
   408.7500      0.0000    546.9028     15.0960    114.7635
   409.0000      0.0000    546.7927     16.0878    115.9711
   409.2500      0.0000    564.0573     16.8166    120.5648
   409.5000      0.0000    595.9985     17.1716    126.7675
   409.7500      0.0000    636.8829     17.2630    132.4393
   410.0000      0.0000    676.2440     17.2565    136.0009
   410.2500      0.0000    702.8486     17.2586    136.4456
   410.5000      0.0000    710.6616     17.3042    133.3492
   410.7500      0.0000    702.2829     17.3779    127.6451
   411.0000      0.0000    688.7117     17.4348    121.9240
   411.2500      0.0000    683.4886     17.4264    119.1785
   411.5000      0.0000    692.5945     17.3289    120.8996
   411.7500      0.0000    710.1896     17.1550    126.1519
   412.0000      0.0000    725.5385     16.9491    132.2393
   412.2500      0.0000    731.9081     16.7676    136.4631
   412.5000      0.0000    726.7175     16.6555    137.6791
   412.7500      0.0000    706.5692     16.6283    136.5249
   413.0000      0.0000    667.3019     16.6735    134.3138
   413.2500      0.0000    611.7147     16.7651    131.8047
   413.5000      0.0000    555.4224     16.8737    128.9293
   413.7500      0.0000    520.1381     16.9660    125.4923
   414.0000      0.0000    518.5256     17.0065    121.8629
   414.2500      0.0000    546.9105     16.9729    118.8853
   414.5000      0.0000    591.9436     16.8715    117.2521
   414.7500      0.0000    640.0986     16.7356    117.0550
   415.0000      0.0000    681.3825     16.6054    117.7201
   415.2500      0.0000    710.2531     16.5068    118.2723
   415.5000      0.0000    726.4374     16.4449    117.8370
   415.7500      0.0000    733.6093     16.4101    116.2404
   416.0000      0.0000    736.1335     16.3867    114.2888
   416.2500      0.0000    736.8682     16.3633    113.4034
   416.5000      0.0000    736.9681     16.3440    114.7725
   416.7500      0.0000    736.3347     16.3532    118.7880
   417.0000      0.0000    733.4523     16.4254    125.0168
   417.2500      0.0000    724.8177     16.5849    132.2206
   417.5000      0.0000    705.6738     16.8287    138.3038
   417.7500      0.0000    674.4738     17.1223    140.9371
   418.0000      0.0000    639.0154     17.4046    138.9887
   418.2500      0.0000    615.5799     17.6057    133.5832
   418.5000      0.0000    616.5018     17.6767    127.5532
   418.7500      0.0000    637.3171     17.6163    123.6378
   419.0000      0.0000    659.7331     17.4700    123.0062
   419.2500      0.0000    668.6497     17.3010    125.1122
   419.5000      0.0000    664.5914     17.1586    128.5547
   419.7500      0.0000    658.9799     17.0652    132.1244
   420.0000      0.0000    659.7189     17.0139    135.2741
   420.2500      0.0000    664.8316     16.9656    137.8008
   420.5000      0.0000    669.8224     16.8564    139.5084
   420.7500      0.0000    675.5052     16.6323    140.4134
   421.0000      0.0000    685.2125     16.3039    140.6638
   421.2500      0.0000    698.2719     15.9705    139.8105
   421.5000      0.0000    710.1588     15.7740    136.7031
   421.7500      0.0000    717.0850     15.8058    130.7776
   422.0000      0.0000    717.8488     16.0486    123.1840
   422.2500      0.0000    712.5619     16.4039    116.1965
   422.5000      0.0000    702.0679     16.7660    111.7547
   422.7500      0.0000    688.3313     17.0724    110.7065
   423.0000      0.0000    673.1652     17.3120    112.7379
   423.2500      0.0000    654.9171     17.5156    116.6381
   423.5000      0.0000    627.6579     17.7415    121.1869
   423.7500      0.0000    585.4368     18.0573    125.9677
   424.0000      0.0000    528.0237     18.5216    130.7315
   424.2500      0.0000    463.1419     19.1639    134.1331
   424.5000      0.0000    403.1630     19.9566    134.4605
   424.7500      0.0000    358.1136     20.8029    132.1046
   425.0000      0.0000    330.6388     21.5754    130.0232
   425.2500      0.0000    316.9386     22.1817    130.8108
   425.5000      0.0000    311.2626     22.5978    134.0862
   425.7500      0.0000    309.2574     22.8486    137.4605
   426.0000      0.0000    308.6280     22.9779    139.2698
   426.2500      0.0000    308.4454     23.0308    139.4612
   426.5000      0.0000    308.4228     23.0397    138.4376
   426.7500      0.0000    308.4730     23.0156    136.1959
   427.0000      0.0000    308.5669     22.9623    132.6010
   427.2500      0.0000    308.6660     22.9003    127.9317
   427.5000      0.0000    308.7286     22.8670    123.0430
