~Version Information
VERS.                      2.0: CWLS Log ASCII Standard - VERSION 2.0
WRAP.                       NO: One line per depth step
~Well Information Block
STRT.FT               420.0000: 
STOP.FT              1528.5000: 
STEP.FT                 0.2500: 
NULL.                -999.2500: 
COMP.          Evergreen Operating Corporation: COMPANY
WELL.              Chase 21-10: WELL
FLD.           Purgatoire River: FIELD
LOC.           1122' FNL & 1544' FWL: LOCATION
PROV.                       CO: PROVINCE
CNTY.               Las Animas: COUNTRY
SRVC.                         : SERVICE COMPANY
DATE.          Sun May 23 21:20:45 2004: LOG DATE
UWI.           05 071 08006 00: UNIQUE WELL ID
~Curve Information Block
DEPT.FT            0 000 00 00: Depth
SN.Ohm-m                      : IEL Short Normal
SP.mV                         : IEL Spontaneous Potential
DIR.Ohm-m                     : IEL Induction Resistivity
GR.GAPI                       : Gamma Ray
~Parameter Information Block
~A  Depth        SN          SP         DIR          GR     
# ...
  1492.0000     21.6548    140.2051     19.9329     92.0242
  1492.2500     21.4845    140.1306     19.9118     96.8530
  1492.5000     21.4362    140.0549     19.8941    104.8886
  1492.7500     21.4956    139.9779     19.9074    110.5528
  1493.0000     21.6660    139.9006     19.9715    118.8975
  1493.2500     21.9629    139.8251     20.0949    123.5950
  1493.5000     22.4008    139.7541     20.2728    127.9993
  1493.7500     22.9772    139.6907     20.4886    129.0599
  1494.0000     23.6640    139.6381     20.7225    128.9211
  1494.2500     24.4081    139.5987     20.9604    128.4322
  1494.5000     25.1389    139.5744     21.1988    127.6230
  1494.7500     25.7797    139.5661     21.4414    126.9097
  1495.0000     26.2642    139.5737     21.6912    125.1972
  1495.2500     26.5552    139.5961     21.9433    123.4297
  1495.5000     26.6575    139.6314     22.1815    119.5553
  1495.7500     26.6136    139.6764     22.3819    116.1977
  1496.0000     26.4817    139.7268     22.5238    110.9202
  1496.2500     26.3084    139.7771     22.6000    108.2759
  1496.5000     26.1164    139.8210     22.6207    107.3352
  1496.7500     25.9147    139.8522     22.6035    108.9788
  1497.0000     25.7171    139.8650     22.5614    113.3451
  1497.2500     25.5527    139.8548     22.4967    115.9997
  1497.5000     25.4563    139.8197     22.4069    117.7912
  1497.7500     25.4487    139.7601     22.2929    117.5186
  1498.0000     25.5229    139.6791     22.1627    115.9240
  1498.2500     25.6454    139.5817     22.0311    114.5008
  1498.5000     25.7691    139.4743     21.9146    111.9841
  1498.7500     25.8484    139.3634     21.8248    110.1604
  1499.0000     25.8521    139.2552     21.7615    107.5513
  1499.2500     25.7714    139.1542     21.7098    105.8585
  1499.5000     25.6206    139.0638     21.6477    102.9082
  1499.7500     25.4295    138.9855     21.5589    100.6871
  1500.0000     25.2274    138.9191     21.4405     98.1734
  1500.2500     25.0305    138.8630     21.2965     98.0779
  1500.5000     24.8405    138.8143     21.1259    101.4707
  1500.7500     24.6533    138.7691     20.9165    106.0229
  1501.0000     24.4642    138.7237     20.6536    114.7941
  1501.2500     24.2662    138.6748     20.3353    120.4317
  1501.5000     24.0451    138.6211     19.9817    125.8205
  1501.7500     23.7820    138.5636     19.6274    126.4869
  1502.0000     23.4624    138.5063     19.3059    124.0012
  1502.2500     23.0847    138.4552     19.0380    121.6919
  1502.5000     22.6610    138.4180     18.8297    119.9254
  1502.7500     22.2134    138.4020     18.6781    120.2811
  1503.0000     21.7698    138.4131     18.5775    121.7913
  1503.2500     21.3636    138.4543     18.5230    122.3544
  1503.5000     21.0313    138.5252     18.5080    121.5233
  1503.7500     20.8068    138.6219     18.5222    119.9315
  1504.0000     20.7135    138.7377     18.5550    116.7753
  1504.2500     20.7561    138.8639     18.6021    114.6866
  1504.5000     20.9191    138.9909     18.6679    112.3256
  1504.7500     21.1717    139.1092     18.7594    111.5842
  1505.0000     21.4796    139.2109     18.8750    111.8930
  1505.2500     21.8159    139.2900     18.9995    112.8070
  1505.5000     22.1663    139.3427     19.1109    114.2874
  1505.7500     22.5234    139.3678     19.1990    114.6662
  1506.0000     22.8815    139.3667     19.2784    113.3023
  1506.2500     23.2340    139.3422     19.3841    110.7658
  1506.5000     23.5745    139.2986     19.5493    104.8041
  1506.7500     23.8950    139.2414     19.7840    100.2071
  1507.0000     24.1809    139.1763     20.0711     94.4078
  1507.2500     24.4101    139.1089     20.3816     92.1886
  1507.5000     24.5609    139.0447     20.6935     91.6596
  1507.7500     24.6209    138.9882     20.9972     92.7611
  1508.0000     24.5909    138.9428     21.2839     95.2233
  1508.2500     24.4824    138.9104     21.5331     96.0063
  1508.5000     24.3142    138.8914     21.7108     92.2069
  1508.7500     24.1103    138.8846     21.7830     84.2891
  1509.0000     23.8963    138.8881     21.7355     63.9891
  1509.2500     23.6906    138.8993     21.5841     47.3693
  1509.5000     23.4979    138.9158     21.3665     24.5322
  1509.7500     23.3118    138.9357     21.1227     13.5918
  1510.0000     23.1254    138.9577     20.8784      4.3838
  1510.2500     22.9397    138.9807     20.6445      1.7357
  1510.5000     22.7586    139.0044     20.4258      0.3295
  1510.7500     22.5790    139.0287     20.2296      0.0894
  1511.0000     22.3846    139.0538     20.0653      0.0080
  1511.2500     22.1551    139.0806     19.9351      0.0000
  1511.5000     21.8817    139.1107     19.8263   -999.2500
  1511.7500     21.5782    139.1461     19.7115   -999.2500
  1512.0000     21.2782    139.1888     19.5619   -999.2500
  1512.2500     21.0198    139.2402     19.3654   -999.2500
  1512.5000     20.8293    139.3000     19.1354   -999.2500
  1512.7500     20.7137    139.3664     18.9032   -999.2500
  1513.0000     20.6655    139.4355     18.7016   -999.2500
  1513.2500     20.6732    139.5025     18.5519   -999.2500
  1513.5000     20.7296    139.5618     18.4610   -999.2500
  1513.7500     20.8309    139.6082     18.4254   -999.2500
  1514.0000     20.9696    139.6375     18.4384   -999.2500
  1514.2500     21.1273    139.6463     18.4932   -999.2500
  1514.5000     21.2770    139.6329     18.5840   -999.2500
  1514.7500     21.3911    139.5967     18.7044   -999.2500
  1515.0000     21.4509    139.5387     18.3999   -999.2500
  1515.2500     21.4489    139.4616     18.5444   -999.2500
  1515.5000     21.3854    139.3696     18.6823   -999.2500
  1515.7500     21.2663    139.2680     18.7947   -999.2500
  1516.0000     21.1060    139.1627     18.8673   -999.2500
  1516.2500     20.9302    139.0592     18.9002   -999.2500
  1516.5000     20.7747    138.9620     18.9125   -999.2500
  1516.7500     20.6749    138.8735     18.9342   -999.2500
  1517.0000     20.6535    138.7947     18.9963   -999.2500
  1517.2500     20.7148    138.7247     19.1269   -999.2500
  1517.5000     20.8477    138.6621     19.3607   -999.2500
  1517.7500     21.0338    138.6045     19.7577   -999.2500
  1518.0000     21.2554    138.5501     20.4182   -999.2500
  1518.2500     21.4999    138.4969     21.4811   -999.2500
  1518.5000     21.7623    138.4439     23.9373   -999.2500
  1518.7500     22.0459    138.3906     26.3683   -999.2500
  1519.0000     22.3581    138.3374     29.4559   -999.2500
  1519.2500     22.7031    138.2860     32.8868   -999.2500
  1519.5000     23.0715    138.2392     36.1092   -999.2500
  1519.7500     23.4371    138.2010     38.5980   -999.2500
  1520.0000     23.7607    138.1762     40.1656   -999.2500
  1520.2500     24.0022    138.1693     40.9866   -999.2500
  1520.5000     24.1337    138.1847     41.3715   -999.2500
  1520.7500     24.1475    138.2216     41.5754   -999.2500
  1521.0000     24.0563    138.2787     41.7528   -999.2500
  1521.2500     23.8845    138.3472     41.9831   -999.2500
  1521.5000     23.6591    138.4078 100000.0000   -999.2500
  1521.7500     23.4061    138.4243 100000.0000   -999.2500
  1522.0000     23.1531    138.3340 100000.0000   -999.2500
  1522.2500     22.9337    138.0355 100000.0000   -999.2500
  1522.5000     22.7843    137.3761 100000.0000   -999.2500
  1522.7500     22.7327    136.1464 100000.0000   -999.2500
  1523.0000     22.7860    134.0863 100000.0000   -999.2500
  1523.2500     22.9181    130.9132 100000.0000   -999.2500
  1523.5000     23.0574    126.3718 100000.0000   -999.2500
  1523.7500     23.0672    120.3025 100000.0000   -999.2500
  1524.0000     22.7254    112.7077 100000.0000   -999.2500
  1524.2500     21.7309    103.7975 100000.0000   -999.2500
  1524.5000     19.7839     93.9889 100000.0000   -999.2500
  1524.7500     16.7473     83.8531 100000.0000   -999.2500
  1525.0000     12.8076     74.0184 100000.0000   -999.2500
  1525.2500      8.4936     65.0568 100000.0000   -999.2500
