~Version Information
VERS.                      2.0: CWLS Log ASCII Standard - VERSION 2.0
WRAP.                       NO: One line per depth step
~Well Information Block
STRT.FT               483.5000: 
STOP.FT              2348.7500: 
STEP.FT                 0.2500: 
NULL.                -999.2500: 
COMP.          Pioneer Natural Resources: COMPANY
WELL.          Hill Climb 22-2: WELL
FLD.           Purgatoire River: FIELD
LOC.           1820' FNL & 2193' FWL: LOCATION
PROV.                 Colorado: PROVINCE
CNTY.               Las Animas: COUNTRY
SRVC.                Patterson: SERVICE COMPANY
DATE.          Wed Oct 20 08:57:51 2004: LOG DATE
UWI.           05 071 08175 00: UNIQUE WELL ID
~Curve Information Block
DEPT.FT            0 000 00 00: Depth
DIR.Ohm-m                     : IEL Induction Resistivity
SN.Ohm-m                      : IEL Short Normal
SP.mV                         : IEL Spontaneous Potential
GR.GAPI                       : Gamma Ray
~Parameter Information Block
~A  Depth       DIR          SN          SP          GR     
# ...
   718.0000 100000.0000      0.0000    100.0090     90.4666
   718.2500   3842.1152      0.0000    100.0020     93.8940
   718.5000   1737.3177      0.0000      0.0000     96.1341
   718.7500   1323.2792      0.0000      0.0000     95.2282
   719.0000   1185.7427      0.0000      0.0000     89.9072
   719.2500   1136.7347      0.0000      0.0000     84.7777
   719.5000   1120.3687      0.0000      0.0000     78.7024
   719.7500   1115.5321      0.0000      0.0000     77.8705
   720.0000   1114.2977      0.0000      0.0000     81.9434
   720.2500 100000.0000      0.0000      0.0000     86.6125
   720.5000      0.0000      0.0000      0.0000     93.6360
   720.7500      0.0000      0.0000      0.0000     98.1468
   721.0000      0.0000      0.0000      0.0000    106.3075
   721.2500      0.0000      0.0000      0.0000    112.8973
   721.5000      0.0000      0.0000      0.0000    121.8909
   721.7500      0.0000      0.0000      0.0000    125.2612
   722.0000      0.0000      0.0000      0.0000    125.1730
   722.2500      0.0000      0.0000      0.0000    122.5549
   722.5000      0.0000      0.0000      0.0000    117.2490
   722.7500      0.0000      0.0000      0.0000    114.0484
   723.0000      0.0000      0.0000      0.0000    111.1052
   723.2500      0.0000      0.0000      0.0000    110.5715
   723.5000      0.0000      0.0000      0.0000    111.2565
   723.7500      0.0000      0.0000      0.0000    111.9825
   724.0000      0.0000      0.0000      0.0000    112.1510
   724.2500      0.0000      0.0000      0.0000    111.2873
   724.5000      0.0000      0.0000      0.0000    109.3769
   724.7500      0.0000      0.0000      0.0000    108.5280
   725.0000      0.0000      0.0000      0.0000    107.6967
   725.2500      0.0000      0.0000      0.0000    106.3107
   725.5000      0.0000      0.0000      0.0000    101.9627
   725.7500      0.0000      0.0000      0.0000     98.4170
   726.0000      0.0000      0.0000      0.0000     94.6659
   726.2500      0.0000      0.0000      0.0000     94.0338
   726.5000      0.0000      0.0000      0.0000     95.7467
   726.7500      0.0000      0.0000      0.0000     98.3837
   727.0000      0.0000      0.0000      0.0000    104.7061
   727.2500      0.0000      0.0000      0.0000    110.6435
   727.5000      0.0000      0.0000      0.0000    121.6284
   727.7500      0.0000      0.0000      0.0000    129.4073
   728.0000      0.0000      0.0000      0.0000    139.2578
   728.2500      0.0000      0.0000      0.0000    143.1511
   728.5000      0.0000      0.0000      0.0000    144.3826
   728.7500      0.0000      0.0000      0.0000    143.4409
   729.0000      0.0000      0.0000      0.0000    142.7103
   729.2500      0.0000      0.0000      0.0000    143.5571
   729.5000      0.0000      0.0000      0.0000    145.2809
   729.7500      0.0000      0.0000      0.0000    145.0831
   730.0000      0.0000      0.0000      0.0000    141.6556
   730.2500      0.0000      0.0000      0.0000    138.0666
   730.5000      0.0000      0.0000      0.0000    132.3696
   730.7500      0.0000      0.0000      0.0000    128.4743
   731.0000      0.0000      0.0000      0.0000    121.9630
   731.2500      0.0000      0.0000      0.0000    117.3825
   731.5000      0.0000      0.0000      0.0000    111.5283
   731.7500      0.0000      0.0000      0.0000    109.1448
   732.0000      0.0000      0.0000      0.0000    108.5378
   732.2500      0.0000      0.0000      0.0000    109.9597
   732.5000      0.0000      0.0000      0.0000    113.7109
   732.7500      0.0000      0.0000      0.0000    116.3808
   733.0000      0.0000      0.0000      0.0000    119.2706
   733.2500      0.0000      0.0000      0.0000    120.1377
   733.5000      0.0000      0.0000      0.0000    120.5697
   733.7500      0.0000      0.0000      0.0000    121.2968
   734.0000      0.0000      0.0000      0.0000    124.6796
   734.2500      0.0000      0.0000      0.0000    128.6299
   734.5000      0.0000      0.0000      0.0000    135.4400
   734.7500      0.0000      0.0000      0.0000    138.9643
   735.0000      0.0000      0.0000      0.0000    141.1589
   735.2500      0.0000      0.0000      0.0000    141.0786
   735.5000      0.0000      0.0000      0.0000    140.4293
   735.7500      0.0000      0.0000      0.0000    139.9107
   736.0000      0.0000      0.0000      0.0000    138.4999
   736.2500      0.0000      0.0000      0.0000    137.3036
   736.5000      0.0000      0.0000      0.0000    135.9810
   736.7500      0.0000      0.0000      0.0000    135.6008
   737.0000      0.0000      0.0000      0.0000    136.0751
   737.2500      0.0000      0.0000      0.0000    137.4871
   737.5000      0.0000      0.0000      0.0000    140.8539
   737.7500      0.0000      0.0000      0.0000    142.7832
   738.0000      0.0000      0.0000      0.0000    143.8756
   738.2500      0.0000      0.0000      0.0000    143.7532
   738.5000      0.0000      0.0000      0.0000    143.1042
   738.7500      0.0000      0.0000      0.0000    141.9414
   739.0000      0.0000      0.0000      0.0000    137.3822
   739.2500      0.0000      0.0000      0.0000    131.7495
   739.5000      0.0000      0.0000      0.0000    119.6990
   739.7500      0.0000      0.0000      0.0000    110.4407
   740.0000      0.0000      0.0000      0.0000     97.8773
   740.2500      0.0000      0.0000      0.0000     92.1872
   740.5000      0.0000      0.0000      0.0000     89.4401
   740.7500      0.0000      0.0000      0.0000     91.3563
   741.0000      0.0000      0.0000      0.0000     97.7991
   741.2500      0.0000      0.0000      0.0000    102.6620
   741.5000      0.0000      0.0000      0.0000    108.4043
   741.7500      0.0000      0.0000      0.0000    111.0991
   742.0000      0.0000      0.0000      0.0000    115.4268
   742.2500      0.0000      0.0000      0.0000    119.6592
   742.5000      0.0000      0.0000      0.0000    127.5075
   742.7500      0.0000      0.0000      0.0000    131.9024
   743.0000      0.0000      0.0000      0.0000    134.0988
   743.2500      0.0000      0.0000      0.0000    132.3844
   743.5000      0.0000      0.0000      0.0000    127.4658
   743.7500      0.0000      0.0000      0.0000    124.2117
   744.0000      0.0000      0.0000      0.0000    120.0388
   744.2500      0.0000      0.0000      0.0000    117.2636
   744.5000      0.0000      0.0000      0.0000    113.2051
   744.7500      0.0000      0.0000      0.0000    111.6477
   745.0000      0.0000      0.0000      0.0000    112.9048
   745.2500      0.0000      0.0000      0.0000    116.0067
   745.5000      0.0000      0.0000      0.0000    121.8175
   745.7500      0.0000      0.0000      0.0000    125.3623
   746.0000      0.0000      0.0000      0.0000     93.2491
   746.2500      0.0000      0.0000      0.0000     96.3523
   746.5000      0.0000      0.0000      0.0000    102.3074
   746.7500      0.0000      0.0000      0.0000    106.4353
   747.0000      0.0000      0.0000      0.0000    110.8929
   747.2500      0.0000      0.0000      0.0000    111.8883
   747.5000      0.0000      0.0000      0.0000    110.6269
   747.7500      0.0000      0.0000      0.0000    108.9609
   748.0000      0.0000      0.0000      0.0000    106.9249
   748.2500      0.0000      0.0000      0.0000    105.9561
   748.5000      0.0000      0.0000      0.0000    103.7380
   748.7500      0.0000      0.0000      0.0000    100.8205
   749.0000      0.0000      0.0000      0.0000     93.4386
   749.2500      0.0000      0.0000      0.0000     86.7499
   749.5000      0.0000      0.0000      0.0000     76.3084
   749.7500      0.0000      0.0000      0.0000     71.2355
   750.0000      0.0000      0.0000      0.0000     69.1789
   750.2500      0.0000      0.0000      0.0000     71.1274
   750.5000      0.0000      0.0000      0.0000     75.3786
   750.7500      0.0000      0.0000      0.0000     76.9734
   751.0000      0.0000      0.0000      0.0000     76.3692
   751.2500      0.0000      0.0000      0.0000     74.5752
