~Version Information
VERS.                      2.0: CWLS Log ASCII Standard - VERSION 2.0
WRAP.                       NO: One line per depth step
~Well Information Block
STRT.FT                 3.7500: 
STOP.FT               979.7500: 
STEP.FT                 0.2500: 
NULL.                -999.2500: 
COMP.          Pioneer Natural Resources: COMPANY
WELL.          Rising Star 22-11: WELL
FLD.           Purgatoire River: FIELD
LOC.           2152' FNL & 2105' FWL: LOCATION
PROV.                 Colorado: PROVINCE
CNTY.               Las Animas: COUNTRY
SRVC.                Patterson: SERVICE COMPANY
DATE.          Sat Apr 16 09:17:01 2005: LOG DATE
UWI.           05 071 08354 00: UNIQUE WELL ID
~Curve Information Block
DEPT.FT            0 000 00 00: Depth
GR.GAPI                       : Gamma Ray
CCL.                          : Casing Collar Locator
TT3.usec                      : CBL 3' Travel Time
AMP3.mV                       : CBL 3' Amplitude
~Parameter Information Block
~A  Depth        GR         CCL         TT3         AMP3    
# ...
   740.7500    108.0750      0.0000   1189.4231     10.6722
   741.0000    106.0706      0.0000   1209.5645     10.8525
   741.2500    101.8266      0.0000   1215.0957     11.0262
   741.5000     96.1755      0.0000   1201.2261     11.1750
   741.7500     90.4429      0.0000   1172.0651     11.2662
   742.0000     85.8433      0.0000   1137.1254     11.2588
   742.2500     83.0560      0.0000   1106.8470     11.1209
   742.5000     81.9213      0.0000   1088.6022     10.8620
   742.7500     81.4098      0.0000   1084.2811     10.5472
   743.0000     80.3096      0.0000   1091.7139     10.2681
   743.2500     78.2280      0.0000   1108.5973     10.0900
   743.5000     75.8107      0.0000   1133.6320     10.0258
   743.7500     74.0177      0.0000   1163.4534     10.0516
   744.0000     73.4099      0.0000   1191.6632     10.1368
   744.2500     74.0543      0.0000   1214.2949     10.2568
   744.5000     75.7149      0.0000   1233.6350     10.3866
   744.7500     77.9640      0.0000   1251.6520     10.4926
   745.0000     80.4406      0.0000   1261.4757     10.5413
   745.2500     83.3055      0.0000   1251.3407     10.5190
   745.5000     87.1644      0.0000   1217.6329     10.4385
   745.7500     91.9582      0.0000   1171.0453     10.3228
   746.0000     95.9692      0.0000   1129.1116     10.1839
   746.2500     96.6404      0.0000   1103.8368     10.0222
   746.5000     92.8874      0.0000   1096.6768      9.8409
   746.7500     86.3286      0.0000   1103.5928      9.6547
   747.0000     79.9042      0.0000   1122.4324      9.4835
   747.2500     75.5769      0.0000   1154.2113      9.3395
   747.5000     73.5967      0.0000   1197.8740      9.2229
   747.7500     73.4889      0.0000   1246.0607      9.1262
   748.0000     75.0306      0.0000   1288.1201      9.0419
   748.2500     78.1568      0.0000   1317.0894      8.9683
   748.5000     82.2486      0.0000   1332.3856      8.9131
   748.7500     85.7611      0.0000   1336.3323      8.8889
   749.0000     86.8999      0.0000   1330.5220      8.8999
   749.2500     85.0473      0.0000   1316.3760      8.9297
   749.5000     81.4028      0.0000   1297.3585      8.9427
   749.7500     78.0063      0.0000   1277.9473      8.9037
   750.0000     76.3830      0.0000   1260.5474      8.8074
   750.2500     77.0068      0.0000   1246.6465      8.6899
   750.5000     79.2987      0.0000   1241.1367      8.6052
   750.7500     81.8992      0.0000   1250.4144      8.5858
   751.0000     83.6084      0.0000   1273.9689      8.6269
   751.2500     84.4653      0.0000   1301.7299      8.7031
   751.5000     85.5936      0.0000   1321.5699      8.7918
   751.7500     87.7115      0.0000   1327.5089      8.8837
   752.0000     89.9003      0.0000   1321.4456      8.9831
   752.2500     90.0877      0.0000   1310.3455      9.1027
   752.5000     86.8175      0.0000   1301.3779      9.2500
   752.7500     80.4539      0.0000   1296.8563      9.4121
   753.0000     72.7122      0.0000   1294.1910      9.5552
   753.2500     65.3526      0.0000   1292.0533      9.6479
   753.5000     59.4715      0.0000   1294.0149      9.6900
   753.7500     55.5911      0.0000   1303.6283      9.7251
   754.0000     53.8943      0.0000   1318.3252      9.8174
   754.2500     54.3236      0.0000   1330.6851     10.0066
   754.5000     56.7278      0.0000   1333.5593     10.2762
   754.7500     61.1034      0.0000   1322.2463     10.5583
   755.0000     67.7176      0.0000   1294.9388     10.7678
   755.2500     76.8267      0.0000   1255.3838     10.8422
   755.5000     87.9926      0.0000   1214.2582     10.7664
   755.7500     99.6593      0.0000   1183.1451     10.5741
   756.0000    109.6793      0.0000   1164.8293     10.3271
   756.2500    116.3999      0.0000   1152.0302     10.0893
   756.5000    119.2922      0.0000   1137.1475      9.9071
   756.7500    118.9427      0.0000   1120.7358      9.7971
   757.0000    116.7622      0.0000   1109.3376      9.7444
   757.2500    114.3099      0.0000   1108.9546      9.7154
   757.5000    112.3097      0.0000   1123.1067      9.6813
   757.7500    110.2752      0.0000   1153.5757      9.6322
   758.0000    107.3233      0.0000   1198.2997      9.5768
   758.2500    103.4302      0.0000   1248.8215      9.5331
   758.5000     99.8819      0.0000   1293.3274      9.5213
   758.7500     98.4719      0.0000   1323.9054      9.5546
   759.0000    100.1938      0.0000   1340.2729      9.6302
   759.2500    104.4310      0.0000   1347.0967      9.7302
   759.5000    109.0684      0.0000   1349.3124      9.8322
   759.7500    111.5909      0.0000   1349.8727      9.9156
   760.0000    110.7313      0.0000   1349.9830      9.9587
   760.2500    107.4170      0.0000   1350.0000      9.9407
   760.5000    103.9463      0.0000   1350.0000      9.8572
   760.7500    102.0978      0.0000   1350.0000      9.7318
   761.0000    101.9924      0.0000   1350.0000      9.6079
   761.2500    102.5833      0.0000   1350.0000      9.5240
   761.5000    102.9942      0.0000   1350.0000      9.4939
   761.7500    103.2804      0.0000   1350.0000      9.5025
   762.0000    103.9628      0.0000   1350.0000      9.5155
   762.2500    105.0996      0.0000   1350.0000      9.4970
   762.5000    106.1083      0.0000   1350.0000      9.4256
   762.7500    106.5119      0.0000   1350.0000      9.3021
   763.0000    106.6684      0.0000   1350.0000      9.1475
   763.2500    107.5674      0.0000   1350.0000      8.9901
   763.5000    109.8804      0.0000   1350.0000      8.8503
   763.7500    113.2254      0.0000   1350.0000      8.7315
   764.0000    116.2951      0.0000   1350.0000      8.6272
   764.2500    117.6785      0.0000   1350.0000      8.5362
   764.5000    116.6784      0.0000   1350.0000      8.4682
   764.7500    113.6405      0.0000   1350.0000      8.4349
   765.0000    109.5885      0.0000   1350.0000      8.4374
   765.2500    105.6142      0.0000   1350.0000      8.4658
   765.5000    102.7382      0.0000   1350.0000      8.5064
   765.7500    101.9599      0.0000   1350.0000      8.5480
   766.0000    103.6081      0.0000   1349.9865      8.5836
   766.2500    106.4680      0.0000   1349.9012      8.6125
   766.5000    108.2649      0.0000   1349.4830      8.6423
   766.7500    107.4953      0.0000   1347.8575      8.6856
   767.0000    104.6256      0.0000   1343.0040      8.7501
   767.2500    101.2636      0.0000   1331.8224      8.8324
   767.5000     98.3433      0.0000   1311.9003      8.9204
   767.7500     95.4206      0.0000   1284.0453      9.0009
   768.0000     91.7026      0.0000   1252.2407      9.0621
   768.2500     87.3657      0.0000   1220.2523      9.0944
   768.5000     83.6737      0.0000   1190.1322      9.0939
   768.7500     82.1091      0.0000   1164.8485      9.0672
   769.0000     83.6598      0.0000   1148.1497      9.0307
   769.2500     88.5886      0.0000   1138.8893      9.0001
   769.5000     96.1305      0.0000   1129.7955      8.9805
   769.7500    104.2092      0.0000   1116.3427      8.9625
   770.0000    109.9903      0.0000   1103.7363      8.9306
   770.2500    111.2731      0.0000   1100.4495      8.8809
   770.5000    107.6830      0.0000   1106.3916      8.8308
   770.7500    100.8160      0.0000   1112.0710      8.8025
   771.0000     93.2275      0.0000   1109.7887      8.7952
   771.2500     86.8474      0.0000   1101.5341      8.7785
   771.5000     82.1806      0.0000   1094.0912      8.7147
   771.7500     78.9721      0.0000   1089.9469      8.5884
   772.0000     77.2755      0.0000   1086.2300      8.4188
   772.2500     77.3978      0.0000   1080.6313      8.2491
   772.5000     78.9258      0.0000   1075.0465      8.1204
   772.7500     80.5048      0.0000   1073.1818      8.0532
   773.0000     80.9393      0.0000   1076.3536      8.0472
   773.2500     80.2269      0.0000   1082.0460      8.0912
   773.5000     79.2336      0.0000   1085.6597      8.1661
   773.7500     78.4722      0.0000   1083.8824      8.2358
   774.0000     77.5147      0.0000   1078.3013      8.2447
