~Version Information
VERS.                      2.0: CWLS Log ASCII Standard - VERSION 2.0
WRAP.                       NO: One line per depth step
~Well Information Block
STRT.FT               482.2000: 
STOP.FT              2349.0000: 
STEP.FT                 0.1000: 
NULL.                -999.2500: 
COMP.          Pioneer Natural Resources: COMPANY
WELL.          Hill Climb 22-2: WELL
FLD.           Purgatoire River: FIELD
LOC.           1820' FNL & 2193' FWL: LOCATION
PROV.                 Colorado: PROVINCE
CNTY.               Las Animas: COUNTRY
SRVC.                Patterson: SERVICE COMPANY
DATE.          Wed Oct 20 09:25:25 2004: LOG DATE
UWI.           05 071 08175 00: UNIQUE WELL ID
~Curve Information Block
DEPT.FT            0 000 00 00: Depth
DCAL.in                       : CDL Caliper
DPOR.pu                       : CDL Density Porosity
NPOR.pu                       : Neutron Porosity
RHOB.g/cc                     : CDL Bulk Density
RHOC.g/cc                     : CDL Density Correction
GR.GAPI                       : Gamma Ray
~Parameter Information Block
~A  Depth       DCAL        DPOR        NPOR        RHOB        RHOC         GR     
# ...
   703.0000      8.1791     13.5348     20.7988      2.4267      0.0636    126.6143
   703.1000      8.1791     11.6231     21.3848      2.4582      0.0455    127.6328
   703.2000      8.1791      9.6766     21.7999      2.4903      0.1020    132.2030
   703.3000      8.1328      8.3311     22.0886      2.5125      0.0549    130.9271
   703.4000      8.1328      8.0317     22.2949      2.5175      0.0646    120.6505
   703.5000      8.1219      8.5594     22.7918      2.5088      0.0392    114.1507
   703.6000      8.1219      9.6835     23.2780      2.4902      0.0507    116.4288
   703.7000      8.1219     11.4771     22.9775      2.4606      0.0423    119.3475
   703.8000      8.1229     12.8178     21.9444      2.4385     -0.0332    119.2449
   703.9000      8.1229     11.4359     21.1713      2.4613     -0.0171    117.1763
   704.0000      8.1253      7.1032     21.4718      2.5328      0.0412    110.6901
   704.1000      8.1253      2.2067     22.3452      2.6136      0.1279    103.3708
   704.2000      8.1253     -1.6221     22.4931      2.6768      0.1198     97.9822
   704.3000      8.1291     -4.4139     21.8171      2.7228      0.1616     86.9691
   704.4000      8.1291     -5.8621     21.7421      2.7467      0.2226     74.8450
   704.5000      8.1300     -5.7828     22.7434      2.7454      0.1968     71.5444
   704.6000      8.1300     -5.1066     23.5842      2.7343      0.1877     75.1245
   704.7000      8.1300     -4.8324     23.4027      2.7297      0.1623     82.1298
   704.8000      8.1169     -5.5414     22.8224      2.7414      0.1292     87.4872
   704.9000      8.1169     -7.0877     22.6459      2.7669      0.1087     89.7323
   705.0000      8.0914     -8.1400     22.5902      2.7843      0.0759     91.1434
   705.1000      8.0914     -7.4544     22.2829      2.7730      0.0695     91.3239
   705.2000      8.0914     -5.7942     22.1503      2.7456     -0.0335     94.0614
   705.3000      8.0659     -4.7813     22.6278      2.7289      0.0152    100.8648
   705.4000      8.0659     -4.3379     23.1808      2.7216      0.0182    106.5129
   705.5000      8.0522     -3.5901     23.0665      2.7092      0.0035    107.6152
   705.6000      8.0522     -2.4700     22.7082      2.6908      0.0190    103.4863
   705.7000      8.0522     -1.3652     22.5481      2.6725      0.0133    100.1037
   705.8000      8.0487     -0.1026     22.1187      2.6517      0.0306    105.8338
   705.9000      8.0487      1.7631     21.3443      2.6209      0.0286    116.3736
   706.0000      8.0491      3.6086     21.0496      2.5905     -0.0104    119.9510
   706.1000      8.0491      4.2228     21.8774      2.5803      0.0141    112.4221
   706.2000      8.0491      3.7102     23.0573      2.5888      0.0750    102.0517
   706.3000      8.0501      3.3147     23.1836      2.5953      0.0736    103.0907
   706.4000      8.0501      3.5471     22.2532      2.5915      0.0416    111.7122
   706.5000      8.0501      3.8840     21.0715      2.5859      0.0133    109.1057
   706.6000      8.0501      4.0012     20.2975      2.5840      0.0478     98.0550
   706.7000      8.0501      4.0143     20.2643      2.5838      0.0440     92.9581
   706.8000      8.0481      3.8378     20.6119      2.5867      0.0613     90.9484
   706.9000      8.0481      3.4437     20.8194      2.5932      0.0543     85.3836
   707.0000      8.0461      3.2627     21.2257      2.5962      0.0975     81.9415
   707.1000      8.0461      3.6961     22.5301      2.5890      0.0538     84.3820
   707.2000      8.0461      4.6052     24.3490      2.5740      0.0497     90.6852
   707.3000      8.0418      5.6554     25.7871      2.5567      0.0615     99.4618
   707.4000      8.0418      6.1965     28.9201      2.5478      0.0320    107.2474
   707.5000      8.0355      5.8961     38.5836      2.5527      0.0274    113.3183
   707.6000      8.0355      5.3906     52.2662      2.5611      0.0566    116.4043
   707.7000      8.0355      4.8893     60.4460      2.5693      0.0294    111.4837
   707.8000      8.0356      3.9561     62.8618      2.5847      0.0524    104.3341
   707.9000      8.0356      3.1615     63.2902      2.5978      0.1003    108.4132
   708.0000      8.0389      3.3165     63.3346      2.5953      0.0667    123.3581
   708.1000      8.0389      3.8943     63.3371      2.5857      0.0435    131.6865
   708.2000      8.0389      3.9591      0.0000      2.5847      0.0506    121.8133
   708.3000      8.0398      3.4390      0.0000      2.5933      0.0599    107.0912
   708.4000      8.0398      3.0917      0.0000      2.5990      0.0884    106.5128
   708.5000      8.0400      3.5835      0.0000      2.5909      0.0763    118.2537
   708.6000      8.0400      4.2518      0.0000      2.5798      0.0018    128.3907
   708.7000      8.0400      4.4628      0.0000      2.5764      0.0611    128.9513
   708.8000      8.0409      5.3025      0.0000      2.5625      0.0808    123.9198
   708.9000      8.0409      6.9473      0.0000      2.5354     -0.0196    119.1738
   709.0000      8.0412      7.8581      0.0000      2.5203     -0.0203    112.1646
   709.1000      8.0412      7.9285      0.0000      2.5192     -0.0061    107.1159
   709.2000      8.0412      8.0934      0.0000      2.5165      0.0184    109.3865
   709.3000      8.0409      8.3945      0.0000      2.5115      0.0374    113.8028
   709.4000      8.0409      8.3510      0.0000      2.5122     -0.0018    118.6635
   709.5000      8.0413      7.4396      0.0000      2.5272      0.0055    119.3083
   709.6000      8.0413      5.9202      0.0000      2.5523      0.0728    109.9094
   709.7000      8.0413      5.1305      0.0000      2.5653      0.0953     97.5430
   709.8000      8.0404      5.3288      0.0000      2.5621      0.0619     94.4734
   709.9000      8.0404      5.1588      0.0000      2.5649      0.0269    104.5701
   710.0000      8.0382      4.3500      0.0000      2.5782      0.0518    117.6442
   710.1000      8.0382      3.9496      0.0000      2.5848      0.0621    119.7623
   710.2000      8.0382      4.0219      0.0000      2.5836      0.0166    110.8115
   710.3000      8.0376      3.9022      0.0000      2.5856      0.0524    100.5054
   710.4000      8.0376      3.5139      0.0000      2.5920      0.0775     96.9921
   710.5000      8.0367      2.9429      0.0000      2.6014      0.0226    104.0061
   710.6000      8.0367      2.5541      0.0000      2.6079      0.0794    118.9214
   710.7000      8.0367      3.1208      0.0000      2.5985      0.0627    129.4735
   710.8000      8.0326      4.2583      0.0000      2.5797      0.0130    127.5198
   710.9000      8.0326      4.7122      0.0000      2.5722      0.0270    118.0602
   711.0000      8.0276      4.1653      0.0000      2.5813      0.0560    109.1378
   711.1000      8.0276      3.4315      0.0000      2.5934      0.0583    106.8120
   711.2000      8.0276      3.4590      0.0000      2.5929      0.0920    111.8974
   711.3000      8.0242      4.3836      0.0000      2.5777      0.0729    116.8675
   711.4000      8.0242      5.2645      0.0000      2.5631      0.0379    109.0314
   711.5000      8.0205      5.4682      0.0000      2.5598      0.0418     94.8576
   711.6000      8.0205      5.6220      0.0000      2.5572      0.0760     92.2598
   711.7000      8.0205      5.9304      0.0000      2.5521     -0.0003     98.6812
   711.8000      8.0179      5.7436      0.0000      2.5552      0.0594    102.9418
   711.9000      8.0179      5.0498      0.0000      2.5667      0.0303    106.6592
   712.0000      8.0161      4.3809      0.0000      2.5777      0.0919    113.4234
   712.1000      8.0161      4.0231      0.0000      2.5836      0.0539    117.6339
   712.2000      8.0161      3.8514      0.0000      2.5865      0.0925    115.2406
   712.3000      8.0131      3.8422      0.0000      2.5866      0.0692    112.1246
   712.4000      8.0131      4.0631      0.0000      2.5830      0.0681    114.3482
   712.5000      8.0113      4.6206      0.0000      2.5738      0.0777    119.6043
