~Version Information
 VERS.                                  2.0 : CWLS LAS VERSION
 WRAP.                                   NO : WRAPING MODE
 SWARE .                 MController 2.5.0N : SOFTWARE VERSION
~Well Information
 WELL.                   Sand Pebbles 13-33 : WELL
 COMP.    Pioneer Natural Resources USA Inc : COMPANY
 FLD.                      Purgatoire River : FIELD
 LOC.                 NW/SW Sec 33 T32S R67W : LOCATION
 DATE.                           3/08-10/05 : DATE(S) LOGGED
 SRVC.         Blanco Geological Services LLC : SERVICE COMPANY
 STAT.                                   CO : STATE
 CNTY.                           Las Animas : COUNTY
 CTRY.                                  USA : COUNTRY
 API.                       05-071-08224-00 : API NUMBER
 STRT.FT                             655.00 : START DEPTH
 STOP.FT                            2730.00 : STOP DEPTH
 STEP.FT                               1.00 : DEPTH INCREMENT
 NULL.                                -9999 : NULL VALUE
~Curve information
 DEPTH.FT                                   :
 ROP.MIN/FT                                 :
 GAS.UNITS                                  :
~ASCII Log data
# ...
      1655.0         0.28         35.1 
      1656.0         0.33         48.3 
      1657.0         0.27         20.9 
      1658.0         0.23          9.9 
      1659.0         0.20          6.7 
      1660.0         0.27          4.9 
      1661.0         0.23          3.6 
      1662.0         0.40          2.9 
      1663.0         0.23          2.6 
      1664.0         0.33          2.6 
      1665.0         0.23          3.0 
      1666.0         0.17          3.4 
      1667.0         0.35          4.6 
      1668.0         0.40         13.4 
      1669.0         0.37         14.0 
      1670.0         0.43          6.4 
      1671.0         0.47          3.1 
      1672.0         0.53          2.7 
      1673.0         0.50          2.9 
      1674.0         0.40          3.4 
      1675.0         0.48         10.4 
      1676.0         0.47         17.6 
      1677.0         0.43         13.3 
      1678.0         0.53          5.8 
      1679.0         0.33          3.6 
      1680.0         0.43          2.5 
      1681.0         7.40          2.6 
      1682.0         0.17          2.7 
      1683.0         0.28          2.9 
      1684.0         0.37          2.8 
      1685.0         0.50          3.1 
      1686.0         0.30          8.5 
      1687.0         0.17         22.3 
      1688.0         0.20         41.7 
      1689.0         0.20         25.6 
      1690.0         0.50          4.0 
      1691.0         0.23          2.9 
      1692.0         0.17          2.6 
      1693.0         0.20          2.8 
      1694.0         0.38          3.1 
      1695.0         0.50          2.8 
      1696.0         0.57          3.1 
      1697.0         0.30          2.8 
      1698.0         0.43         14.6 
      1699.0         0.33         25.3 
      1700.0         0.57         19.7 
      1701.0         0.33          7.9 
      1702.0         0.35          3.5 
      1703.0         0.27          2.3 
      1704.0         0.23          2.2 
      1705.0         0.30          2.5 
      1706.0         0.33          2.7 
      1707.0         0.30          3.2 
      1708.0         0.20          4.6 
      1709.0         0.17          5.6 
      1710.0         0.13          6.5 
      1711.0        10.38          2.8 
      1712.0         0.37          3.1 
      1713.0         0.47         16.0 
      1714.0         0.45         79.3 
      1715.0         0.43         40.2 
      1716.0         0.60         10.2 
      1717.0         0.53          3.7 
      1718.0         0.50          2.8 
      1719.0         0.53          2.8 
      1720.0         0.45          3.1 
      1721.0         0.57          7.7 
      1722.0         0.57         13.4 
      1723.0         0.77          7.0 
      1724.0         0.27          5.8 
      1725.0         0.30          5.1 
      1726.0         0.50          3.1 
      1727.0         0.42          2.5 
      1728.0         0.50          4.2 
      1729.0         0.50          4.5 
      1730.0         0.37          7.7 
      1731.0         0.30         13.5 
      1732.0         0.47         13.8 
      1733.0         0.33          8.6 
      1734.0         0.27          5.2 
      1735.0         0.30          3.9 
      1736.0         0.48          3.0 
      1737.0         0.40          2.6 
      1738.0         0.60          3.4 
      1739.0         0.63          5.6 
      1740.0         0.47          8.5 
      1741.0        13.10         20.8 
      1742.0         0.63         18.4 
      1743.0         0.30          9.1 
      1744.0         0.38          4.0 
      1745.0         0.30          2.7 
      1746.0         0.27          2.5 
      1747.0         0.27          2.7 
      1748.0         0.30          2.5 
      1749.0         0.30          2.8 
      1750.0         0.47          3.5 
      1751.0         0.60         12.7 
      1752.0         0.47         16.4 
      1753.0         0.42         12.8 
      1754.0         0.47          6.3 
      1755.0         0.43          4.1 
      1756.0         0.43          3.2 
      1757.0         0.33          3.2 
      1758.0         0.40          3.3 
      1759.0         0.23          3.1 
      1760.0         0.23          3.1 
      1761.0         0.17          3.8 
      1762.0         0.27          5.2 
      1763.0         0.27          6.0 
      1764.0         0.25          6.6 
      1765.0         0.17          6.1 
      1766.0         0.23          6.2 
      1767.0         0.30          5.8 
      1768.0         0.33          5.8 
      1769.0         0.40          5.3 
      1770.0         0.37          6.0 
      1771.0         8.65          3.2 
      1772.0         0.40          2.7 
      1773.0         0.40          4.9 
      1774.0         0.30         14.2 
      1775.0         0.33         16.1 
      1776.0         0.23          5.7 
      1777.0         0.23          2.9 
      1778.0         0.17          2.5 
      1779.0         0.33          2.5 
      1780.0         0.42          2.7 
      1781.0         0.37          2.5 
      1782.0         0.33          2.5 
      1783.0         0.37          2.4 
      1784.0         0.37          2.6 
      1785.0         0.20          2.6 
      1786.0         0.30          2.7 
      1787.0         0.43         16.9 
      1788.0         6.10          3.0 
      1789.0         0.37          2.3 
      1790.0         0.30          2.4 
      1791.0         0.47          2.5 
      1792.0         0.62          2.4 
      1793.0         0.50          2.7 
      1794.0         0.43          2.8 
      1795.0         0.37          3.3 
      1796.0         0.43          6.0 
      1797.0         0.47          9.0 
      1798.0         0.47         17.3 
      1799.0         0.45         16.6 
      1800.0         0.43         13.4 
      1801.0        11.98          2.7 
      1802.0         0.67          2.7 
      1803.0         0.62         42.1 
      1804.0         0.60          9.1 
      1805.0         0.53          3.0 
      1806.0         0.37          3.7 
      1807.0         0.50          2.6 
      1808.0         0.53          2.7 
      1809.0         0.30          3.9 
      1810.0         0.72         10.9 
      1811.0         0.77          7.7 
      1812.0         0.60          6.7 
      1813.0         0.37          6.5 
      1814.0         0.67          5.9 
      1815.0         0.42          5.6 
      1816.0         0.07          5.7 
      1817.0         1.00          8.0 
      1818.0         0.07          8.4 
      1819.0         0.33          9.5 
      1820.0         0.47         11.0 
      1821.0         0.53          9.9 
      1822.0         0.92          5.7 
      1823.0         0.37          8.1 
      1824.0         0.33          5.6 
      1825.0         0.33          3.1 
      1826.0         0.23          2.5 
      1827.0         0.27          2.2 
      1828.0         0.27          2.1 
      1829.0         0.47          8.6 
      1830.0         0.47         20.5 
      1831.0        19.27          5.0 
      1832.0         0.47         33.7 
      1833.0         0.70          6.4 
      1834.0         0.95          3.2 
      1835.0         1.00          3.0 
      1836.0         1.00          4.2 
      1837.0         0.98         11.7 
      1838.0         0.50         15.8 
      1839.0         0.37         13.4 
      1840.0         0.43          9.5 
      1841.0         0.37          8.7 
      1842.0         0.40          9.0 
      1843.0         0.37          7.9 
      1844.0         0.43          8.0 
      1845.0         0.55         10.3 
      1846.0         0.47         11.1 
      1847.0         0.40         11.1 
      1848.0         0.37         11.8 
      1849.0         0.40         11.7 
      1850.0         0.43         10.2 
      1851.0         0.47          7.8 
      1852.0         0.45          7.9 
      1853.0         0.47          9.7 
      1854.0         0.53         10.5 
