~Version Information
VERS.                      2.0: CWLS Log ASCII Standard - VERSION 2.0
WRAP.                       NO: One line per depth step
~Well Information Block
STRT.FT                -7.0000: 
STOP.FT              2730.2500: 
STEP.FT                 0.2500: 
NULL.                -999.2500: 
COMP.          Pioneer Natural Resources: COMPANY
WELL.             Squeal 11-26: WELL
FLD.           Purgatorie River: FIELD
LOC.           1186' FNL & 152' FWL--: LOCATION
PROV.                       CO: PROVINCE
CNTY.               Las Animas: COUNTRY
SRVC.          Patterson Wireline: SERVICE COMPANY
DATE.          Tue Jul 26 11:59:46 2005: LOG DATE
UWI.           05 071 08404 00: UNIQUE WELL ID
~Curve Information Block
DEPT.FT            0 000 00 00: Depth
CCL.                          : Casing Collar Locator
TT3.usec                      : CBL 3' Travel Time
AMP3.mV                       : CBL 3' Amplitude
GR.GAPI                       : Gamma Ray
~Parameter Information Block
~A  Depth       CCL         TT3         AMP3         GR     
# ...
  1266.0000      0.0000    671.8512      4.8052    136.9925
  1266.2500      0.0000    676.8694      4.7700    138.3875
  1266.5000      0.0000    681.6609      4.7292    138.8589
  1266.7500      0.0000    684.7476      4.6817    136.7718
  1267.0000      0.0000    685.6394      4.6289    131.5181
  1267.2500      0.0000    684.9207      4.5773    124.5579
  1267.5000      0.0000    683.3298      4.5350    118.4887
  1267.7500      0.0000    680.6581      4.5054    115.0218
  1268.0000      0.0000    675.7493      4.4851    114.0219
  1268.2500      0.0000    667.9481      4.4693    114.2764
  1268.5000      0.0000    658.4025      4.4569    114.6659
  1268.7500      0.0000    649.5197      4.4520    114.6099
  1269.0000      0.0000    643.1325      4.4578    114.2096
  1269.2500      0.0000    639.4668      4.4718    114.4180
  1269.5000      0.0000    637.6573      4.4861    116.5667
  1269.7500      0.0000    636.7609      4.4935    121.1878
  1270.0000      0.0000    636.2422      4.4917    127.3338
  1270.2500      0.0000    635.9161      4.4820    133.0580
  1270.5000      0.0000    635.7504      4.4645    136.5589
  1270.7500      0.0000    635.7920      4.4385    137.2459
  1271.0000      0.0000    636.2188      4.4045    136.0578
  1271.2500      0.0000    637.4786      4.3644    134.5645
  1271.5000      0.0000    640.2784      4.3201    133.6947
  1271.7500      0.0000    645.1862      4.2723    133.4739
  1272.0000      0.0000    651.8814      4.2215    133.5187
  1272.2500      0.0000    658.7186      4.1676    133.2437
  1272.5000      0.0000    663.3820      4.1122    131.9948
  1272.7500      0.0000    664.6957      4.0592    129.6106
  1273.0000      0.0000    664.1588      4.0157    126.7273
  1273.2500      0.0000    665.0028      3.9895    124.0106
  1273.5000      0.0000    668.7277      3.9850    121.0716
  1273.7500      0.0000    672.8327      3.9988    116.6003
  1274.0000      0.0000    672.9178      4.0177    109.7941
  1274.2500      0.0000    666.9758      4.0240    101.4965
  1274.5000      0.0000    657.0585      4.0016     93.8948
  1274.7500      0.0000    647.1656      3.9379     89.0173
  1275.0000      0.0000    640.4318      3.8252     87.2488
  1275.2500      0.0000    638.4689      3.6669     87.3181
  1275.5000      0.0000    642.3824      3.4846     87.9479
  1275.7500      0.0000    653.1088      3.3107     89.0537
  1276.0000      0.0000    669.9684      3.1710     90.9125
  1276.2500      0.0000    689.2713      3.0689     92.9408
  1276.5000      0.0000    705.6262      2.9865     94.2794
  1276.7500      0.0000    715.7672      2.9028     95.0784
  1277.0000      0.0000    721.4497      2.8104     96.2463
  1277.2500      0.0000    728.4439      2.7184     98.1105
  1277.5000      0.0000    741.6829      2.6439     99.9131
  1277.7500      0.0000    759.8455      2.6061    100.5023
  1278.0000      0.0000    774.6345      2.6267     99.1000
  1278.2500      0.0000    777.3029      2.7239     95.5130
  1278.5000      0.0000    766.6378      2.9018     90.4046
  1278.7500      0.0000    749.3107      3.1453     85.6850
  1279.0000      0.0000    733.0016      3.4289     83.7214
  1279.2500      0.0000    721.6574      3.7299     85.2417
  1279.5000      0.0000    716.7160      4.0370     88.4325
  1279.7500      0.0000    718.6787      4.3505     90.9161
  1280.0000      0.0000    725.0853      4.6794     92.4564
  1280.2500      0.0000    728.4249      5.0318     94.9756
  1280.5000      0.0000    718.7757      5.4038     99.9567
  1280.7500      0.0000    690.7524      5.7688    106.4433
  1281.0000      0.0000    649.4549      6.0779    111.7634
  1281.2500      0.0000    609.3273      6.2747    113.9287
  1281.5000      0.0000    584.8105      6.3206    113.2834
  1281.7500      0.0000    580.5101      6.2174    111.9006
  1282.0000      0.0000    590.7015      6.0058    111.3794
  1282.2500      0.0000    607.3448      5.7434    111.5257
  1282.5000      0.0000    626.1775      5.4814    111.4541
  1282.7500      0.0000    645.4387      5.2549    111.3310
  1283.0000      0.0000    662.1188      5.0813    112.1232
  1283.2500      0.0000    671.8849      4.9623    113.9878
  1283.5000      0.0000    671.9558      4.8900    115.8954
  1283.7500      0.0000    662.9730      4.8555    116.7322
  1284.0000      0.0000    648.9631      4.8509    116.0282
  1284.2500      0.0000    636.2794      4.8662    113.8862
  1284.5000      0.0000    630.8092      4.8859    111.1356
  1284.7500      0.0000    634.0336      4.8933    109.4520
  1285.0000      0.0000    642.2538      4.8778    110.2494
  1285.2500      0.0000    650.7791      4.8381    113.0969
  1285.5000      0.0000    657.8693      4.7783    115.8551
  1285.7500      0.0000    664.0857      4.7036    116.5157
  1286.0000      0.0000    669.7489      4.6211    114.4709
  1286.2500      0.0000    674.4472      4.5410    110.2378
  1286.5000      0.0000    678.1251      4.4747    104.8678
  1286.7500      0.0000    681.3441      4.4319     99.8710
  1287.0000      0.0000    684.4406      4.4186     96.9971
  1287.2500      0.0000    687.1476      4.4352     97.2754
  1287.5000      0.0000    689.0822      4.4773    100.1088
  1287.7500      0.0000    690.2119      4.5387    103.6040
  1288.0000      0.0000    690.7374      4.6132    105.9713
  1288.2500      0.0000    690.8309      4.6913    106.6861
  1288.5000      0.0000    690.6052      4.7508    106.4791
  1288.7500      0.0000    690.2991      4.7544    106.3671
  1289.0000      0.0000    690.3959      4.6722    106.7756
  1289.2500      0.0000    691.4046      4.5206    107.5969
  1289.5000      0.0000    693.2739      4.3688    108.8754
  1289.7500      0.0000    695.2347      4.2842    111.0741
  1290.0000      0.0000    696.6439      4.2758    114.5911
  1290.2500      0.0000    697.7482      4.3039    119.1471
  1290.5000      0.0000    699.1097      4.3328    123.5937
  1290.7500      0.0000    700.6512      4.3544    126.2027
  1291.0000      0.0000    701.8578      4.3732    125.5471
  1291.2500     -2.0000    702.3547      4.3932    121.7568
  1291.5000      2.0000    701.5160      4.4142    116.9388
  1291.7500      0.0000    698.0473      4.4351    113.9021
  1292.0000      0.0000    691.1191      4.4605    114.3871
  1292.2500      0.0000    682.2144      4.4994    118.3349
  1292.5000      0.0000    675.1169      4.5496    124.1175
  1292.7500      0.0000    673.2588      4.5935    129.0370
  1293.0000      0.0000    677.0514      4.6211    130.3171
  1293.2500      0.0000    684.0604      4.6430    126.7613
  1293.5000      0.0000    691.2833      4.6682    119.9364
  1293.7500      0.0000    696.7950      4.6861    113.3433
  1294.0000      0.0000    700.0790      4.6815    110.0055
  1294.2500      0.0000    702.0507      4.6572    110.6829
  1294.5000      0.0000    704.6486      4.6346    114.0206
  1294.7500      0.0000    709.3935      4.6378    117.7873
  1295.0000      0.0000    716.0762      4.6796    120.1058
  1295.2500      0.0000    723.4454      4.7556    120.4801
  1295.5000      0.0000    731.7309      4.8480    120.0380
  1295.7500      0.0000    744.9113      4.9309    120.2175
  1296.0000      0.0000    770.0718      4.9747    121.0570
  1296.2500      0.0000    811.8499      4.9506    121.1492
  1296.5000      0.0000    864.3517      4.8415    119.0762
  1296.7500      0.0000    910.2405      4.6453    114.3686
  1297.0000      0.0000    933.0891      4.3720    107.2685
  1297.2500      0.0000    931.4059      4.0398     98.1805
  1297.5000      0.0000    917.7607      3.6765     87.6150
  1297.7500      0.0000    906.7071      3.3168     76.5153
  1298.0000      0.0000    906.3635      2.9938     66.3271
  1298.2500      0.0000    914.9334      2.7328     58.3282
  1298.5000      0.0000    919.3574      2.5461     52.9005
  1298.7500      0.0000    903.9974      2.4296     49.7787
  1299.0000      0.0000    867.6938      2.3689     48.7339
  1299.2500      0.0000    829.7169      2.3511     49.4100
