~Version Information
VERS.                      2.0: CWLS Log ASCII Standard - VERSION 2.0
WRAP.                       NO: One line per depth step
~Well Information Block
STRT.FT               250.0000: 
STOP.FT              2600.7000: 
STEP.FT                 0.1000: 
NULL.                -999.2500: 
COMP.          Pioneer Natural Resources: COMPANY
WELL.              Quack 22-24: WELL
FLD.           Purgatoire River: FIELD
LOC.           2492' FNL & 2459' FWL--: LOCATION
PROV.                 Colorado: PROVINCE
CNTY.               Las Animas: COUNTRY
SRVC.                Patterson: SERVICE COMPANY
DATE.          Mon Jun 13 08:03:15 2005: LOG DATE
UWI.            05 071 0840200: UNIQUE WELL ID
~Curve Information Block
DEPT.FT            0 000 00 00: Depth
DCAL.in                       : CDL Caliper
RHOB.g/cc                     : CDL Bulk Density
RHOC.g/cc                     : CDL Density Correction
DPOR.pu                       : CDL Density Porosity
NPOR.pu                       : Neutron Porosity
GR.GAPI                       : Gamma Ray
~Parameter Information Block
~A  Depth       DCAL        RHOB        RHOC        DPOR        NPOR         GR     
# ...
   557.2000      8.1819      2.5584     -0.0048      5.5545     23.4991     72.7686
   557.3000      8.1802      2.5504      0.0001      6.0353     23.5994     72.7856
   557.4000      8.1802      2.5543      0.0427      5.8014     23.5681     71.8595
   557.5000      8.1803      2.5645      0.0508      5.1824     23.0408     70.3724
   557.6000      8.1803      2.5758      0.0787      4.4983     22.7574     71.0462
   557.7000      8.1803      2.5765      0.0585      4.4556     23.0133     73.8933
   557.8000      8.1857      2.5605      0.0352      5.4237     23.5354     74.8624
   557.9000      8.1857      2.5455      0.0031      6.3339     23.9284     72.8958
   558.0000      8.1924      2.5498      0.0262      6.0700     23.8306     70.9238
   558.1000      8.1924      2.5597      0.0402      5.4745     23.1603     69.4184
   558.2000      8.1924      2.5468      0.0522      6.2531     22.2862     69.0450
   558.3000      8.1976      2.5135     -0.0053      8.2715     21.8974     71.4879
   558.4000      8.1976      2.4931     -0.0364      9.5074     22.0234     77.3900
   558.5000      8.1977      2.5031      0.0130      8.9059     22.2656     83.9449
   558.6000      8.1977      2.5290     -0.0054      7.3345     22.7032     84.8612
   558.7000      8.1977      2.5481      0.0420      6.1786     22.9109     81.2008
   558.8000      8.1933      2.5492      0.0102      6.1115     22.2307     79.6784
   558.9000      8.1933      2.5412      0.0160      6.5969     21.2594     80.5232
   559.0000      8.1886      2.5289      0.0458      7.3378     21.0630     80.3492
   559.1000      8.1886      2.5078      0.0449      8.6193     21.7286     79.6707
   559.2000      8.1886      2.4916     -0.0149      9.6009     22.3856     79.4448
   559.3000      8.1817      2.4970      0.0058      9.2721     22.3973     80.2420
   559.4000      8.1817      2.5118      0.0197      8.3775     22.0829     83.7307
   559.5000      8.1734      2.5205      0.0207      7.8502     22.1179     88.3310
   559.6000      8.1734      2.5269      0.0639      7.4628     22.6390     90.5542
   559.7000      8.1734      2.5310      0.0508      7.2106     23.0313     89.8025
   559.8000      8.1689      2.5232      0.0654      7.6851     22.8494     87.4860
   559.9000      8.1689      2.5066      0.0234      8.6931     22.4437     86.0423
   560.0000      8.1679      2.4976      0.0269      9.2360     22.2545     85.7067
   560.1000      8.1679      2.4993      0.0386      9.1363     22.3266     85.4739
   560.2000      8.1679      2.5002      0.0635      9.0804     22.6581     84.5440
   560.3000      8.1703      2.4929      0.0563      9.5192     23.2856     81.8259
   560.4000      8.1703      2.4810      0.0239     10.2399     23.7103     79.3922
   560.5000      8.1743      2.4715      0.0282     10.8163     23.5302     79.6042
   560.6000      8.1743      2.4686      0.0316     10.9931     23.1951     80.3704
   560.7000      8.1743      2.4663      0.0390     11.1327     23.0936     79.2015
   560.8000      8.1769      2.4517      0.0208     12.0190     23.1520     77.7328
   560.9000      8.1769      2.4320      0.0112     13.2099     23.1828     79.3451
   561.0000      8.1761      2.4292      0.0156     13.3832     23.1041     82.9505
   561.1000      8.1761      2.4416      0.0844     12.6321     22.9777     82.6781
   561.2000      8.1761      2.4468      0.1304     12.3150     22.8780     77.7690
   561.3000      8.1741      2.4472      0.0720     12.2924     22.7686     73.3219
   561.4000      8.1741      2.4660      0.0929     11.1504     22.5744     71.2415
   561.5000      8.1752      2.5007      0.1254      9.0490     22.2471     70.7361
   561.6000      8.1752      2.5315      0.1359      7.1815     21.7148     72.1909
   561.7000      8.1752      2.5546      0.0958      5.7843     21.1967     72.5195
   561.8000      8.1793      2.5659      0.1252      5.0956     21.0258     68.8385
   561.9000      8.1793      2.5497      0.1126      6.0782     21.0042     64.2301
   562.0000      8.1833      2.5129      0.0700      8.3086     20.6773     64.3081
   562.1000      8.1833      2.4890      0.0310      9.7561     19.9409     69.6755
   562.2000      8.1833      2.4945      0.0380      9.4223     19.0866     76.0607
   562.3000      8.1852      2.5104      0.0856      8.4622     18.5720     81.3822
   562.4000      8.1852      2.5099      0.0662      8.4928     18.6077     82.6880
   562.5000      8.1846      2.4899      0.0512      9.7024     18.9565     78.2682
   562.6000      8.1846      2.4687      0.0272     10.9871     19.3173     71.9250
   562.7000      8.1846      2.4681      0.0082     11.0258     19.6408     66.3370
   562.8000      8.1842      2.4855      0.0518      9.9693     19.8189     59.7643
   562.9000      8.1842      2.4963      0.0343      9.3162     19.8551     54.7539
   563.0000      8.1848      2.4947      0.0298      9.4142     19.9762     58.6321
   563.1000      8.1848      2.4908      0.0559      9.6483     20.1532     69.2017
   563.2000      8.1848      2.4849      0.0438     10.0039     20.1156     76.7075
   563.3000      8.1830      2.4772      0.0478     10.4754     19.7968     78.5423
   563.4000      8.1830      2.4741     -0.0016     10.6599     19.5585     78.2646
   563.5000      8.1793      2.4774      0.0583     10.4611     19.7256     76.9400
   563.6000      8.1793      2.4821     -0.0015     10.1777     20.0407     74.2486
   563.7000      8.1793      2.4793      0.0731     10.3445     19.9661     70.9458
   563.8000      8.1781      2.4600      0.0408     11.5171     19.5611     69.1774
   563.9000      8.1781      2.4356     -0.0028     12.9959     19.4059     69.7204
   564.0000      8.1801      2.4261     -0.0093     13.5705     19.5790     70.1885
   564.1000      8.1801      2.4312      0.0033     13.2591     19.4781     70.6007
   564.2000      8.1801      2.4360      0.0203     12.9699     19.1180     70.6031
   564.3000      8.1822      2.4331      0.0168     13.1447     19.0247     68.8681
   564.4000      8.1822      2.4336     -0.0063     13.1150     19.1547     68.5382
   564.5000      8.1833      2.4491      0.0138     12.1750     19.2209     70.2789
   564.6000      8.1833      2.4698      0.0496     10.9200     19.0111     71.2004
   564.7000      8.1833      2.4781      0.0546     10.4175     18.4055     70.5815
   564.8000      8.1853      2.4765      0.0359     10.5145     17.8763     71.1331
   564.9000      8.1853      2.4803      0.0411     10.2852     18.0580     73.4282
   565.0000      8.1842      2.4949      0.0473      9.3999     18.7248     75.6293
   565.1000      8.1842      2.5158      0.0605      8.1347     19.1331     78.1522
   565.2000      8.1842      2.5274      0.1068      7.4315     18.9873     81.0456
   565.3000      8.1800      2.5150      0.0613      8.1832     18.7058     81.5433
   565.4000      8.1800      2.4841      0.0632     10.0565     18.7573     78.8464
   565.5000      8.1790      2.4498      0.0178     12.1325     19.0677     74.1259
   565.6000      8.1790      2.4335     -0.0274     13.1187     19.2800     67.3014
   565.7000      8.1790      2.4403      0.0507     12.7108     19.1975     60.8670
   565.8000      8.1808      2.4476      0.0340     12.2642     19.2771     58.2262
   565.9000      8.1808      2.4487      0.0207     12.1999     19.6373     60.6293
   566.0000      8.1820      2.4510      0.0458     12.0601     19.8558     66.8567
   566.1000      8.1820      2.4552      0.0352     11.8075     19.9830     73.3048
   566.2000      8.1820      2.4646      0.0132     11.2334     20.3123     77.3503
   566.3000      8.1834      2.4812      0.0316     10.2278     20.9046     77.7656
   566.4000      8.1834      2.4926      0.0782      9.5403     21.4675     72.9383
   566.5000      8.1837      2.4855      0.0705      9.9670     21.8294     66.1406
   566.6000      8.1837      2.4699      0.0058     10.9134     22.2021     66.1251
   566.7000      8.1837      2.4681      0.0248     11.0241     22.6915     74.6692
