~Version Information
VERS.                      2.0: CWLS Log ASCII Standard - VERSION 2.0
WRAP.                       NO: One line per depth step
~Well Information Block
STRT.FT               419.7500: 
STOP.FT              1170.0000: 
STEP.FT                 0.2500: 
NULL.                -999.2500: 
COMP.          Evergreen Operating Corporation: COMPANY
WELL.             Bernice 21-3: WELL
FLD.           Purgatoire River: FIELD
LOC.           201' FNL & 2575' FWL: LOCATION
PROV.                 Colorado: PROVINCE
CNTY.               Las Animas: COUNTRY
SRVC.                Patterson: SERVICE COMPANY
DATE.          Mon Jan 26 13:04:04 2004: LOG DATE
UWI.           05 071 07912   : UNIQUE WELL ID
~Curve Information Block
DEPT.FT            0 000 00 00: Depth
SN.Ohm-m                      : IEL Short Normal
SP.mV                         : IEL Spontaneous Potential
DIR.Ohm-m                     : IEL Induction Resistivity
GR.GAPI                       : Gamma Ray
~Parameter Information Block
~A  Depth        SN          SP         DIR          GR     
# ...
   989.2500     23.7507    -57.4913     15.6761    103.2501
   989.5000     23.9647    -56.7476     16.2100    107.1238
   989.7500     24.0022    -56.0546     16.5716    108.5733
   990.0000     23.8078    -55.4072     16.7092    108.0698
   990.2500     23.3748    -54.7883     16.6372    105.7485
   990.5000     22.7516    -54.1750     16.4245     99.7815
   990.7500     22.0401    -53.5532     16.1746     95.0030
   991.0000     21.4215    -52.9417     15.9966     89.0600
   991.2500     21.0961    -52.3973     15.9658     87.5556
   991.5000     21.0589    -51.9849     16.0867     90.7196
   991.7500     21.0276    -51.7420     16.2789     96.0993
   992.0000     20.7539    -51.6629     16.4055    106.3670
   992.2500     20.2497    -51.7025     16.3442    112.8037
   992.5000     19.6148    -51.7908     16.0564    119.8450
   992.7500     18.8848    -51.8659     15.5933    122.5749
   993.0000     18.1018    -51.8987     15.0445    124.3532
   993.2500     17.3279    -51.8716     14.4885    124.5548
   993.5000     16.5585    -51.7406     13.9768    124.3660
   993.7500     15.8323    -51.4541     13.5406    124.4041
   994.0000     15.4101    -51.0232     13.1980    125.0113
   994.2500     15.5394    -50.5378     12.9516    125.4940
   994.5000     16.0556    -50.0812     12.7851    125.5420
   994.7500     16.4726    -49.6385     12.6631    124.9904
   995.0000     16.5212    -49.1048     12.5405    123.7572
   995.2500     16.3865    -48.3793     12.3832    122.8307
   995.5000     16.3538    -47.4558     12.1884    120.6777
   995.7500     16.5014    -46.4356     11.9895    118.1524
   996.0000     16.7521    -45.4676     11.8379    112.5367
   996.2500     16.9869    -44.6764     11.7720    108.2417
   996.5000     17.1088    -44.1164     11.7969    102.9097
   996.7500     17.0941    -43.7613     11.8858    101.0917
   997.0000     17.0240    -43.5300     11.9995    101.5562
   997.2500     17.0270    -43.3432     12.1089    103.4557
   997.5000     17.1303    -43.1720     12.2033    106.6061
   997.7500     17.2332    -43.0382     12.2829    107.7324
   998.0000     17.2381    -42.9690     12.3488    107.3659
   998.2500     17.1506    -42.9519     12.4015    106.2658
   998.5000     17.0826    -42.9272     12.4498    104.6201
   998.7500     17.1661    -42.8204     12.5169    103.9998
   999.0000     17.4689    -42.5920     12.6328    104.0389
   999.2500     17.9788    -42.2732     12.8192    104.7279
   999.5000     18.6142    -41.9706     13.0788    106.6443
   999.7500     19.2846    -41.8314     13.3959    108.3206
  1000.0000     19.9558    -41.9757     13.7428    111.1083
  1000.2500     20.6153    -42.4330     14.0810    113.0254
  1000.5000     21.2497    -43.1184     14.3571    115.3919
  1000.7500     21.8958    -43.8472     14.5121    115.7454
  1001.0000     22.6031    -44.3808     14.5088    112.3348
  1001.2500     23.3281    -44.5082     14.3558    106.6272
  1001.5000     23.9458    -44.1272     14.0991     93.7949
  1001.7500     24.3038    -43.2491     13.7889     84.3386
  1002.0000     24.1874    -41.9334     13.4557     72.9726
  1002.2500     23.3753    -40.2613     13.1126     69.0617
  1002.5000     21.9238    -38.3888     12.7717     69.6895
  1002.7500     20.2600    -36.5787     12.4535     74.0204
  1003.0000     18.8149    -35.1228     12.1782     84.9325
  1003.2500     17.7172    -34.1987     11.9468     94.2604
  1003.5000     16.8754    -33.7816     11.7339    109.6451
  1003.7500     16.1552    -33.6773     11.4989    119.5277
  1004.0000     15.4855    -33.6430     11.2120    131.3754
  1004.2500     14.8843    -33.5016     10.8733    136.3867
  1004.5000     14.3881    -33.1919     10.5124    139.6313
  1004.7500     13.9973    -32.7608     10.1730    139.7060
  1005.0000     13.7204    -32.3253      9.8942    138.3882
  1005.2500     13.6080    -32.0189      9.7013    137.4856
  1005.5000     13.6669    -31.9342      9.6047    137.1398
  1005.7500     13.7922    -32.0957      9.6052    137.5685
  1006.0000     13.8837    -32.4682      9.7015    138.1541
  1006.2500     13.9500    -32.9697      9.8948    137.8660
  1006.5000     14.0433    -33.4758     10.1877    136.2514
  1006.7500     14.2226    -33.8557     10.5778    134.6382
  1007.0000     14.5725    -34.0610     11.0485    131.1881
  1007.2500     15.1587    -34.1964     11.5637    127.3478
  1007.5000     16.0162    -34.4718     12.0710    117.5464
  1007.7500     17.2016    -35.0408     12.5194    108.1384
  1008.0000     18.7638    -35.8697     12.8816     91.7980
  1008.2500     20.6442    -36.7608     13.1649     81.5289
  1008.5000     22.5946    -37.4912     13.4014     70.2511
  1008.7500     24.1407    -37.9360     13.6239     66.4982
  1009.0000     24.7643    -38.0991     13.8429     67.1391
  1009.2500     24.2617    -38.0715     14.0307     71.8229
  1009.5000     22.8706    -37.9714     14.1234     84.7393
  1009.7500     21.0568    -37.9061     14.0492     96.2556
  1010.0000     19.2171    -37.9521     13.7739    114.8003
  1010.2500     17.5775    -38.1393     13.3246    126.0433
  1010.5000     16.2514    -38.4492     12.7672    138.9038
  1010.7500     15.2600    -38.8364     12.1653    144.2609
  1011.0000     14.5331    -39.2558     11.5591    147.5650
  1011.2500     13.9810    -39.6813     10.9707    147.3273
  1011.5000     13.5641    -40.1175     10.4177    145.9483
  1011.7500     13.2604    -40.6014      9.9192    146.0983
  1012.0000     13.0012    -41.1837      9.4944    148.8047
  1012.2500     12.7168    -41.8955      9.1587    151.0367
  1012.5000     12.4268    -42.7265      8.9211    152.3845
  1012.7500     12.1820    -43.6279      8.7813    151.7371
  1013.0000     11.9577    -44.5326      8.7272    150.3271
  1013.2500     11.7106    -45.3779      8.7364    150.3204
  1013.5000     11.4794    -46.1274      8.7831    152.6456
  1013.7500     11.3365    -46.7849      8.8476    155.4832
  1014.0000     11.3042    -47.3844      8.9214    159.8047
  1014.2500     11.3588    -47.9671      9.0040    161.2939
  1014.5000     11.4862    -48.5690      9.0968    160.1409
  1014.7500     11.7007    -49.2190      9.2003    157.3391
  1015.0000     11.9974    -49.9283      9.3178    150.8863
  1015.2500     12.3188    -50.6811      9.4588    145.3498
  1015.5000     12.5908    -51.4513      9.6378    136.1929
  1015.7500     12.7789    -52.2434      9.8694    130.7343
  1016.0000     12.9036    -53.1065     10.1641    125.3862
  1016.2500     13.0060    -54.1030     10.5271    123.8967
  1016.5000     13.1070    -55.2735     10.9585    123.8714
  1016.7500     13.2099    -56.6360     11.4518    124.7738
  1017.0000     13.3359    -58.1952     11.9897    126.7385
  1017.2500     13.5458    -59.9277     12.5422    127.6381
  1017.5000     13.9302    -61.7544     13.0716    126.2451
  1017.7500     14.5718    -63.5429     13.5464    122.6907
  1018.0000     15.5088    -65.1557     13.9540    114.3401
  1018.2500     16.7129    -66.5067     14.3048    108.2775
  1018.5000     18.0489    -67.5705     14.6269    100.6202
  1018.7500     19.3007    -68.3300     14.9596     96.9165
  1019.0000     20.3365    -68.7229     15.3489     93.4395
  1019.2500     21.1891    -68.6687     15.8366     92.4545
  1019.5000     21.9300    -68.1790     16.4442     92.4846
  1019.7500     22.5690    -67.4426     17.1582     92.7098
  1020.0000     23.0842    -66.7875     17.9303     91.9356
  1020.2500     23.4627    -66.5463     18.6907     90.6052
  1020.5000     23.6915    -66.9009     19.3625     88.5482
  1020.7500     23.7341    -67.7268     19.8732     87.7737
  1021.0000     23.5800    -68.5266     20.1714     87.6056
  1021.2500     23.3247    -68.6258     20.2460     87.8309
  1021.5000     23.1267    -67.5803     20.1309     88.1088
  1021.7500     23.0770    -65.5108     19.8841     88.0940
  1022.0000     23.1001    -63.1393     19.5653     87.8728
  1022.2500     22.9782    -61.4660     19.2315     87.9099
  1022.5000     22.5606    -61.1765     18.9446     89.7953
