~Version Information
VERS.                      2.0: CWLS Log ASCII Standard - VERSION 2.0
WRAP.                       NO: One line per depth step
~Well Information Block
STRT.FT              2983.0000: 
STOP.FT              3214.7500: 
STEP.FT                 0.0500: 
NULL.                -999.2500: 
COMP.          Pioner Natural Resources: COMPANY
WELL.              Vespar 43-7: WELL
FLD.           Purgatoire River: FIELD
LOC.           2338' FSL & 1141' FEL------: LOCATION
PROV.                 Colorado: PROVINCE
CNTY.               Las Animas: COUNTRY
SRVC.                         : SERVICE COMPANY
DATE.          Fri Apr 15 15:31:19 2005: LOG DATE
UWI.                          : UNIQUE WELL ID
~Curve Information Block
DEPT.FT            0 000 00 00: Depth
GR.GAPI                       : Gamma Ray
CCL.                          : Casing Collar Locator
TT3.usec                      : CBL 3' Travel Time
AMP3.mV                       : CBL 3' Amplitude
AMP5.mV                       : CBL 5' Amplitude
~Parameter Information Block
~A  Depth        GR         CCL         TT3         AMP3        AMP5    
# ...
  3072.6000     95.2944      0.0000    260.6622     62.8562    118.0734
  3072.6500     95.2944      0.0000    260.6622     62.8562    118.0734
  3072.7000     95.2944      0.0000    260.6622     62.8562    118.0734
  3072.7500     96.2805      0.0000    260.6699     62.8048    115.9516
  3072.8000     96.2805      0.0000    260.6699     62.8048    115.9516
  3072.8500     96.2805      0.0000    260.6699     62.8048    115.9516
  3072.9000     96.2805      0.0000    260.6699     62.8048    115.9516
  3072.9500     96.2805      0.0000    260.6699     62.8048    115.9516
  3073.0000     95.2128      0.0000    260.6765     62.6433    113.2714
  3073.0500     95.2128      0.0000    260.6765     62.6433    113.2714
  3073.1000     95.2128      0.0000    260.6765     62.6433    113.2714
  3073.1500     95.2128      0.0000    260.6765     62.6433    113.2714
  3073.2000     95.2128      0.0000    260.6765     62.6433    113.2714
  3073.2500     94.1233      0.0000    260.6906     62.2518    110.2727
  3073.3000     94.1233      0.0000    260.6906     62.2518    110.2727
  3073.3500     94.1233      0.0000    260.6906     62.2518    110.2727
  3073.4000     94.1233      0.0000    260.6906     62.2518    110.2727
  3073.4500     94.1233      0.0000    260.6906     62.2518    110.2727
  3073.5000     94.5153      0.0000    260.7185     61.5594    107.2357
  3073.5500     94.5153      0.0000    260.7185     61.5594    107.2357
  3073.6000     94.5153      0.0000    260.7185     61.5594    107.2357
  3073.6500     94.5153      0.0000    260.7185     61.5594    107.2357
  3073.7000     94.5153      0.0000    260.7185     61.5594    107.2357
  3073.7500     96.1904      0.0000    260.7588     60.6167    104.3568
  3073.8000     96.1904      0.0000    260.7588     60.6167    104.3568
  3073.8500     96.1904      0.0000    260.7588     60.6167    104.3568
  3073.9000     96.1904      0.0000    260.7588     60.6167    104.3568
  3073.9500     96.1904      0.0000    260.7588     60.6167    104.3568
  3074.0000     97.5486      0.0000    260.8037     59.5829    101.6703
  3074.0500     97.5486      0.0000    260.8037     59.5829    101.6703
  3074.1000     97.5486      0.0000    260.8037     59.5829    101.6703
  3074.1500     97.5486      0.0000    260.8037     59.5829    101.6703
  3074.2000     97.5486      0.0000    260.8037     59.5829    101.6703
  3074.2500     97.2646      0.0000    260.8453     58.6314     99.0199
  3074.3000     97.2646      0.0000    260.8453     58.6314     99.0199
  3074.3500     97.2646      0.0000    260.8453     58.6314     99.0199
  3074.4000     97.2646      0.0000    260.8453     58.6314     99.0199
  3074.4500     97.2646      0.0000    260.8453     58.6314     99.0199
  3074.5000     95.6880      0.0000    260.8805     57.8511     96.1346
  3074.5500     95.6880      0.0000    260.8805     57.8511     96.1346
  3074.6000     95.6880      0.0000    260.8805     57.8511     96.1346
  3074.6500     95.6880      0.0000    260.8805     57.8511     96.1346
  3074.7000     95.6880      0.0000    260.8805     57.8511     96.1346
  3074.7500     94.4542      0.0000    260.9120     57.2203     92.8242
  3074.8000     94.4542      0.0000    260.9120     57.2203     92.8242
  3074.8500     94.4542      0.0000    260.9120     57.2203     92.8242
  3074.9000     94.4542      0.0000    260.9120     57.2203     92.8242
  3074.9500     94.4542      0.0000    260.9120     57.2203     92.8242
  3075.0000     94.7842      0.0000    260.9449     56.6562     89.1401
  3075.0500     94.7842      0.0000    260.9449     56.6562     89.1401
  3075.1000     94.7842      0.0000    260.9449     56.6562     89.1401
  3075.1500     94.7842      0.0000    260.9449     56.6562     89.1401
  3075.2000     94.7842      0.0000    260.9449     56.6562     89.1401
  3075.2500     96.3289      0.0000    260.9857     56.0711     85.3176
  3075.3000     96.3289      0.0000    260.9857     56.0711     85.3176
  3075.3500     96.3289      0.0000    260.9857     56.0711     85.3176
  3075.4000     96.3289      0.0000    260.9857     56.0711     85.3176
  3075.4500     96.3289      0.0000    260.9857     56.0711     85.3176
  3075.5000     97.5117      0.0000    261.0461     55.3876     81.5466
  3075.5500     97.5117      0.0000    261.0461     55.3876     81.5466
  3075.6000     97.5117      0.0000    261.0461     55.3876     81.5466
  3075.6500     97.5117      0.0000    261.0461     55.3876     81.5466
  3075.7000     97.5117      0.0000    261.0461     55.3876     81.5466
  3075.7500     96.7641      0.0000    261.1433     54.5495     77.8195
  3075.8000     96.7641      0.0000    261.1433     54.5495     77.8195
  3075.8500     96.7641      0.0000    261.1433     54.5495     77.8195
  3075.9000     96.7641      0.0000    261.1433     54.5495     77.8195
  3075.9500     96.7641      0.0000    261.1433     54.5495     77.8195
  3076.0000     93.6997      0.0000    261.2915     53.5661     73.9917
  3076.0500     93.6997      0.0000    261.2915     53.5661     73.9917
  3076.1000     93.6997      0.0000    261.2915     53.5661     73.9917
  3076.1500     93.6997      0.0000    261.2915     53.5661     73.9917
  3076.2000     93.6997      0.0000    261.2915     53.5661     73.9917
  3076.2500     89.4159      0.0000    261.4891     52.5384     69.9334
  3076.3000     89.4159      0.0000    261.4891     52.5384     69.9334
  3076.3500     89.4159      0.0000    261.4891     52.5384     69.9334
  3076.4000     89.4159      0.0000    261.4891     52.5384     69.9334
  3076.4500     89.4159      0.0000    261.4891     52.5384     69.9334
  3076.5000     85.5208      0.0000    261.7193     51.6104     65.6105
  3076.5500     85.5208      0.0000    261.7193     51.6104     65.6105
  3076.6000     85.5208      0.0000    261.7193     51.6104     65.6105
  3076.6500     85.5208      0.0000    261.7193     51.6104     65.6105
  3076.7000     85.5208      0.0000    261.7193     51.6104     65.6105
  3076.7500     82.6591      0.0000    261.9648     50.8830     61.1027
  3076.8000     82.6591      0.0000    261.9648     50.8830     61.1027
  3076.8500     82.6591      0.0000    261.9648     50.8830     61.1027
  3076.9000     82.6591      0.0000    261.9648     50.8830     61.1027
  3076.9500     82.6591      0.0000    261.9648     50.8830     61.1027
  3077.0000     80.0472      0.0000    262.2552     50.3638     56.6279
  3077.0500     80.0472      0.0000    262.2552     50.3638     56.6279
  3077.1000     80.0472      0.0000    262.2552     50.3638     56.6279
  3077.1500     80.0472      0.0000    262.2552     50.3638     56.6279
  3077.2000     80.0472      0.0000    262.2552     50.3638     56.6279
  3077.2500     76.4798      0.0000    262.7702     49.9734     52.5325
  3077.3000     76.4798      0.0000    262.7702     49.9734     52.5325
  3077.3500     76.4798      0.0000    262.7702     49.9734     52.5325
  3077.4000     76.4798      0.0000    262.7702     49.9734     52.5325
  3077.4500     76.4798      0.0000    262.7702     49.9734     52.5325
  3077.5000     71.7279      0.0000    263.9864     49.5799     49.1810
  3077.5500     71.7279      0.0000    263.9864     49.5799     49.1810
  3077.6000     71.7279      0.0000    263.9864     49.5799     49.1810
  3077.6500     71.7279      0.0000    263.9864     49.5799     49.1810
  3077.7000     71.7279      0.0000    263.9864     49.5799     49.1810
  3077.7500     67.0248      0.0000    266.7013     49.0512     46.8192
  3077.8000     67.0248      0.0000    266.7013     49.0512     46.8192
  3077.8500     67.0248      0.0000    266.7013     49.0512     46.8192
  3077.9000     67.0248      0.0000    266.7013     49.0512     46.8192
  3077.9500     67.0248      0.0000    266.7013     49.0512     46.8192
  3078.0000     64.1462      0.0000    271.6524     48.3162     45.5298
  3078.0500     64.1462      0.0000    271.6524     48.3162     45.5298
  3078.1000     64.1462      0.0000    271.6524     48.3162     45.5298
  3078.1500     64.1462      0.0000    271.6524     48.3162     45.5298
