~Version Information
VERS.                      2.0: CWLS Log ASCII Standard - VERSION 2.0
WRAP.                       NO: One line per depth step
~Well Information Block
STRT.FT               575.0000: 
STOP.FT              2016.2500: 
STEP.FT                 0.2500: 
NULL.                -999.2500: 
COMP.          Pioneer Natural Resources: COMPANY
WELL.          Bucksnort 41-35: WELL
FLD.           Purgatoire River: FIELD
LOC.           117' FNL & 463' FEL--: LOCATION
PROV.                 Colorado: PROVINCE
CNTY.               Las Animas: COUNTRY
SRVC.                Patterson: SERVICE COMPANY
DATE.          Thu Jul 21 10:13:55 2005: LOG DATE
UWI.           05 071 08401 00: UNIQUE WELL ID
~Curve Information Block
DEPT.FT            0 000 00 00: Depth
SN.Ohm-m                      : IEL Short Normal
SP.mV                         : IEL Spontaneous Potential
DIR.Ohm-m                     : IEL Induction Resistivity
GR.GAPI                       : Gamma Ray
~Parameter Information Block
~A  Depth        SN          SP         DIR          GR     
# ...
  1513.0000      6.4264     58.9266      6.4114    125.0710
  1513.2500      6.5226     58.7254      6.4688    126.6614
  1513.5000      6.6336     58.6991      6.5432    128.9783
  1513.7500      6.7587     58.7860      6.6359    130.5724
  1514.0000      6.9032     58.8980      6.7494    132.5042
  1514.2500      7.0721     58.9429      6.8880    132.8098
  1514.5000      7.2651     58.8468      7.0569    130.7842
  1514.7500      7.4792     58.5714      7.2610    127.6608
  1515.0000      7.7169     58.1193      7.5046    121.0633
  1515.2500      7.9904     57.5278      7.7907    116.1311
  1515.5000      8.3177     56.8539      8.1210    109.0289
  1515.7500      8.7130     56.1578      8.4952    104.8429
  1516.0000      9.1768     55.4902      8.9092     99.7427
  1516.2500      9.6922     54.8852      9.3544     97.3566
  1516.5000     10.2276     54.3592      9.8168     95.6232
  1516.7500     10.7487     53.9145     10.2789     95.7588
  1517.0000     11.2306     53.5437     10.7216     97.7602
  1517.2500     11.6613     53.2348     11.1255    116.5674
  1517.5000     12.0310     52.9746     11.4719    120.3094
  1517.7500     12.3182     52.7521     11.7425    122.0606
  1518.0000     12.4879     52.5595     11.9224    123.7664
  1518.2500     12.5059     52.3942     12.0036    142.8656
  1518.5000     12.3584     52.2584     11.9898    145.8604
  1518.7500     12.0651     52.1597     11.8956    148.0432
  1519.0000     11.6763     52.1093     11.7424    150.8086
  1519.2500     11.2494     52.1224     11.5509    152.3480
  1519.5000     10.8207     52.2159     11.3349    154.3893
  1519.7500     10.3938     52.4071     11.0980    155.2573
  1520.0000      9.9530     52.7096     10.8358    155.2514
  1520.2500      9.4913     53.1296     10.5408    154.7289
  1520.5000      9.0268     53.6609     10.2083    154.6731
  1520.7500      8.5966     54.2817      9.8404    155.6537
  1521.0000      8.2338     54.9544      9.4462    158.0845
  1521.2500      7.9500     55.6300      9.0389    159.5808
  1521.5000      7.7328     56.2573      8.6322    160.9177
  1521.7500      7.5556     56.7931      8.2376    161.3645
  1522.0000      7.3889     57.2127      7.8641    161.9291
  1522.2500      7.2118     57.5141      7.5183    162.2975
  1522.5000      7.0194     57.7162      7.2061    162.6044
  1522.7500      6.8225     57.8512      6.9329    162.7728
  1523.0000      6.6372     57.9544      6.7023    163.9491
  1523.2500      6.4740     58.0553      6.5154    165.8553
  1523.5000      6.3347     58.1719      6.3700    169.9827
  1523.7500      6.2169     58.3105      6.2615    172.6474
  1524.0000      6.1181     58.4681      6.1840    175.0021
  1524.2500      6.0371     58.6368      6.1320    175.3155
  1524.5000      5.9732     58.8070      6.1015    175.2126
  1524.7500      5.9260     58.9695      6.0897    175.8512
  1525.0000      5.8961     59.1168      6.0950    178.3596
  1525.2500      5.8859     59.2426      6.1154    180.1068
  1525.5000      5.8976     59.3425      6.1477    180.3465
  1525.7500      5.9302     59.4138      6.1875    178.0517
  1526.0000      5.9788     59.4560      6.2304    171.3546
  1526.2500      6.0376     59.4703      6.2741    165.7983
  1526.5000      6.1027     59.4596      6.3194    157.7502
  1526.7500      6.1738     59.4275      6.3702    153.2115
  1527.0000      6.2546     59.3769      6.4318    148.1027
  1527.2500      6.3520     59.3098      6.5102    146.0720
  1527.5000      6.4733     59.2257      6.6107    145.5197
  1527.7500      6.6239     59.1224      6.7373    146.7591
  1528.0000      6.8054     58.9961      6.8929    149.9516
  1528.2500      7.0165     58.8438      7.0789    151.9171
  1528.5000      7.2517     58.6644      7.2961    153.0936
  1528.7500      7.5028     58.4606      7.5442    152.4477
  1529.0000      7.7603     58.2385      7.8214    149.6672
  1529.2500      8.0173     58.0078      8.1242    146.6106
  1529.5000      8.2708     57.7799      8.4465    139.8916
  1529.7500      8.5197     57.5663      8.7803    134.3119
  1530.0000      8.7632     57.3771      9.1155    126.2811
  1530.2500      9.0012     57.2199      9.4399    122.4918
  1530.5000      9.2355     57.0990      9.7413    120.4361
  1530.7500      9.4661     57.0159     10.0087    121.6272
  1531.0000      9.6847     56.9692     10.2340    126.9953
  1531.2500      9.8700     56.9557     10.4117    132.5025
  1531.5000      9.9915     56.9711     10.5373    141.9927
  1531.7500     10.0203     57.0122     10.6052    147.8279
  1532.0000      9.9415     57.0770     10.6086    154.2446
  1532.2500      9.7611     57.1662     10.5418    156.9298
  1532.5000      9.5041     57.2820     10.4041    159.7244
  1532.7500      9.2056     57.4275     10.2023    161.6082
  1533.0000      8.8973     57.6042      9.9493    165.5116
  1533.2500      8.5976     57.8101      9.6607    168.9631
  1533.5000      8.3112     58.0382      9.3508    174.4407
  1533.7500      8.0345     58.2767      9.0318    177.2586
  1534.0000      7.7634     58.5103      8.7131    178.9436
  1534.2500      7.4973     58.7231      8.4022    178.4527
  1534.5000      7.2403     58.9015      8.1052    176.7023
  1534.7500      7.0004     59.0371      7.8269    175.8013
  1535.0000      6.7870     59.1278      7.5708    175.4677
  1535.2500      6.6059     59.1783      7.3386    175.5079
  1535.5000      6.4564     59.1988      7.1303    174.6906
  1535.7500      6.3323     59.2022      6.9449    173.1304
  1536.0000      6.2280     59.2024      6.7818    169.4073
  1536.2500      6.1423     59.2115      6.6410    166.3702
  1536.5000      6.0755     59.2380      6.5233    161.9394
  1536.7500      6.0263     59.2858      6.4293    159.8171
  1537.0000      5.9896     59.3545      6.3587    158.5777
  1537.2500      5.9597     59.4404      6.3095    158.5472
  1537.5000      5.9331     59.5383      6.2785    157.9543
  1537.7500      5.9108     59.6435      6.2619    156.7585
  1538.0000      5.8970     59.7533      6.2562    155.0277
  1538.2500      5.8950     59.8676      6.2590    155.2228
  1538.5000      5.9031     59.9881      6.2688    158.8490
  1538.7500      5.9173     60.1168      6.2846    163.0969
  1539.0000      5.9378     60.2534      6.3064    169.6230
  1539.2500      5.9708     60.3943      6.3345    172.1435
  1539.5000      6.0227     60.5325      6.3694    171.2341
  1539.7500      6.0941     60.6585      6.4111    167.9258
  1540.0000      6.1775     60.7632      6.4584    161.7445
  1540.2500      6.2614     60.8402      6.5097    158.6983
  1540.5000      6.3324     60.8878      6.5629    157.7773
  1540.7500      6.3791     60.9090      6.6170    159.6677
  1541.0000      6.3990     60.9100      6.6739    164.6598
  1541.2500      6.4033     60.8979      6.7388    168.0288
  1541.5000      6.4155     60.8777      6.8194    171.1304
  1541.7500      6.4642     60.8506      6.9237    171.3533
  1542.0000      6.5721     60.8145      7.0580    169.1750
  1542.2500      6.7440     60.7649      7.2243    166.5906
  1542.5000      6.9586     60.6982      7.4185    161.9043
  1542.7500      7.1725     60.6139      7.6281    158.5992
  1543.0000      7.3352     60.5163      7.8325    154.0217
  1543.2500      7.4122     60.4144      8.0070    151.7357
  1543.5000      7.4032     60.3204      8.1303    150.1700
  1543.7500      7.3443     60.2469      8.1924    150.3697
  1544.0000      7.2895     60.2038      8.1965    151.8896
  1544.2500      7.2805     60.1959      8.1550    153.4363
  1544.5000      7.3251     60.2216      8.0811    156.8329
  1544.7500      7.3971     60.2729      7.9839    160.0394
  1545.0000      7.4538     60.3381      7.8673    165.6129
  1545.2500      7.4581     60.4032      7.7340    168.8839
  1545.5000      7.3933     60.4560      7.5886    171.7667
  1545.7500      7.2673     60.4879      7.4394    172.1724
  1546.0000      7.1061     60.4959      7.2973    171.0051
  1546.2500      6.9412     60.4825      7.1738    169.4856
