~Version Information
VERS.                      2.0: CWLS Log ASCII Standard - VERSION 2.0
WRAP.                       NO: One line per depth step
~Well Information Block
STRT.FT               577.0000: 
STOP.FT              2643.2000: 
STEP.FT                 0.1000: 
NULL.                -999.2500: 
COMP.          Petrogulf Corporation: COMPANY
WELL.           Montoya 12-41V: WELL
FLD.           Purgatorie River: FIELD
LOC.           1081' FNL & 605' FEL: LOCATION
CNTY.               Las Animas: COUNTY
SRVC.                         : SERVICE COMPANY
DATE.          Tue Aug 10 14:17:12 2004: LOG DATE
UWI.           05 071 08094 00: UNIQUE WELL ID
STAT.                 Colorado: STATE
~Curve Information Block
DEPT.FT            0 000 00 00: Depth
DCAL.in                       : CDL Caliper
RHOB.g/cc                     : CDL Bulk Density
RHOC.g/cc                     : CDL Density Correction
DPOR.pu                       : CDL Density Porosity
GR.GAPI                       : Gamma Ray
NPOR.pu                       : Neutron Porosity
~Parameter Information Block
~A  Depth       DCAL        RHOB        RHOC        DPOR         GR         NPOR    
# ...
  1402.6000      9.1059      2.2566      0.2649     23.8403    126.1873     29.3275
  1402.7000      9.1059      2.3555      0.3323     17.8485    124.9948     29.2954
  1402.8000      8.4763      2.4375      0.4338     12.8773    127.0931     29.6972
  1402.9000      8.4763      2.4565      0.4362     11.7257    129.8913     30.1709
  1403.0000      8.5447      2.3987      0.3485     15.2284    127.0934     30.3318
  1403.1000      8.5447      2.3014      0.2004     21.1265    121.7586     30.1311
  1403.2000      8.5447      2.2168      0.1381     26.2521    123.7077     29.9617
  1403.3000      8.6152      2.1637      0.1648     29.4729    132.9327     29.8841
  1403.4000      8.6152      2.1317      0.1060     31.4137    136.8354     29.5994
  1403.5000      8.4464      2.1165      0.1214     32.3333    130.2156     29.4828
  1403.6000      8.4464      2.1243      0.0960     31.8625    122.6573     29.8175
  1403.7000      8.4464      2.1608      0.1912     29.6457    123.0210     30.2379
  1403.8000      8.3495      2.2180      0.2990     26.1802    129.6246     30.5568
  1403.9000      8.3495      2.2739      0.3469     22.7938    135.1426     30.6191
  1404.0000      8.4252      2.3106      0.3646     20.5686    134.5518     30.3797
  1404.1000      8.4252      2.3146      0.3694     20.3258    131.9203     30.3522
  1404.2000      8.4252      2.2759      0.3169     22.6730    130.5035     30.8121
  1404.3000      8.6760      2.2009      0.3146     27.2166    127.8905     31.5260
  1404.4000      8.6760      2.1190      0.2529     32.1802    123.7222     32.1191
  1404.5000      8.8421      2.0667      0.2638     35.3531    120.1732     32.3122
  1404.6000      8.8421      2.0658      0.2477     35.4039    119.0809     32.4625
  1404.7000      8.8421      2.1302      0.2689     31.5031    119.1400     32.6847
  1404.8000      8.5690      2.2584      0.3160     23.7318    119.3794     32.6561
  1404.9000      8.5690      2.4210      0.3809     13.8769    119.1071     32.6777
  1405.0000      8.5696      2.5866      0.4146      3.8408    113.6776     32.7290
  1405.1000      8.5696      2.7382      0.4724     -5.3440    105.0107     32.0913
  1405.2000      8.5696      2.8594      0.4866    -12.6918    100.5416     30.6779
  1405.3000      8.9173      2.9302      0.4939    -16.9793     99.9477     29.4136
  1405.4000      8.9173      2.9419      0.3757    -17.6894     98.6733     28.9240
  1405.5000      8.5761      2.9139      0.3041    -15.9943     95.6194     28.8660
  1405.6000      8.5761      2.8709      0.2517    -13.3853     93.5255     28.4560
  1405.7000      8.5761      2.8209      0.1347    -10.3590     92.7019     27.3685
  1405.8000      8.5442      2.7781     -0.0226     -7.7624     91.3696     26.2175
  1405.9000      8.5442      2.7582     -0.0015     -6.5547     90.6406     25.8684
  1406.0000      8.5907      2.7510      0.0514     -6.1190     90.0840     26.1298
  1406.1000      8.5907      2.7407      0.0327     -5.4959     88.4684     26.3109
  1406.2000      8.5907      2.7263      0.0746     -4.6242     88.7962     26.4980
  1406.3000      8.1953      2.7054      0.0786     -3.3601     93.9385     26.3756
  1406.4000      8.1953      2.6817      0.0695     -1.9185    102.6895     25.6244
  1406.5000      8.1333      2.6674      0.0619     -1.0536    107.4654     25.0121
  1406.6000      8.1333      2.6672      0.0603     -1.0439    102.9492     24.7902
  1406.7000      8.1333      2.6797      0.0623     -1.8022     93.9333     24.6375
  1406.8000      8.1289      2.6990      0.0540     -2.9687     87.1277     24.4737
  1406.9000      8.1289      2.7138      0.0652     -3.8696     85.8490     23.9304
  1407.0000      8.1313      2.7209      0.0298     -4.2948     89.7136     22.8329
  1407.1000      8.1313      2.7215      0.0439     -4.3306     94.4377     22.1006
  1407.2000      8.1313      2.7123      0.0177     -3.7736     97.5504     22.6651
  1407.3000      8.1184      2.6963      0.0263     -2.8056     99.7562     23.8804
  1407.4000      8.1184      2.6830     -0.0027     -1.9995     99.3866     24.2518
  1407.5000      8.1086      2.6753     -0.0615     -1.5343     95.8940     23.3018
  1407.6000      8.1086      2.6707     -0.0815     -1.2550     92.0382     21.9250
  1407.7000      8.1086      2.6679     -0.0878     -1.0846     89.1197     20.9554
  1407.8000      8.1074      2.6667     -0.0910     -1.0093     88.5164     20.5974
  1407.9000      8.1074      2.6590     -0.0504     -0.5444     91.8108     20.9210
  1408.0000      8.1071      2.6367     -0.0475      0.8057     94.4622     21.5072
  1408.1000      8.1071      2.6129     -0.0981      2.2500     92.5395     21.5867
  1408.2000      8.1071      2.6044     -0.0138      2.7631     88.3366     21.3252
  1408.3000      8.1045      2.6053      0.0113      2.7066     85.9496     21.6447
  1408.4000      8.1045      2.6022      0.0008      2.8962     87.6261     22.5560
  1408.5000      8.0675      2.5924     -0.0006      3.4912     92.1456     23.1206
  1408.6000      8.0675      2.5788      0.0361      4.3151     94.3750     23.1886
  1408.7000      8.0675      2.5594     -0.0130      5.4916     93.0395     23.4124
  1408.8000      8.0627      2.5380     -0.0106      6.7875     93.5150     23.8667
  1408.9000      8.0627      2.5234     -0.0046      7.6743     96.3457     23.9587
  1409.0000      8.0734      2.5137      0.0094      8.2626     97.6556     23.5804
  1409.1000      8.0734      2.5031     -0.0024      8.9048     98.8427     23.4144
  1409.2000      8.0734      2.4963     -0.0074      9.3126    102.5202     23.4324
  1409.3000      8.0754      2.5086     -0.0670      8.5705    106.6346     23.2109
  1409.4000      8.0754      2.5422      0.0284      6.5347    107.6723     22.6864
  1409.5000      8.0843      2.5734      0.0439      4.6429    105.8398     22.2350
  1409.6000      8.0843      2.5858      0.0460      3.8900    105.2797     22.2510
  1409.7000      8.0843      2.5915      0.0588      3.5448    108.0835     22.0250
  1409.8000      8.1113      2.6045      0.0817      2.7566    112.2075     21.0897
  1409.9000      8.1113      2.6150      0.1025      2.1227    114.4137     20.4945
  1410.0000      8.1238      2.6041      0.0748      2.7814    115.8085     20.9564
  1410.1000      8.1238      2.5748      0.0529      4.5548    118.7688     22.0668
  1410.2000      8.1238      2.5476      0.0454      6.2049    119.1948     23.3339
  1410.3000      8.1259      2.5398     -0.0000      6.6792    114.8155     24.4609
  1410.4000      8.1259      2.5500      0.0647      6.0616    110.4945     25.2892
  1410.5000      8.1243      2.5616      0.0505      5.3572    108.0548     25.5958
  1410.6000      8.1243      2.5680      0.0082      4.9668    107.0410     24.8545
  1410.7000      8.1243      2.5735      0.0395      4.6372    109.8581     23.2776
  1410.8000      8.1145      2.5798      0.0414      4.2528    112.9609     22.2442
  1410.9000      8.1145      2.5862      0.0381      3.8680    113.4802     22.2724
  1411.0000      8.1021      2.5921      0.0613      3.5097    115.8971     22.6214
  1411.1000      8.1021      2.5935      0.0883      3.4229    120.6200     22.7426
  1411.2000      8.1021      2.5875      0.0261      3.7878    122.7216     22.4451
  1411.3000      8.0850      2.5873      0.0012      3.7996    119.3870     22.0635
  1411.4000      8.0850      2.5983      0.0212      3.1344    116.5391     22.1907
  1411.5000      8.0729      2.6007      0.0408      2.9875    121.9489     22.9318
  1411.6000      8.0729      2.5810      0.0105      4.1791    130.5108     23.8803
  1411.7000      8.0729      2.5516      0.0190      5.9646    131.3323     24.3865
  1411.8000      8.0760      2.5352     -0.0136      6.9584    125.6589     24.3452
  1411.9000      8.0760      2.5413      0.0371      6.5876    120.9176     24.1544
  1412.0000      8.0645      2.5607      0.0394      5.4103    122.1486     24.1847
  1412.1000      8.0645      2.5908      0.0441      3.5879    132.0723     24.8766
