~Version Information
 VERS.                                  2.0 : CWLS LAS VERSION
 WRAP.                                   NO : WRAPING MODE
 SWARE .                 MController 2.5.0E : SOFTWARE VERSION
~Well Information
 WELL.                        Rangely 22-28 : WELL
 COMP.             Evergreen Operating Corp : COMPANY
 FLD.                      Purgatorie River : FIELD
 LOC.                SE/NW Sec 28 T32S R67W : LOCATION
 DATE.                09/14/2004-09/15/2004 : DATE(S) LOGGED
 SRVC.       Blanco Geological Services LLC : SERVICE COMPANY
 STAT.                                   CO : STATE
 CNTY.                           Las Animas : COUNTY
 CTRY.                                  USA : COUNTRY
 API.                       05-071-08044-00 : API NUMBER
 STRT.FT                             858.00 : START DEPTH
 STOP.FT                            2847.00 : STOP DEPTH
 STEP.FT                               1.00 : DEPTH INCREMENT
 NULL.                                -9999 : NULL VALUE
~Curve information
 DEPTH.FT                                   :
 ROP.MIN/FT                                 :
 GAS.UNITS                                  :
~ASCII Log data
# ...
     1458.00        0.300       1293.9 
     1459.00        0.317       1307.7 
     1460.00        0.300       1335.0 
     1461.00        0.333       1337.4 
     1462.00        0.300       1312.1 
     1463.00        0.300       1267.0 
     1464.00        0.767       1130.5 
     1465.00        2.917       2949.2 
     1466.00        0.600       2500.7 
     1467.00        0.333       1867.0 
     1468.00        0.300       1645.0 
     1469.00        0.267       1505.8 
     1470.00        0.317       1482.9 
     1471.00        0.300       1479.2 
     1472.00        0.300       1459.3 
     1473.00        0.300       1378.5 
     1474.00        0.267       1373.4 
     1475.00        0.300       1341.8 
     1476.00        0.267       1331.3 
     1477.00        0.233       1364.0 
     1478.00        0.333       1395.0 
     1479.00        0.300       1402.1 
     1480.00        0.267       1418.6 
     1481.00        0.317       1423.6 
     1482.00        0.300       1422.3 
     1483.00        0.300       1402.7 
     1484.00        0.267       1400.4 
     1485.00        0.333       1375.8 
     1486.00        0.367       1345.1 
     1487.00        0.367       1337.7 
     1488.00        0.333       1358.3 
     1489.00        0.233       1386.9 
     1490.00        0.300       1442.5 
     1491.00        0.333       1465.4 
     1492.00        0.350       1442.5 
     1493.00        0.267       1402.4 
     1494.00        0.233       1339.4 
     1495.00        0.800       1255.5 
     1496.00        2.317       2826.5 
     1497.00        0.233       2645.9 
     1498.00        0.400       2510.5 
     1499.00        0.333       2345.8 
     1500.00        0.467       2328.9 
     1501.00        0.500       2036.1 
     1502.00        0.467       1520.7 
     1503.00        0.483       1348.2 
     1504.00        0.433       1290.9 
     1505.00        0.300       1326.9 
     1506.00        0.233       1382.5 
     1507.00        0.233       1464.1 
     1508.00        0.300       1508.9 
     1509.00        0.267       1546.3 
     1510.00        0.267       1547.3 
     1511.00        0.300       1526.4 
     1512.00        0.300       1469.1 
     1513.00        0.267       1465.1 
     1514.00        0.333       1418.6 
     1515.00        0.250       1418.6 
     1516.00        0.200       1418.2 
     1517.00        0.300       1419.2 
     1518.00        0.200       1431.4 
     1519.00        0.233       1451.9 
     1520.00        0.233       1442.2 
     1521.00        0.833       1510.2 
     1522.00        0.500       1529.1 
     1523.00        0.233       1510.5 
     1524.00        0.200       1510.5 
     1525.00        1.083       1435.1 
     1526.00        2.650       3703.9 
     1527.00        0.533       3244.3 
     1528.00        0.367       2796.2 
     1529.00        0.333       2716.7 
     1530.00        0.333       2481.2 
     1531.00        0.333       2217.7 
     1532.00        0.267       2002.1 
     1533.00        0.167       1903.7 
     1534.00        0.200       1837.4 
     1535.00        0.167       1808.0 
     1536.00        0.400       1789.8 
     1537.00        0.483       1735.9 
     1538.00        0.267       1645.0 
     1539.00        0.233       1635.5 
     1540.00        0.167       1635.5 
     1541.00        0.200       1646.7 
     1542.00        0.200       1651.4 
     1543.00        0.167       1645.3 
     1544.00        0.167       1645.3 
     1545.00        0.167       1649.4 
     1546.00        0.133       1649.4 
     1547.00        0.167       1664.9 
     1548.00        0.200       1657.8 
     1549.00        0.500       1645.0 
     1550.00        0.483       1524.4 
     1551.00        0.500       1468.1 
     1552.00        0.433       1500.4 
     1553.00        0.333       1523.3 
     1554.00        0.367       1624.8 
     1555.00        0.367       1640.9 
     1556.00        0.300       1634.2 
     1557.00        0.300       1587.0 
     1558.00        3.150       2961.6 
     1559.00        0.433       2957.9 
     1560.00        0.417       2944.5 
     1561.00        0.333       2851.1 
     1562.00        0.300       2521.0 
     1563.00        0.267       2264.9 
     1564.00        0.300       2242.3 
     1565.00        0.267       2005.8 
     1566.00        0.367       1934.4 
     1567.00        0.333       1853.5 
     1568.00        0.267       1813.4 
     1569.00        0.233       1782.1 
     1570.00        0.200       1674.6 
     1571.00        0.167       1612.3 
     1572.00        0.317       1604.2 
     1573.00        0.233       1529.8 
     1574.00        0.233       1525.4 
     1575.00        0.200       1533.1 
     1576.00        0.267       1539.2 
     1577.00        0.200       1545.6 
     1578.00        0.167       1549.3 
     1579.00        0.167       1570.2 
     1580.00        0.267       1577.6 
     1581.00        0.233       1577.6 
     1582.00        0.233       1560.1 
     1583.00        0.233       1561.1 
     1584.00        0.667       1607.6 
     1585.00        0.350       1576.6 
     1586.00        0.367       1533.8 
     1587.00        2.133       2117.7 
     1588.00        0.600       2425.3 
     1589.00        0.283       2569.5 
     1590.00        1.067       2760.8 
     1591.00        0.367       2588.3 
     1592.00        0.400       2295.6 
     1593.00        0.433       2005.5 
     1594.00        0.333       1768.6 
     1595.00        0.400       1749.1 
     1596.00        0.350       1730.2 
     1597.00        0.333       1675.0 
     1598.00        0.333       1650.7 
     1599.00        0.400       1614.0 
     1600.00        0.333       1604.2 
     1601.00        0.333       1586.4 
     1602.00        0.300       1577.3 
     1603.00        0.433       1576.6 
     1604.00        0.467       1566.1 
     1605.00        0.450       1543.6 
     1606.00        0.533       1537.5 
     1607.00        0.367       1581.0 
     1608.00        0.167       1581.0 
     1609.00        0.200       1607.9 
     1610.00        0.233       1635.2 
     1611.00        0.233       1668.6 
     1612.00        0.333       1661.8 
     1613.00        0.267       1665.2 
     1614.00        0.267       1643.6 
     1615.00        0.333       1594.1 
     1616.00        0.283       1547.9 
     1617.00        0.200       1487.0 
     1618.00        0.200       1487.0 
     1619.00        2.917       2725.1 
     1620.00        0.533       2819.5 
     1621.00        0.533       2734.9 
     1622.00        0.300       2382.5 
     1623.00        0.333       2136.9 
     1624.00        0.500       2126.4 
     1625.00        0.333       2040.5 
     1626.00        0.267       2032.4 
     1627.00        0.200       1988.6 
     1628.00        0.200       1935.1 
     1629.00        0.250       1914.5 
     1630.00        0.233       1712.4 
     1631.00        0.167       1621.1 
     1632.00        0.133       1552.7 
     1633.00        0.133       1530.4 
     1634.00        0.133       1479.2 
     1635.00        0.167       1456.0 
     1636.00        0.133       1456.6 
     1637.00        0.133       1456.6 
     1638.00        0.167       1500.1 
     1639.00        0.267       1563.1 
     1640.00        0.200       1646.0 
     1641.00        0.167       1646.0 
     1642.00        0.167       1756.2 
     1643.00        0.167       1756.2 
     1644.00        0.200       1769.0 
     1645.00        0.783       1734.9 
     1646.00        2.900       2696.5 
     1647.00        0.317       2757.1 
     1648.00        0.200       2770.3 
     1649.00        0.133       2728.5 
     1650.00        0.200       2652.7 
     1651.00        0.200       2652.7 
     1652.00        0.200       2565.1 
     1653.00        0.200       2523.0 
     1654.00        0.133       2480.5 
     1655.00        0.167       2379.4 
     1656.00        0.167       2247.7 
     1657.00        0.267       2230.9 
