~Version Information
VERS.                      2.0: CWLS Log ASCII Standard - VERSION 2.0
WRAP.                       NO: One line per depth step
~Well Information Block
STRT.FT               890.0000: 
STOP.FT              1588.2000: 
STEP.FT                 0.1000: 
NULL.                -999.2500: 
COMP.          Evergreen Operating Corporation: COMPANY
WELL.            Tomahawk 44-9: WELL
FLD.           Purgatorie River: FIELD
LOC.           434' FSL & 491' FEL: LOCATION
PROV.                 Colorado: PROVINCE
CNTY.               Las Animas: COUNTRY
SRVC.                         : SERVICE COMPANY
DATE.          Mon Sep 13 10:07:57 2004: LOG DATE
UWI.           05 071 08133 00: UNIQUE WELL ID
~Curve Information Block
DEPT.FT            0 000 00 00: Depth
LTEN.lb                       : Surface Line Tension
DCAL.in                       : CDL Caliper
RHOB.g/cc                     : CDL Bulk Density
RHOC.g/cc                     : CDL Density Correction
DPOR.pu                       : CDL Density Porosity
GR.GAPI                       : Gamma Ray
NPOR.pu                       : Neutron Porosity
~Parameter Information Block
~A  Depth       LTEN        DCAL        RHOB        RHOC        DPOR         GR         NPOR    
# ...
   932.0000   1000.2464      8.2408      2.5670      0.0941      5.0321    184.2415     27.2624
   932.1000   1000.2464      8.2408      2.5712      0.1240      4.7783    181.8659     27.5761
   932.2000   1000.2464      8.2408      2.5713      0.1048      4.7719    183.6939     27.9458
   932.3000   1033.1056      8.2394      2.5736      0.0756      4.6279    187.1487     28.2728
   932.4000   1033.1056      8.2394      2.5873      0.0924      3.7975    184.0502     28.4842
   932.5000   1057.0713      8.2387      2.6090      0.1067      2.4848    177.4225     28.7425
   932.6000   1057.0713      8.2387      2.6246      0.1210      1.5403    172.1183     29.1071
   932.7000   1057.0713      8.2387      2.6240      0.1067      1.5747    167.4556     29.3821
   932.8000   1068.3307      8.2342      2.6094      0.1002      2.4589    162.1951     29.4025
   932.9000   1068.3307      8.2342      2.5856      0.1091      3.9028    152.7646     29.0010
   933.0000   1066.0092      8.2268      2.5607      0.0667      5.4091    138.2411     28.1640
   933.1000   1066.0092      8.2268      2.5479      0.0553      6.1864    125.9827     27.2488
   933.2000   1066.0092      8.2268      2.5452      0.0544      6.3516    121.2802     26.6018
   933.3000   1057.2955      8.2256      2.5421      0.0414      6.5391    119.2064     26.1694
   933.4000   1057.2955      8.2256      2.5410      0.0410      6.6057    115.0601     25.7259
   933.5000   1032.5175      8.2257      2.5516     -0.0032      5.9661    110.1744     25.2827
   933.6000   1032.5175      8.2257      2.5701      0.0653      4.8440    105.9029     24.8525
   933.7000   1032.5175      8.2257      2.5814      0.0605      4.1584    102.2443     24.2532
   933.8000   1028.2303      8.2245      2.5839      0.0602      4.0089     97.4578     23.5200
   933.9000   1028.2303      8.2245      2.5837      0.1103      4.0165     91.0882     22.9099
   934.0000   1046.9305      8.2257      2.5818      0.0848      4.1354     88.7736     22.4764
   934.1000   1046.9305      8.2257      2.5782      0.0960      4.3508     92.2755     22.1779
   934.2000   1046.9305      8.2257      2.5737      0.1111      4.6242     96.9944     22.1863
   934.3000   1002.5150      8.2253      2.5747      0.0973      4.5618    100.9396     22.5224
   934.4000   1002.5150      8.2253      2.5884      0.1130      3.7358    105.7073     22.9671
   934.5000    992.1541      8.2234      2.6058      0.1398      2.6803    111.0376     23.3498
   934.6000    992.1541      8.2234      2.6155      0.0942      2.0900    116.6997     23.7525
   934.7000    992.1541      8.2234      2.6203      0.1262      1.7999    126.2049     24.3368
   934.8000    986.5282      8.2265      2.6288      0.1185      1.2833    137.2379     25.0150
   934.9000    986.5282      8.2265      2.6387      0.1312      0.6823    141.5249     25.5230
   935.0000   1006.9885      8.2367      2.6343      0.1425      0.9525    141.2191     25.7860
   935.1000   1006.9885      8.2367      2.6115      0.0954      2.3339    146.5048     26.2151
   935.2000   1006.9885      8.2367      2.5869      0.0638      3.8229    158.5833     26.8119
   935.3000   1020.4366      8.2626      2.5752      0.0608      4.5351    169.8662     27.0992
   935.4000   1020.4366      8.2626      2.5732      0.0565      4.6517    173.6251     27.0989
   935.5000   1048.2574      8.2680      2.5734      0.0418      4.6407    169.7648     27.2581
   935.6000   1048.2574      8.2680      2.5758      0.0592      4.4963    163.0557     27.5975
   935.7000   1048.2574      8.2680      2.5804      0.0995      4.2190    159.1915     27.6410
   935.8000   1042.7769      8.2672      2.5848      0.0778      3.9505    159.8932     27.2269
   935.9000   1042.7769      8.2672      2.5903      0.0439      3.6186    160.5119     26.7605
   936.0000   1038.3308      8.2670      2.5928      0.0670      3.4685    157.5274     26.7537
   936.1000   1038.3308      8.2670      2.5876      0.0392      3.7833    149.7837     27.0695
   936.2000   1038.3308      8.2670      2.5869      0.0229      3.8239    137.1770     27.0111
   936.3000   1050.9788      8.2662      2.5977      0.0623      3.1671    124.1968     26.5190
   936.4000   1050.9788      8.2662      2.6029      0.0333      2.8534    116.0447     26.0849
   936.5000   1048.9637      8.2662      2.5881      0.0387      3.7488    113.6654     25.6759
   936.6000   1048.9637      8.2662      2.5640      0.0029      5.2109    113.7005     25.0971
   936.7000   1048.9637      8.2662      2.5462      0.0248      6.2917    113.3817     24.5591
   936.8000   1039.7593      8.2661      2.5385      0.0149      6.7588    113.8093     24.1985
   936.9000   1039.7593      8.2661      2.5489     -0.0145      6.1265    116.4794     23.9204
   937.0000   1034.0961      8.2657      2.5781      0.0252      4.3591    117.5372     23.8393
   937.1000   1034.0961      8.2657      2.6033      0.0318      2.8300    113.9230     23.9246
   937.2000   1034.0961      8.2657      2.6072      0.0424      2.5919    108.7897     23.7899
   937.3000   1071.6837      8.2652      2.5955      0.0569      3.3049    103.3415     23.5048
   937.4000   1071.6837      8.2652      2.5911     -0.0031      3.5719     96.7195     23.4316
   937.5000   1051.6835      8.2646      2.6070      0.0537      2.6035     92.2231     23.6977
   937.6000   1051.6835      8.2646      2.6236      0.0784      1.5999     94.8688     24.0314
   937.7000   1051.6835      8.2646      2.6213      0.0347      1.7422    102.7005     23.9591
   937.8000   1007.7656      8.2636      2.6086     -0.0076      2.5092    110.5890     23.7713
   937.9000   1007.7656      8.2636      2.6011      0.0070      2.9627    116.5510     24.1484
   938.0000    979.3460      8.2665      2.6008      0.0426      2.9811    121.1770     24.8410
   938.1000    979.3460      8.2665      2.6038      0.0489      2.8007    126.8000     25.2449
   938.2000    979.3460      8.2665      2.6067      0.0431      2.6263    131.3088     25.5341
   938.3000   1020.5671      8.2661      2.6008      0.0397      2.9813    131.1949     25.8627
   938.4000   1020.5671      8.2661      2.5824      0.0432      4.0942    129.3563     25.9971
   938.5000   1045.8271      8.2653      2.5676      0.0049      4.9920    128.4373     25.9737
   938.6000   1045.8271      8.2653      2.5762      0.0293      4.4721    128.0496     25.9893
   938.7000   1045.8271      8.2653      2.6016      0.0531      2.9312    128.6939     25.9652
   938.8000   1066.7111      8.2654      2.6230      0.0578      1.6354    127.9966     25.6787
   938.9000   1066.7111      8.2654      2.6328      0.0556      1.0432    122.1505     25.3053
   939.0000   1050.7726      8.2651      2.6261      0.0675      1.4486    116.8487     25.1761
   939.1000   1050.7726      8.2651      2.6021      0.0339      2.9002    120.3867     25.3810
   939.2000   1050.7726      8.2651      2.5850     -0.0432      3.9385    129.5884     25.7981
   939.3000   1049.4913      8.2550      2.5891      0.0644      3.6899    135.9425     26.3740
   939.4000   1049.4913      8.2550      2.5950      0.0536      3.3348    140.9386     27.1599
   939.5000   1054.0935      8.2571      2.5989     -0.0197      3.0954    148.8206     27.8358
   939.6000   1054.0935      8.2571      2.6126      0.0255      2.2674    155.6912     27.9488
   939.7000   1054.0935      8.2571      2.6225      0.0635      1.6684    160.0765     27.5793
   939.8000   1049.8242      8.3161      2.6145      0.0322      2.1518    162.4015     27.4469
   939.9000   1049.8242      8.3161      2.6048     -0.0108      2.7397    162.0102     27.9002
   940.0000   1046.3373      8.3241      2.6084      0.0605      2.5186    163.6923     28.3332
   940.1000   1046.3373      8.3241      2.6161      0.0249      2.0548    170.1086     28.3865
   940.2000   1046.3373      8.3241      2.6168      0.0207      2.0096    174.5348     28.4441
   940.3000   1043.1521      8.3238      2.6104      0.0047      2.3982    170.2272     28.7116
