~Version Information
VERS.                      2.0: CWLS Log ASCII Standard - VERSION 2.0
WRAP.                       NO: One line per depth step
~Well Information Block
STRT.FT               840.0000: 
STOP.FT              2450.0000: 
STEP.FT                 0.1000: 
NULL.                -999.2500: 
COMP.          Petrogulf Corporation: COMPANY
WELL.             Leier 17-42V: WELL
FLD.           Purgatorie River: FIELD
LOC.           2309' FNL & 1062' FEL SENE 17 33S 67W: LOCATION
PROV.                 Colorado: PROVINCE
CNTY.               Las Animas: COUNTRY
SRVC.                Patterson: SERVICE COMPANY
DATE.          Thu Sep 22 09:35:36 2005: LOG DATE
UWI.           071 08409 : UNIQUE WELL ID
~Curve Information Block
DEPT.FT            0 000 00 00: Depth
DCAL.in                       : CDL Caliper
RHOB.g/cc                     : CDL Bulk Density
RHOC.g/cc                     : CDL Density Correction
DPOR.pu                       : CDL Density Porosity
GR.GAPI                       : Gamma Ray
NPOR.pu                       : Neutron Porosity
~Parameter Information Block
~A  Depth       DCAL        RHOB        RHOC        DPOR         GR         NPOR    
# ...
  1473.6000      7.9552      2.5048      0.0839      8.8026    197.3526     27.9441
  1473.7000      7.9552      2.5343      0.1338      7.0152    193.5315     28.2758
  1473.8000      7.9600      2.5573      0.0908      5.6156    184.3149     28.6939
  1473.9000      7.9600      2.5754      0.1233      4.5242    175.5655     28.9234
  1474.0000      7.9619      2.5844      0.1405      3.9772    171.9592     28.9619
  1474.1000      7.9619      2.5705      0.1287      4.8204    174.4354     28.7856
  1474.2000      7.9619      2.5428      0.0705      6.4946    180.2463     28.3785
  1474.3000      7.9477      2.5306      0.0705      7.2369    183.1504     28.0567
  1474.4000      7.9477      2.5372      0.0740      6.8350    181.3961     28.1574
  1474.5000      7.9384      2.5396      0.0580      6.6883    179.9678     28.3946
  1474.6000      7.9384      2.5329      0.0562      7.0964    181.1350     28.4221
  1474.7000      7.9384      2.5288      0.0599      7.3441    180.9939     28.2604
  1474.8000      7.9458      2.5249      0.0677      7.5816    178.7490     28.0025
  1474.9000      7.9458      2.5182      0.0195      7.9849    178.6332     27.7856
  1475.0000      7.9693      2.5187      0.0128      7.9562    180.3725     27.6854
  1475.1000      7.9693      2.5265      0.0325      7.4833    179.6784     27.6224
  1475.2000      7.9693      2.5313      0.0286      7.1929    176.0681     27.6502
  1475.3000      7.9592      2.5344      0.0329      7.0034    174.0095     27.8973
  1475.4000      7.9592      2.5435      0.0419      6.4562    174.9803     28.2545
  1475.5000      7.9635      2.5500      0.0700      6.0628    173.5328     28.3106
  1475.6000      7.9635      2.5379      0.0578      6.7969    168.1278     27.7993
  1475.7000      7.9635      2.5034      0.0246      8.8825    163.6948     27.0209
  1475.8000      7.9572      2.4425      0.0435     12.5780    162.2937     26.4846
  1475.9000      7.9572      2.3467      0.0069     18.3840    160.9301     26.4304
  1476.0000      7.9551      2.2275     -0.0196     25.6057    157.5275     26.8009
  1476.1000      7.9551      2.1101     -0.1111     32.7188    152.7117     27.4586
  1476.2000      7.9551      2.0088     -0.0740     38.8586    148.6377     28.2050
  1476.3000      7.9474      1.9363     -0.1421     43.2523    147.3303     28.9007
  1476.4000      7.9474      1.9179     -0.1296     44.3675    145.4013     29.5709
  1476.5000      7.9512      1.9637     -0.0515     41.5928    138.1511     30.2005
  1476.6000      7.9512      2.0529      0.1172     36.1855    129.0493     30.5910
  1476.7000      7.9512      2.1586      0.1703     29.7803    123.0020     30.5261
  1476.8000      7.9673      2.2649      0.2341     23.3413    121.2422     29.9491
  1476.9000      7.9673      2.3655      0.2729     17.2398    122.5127     29.0941
  1477.0000      8.0320      2.4677      0.2370     11.0486    123.2655     28.3181
  1477.1000      8.0320      2.5729      0.2643      4.6713    122.6323     27.7514
  1477.2000      8.0320      2.6556      0.2142     -0.3368    123.6927     27.3462
  1477.3000      7.9414      2.6934      0.1803     -2.6290    126.5428     26.9178
  1477.4000      7.9414      2.6930      0.1623     -2.6048    130.5101     26.1098
  1477.5000      7.9201      2.6692      0.1983     -1.1623    134.0651     24.7768
  1477.6000      7.9201      2.6319      0.0953      1.0957    133.3691     23.1904
  1477.7000      7.9201      2.5954      0.0542      3.3078    130.9345     21.6786
  1477.8000      7.9102      2.5721      0.0465      4.7240    132.0079     20.4777
  1477.9000      7.9102      2.5673      0.0004      5.0100    135.2706     19.8251
  1478.0000      7.9255      2.5809      0.0276      4.1872    138.2320     19.7901
  1478.1000      7.9255      2.6052      0.0146      2.7137    141.8062     20.2155
  1478.2000      7.9255      2.6288      0.0824      1.2865    144.7928     20.8173
  1478.3000      7.9230      2.6396      0.0864      0.6308    143.9371     21.1896
  1478.4000      7.9230      2.6333      0.1363      1.0099    141.0924     21.3281
  1478.5000      7.9245      2.6169      0.0994      2.0083    141.5527     21.6772
  1478.6000      7.9245      2.6057      0.0778      2.6871    147.9184     22.3769
  1478.7000      7.9245      2.6042      0.1379      2.7742    157.2282     23.0518
  1478.8000      7.9266      2.6027      0.0954      2.8664    164.6499     23.4925
  1478.9000      7.9266      2.6068      0.0840      2.6204    170.4808     23.8296
  1479.0000      7.9306      2.6261      0.1482      1.4484    177.0231     24.0150
  1479.1000      7.9306      2.6456      0.1526      0.2668    182.0861     23.9789
  1479.2000      7.9306      2.6493      0.1405      0.0419    183.7231     23.9488
  1479.3000      7.9213      2.6455      0.1104      0.2738    183.7919     24.0299
  1479.4000      7.9213      2.6490      0.1022      0.0596    184.5753     24.0722
  1479.5000      7.9156      2.6639      0.0962     -0.8451    184.7840     23.9774
  1479.6000      7.9156      2.6825      0.1278     -1.9679    182.1533     23.6205
  1479.7000      7.9156      2.6963      0.0782     -2.8044    178.1180     22.7682
  1479.8000      7.9192      2.7031      0.1580     -3.2174    173.5424     21.5748
  1479.9000      7.9192      2.7063      0.0786     -3.4127    165.2713     20.6661
  1480.0000      7.9135      2.7165      0.1186     -4.0299    153.4241     20.3975
  1480.1000      7.9135      2.7251      0.1583     -4.5521    142.5818     20.4723
  1480.2000      7.9135      2.7101      0.1010     -3.6435    135.2427     20.3897
  1480.3000      7.9122      2.6683      0.0910     -1.1073    132.2565     20.0463
  1480.4000      7.9122      2.6167      0.0176      2.0177    131.4015     19.6854
  1480.5000      7.9160      2.5765      0.0105      4.4568    128.2979     19.3303
  1480.6000      7.9160      2.5545     -0.0310      5.7868    125.9635     18.9476
  1480.7000      7.9160      2.5464      0.0084      6.2759    126.5532     18.8578
  1480.8000      7.9179      2.5437      0.0254      6.4408    126.5979     19.1248
  1480.9000      7.9179      2.5442      0.0103      6.4128    125.7830     19.3329
  1481.0000      7.9390      2.5541      0.0306      5.8124    125.3774     19.4523
  1481.1000      7.9390      2.5746      0.0589      4.5714    125.3580     19.8360
  1481.2000      7.9390      2.5950      0.1294      3.3320    125.7359     20.3394
  1481.3000      7.9069      2.6096      0.0740      2.4498    127.3321     20.5862
  1481.4000      7.9069      2.6262      0.1209      1.4407    129.1360     20.5777
  1481.5000      7.8847      2.6462      0.1045      0.2297    129.1946     20.6284
  1481.6000      7.8847      2.6657      0.0944     -0.9488    128.2274     20.9086
  1481.7000      7.8847      2.6772      0.1401     -1.6501    127.0323     21.1674
  1481.8000      7.8889      2.6691      0.0998     -1.1587    125.1287     21.3822
  1481.9000      7.8889      2.6466      0.1056      0.2071    124.4333     21.7706
  1482.0000      7.8928      2.6286      0.0887      1.2981    126.3785     22.0563
  1482.1000      7.8928      2.6191      0.0880      1.8742    126.6848     21.8017
  1482.2000      7.8928      2.6068      0.0981      2.6180    121.9749     21.1931
  1482.3000      7.8874      2.5871      0.0460      3.8104    117.1311     20.7840
  1482.4000      7.8874      2.5663      0.0341      5.0754    114.4747     20.8613
  1482.5000      7.9061      2.5560      0.0322      5.6997    110.9329     21.2608
  1482.6000      7.9061      2.5684      0.0035      4.9476    107.6901     21.5887
  1482.7000      7.9061      2.6016      0.0752      2.9356    107.4429     21.8357
  1482.8000      7.9201      2.6377      0.1258      0.7485    109.6268     22.0655
  1482.9000      7.9201      2.6628      0.1418     -0.7746    113.8453     22.0656
  1483.0000      7.8848      2.6733      0.1771     -1.4127    119.1587     21.8154
  1483.1000      7.8848      2.6720      0.1332     -1.3311    122.1704     21.6461
