~Version Information
VERS.                      2.0: CWLS Log ASCII Standard - VERSION 2.0
WRAP.                       NO: One line per depth step
~Well Information Block
STRT.FT                10.0000: 
STOP.FT               859.0000: 
STEP.FT                 0.2500: 
NULL.                -999.2500: 
COMP.          Pioneer Natural Resources: COMPANY
WELL.          Prospector 12-19: WELL
FLD.           Purgatoire River: FIELD
LOC.           2262' FNL & 634' FWL: LOCATION
PROV.                 Colorado: PROVINCE
CNTY.               Las Animas: COUNTRY
SRVC.                Patterson: SERVICE COMPANY
DATE.          Tue May 10 11:52:48 2005: LOG DATE
UWI.           05 071 08191 00: UNIQUE WELL ID
~Curve Information Block
DEPT.FT            0 000 00 00: Depth
CCL.                          : Casing Collar Locator
TT3.usec                      : CBL 3' Travel Time
AMP3.mV                       : CBL 3' Amplitude
GR.GAPI                       : Gamma Ray
~Parameter Information Block
~A  Depth       CCL         TT3         AMP3         GR     
# ...
   546.0000      0.0000    917.2210      6.1935     67.5435
   546.2500      0.0000    925.3184      6.2250     72.0858
   546.5000      0.0000    931.9035      6.2589     74.1560
   546.7500      0.0000    934.8802      6.2779     73.1871
   547.0000      0.0000    935.0953      6.2650     69.8150
   547.2500      0.0000    936.7306      6.2140     65.5480
   547.5000      0.0000    944.2133      6.1368     62.1137
   547.7500      0.0000    957.4740      6.0529     60.6926
   548.0000      0.0000    970.9140      5.9761     61.2871
   548.2500      0.0000    977.5457      5.9132     62.7605
   548.5000      0.0000    973.6463      5.8675     63.7180
   548.7500      0.0000    960.3291      5.8362     63.5995
   549.0000      0.0000    942.4026      5.8134     63.0087
   549.2500      0.0000    925.6955      5.7966     63.0413
   549.5000      0.0000    913.9587      5.7868     64.3687
   549.7500      0.0000    907.4827      5.7847     66.8809
   550.0000      0.0000    904.2792      5.7884     69.8681
   550.2500      0.0000    901.9667      5.7945     72.3743
   550.5000      0.0000    898.8572      5.7996     73.6248
   550.7500      0.0000    894.8926      5.8023     73.5036
   551.0000      0.0000    892.4738      5.7999     72.6713
   551.2500      0.0000    895.4221      5.7920     71.9721
   551.5000      0.0000    905.4249      5.7853     71.5988
   551.7500      0.0000    918.8474      5.7876     71.0605
   552.0000      0.0000    928.0291      5.7979     70.0533
   552.2500      0.0000    927.5244      5.8100     68.9866
   552.5000      0.0000    919.4567      5.8205     68.3700
   552.7500      0.0000    911.6839      5.8293     67.9598
   553.0000      0.0000    910.2211      5.8371     66.8991
   553.2500      0.0000    914.0214      5.8425     64.7737
   553.5000      0.0000    917.0049      5.8410     62.3670
   553.7500      0.0000    914.4073      5.8267     61.2471
   554.0000      0.0000    907.1621      5.7918     62.6003
   554.2500      0.0000    900.5277      5.7284     66.4736
   554.5000      0.0000    898.6557      5.6411     72.0067
   554.7500      0.0000    900.8370      5.5527     78.1116
   555.0000      0.0000    903.0375      5.4886     83.7867
   555.2500      0.0000    902.0546      5.4594     87.9594
   555.5000      0.0000    897.4268      5.4604     89.4308
   555.7500      0.0000    890.4733      5.4821     87.4364
   556.0000      0.0000    883.0833      5.5190     82.5455
   556.2500      0.0000    877.2803      5.5770     76.9313
   556.5000      0.0000    874.6754      5.6645     73.3253
   556.7500      0.0000    875.8785      5.7730     73.2059
   557.0000      0.0000    880.7715      5.8745     75.6309
   557.2500      0.0000    889.6490      5.9381     77.7095
   557.5000      0.0000    903.5223      5.9507     76.6089
   557.7500      0.0000    922.1949      5.9232     71.7227
   558.0000      0.0000    941.7739      5.8774     65.1012
   558.2500      0.0000    955.1661      5.8254     59.7190
   558.5000      0.0000    956.1129      5.7670     57.3040
   558.7500      0.0000    943.4232      5.7018     57.4859
   559.0000      0.0000    922.1694      5.6363     58.5423
   559.2500      0.0000    901.0023      5.5818     58.9296
   559.5000      0.0000    887.5446      5.5476     58.4174
   559.7500      0.0000    885.3486      5.5313     57.9961
   560.0000      0.0000    893.5002      5.5179     58.8650
   560.2500      0.0000    907.1541      5.4936     61.3609
   560.5000      0.0000    919.1235      5.4570     64.4763
   560.7500      0.0000    923.8676      5.4148     66.5399
   561.0000      0.0000    920.9799      5.3753     66.8831
   561.2500      0.0000    913.6591      5.3448     66.7953
   561.5000      0.0000    904.3820      5.3237     68.5565
   561.7500      0.0000    893.9190      5.3080     73.5641
   562.0000      0.0000    883.4583      5.2956     81.3840
   562.2500      0.0000    875.0934      5.2881     90.3930
   562.5000      0.0000    870.2118      5.2859     99.3481
   562.7500      0.0000    868.8903      5.2902    108.2370
   563.0000      0.0000    870.8350      5.3114    117.2757
   563.2500      0.0000    875.8878      5.3660    125.4473
   563.5000      0.0000    883.3531      5.4574    130.8873
   563.7500      0.0000    891.3503      5.5648    132.6068
   564.0000      0.0000    897.4892      5.6543    131.0804
   564.2500      0.0000    900.5179      5.7025    127.3388
   564.5000      0.0000    901.2297      5.7116    122.3384
   564.7500      0.0000    901.4382      5.7046    117.2478
   565.0000      0.0000    901.9351      5.7059    113.6296
   565.2500      0.0000    901.5821      5.7169    112.8259
   565.5000      0.0000    898.5386      5.7080    115.1259
   565.7500      0.0000    892.3239      5.6399    119.6742
   566.0000      0.0000    884.6547      5.5051    125.3606
   566.2500      0.0000    878.4150      5.3485    131.7500
   566.5000      0.0000    875.8537      5.2364    138.9236
   566.7500      0.0000    877.3826      5.2037    146.2388
   567.0000      0.0000    881.4480      5.2302    151.5766
   567.2500      0.0000    885.5220      5.2641    152.5990
   567.5000      0.0000    887.9573      5.2680    149.0511
   567.7500      0.0000    889.1852      5.2486    143.2516
   568.0000      0.0000    890.5915      5.2425    138.0542
   568.2500      0.0000    892.1767      5.2694    134.6983
   568.5000      0.0000    892.1092      5.3035    132.5784
   568.7500      0.0000    888.8322      5.2983    130.4874
   569.0000      0.0000    882.9472      5.2399    127.9566
   569.2500      0.0000    876.6777      5.1704    125.6903
   569.5000      0.0000    871.9316      5.1528    124.7276
   569.7500      0.0000    869.2135      5.2124    125.1222
   570.0000      0.0000    867.9896      5.3174    125.6766
   570.2500      0.0000    867.5208      5.4107    125.1101
   570.5000      0.0000    867.3224      5.4531    123.3391
   570.7500      0.0000    867.2068      5.4411    121.6045
   571.0000      0.0000    867.1899      5.4002    121.6098
   571.2500      0.0000    867.4410      5.3636    124.3700
   571.5000      0.0000    868.3183      5.3489    129.2276
   571.7500      0.0000    870.3367      5.3509    133.8579
   572.0000      0.0000    873.8561      5.3580    135.8123
   572.2500      0.0000    878.6220      5.3719    134.3688
   572.5000      0.0000    883.6270      5.4014    130.7846
   572.7500      0.0000    887.4800      5.4420    127.0369
   573.0000      0.0000    889.0486      5.4780    124.7373
   573.2500      0.0000    888.1058      5.5062    124.7984
   573.5000      0.0000    885.5101      5.5459    127.2203
   573.7500      0.0000    882.4163      5.6134    131.2381
   574.0000      0.0000    879.2722      5.6950    136.3188
   574.2500      0.0000    875.9638      5.7519    142.6090
   574.5000      0.0000    872.6879      5.7487    149.6041
   574.7500      0.0000    870.0375      5.6780    155.1277
   575.0000      0.0000    868.3356      5.5657    156.8862
   575.2500      0.0000    867.3805      5.4573    154.6644
   575.5000      0.0000    866.8170      5.3899    150.0307
   575.7500      0.0000    866.4556      5.3705    144.3943
   576.0000      0.0000    866.2581      5.3809    138.2597
   576.2500      0.0000    866.2070      5.3998    131.8656
   576.5000      0.0000    866.2619      5.4198    125.4376
   576.7500      0.0000    866.3976      5.4441    118.8354
   577.0000      0.0000    866.7138      5.4645    111.5298
   577.2500      0.0000    867.6215      5.4539    103.2310
   577.5000      0.0000    870.1124      5.3872     94.6936
   577.7500      0.0000    875.7414      5.2612     87.8192
   578.0000      0.0000    885.7297      5.0835     84.4504
   578.2500      0.0000    899.2879      4.8641     84.6144
   578.5000      0.0000    912.8968      4.6293     86.0427
   578.7500      0.0000    922.3121      4.4215     85.7655
   579.0000      0.0000    925.8263      4.2677     82.3404
   579.2500      0.0000    925.0162      4.1667     76.5477
