~Version Information
VERS.                      2.0: CWLS Log ASCII Standard - VERSION 2.0
WRAP.                       NO: One line per depth step
~Well Information Block
STRT.FT               620.0000: 
STOP.FT              2660.0000: 
STEP.FT                 0.1000: 
NULL.                -999.2500: 
COMP.          Evergreen Operating Corporation: COMPANY
WELL.             Carbon 34-21: WELL
FLD.           Purgatoire River: FIELD
LOC.           56' FSL & 2304' FEL: LOCATION
PROV.                 Colorado: PROVINCE
CNTY.               Las Animas: COUNTRY
SRVC.                Patterson: SERVICE COMPANY
DATE.          Mon Sep 13 14:13:15 2004: LOG DATE
UWI.           05 071 08117 00: UNIQUE WELL ID
~Curve Information Block
DEPT.FT            0 000 00 00: Depth
DCAL.in                       : CDL Caliper
DPOR.pu                       : CDL Density Porosity
NPOR.pu                       : Neutron Porosity
RHOB.g/cc                     : CDL Bulk Density
RHOC.g/cc                     : CDL Density Correction
GR.GAPI                       : Gamma Ray
~Parameter Information Block
~A  Depth       DCAL        DPOR        NPOR        RHOB        RHOC         GR     
   620.0000      8.2372     14.4076     40.3680      2.4123     -0.2150     88.4927
   620.1000      8.2372     13.8287     40.2540      2.4218     -0.2122     81.6813
   620.2000      8.2372     13.8741     40.1425      2.4211     -0.1925     76.3689
   620.3000      8.2395     15.0945     40.0074      2.4009     -0.2256     77.0804
   620.4000      8.2395     16.9848     40.1797      2.3698     -0.2400     82.8509
   620.5000      8.2366     18.0957     40.7461      2.3514     -0.2885     87.2548
   620.6000      8.2366     17.9728     41.2244      2.3534     -0.2233     87.7027
   620.7000      8.2366     17.6194     41.2702      2.3593     -0.2253     84.6931
   620.8000      8.2327     16.9548     41.1376      2.3702     -0.2723     79.3039
   620.9000      8.2327     15.3909     40.9717      2.3960     -0.2214     76.6324
   621.0000      8.2308     14.2077     40.4143      2.4156     -0.1887     78.9510
   621.1000      8.2308     14.9175     39.3872      2.4039     -0.1975     81.9324
   621.2000      8.2308     16.6221     38.6518      2.3757     -0.2488     81.9244
   621.3000      8.2296     17.0216     38.9193      2.3691     -0.2681     80.5938
   621.4000      8.2296     15.9444     39.6589      2.3869     -0.1951     81.5489
   621.5000      8.2265     15.5439     39.9289      2.3935     -0.1543     83.9640
   621.6000      8.2265     16.6516     39.9148      2.3752     -0.2275     84.1637
   621.7000      8.2265     18.4085     40.2579      2.3463     -0.2217     83.7851
   621.8000      8.2132     20.4076     40.7831      2.3133     -0.2344     84.3710
   621.9000      8.2132     21.8384     41.0119      2.2897     -0.3331     83.5079
   622.0000      8.2027     21.5331     40.9028      2.2947     -0.3242     81.8810
   622.1000      8.2027     20.4060     40.5308      2.3133     -0.2250     84.6158
   622.2000      8.2027     19.9937     39.8377      2.3201     -0.2573     91.8162
   622.3000      8.2185     19.8863     39.0405      2.3219     -0.2480     94.5357
   622.4000      8.2185     19.3964     38.9649      2.3300     -0.2039     88.7572
   622.5000      8.2394     18.8680     39.9509      2.3387     -0.2412     81.2308
   622.6000      8.2394     19.1159     41.1688      2.3346     -0.2116     77.4288
   622.7000      8.2394     20.6591     41.8020      2.3091     -0.2639     76.1995
   622.8000      8.2487     22.6541     41.8868      2.2762     -0.2646     75.6090
   622.9000      8.2487     23.8962     41.6293      2.2557     -0.2862     75.1653
   623.0000      8.2443     24.2455     40.8879      2.2499     -0.2749     74.7866
   623.1000      8.2443     23.9568     39.5725      2.2547     -0.2985     74.6861
   623.2000      8.2443     22.9369     38.3166      2.2715     -0.2504     74.4362
   623.3000      8.2380     21.4598     38.1688      2.2959     -0.2720     74.8047
   623.4000      8.2380     20.4296     39.3237      2.3129     -0.2060     75.3827
   623.5000      8.2348     20.7631     40.6012      2.3074     -0.2179     73.2462
   623.6000      8.2348     21.9414     40.6169      2.2880     -0.2501     70.9700
   623.7000      8.2348     21.8803     39.3895      2.2890     -0.3175     73.6719
   623.8000      8.2318     19.5170     38.2242      2.3280     -0.2446     78.7895
   623.9000      8.2318     16.4759     37.9365      2.3781     -0.1983     80.2567
   624.0000      8.2306     14.9264     38.2841      2.4037     -0.2161     77.4948
   624.1000      8.2306     15.4949     38.7470      2.3943     -0.2148     71.8670
   624.2000      8.2306     17.1456     38.8379      2.3671     -0.2724     66.3081
   624.3000      8.2314     18.2074     38.4621      2.3496     -0.2729     65.7947
   624.4000      8.2314     18.1578     37.9877      2.3504     -0.2473     69.6147
   624.5000      8.2345     17.6126     37.7805      2.3594     -0.2717     71.1932
   624.6000      8.2345     17.2859     37.4536      2.3648     -0.2443     69.2706
   624.7000      8.2345     17.2621     36.9766      2.3652     -0.2704     68.1611
   624.8000      8.2369     16.9894     37.3745      2.3697     -0.2318     68.4498
   624.9000      8.2369     16.3492     38.2871      2.3802     -0.2317     68.4638
   625.0000      8.2336     15.3612     38.2855      2.3965     -0.2379     68.2474
   625.1000      8.2336     14.3120     37.5165      2.4139     -0.1872     67.3113
   625.2000      8.2336     13.8649     36.9282      2.4212     -0.2114     64.0331
   625.3000      8.2281     14.2005     36.8228      2.4157     -0.2279     60.4277
   625.4000      8.2281     15.6223     37.2302      2.3922     -0.2080     59.8161
   625.5000      8.2251     18.3572     38.0282      2.3471     -0.2388     60.2320
   625.6000      8.2251     20.8803     38.5078      2.3055     -0.3003     60.0686
   625.7000      8.2251     21.0031     38.1041      2.3034     -0.3083     59.9066
   625.8000      8.2275     18.9192     37.1753      2.3378     -0.2124     60.0217
   625.9000      8.2275     17.0129     36.4007      2.3693     -0.2067     60.5740
   626.0000      8.2340     16.9122     36.1586      2.3709     -0.2147     60.3275
   626.1000      8.2340     18.4249     36.7640      2.3460     -0.1896     59.6299
   626.2000      8.2340     19.9924     37.8764      2.3201     -0.2746     59.5738
   626.3000      8.2370     20.0601     38.4925      2.3190     -0.2438     59.9158
   626.4000      8.2370     19.1302     38.4833      2.3344     -0.2077     61.6137
   626.5000      8.2357     18.7329     38.3931      2.3409     -0.2324     64.3389
   626.6000      8.2357     19.2572     38.0286      2.3323     -0.2108     65.3198
   626.7000      8.2357     20.1243     37.0462      2.3179     -0.2559     63.5910
   626.8000      8.2337     20.5040     36.0028      2.3117     -0.2504     60.3593
   626.9000      8.2337     20.3032     35.6198      2.3150     -0.2133     57.5114
   627.0000      8.2334     20.1040     36.0987      2.3183     -0.2402     58.1804
   627.1000      8.2334     19.8226     37.2449      2.3229     -0.2387     61.2151
   627.2000      8.2334     19.1099     38.1556      2.3347     -0.2150     62.1171
   627.3000      8.2341     18.3207     38.1269      2.3477     -0.2078     61.5198
   627.4000      8.2341     18.5298     37.6525      2.3443     -0.1885     60.7876
   627.5000      8.2335     20.0022     37.5245      2.3200     -0.2583     58.7475
   627.6000      8.2335     21.5170     37.8215      2.2950     -0.2489     56.2296
   627.7000      8.2335     22.5242     37.9025      2.2783     -0.2200     54.2036
   627.8000      8.2335     23.2688     37.3241      2.2661     -0.2787     51.7524
   627.9000      8.2335     23.5381     36.4028      2.2616     -0.2526     48.9357
   628.0000      8.2347     23.4131     35.8214      2.2637     -0.2653     47.7868
   628.1000      8.2347     23.3249     35.8219      2.2651     -0.2576     49.5370
   628.2000      8.2347     23.4016     35.8886      2.2639     -0.2651     52.9494
   628.3000      8.2351     23.5384     35.8878      2.2616     -0.2333     56.8119
   628.4000      8.2351     23.7434     36.0506      2.2582     -0.2630     57.6799
   628.5000      8.2340     24.1580     36.2699      2.2514     -0.2515     52.0268
   628.6000      8.2340     24.6247     36.4226      2.2437     -0.2819     44.3459
   628.7000      8.2340     24.3516     36.6809      2.2482     -0.2982     41.0835
   628.8000      8.2325     23.3763     37.2786      2.2643     -0.2097     42.4569
   628.9000      8.2325     22.8259     37.9314      2.2734     -0.2617     45.0134
   629.0000      8.2331     22.4794     37.6436      2.2791     -0.3199     45.5910
   629.1000      8.2331     21.5037     36.3655      2.2952     -0.2895     43.9305
   629.2000      8.2331     20.5419     35.8320      2.3111     -0.2645     42.6397
   629.3000      8.2330     20.2699     36.7150      2.3155     -0.2217     42.4318
   629.4000      8.2330     19.9133     37.7143      2.3214     -0.2554     41.4844
   629.5000      8.2328     18.5146     37.8762      2.3445     -0.2469     40.7426
