~Version Information
VERS.                      2.0: CWLS Log ASCII Standard - VERSION 2.0
WRAP.                       NO: One line per depth step
~Well Information Block
STRT.FT               294.0000: 
STOP.FT              1958.0000: 
STEP.FT                 0.1000: 
NULL.                -999.2500: 
COMP.          Pioneer Natural Resources: COMPANY
WELL.          Commander 43-26 Tr: WELL
FLD.           Purgatoire River: FIELD
LOC.           2439' FSL & 446' FEL: LOCATION
PROV.                 Colorado: PROVINCE
CNTY.               Las Animas: COUNTRY
SRVC.                Patterson: SERVICE COMPANY
DATE.          Fri Apr 15 07:31:08 2005: LOG DATE
UWI.           05 071 08341 00: UNIQUE WELL ID
~Curve Information Block
DEPT.FT            0 000 00 00: Depth
DCAL.in                       : CDL Caliper
RHOB.g/cc                     : CDL Bulk Density
RHOC.g/cc                     : CDL Density Correction
DPOR.pu                       : CDL Density Porosity
GR.GAPI                       : Gamma Ray
NPOR.pu                       : Neutron Porosity
~Parameter Information Block
~A  Depth       DCAL        RHOB        RHOC        DPOR         GR         NPOR    
# ...
  1945.2000      7.9461      2.5579      0.0585      5.5816   -999.2500   -999.2500
  1945.3000      7.9117      2.5256      0.1022      7.5398   -999.2500   -999.2500
  1945.4000      7.9117      2.4819      0.0419     10.1872   -999.2500   -999.2500
  1945.5000      7.8674      2.4561      0.0016     11.7541   -999.2500   -999.2500
  1945.6000      7.8674      2.4560      0.0471     11.7564   -999.2500   -999.2500
  1945.7000      7.8674      2.4621      0.0775     11.3896   -999.2500   -999.2500
  1945.8000      7.8442      2.4555      0.0612     11.7853   -999.2500   -999.2500
  1945.9000      7.8442      2.4431      0.0291     12.5400   -999.2500   -999.2500
  1946.0000      7.8612      2.4448      0.0937     12.4371   -999.2500   -999.2500
  1946.1000      7.8612      2.4644      0.0395     11.2484   -999.2500   -999.2500
  1946.2000      7.8612      2.4799      0.1183     10.3064   -999.2500   -999.2500
  1946.3000      7.8646      2.4639      0.1331     11.2781   -999.2500   -999.2500
  1946.4000      7.8646      2.4273      0.0307     13.4963   -999.2500   -999.2500
  1946.5000      7.8602      2.4058      0.0065     14.7980   -999.2500   -999.2500
  1946.6000      7.8602      2.4088      0.0507     14.6170   -999.2500   -999.2500
  1946.7000      7.8602      2.4239      0.0907     13.7056   -999.2500   -999.2500
  1946.8000      7.8412      2.4388      0.1298     12.7980   -999.2500   -999.2500
  1946.9000      7.8412      2.4395      0.0908     12.7557   -999.2500   -999.2500
  1947.0000      7.8731      2.4282      0.0433     13.4427   -999.2500   -999.2500
  1947.1000      7.8731      2.4282      0.0373     13.4425   -999.2500   -999.2500
  1947.2000      7.8731      2.4456      0.0840     12.3906   -999.2500   -999.2500
  1947.3000      7.8830      2.4659      0.0299     11.1555   -999.2500   -999.2500
  1947.4000      7.8830      2.4770      0.1117     10.4862   -999.2500   -999.2500
  1947.5000      7.8783      2.4710      0.0773     10.8506   -999.2500   -999.2500
  1947.6000      7.8783      2.4602      0.0304     11.5009   -999.2500   -999.2500
  1947.7000      7.8783      2.4569      0.0716     11.7027   -999.2500   -999.2500
  1947.8000      7.8826      2.4497      0.0465     12.1375   -999.2500   -999.2500
  1947.9000      7.8826      2.4363      0.0264     12.9495   -999.2500   -999.2500
  1948.0000      7.8868      2.4268      0.0155     13.5287   -999.2500   -999.2500
  1948.1000      7.8868      2.4144      0.0475     14.2764   -999.2500   -999.2500
  1948.2000      7.8868      2.3980     -0.0174     15.2714   -999.2500   -999.2500
  1948.3000      7.8942      2.4000     -0.0117     15.1540   -999.2500   -999.2500
  1948.4000      7.8942      2.4231      0.0299     13.7519   -999.2500   -999.2500
  1948.5000      7.9050      2.4484      0.0459     12.2198   -999.2500   -999.2500
  1948.6000      7.9050      2.4628      0.1182     11.3429   -999.2500   -999.2500
  1948.7000      7.9050      2.4637      0.0767     11.2939   -999.2500   -999.2500
  1948.8000      7.9010      2.4640      0.0430     11.2705   -999.2500   -999.2500
  1948.9000      7.9010      2.4771      0.0543     10.4780   -999.2500   -999.2500
  1949.0000      7.8724      2.4914      0.1483      9.6117   -999.2500   -999.2500
  1949.1000      7.8724      2.4931      0.0894      9.5062   -999.2500   -999.2500
  1949.2000      7.8724      2.4841      0.1217     10.0535   -999.2500   -999.2500
  1949.3000      7.8514      2.4583      0.1189     11.6154   -999.2500   -999.2500
  1949.4000      7.8514      2.4189      0.0533     14.0032   -999.2500   -999.2500
  1949.5000      7.8329      2.3887      0.0288     15.8390   -999.2500   -999.2500
  1949.6000      7.8329      2.3736      0.0577     16.7502   -999.2500   -999.2500
  1949.7000      7.8329      2.3683     -0.0089     17.0735   -999.2500   -999.2500
  1949.8000      7.8410      2.3755      0.0304     16.6363   -999.2500   -999.2500
  1949.9000      7.8410      2.3952      0.0007     15.4454   -999.2500   -999.2500
  1950.0000      7.8476      2.4170      0.0822     14.1232   -999.2500   -999.2500
  1950.1000      7.8476      2.4245      0.0539     13.6648   -999.2500   -999.2500
  1950.2000      7.8476      2.4127      0.0719     14.3797   -999.2500   -999.2500
  1950.3000      7.8479      2.3940      0.0187     15.5170   -999.2500   -999.2500
  1950.4000      7.8479      2.3855      0.0363     16.0332   -999.2500   -999.2500
  1950.5000      7.8416      2.3886      0.0915     15.8407   -999.2500   -999.2500
  1950.6000      7.8416      2.3913      0.0497     15.6813   -999.2500   -999.2500
  1950.7000      7.8416      2.3908      0.0019     15.7083   -999.2500   -999.2500
  1950.8000      7.8429      2.3966      0.0127     15.3553   -999.2500   -999.2500
  1950.9000      7.8429      2.4076      0.0360     14.6931   -999.2500   -999.2500
  1951.0000      7.8445      2.4070      0.0632     14.7286   -999.2500   -999.2500
  1951.1000      7.8445      2.3957      0.0432     15.4126   -999.2500   -999.2500
  1951.2000      7.8445      2.4012      0.0239     15.0797   -999.2500   -999.2500
  1951.3000      7.8413      2.4325      0.0683     13.1822   -999.2500   -999.2500
  1951.4000      7.8413      2.4687      0.0689     10.9850   -999.2500   -999.2500
  1951.5000      7.8395      2.4934      0.0603      9.4907   -999.2500   -999.2500
  1951.6000      7.8395      2.5025      0.0928      8.9383   -999.2500   -999.2500
  1951.7000      7.8395      2.5013      0.0934      9.0142   -999.2500   -999.2500
  1951.8000      7.8466      2.5014      0.0769      9.0045   -999.2500   -999.2500
  1951.9000      7.8466      2.5010      0.0796      9.0320   -999.2500   -999.2500
  1952.0000      7.8663      2.4879      0.0981      9.8254   -999.2500   -999.2500
  1952.1000      7.8663      2.4671      0.0777     11.0870   -999.2500   -999.2500
  1952.2000      7.8663      2.4541      0.0360     11.8742   -999.2500   -999.2500
  1952.3000      7.8404      2.4477      0.0822     12.2600   -999.2500   -999.2500
  1952.4000      7.8404      2.4388      0.0435     12.8003   -999.2500   -999.2500
  1952.5000      7.8338      2.4335      0.0291     13.1195   -999.2500   -999.2500
  1952.6000      7.8338      2.4404      0.0405     12.7020   -999.2500   -999.2500
  1952.7000      7.8338      2.4660      0.0391     11.1541   -999.2500   -999.2500
  1952.8000      7.8305      2.5179      0.0960      8.0089   -999.2500   -999.2500
  1952.9000      7.8305      2.5829      0.1409      4.0696   -999.2500   -999.2500
  1953.0000      7.8057      2.6162      0.2525      2.0488   -999.2500   -999.2500
  1953.1000      7.8057      2.5946      0.1686      3.3597   -999.2500   -999.2500
  1953.2000      7.8057      2.5579      0.0804      5.5843   -999.2500   -999.2500
  1953.3000      7.8311      2.5366      0.0834      6.8719   -999.2500   -999.2500
  1953.4000      7.8311      2.5193      0.0784      7.9222   -999.2500   -999.2500
  1953.5000      7.8473      2.5059      0.0400      8.7325   -999.2500   -999.2500
  1953.6000      7.8473      2.5127      0.0407      8.3229   -999.2500   -999.2500
  1953.7000      7.8473      2.5367      0.1063      6.8673   -999.2500   -999.2500
  1953.8000      7.8326      2.5648      0.0779      5.1620   -999.2500   -999.2500
  1953.9000      7.8326      2.6020      0.0580      2.9077   -999.2500   -999.2500
  1954.0000      7.8342      2.6437      0.2053      0.3799   -999.2500   -999.2500
  1954.1000      7.8342      2.6556      0.1952     -0.3388   -999.2500   -999.2500
  1954.2000      7.8342      2.6205      0.1604      1.7900   -999.2500   -999.2500
  1954.3000      7.8002      2.5576      0.1509      5.6001   -999.2500   -999.2500
  1954.4000      7.8002      2.5050      0.0618      8.7897   -999.2500   -999.2500
  1954.5000      7.7416      2.5054      0.1045      8.7619   -999.2500   -999.2500
  1954.6000      7.7416      2.5945      0.0574      3.3653   -999.2500   -999.2500
  1954.7000      7.7416      2.6477      0.1165      0.1373   -999.2500   -999.2500
