~Version Information
VERS.                      2.0: CWLS Log ASCII Standard - VERSION 2.0
WRAP.                       NO: One line per depth step
~Well Information Block
STRT.FT               -19.0000: 
STOP.FT              1343.5000: 
STEP.FT                 0.5000: 
NULL.                -999.2500: 
COMP.          Evergreen Operating Corporation: COMPANY
WELL.            Trigger 13-35: WELL
FLD.           Purgatorie River: FIELD
LOC.           2245' FSL & 594' FWL: LOCATION
PROV.                 Colorado: PROVINCE
CNTY.               Las Animas: COUNTRY
SRVC.                         : SERVICE COMPANY
DATE.          Mon Jun 23 12:06:52 2003: LOG DATE
UWI.           05-071-07838-00: UNIQUE WELL ID
~Curve Information Block
DEPT.FT            0 000 00 00: Depth
TT3.usec                      : CBL 3' Travel Time
AMP3.mV                       : CBL 3' Amplitude
GR.GAPI                       : Gamma Ray
CCL.                          : Casing Collar Locator
~Parameter Information Block
~A  Depth       TT3         AMP3         GR         CCL     
# ...
   651.0000    813.5460      1.4498    110.4289      0.0000
   651.5000    817.0560      1.4592    115.7062      0.0000
   652.0000    784.5327      1.5830    111.2331      0.0000
   652.5000    767.7007      1.7669    105.0916      0.0000
   653.0000    741.3681      1.9317    108.4045      0.0000
   653.5000    660.4667      2.1556    117.9903      0.0000
   654.0000    650.0397      2.2043    126.9684      0.0000
   654.5000    712.3945      2.1086    125.3421      0.0000
   655.0000    720.3246      2.1637    113.3160      0.0000
   655.5000    709.6528      2.2682    109.9513      0.0000
   656.0000    698.6545      2.4518    113.5113      0.0000
   656.5000    732.7314      2.4630    108.0573      0.0000
   657.0000    752.7630      2.3298     98.2097      0.0000
   657.5000    692.7953      2.3069     95.6567      0.0000
   658.0000    596.6091      2.2564     96.4766      0.0000
   658.5000    567.6067      2.2606     92.8175      0.0000
   659.0000    589.6614      2.2580     89.0677      0.0000
   659.5000    686.5032      2.2985     92.5262      0.0000
   660.0000    778.3558      2.2777    109.0949      0.0000
   660.5000    784.0520      2.2233    128.0939      0.0000
   661.0000    776.9209      2.2947    125.2934      0.0000
   661.5000    801.4122      2.3428    110.8446      0.0000
   662.0000    815.4737      2.2420    118.0602      0.0000
   662.5000    770.7261      2.1388    146.0865      0.0000
   663.0000    694.1841      2.1401    166.3826      0.0000
   663.5000    736.0903      2.1570    164.7009      0.0000
   664.0000    782.2883      2.1533    149.5459      0.0000
   664.5000    731.8808      2.2175    147.5057      0.0000
   665.0000    708.3906      2.1526    154.1499      0.0000
   665.5000    776.7263      2.0560    156.3898      0.0000
   666.0000    811.7502      2.1338    156.6552      0.0000
   666.5000    802.3458      2.1486    154.0181      0.0000
   667.0000    806.1132      2.0602    154.1455      0.0000
   667.5000    810.9687      2.0735    160.3340      0.0000
   668.0000    791.2341      2.0796    171.5842      0.0000
   668.5000    771.9295      2.0027    181.7198      0.0000
   669.0000    767.6646      1.9302    185.8862      0.0000
   669.5000    778.6348      1.9317    188.4302      0.0000
   670.0000    810.8229      1.9470    189.0361      0.0000
   670.5000    824.6369      1.8415    177.5657      0.0000
   671.0000    822.0367      1.7543    154.5176      0.0000
   671.5000    812.2815      1.8034    125.5109      0.0000
   672.0000    809.7803      1.8282    101.6942      0.0000
   672.5000    817.6270      1.8589     97.5990      0.0000
   673.0000    798.6664      1.9852    107.9481      0.0000
   673.5000    749.6085      2.1348    118.3583      0.0000
   674.0000    697.2651      2.0825    130.1625      0.0000
   674.5000    659.4833      1.9982    145.1300      0.0000
   675.0000    654.1883      2.0387    153.7686      0.0000
   675.5000    629.8734      2.1474    156.8911      0.0000
   676.0000    600.5720      2.1894    165.2383      0.0000
   676.5000    563.2648      2.1124    178.7254      0.0000
   677.0000    597.4871      2.1575    181.8499      0.0000
   677.5000    684.2029      2.2209    170.2048      0.0000
   678.0000    775.7321      2.2121    150.1959      0.0000
   678.5000    810.7191      2.3003    133.4630      0.0000
   679.0000    790.7571      2.4157    124.7024      0.0000
   679.5000    767.1851      2.4583    119.7380      0.0000
   680.0000    753.7911      2.3801    116.7658      0.0000
   680.5000    730.7700      2.3337    116.9481      0.0000
   681.0000    730.3635      2.3726    115.7287      0.0000
   681.5000    751.8522      2.2727    114.9969      0.0000
   682.0000    733.2327      2.2165    118.4582      0.0000
   682.5000    638.5476      2.2184    121.9063      0.0000
   683.0000    574.5703      2.2244    126.0663      0.0000
   683.5000    584.5436      2.2270    130.1763      0.0000
   684.0000    656.3199      2.1746    128.1732      0.0000
   684.5000    721.3654      2.1553    119.3758      0.0000
   685.0000    754.8645      2.2049    115.0783      0.0000
   685.5000    765.4115      2.2428    112.9893      0.0000
   686.0000    765.6611      2.1598    106.5760      0.0000
   686.5000    756.0363      2.1254    103.3760      0.0000
   687.0000    690.9657      2.2131    109.0889      0.0000
   687.5000    595.0097      2.2351    117.6657      0.0000
   688.0000    564.5345      2.1363    117.1787      0.0000
   688.5000    561.3008      2.0854    115.0919      0.0000
   689.0000    560.3810      2.1854    118.2072      0.0000
   689.5000    560.2084      2.3140    119.0609      0.0000
   690.0000    566.0643      2.2778    114.0749      0.0000
   690.5000    581.6329      2.2479    108.4774      0.0000
   691.0000    574.4240      2.3198    105.4730      0.0000
   691.5000    568.2545      2.2260    103.8991      0.0000
   692.0000    612.9291      1.9310    103.0401      0.0000
   692.5000    646.0944      1.6727    103.0540      0.0000
   693.0000    603.7337      1.5801    104.3511      0.0000
   693.5000    612.7722      1.5139    104.1441     -4.1748
   694.0000    678.3563      1.5325    100.3158      5.0000
   694.5000    731.9889      1.5945     98.4185      0.0000
   695.0000    753.3177      1.6167     96.8986      0.0000
   695.5000    729.9311      1.7460     94.5211      0.0000
   696.0000    728.4128      1.9310     97.1019      0.0000
   696.5000    732.5165      2.0707    100.8373      0.0000
   697.0000    647.7803      2.1167    101.0130      0.0000
   697.5000    574.8323      2.1639    103.9543      0.0000
   698.0000    572.4227      2.1874    100.3361      0.0000
   698.5000    642.9802      2.0513     91.7242      0.0000
   699.0000    726.9154      1.9743     90.7962      0.0000
   699.5000    713.8159      2.0960     93.5950      0.0000
   700.0000    712.5166      2.1704     93.3329      0.0000
   700.5000    719.3814      2.1278     89.7323      0.0000
   701.0000    623.3433      2.1135     89.0538      0.0000
   701.5000    548.1263      2.1324     91.2970      0.0000
   702.0000    541.3953      2.1265     96.5526      0.0000
   702.5000    552.5176      2.0933    104.2820      0.0000
   703.0000    557.9888      2.0826    110.1155      0.0000
   703.5000    560.5292      2.0891    113.8991      0.0000
   704.0000    561.0107      2.0437    115.3461      0.0000
   704.5000    560.5592      2.0605    114.6075      0.0000
   705.0000    561.0342      2.1037    115.0908      0.0000
   705.5000    570.6996      2.0523    114.9253      0.0000
   706.0000    627.6050      2.0517    112.2958      0.0000
   706.5000    660.5063      2.1599    109.2602      0.0000
   707.0000    604.3796      2.1951    104.5735      0.0000
   707.5000    632.4750      2.1186    103.5012      0.0000
   708.0000    661.1766      2.0932    108.1356      0.0000
   708.5000    594.1329      2.1327    110.3925      0.0000
   709.0000    564.7484      2.0728    105.5621      0.0000
   709.5000    561.5571      2.0265     94.7365      0.0000
   710.0000    560.8436      2.0984     84.3048      0.0000
   710.5000    561.4490      2.0702     83.3692      0.0000
   711.0000    583.0402      1.9676     89.5447      0.0000
   711.5000    631.2780      1.9634     98.2596      0.0000
   712.0000    665.3409      1.9561     97.6673      0.0000
   712.5000    734.8752      1.9143     90.5642      0.0000
   713.0000    757.2028      2.0530     98.5209      0.0000
   713.5000    715.7493      2.1781    125.1808      0.0000
   714.0000    644.1958      2.1491    158.0976      0.0000
   714.5000    601.6143      2.0847    176.1475      0.0000
   715.0000    578.5312      2.0964    179.0398      0.0000
   715.5000    581.7560      2.0648    181.9570      0.0000
   716.0000    613.7161      2.0165    186.1984      0.0000
   716.5000    670.0235      2.0123    186.4348      0.0000
   717.0000    724.3673      2.0804    180.2392      0.0000
   717.5000    760.3455      2.1461    174.5368      0.0000
