~Version Information
VERS.                      2.0: CWLS Log ASCII Standard - VERSION 2.0
WRAP.                       NO: One line per depth step
~Well Information Block
STRT.FT                 0.0000: 
STOP.FT              2159.0000: 
STEP.FT                 0.2500: 
NULL.                -999.2500: 
COMP.          Petrogulf Corporation: COMPANY
WELL.               Furu 6-23R: WELL
FLD.           Purgatoire River: FIELD
LOC.           2211' FSL & 1780' FWL: LOCATION
CNTY.               Las Animas: COUNTY
SRVC.                         : SERVICE COMPANY
DATE.          Fri Jul 14 16:00:32 2006: LOG DATE
UWI.           05 071 08266 00: UNIQUE WELL ID
STAT.                       CO: STATE
~Curve Information Block
DEPT.FT            0 000 00 00: Depth
GR.GAPI                       : Gamma Ray
CCL.                          : Casing Collar Locator
TT3.usec                      : CBL 3' Travel Time
AMP3.mV                       : CBL 3' Amplitude
~Parameter Information Block
~A  Depth        GR         CCL         TT3         AMP3    
# ...
  1842.5000    177.4697      0.0000    954.4005      6.6028
  1842.7500    168.8711      0.0000    967.3911      7.7530
  1843.0000    162.6252      0.0000    986.1157      9.0107
  1843.2500    158.7485      0.0000   1008.4758     10.3034
  1843.5000    155.8304      0.0000   1011.9704     11.5433
  1843.7500    153.1879      0.0000    976.4684     12.6384
  1844.0000    151.6018      0.0000    906.4932     13.5079
  1844.2500    152.2202      0.0000    827.1139     14.0992
  1844.5000    154.7327      0.0000    763.1569     14.4002
  1844.7500    156.7971      0.0000    726.3024     14.4400
  1845.0000    155.7480      0.0000    718.0216     14.2774
  1845.2500    151.1839      0.0000    737.2818     13.9798
  1845.5000    145.6634      0.0000    782.2772     13.6056
  1845.7500    142.4481      0.0000    846.9937     13.1948
  1846.0000    142.6060      0.0000    919.9092     12.7722
  1846.2500    144.6319      0.0000    986.4614     12.3572
  1846.5000    146.5081      0.0000   1031.5900     11.9699
  1846.7500    147.1579      0.0000   1043.6392     11.6308
  1847.0000    145.9444      0.0000   1023.1326     11.3530
  1847.2500    142.1190      0.0000    987.9172     11.1371
  1847.5000    135.8108      0.0000    963.1616     10.9740
  1847.7500    129.1565      0.0000    962.7943     10.8575
  1848.0000    125.3334      0.0000    981.2351     10.7944
  1848.2500    125.9696      0.0000   1002.0831     10.8064
  1848.5000    129.5204      0.0000   1012.7994     10.9163
  1848.7500    132.1700      0.0000   1010.9046     11.1272
  1849.0000    130.5931      0.0000    997.9594     11.4100
  1849.2500    124.6503      0.0000    971.1458     11.7111
  1849.5000    117.7891     -2.0000    925.5469     11.9794
  1849.7500    114.2691      0.0000    865.1180     12.1984
  1850.0000    115.5993      0.0000    805.3022     12.4055
  1850.2500    119.8499      0.0000    760.5899     12.6829
  1850.5000    124.1061      0.0000    732.8531     13.1251
  1850.7500    126.7869      0.0000    714.8499     13.7994
  1851.0000    127.6597      0.0000    701.5706     14.7241
  1851.2500    126.9032      0.0000    693.3842     15.8744
  1851.5000    124.9900      0.0000    690.5182     17.2078
  1851.7500    122.7124      0.0000    689.8096     18.6876
  1852.0000    120.3986      0.0000    685.9251     20.2882
  1852.2500    117.6055      0.0000    671.7141     21.9788
  1852.5000    114.2221      0.0000    640.4469     23.6988
  1852.7500    111.2090      0.0000    595.4559     25.3449
  1853.0000    109.4885      0.0000    557.7492     26.7792
  1853.2500    108.6865      0.0000    555.1423     27.8597
  1853.5000    107.5917      0.0000    597.7959     28.4778
  1853.7500    105.4156      0.0000    667.0397     28.5892
  1854.0000    102.3285      0.0000    731.1258     28.2288
  1854.2500     99.2121      0.0000    770.3933     27.5054
  1854.5000     97.0875      0.0000    786.1968     26.5810
  1854.7500     96.3593      0.0000    789.4299     25.6428
  1855.0000     96.4509      0.0000    786.0221     24.8730
  1855.2500     96.4260      0.0000    774.8456     24.4235
  1855.5000     95.7877      0.0000    754.4473     24.3982
  1855.7500     94.1342      0.0000    725.0370     24.8457
  1856.0000     90.3139      0.0000    683.7310     25.7638
  1856.2500     83.1383      0.0000    624.3615     27.1090
  1856.5000     73.2947      0.0000    546.3854     28.8074
  1856.7500     63.7365      0.0000    461.7495     30.7589
  1857.0000     57.6145      0.0000    388.8744     32.8347
  1857.2500     55.8643      0.0000    339.6545     34.8730
  1857.5000     56.5852      0.0000    313.6066     36.6851
  1857.7500     56.5910      0.0000    302.7964     38.0756
  1858.0000     53.9685      0.0000    299.4153     38.8787
  1858.2500     49.5873      0.0000    299.4140     38.9955
  1858.5000     46.2157      0.0000    302.8300     38.4185
  1858.7500     46.1149      0.0000    313.5643     37.2294
  1859.0000     49.3599      0.0000    338.5107     35.5711
  1859.2500     54.1910      0.0000    383.2211     33.6061
  1859.5000     58.6568      0.0000    445.0685     31.4806
  1859.7500     61.7549      0.0000    511.8820     29.3058
  1860.0000     63.2647      0.0000    571.0233     27.1589
  1860.2500     63.3783      0.0000    618.7648     25.0938
  1860.5000     62.9845      0.0000    657.5635     23.1516
  1860.7500     63.5639      0.0000    687.4693     21.3657
  1861.0000     65.8713      0.0000    705.6672     19.7631
  1861.2500     69.0467      0.0000    712.6144     18.3635
  1861.5000     71.8277      0.0000    713.9335     17.1783
  1861.7500     74.6219      0.0000    716.3588     16.2073
  1862.0000     79.9179      0.0000    723.6394     15.4322
  1862.2500     90.3569      0.0000    735.5421     14.8118
  1862.5000    106.0798      0.0000    748.9166     14.2859
  1862.7500    123.8655      0.0000    759.4684     13.7891
  1863.0000    139.1691      0.0000    763.9158     13.2725
  1863.2500    149.2125      0.0000    762.0657     12.7211
  1863.5000    154.2244      0.0000    757.5062     12.1564
  1863.7500    156.2287      0.0000    755.4082     11.6230
  1864.0000    157.0980      0.0000    758.6069     11.1655
  1864.2500    157.5821      0.0000    765.5471     10.8083
  1864.5000    157.6353      0.0000    772.1760     10.5468
  1864.7500    157.2048      0.0000    775.6711     10.3522
  1865.0000    156.4469      0.0000    776.3427     10.1865
  1865.2500    155.3766      0.0000    776.4669     10.0185
  1865.5000    154.0040      0.0000    777.7544      9.8350
  1865.7500    153.0930      0.0000    779.9440      9.6422
  1866.0000    154.1575      0.0000    781.3512      9.4593
  1866.2500    158.1438      0.0000    780.2137      9.3080
  1866.5000    164.3046      0.0000    775.6248      9.2029
  1866.7500    170.4997      0.0000    767.9845      9.1470
  1867.0000    174.5599      0.0000    759.0204      9.1321
  1867.2500    175.7821      0.0000    751.0266      9.1441
  1867.5000    175.4352      0.0000    745.6232      9.1696
  1867.7500    175.4811      0.0000    743.1028      9.2016
  1868.0000    176.3966      0.0000    742.7842      9.2417
  1868.2500    176.3068      0.0000    743.6988      9.2974
  1868.5000    172.6389      0.0000    745.0093      9.3771
  1868.7500    164.8546      0.0000    746.1984      9.4840
  1869.0000    155.4281      0.0000    747.1824      9.6129
  1869.2500    148.1362      0.0000    748.1357      9.7503
  1869.5000    145.6274      0.0000    748.8007      9.8784
  1869.7500    148.2961      0.0000    748.0376      9.9783
  1870.0000    154.4144      0.0000    744.8353     10.0350
  1870.2500    160.9365      0.0000    740.2712     10.0388
  1870.5000    164.9223      0.0000    737.5699      9.9867
  1870.7500    164.9294      0.0000    739.0576      9.8812
  1871.0000    161.3696      0.0000    743.3826      9.7284
  1871.2500    155.8422      0.0000    746.5927      9.5346
  1871.5000    150.2385      0.0000    745.6225      9.3057
  1871.7500    146.0727      0.0000    740.2088      9.0475
  1872.0000    144.1360      0.0000    732.1438      8.7698
  1872.2500    144.4497      0.0000    723.6957      8.4892
  1872.5000    146.3756      0.0000    716.6135      8.2285
  1872.7500    148.9991      0.0000    711.8105      8.0107
  1873.0000    151.6790      0.0000    709.6040      7.8514
  1873.2500    154.1224      0.0000    710.2199      7.7529
  1873.5000    155.8761      0.0000    713.8728      7.7051
  1873.7500    156.2816      0.0000    720.2083      7.6905
  1874.0000    155.3685      0.0000    727.8260      7.6921
  1874.2500    154.5313      0.0000    734.6786      7.6992
  1874.5000    155.8019      0.0000    738.9858      7.7089
  1874.7500    160.4719      0.0000    739.7329      7.7242
  1875.0000    168.4476      0.0000    736.7178      7.7500
  1875.2500    178.1970      0.0000    730.7408      7.7880
  1875.5000    186.6354      0.0000    723.7702      7.8335
  1875.7500    189.7679      0.0000    718.2196      7.8760
