~Version Information
VERS.                      2.0: CWLS Log ASCII Standard - VERSION 2.0
WRAP.                       NO: One line per depth step
~Well Information Block
STRT.FT               620.0000: 
STOP.FT              2663.2500: 
STEP.FT                 0.2500: 
NULL.                -999.2500: 
COMP.          Evergreen Operating Corporation: COMPANY
WELL.             Carbon 34-21: WELL
FLD.           Purgatoire River: FIELD
LOC.           56' FSL & 2304' FEL: LOCATION
PROV.                 Colorado: PROVINCE
CNTY.               Las Animas: COUNTRY
SRVC.                Patterson: SERVICE COMPANY
DATE.          Mon Sep 13 11:41:04 2004: LOG DATE
UWI.           05 071 08117 00: UNIQUE WELL ID
~Curve Information Block
DEPT.FT            0 000 00 00: Depth
DIR.Ohm-m                     : IEL Induction Resistivity
SN.Ohm-m                      : IEL Short Normal
SP.mV                         : IEL Spontaneous Potential
GR.GAPI                       : Gamma Ray
~Parameter Information Block
~A  Depth       DIR          SN          SP          GR     
# ...
  1692.0000     24.2616     36.6532    123.5014     79.7591
  1692.2500     24.4151     36.5888    123.3673     79.5281
  1692.5000     24.5059     36.5645    123.2673     79.1588
  1692.7500     24.5416     36.5306    123.2156     79.3294
  1693.0000     24.5195     36.3972    123.2232     80.2944
  1693.2500     24.4234     36.0753    123.2940     81.0588
  1693.5000     24.2241     35.5162    123.4229     81.5562
  1693.7500     23.8908     34.7304    123.5981     81.0768
  1694.0000     23.4110     33.7785    123.8050     79.0793
  1694.2500     22.8035     32.7385    124.0301     77.4208
  1694.5000     22.1103     31.6694    124.2637     76.2367
  1694.7500     21.3780     30.5918    124.4999     77.3033
  1695.0000     20.6426     29.4890    124.7352     81.7339
  1695.2500     19.9253     28.3237    124.9680     85.4544
  1695.5000     19.2332     27.0627    125.1973     89.9183
  1695.7500     18.5581     25.6998    125.4242     91.5970
  1696.0000     17.8774     24.2640    125.6520     92.6037
  1696.2500     17.1627     22.8067    125.8865     92.8056
  1696.5000     16.3943     21.3779    126.1342     93.5138
  1696.7500     15.5719     20.0078    126.4003     95.0438
  1697.0000     14.7159     18.7051    126.6851     99.9607
  1697.2500     13.8573     17.4674    126.9839    105.0306
  1697.5000     13.0248     16.2911    127.2876    114.3927
  1697.7500     12.2363     15.1710    127.5866    120.9087
  1698.0000     11.4988     14.0992    127.8741    129.4998
  1698.2500     10.8149     13.0687    128.1466    133.8214
  1698.5000     10.1886     12.0812    128.4017    138.0953
  1698.7500      9.6272     11.1531    128.6348    139.9192
  1699.0000      9.1383     10.3132    128.8365    142.2621
  1699.2500      8.7271      9.5955    128.9932    144.1369
  1699.5000      8.3947      9.0323    129.0905    147.7698
  1699.7500      8.1398      8.6476    129.1180    150.4696
  1700.0000      7.9601      8.4493    129.0734    153.7352
  1700.2500      7.8533      8.4240    128.9636    154.5089
  1700.5000      7.8167      8.5418    128.8037    152.6024
  1700.7500      7.8455      8.7647    128.6135    149.4571
  1701.0000      7.9313      9.0477    128.4127    143.3685
  1701.2500      8.0617      9.3408    128.2180    139.4251
  1701.5000      8.2214      9.6031    128.0415    134.8888
  1701.7500      8.3945      9.8209    127.8904    132.9799
  1702.0000      8.5671     10.0092    127.7678    131.5687
  1702.2500      8.7286     10.1909    127.6725    131.4221
  1702.5000      8.8703     10.3706    127.5987    132.0778
  1702.7500      8.9832     10.5281    127.5368    132.7075
  1703.0000      9.0559     10.6315    127.4754    132.9202
  1703.2500      9.0766     10.6572    127.4039    132.1983
  1703.5000      9.0382     10.6014    127.3162    130.4565
  1703.7500      8.9431     10.4754    127.2121    129.9872
  1704.0000      8.8044     10.2922    127.0970    132.2659
  1704.2500      8.6416     10.0566    126.9803    135.9821
  1704.5000      8.4732      9.7709    126.8725    143.0812
  1704.7500      8.3132      9.4500    126.7828    147.1721
  1705.0000      8.1700      9.1248    126.7170    150.3165
  1705.2500      8.0485      8.8273    126.6764    150.4131
  1705.5000      7.9516      8.5730    126.6576    149.2347
  1705.7500      7.8809      8.3605    126.6534    148.6187
  1706.0000      7.8359      8.1837    126.6551    148.4561
  1706.2500      7.8141      8.0398    126.6539    148.4798
  1706.5000      7.8097      7.9263    126.6424    148.1610
  1706.7500      7.8146      7.8341    126.6135    147.8533
  1707.0000      7.8191      7.7502    126.5602    147.7877
  1707.2500      7.8143      7.6708    126.4756    147.9905
  1707.5000      7.7940      7.6154    126.3536    148.0800
  1707.7500      7.7567      7.6287    126.1916    147.9142
  1708.0000      7.7059      7.7622    125.9907    148.3504
  1708.2500      7.6496      8.0425    125.7549    149.8961
  1708.5000      7.5989      8.4442    125.4886    154.1998
  1708.7500      7.5662      8.8885    125.1927    157.5345
  1709.0000      7.5648      9.2802    124.8618    161.3738
  1709.2500      7.6075      9.5616    124.4847    162.4278
  1709.5000      7.7054      9.7372    124.0481    161.1958
  1709.7500      7.8668      9.8488    123.5431    158.4788
  1710.0000      8.0964      9.9367    122.9731    152.1240
  1710.2500      8.3932     10.0236    122.3587    146.9967
  1710.5000      8.7481     10.1217    121.7361    138.8845
  1710.7500      9.1402     10.2425    121.1497    133.1146
  1711.0000      9.5366     10.4002    120.6396    122.5428
  1711.2500      9.8971     10.6155    120.2304    113.4766
  1711.5000     10.1847     10.9164    119.9258     97.7118
  1711.7500     10.3761     11.3215    119.7096     87.7448
  1712.0000     10.4657     11.8083    119.5526     77.6568
  1712.2500     10.4600     12.2924    119.4207     75.5155
  1712.5000     10.3676     12.6521    119.2817     78.5201
  1712.7500     10.1934     12.7922    119.1090     83.0383
  1713.0000      9.9402     12.6990    118.8826     90.8735
  1713.2500      9.6166     12.4372    118.5886     96.1942
  1713.5000      9.2442     12.0998    118.2193    104.7143
  1713.7500      8.8567     11.7628    117.7726    110.8932
  1714.0000      8.4921     11.4742    117.2528    119.9855
  1714.2500      8.1820     11.2632    116.6716    125.1340
  1714.5000      7.9453     11.1454    116.0494    130.8769
  1714.7500      7.7869     11.1129    115.4172    133.4890
  1715.0000      7.7004     11.1261    114.8157    135.7979
  1715.2500      7.6731     11.1256    114.2927    136.3087
  1715.5000      7.6913     11.0597    113.8986    135.9786
  1715.7500      7.7457     10.9057    113.6779    135.6665
  1716.0000      7.8333     10.6688    113.6614    136.2927
  1716.2500      7.9563     10.3712    113.8590    137.8141
  1716.5000      8.1188     10.0453    114.2566    141.5589
  1716.7500      8.3231      9.7375    114.8190    144.4807
  1717.0000      8.5692      9.5157    115.4986    147.8120
  1717.2500      8.8569      9.4707    116.2477    148.0659
  1717.5000      9.1877      9.7079    117.0303    143.9458
  1717.7500      9.5665     10.3292    117.8309    138.2970
  1718.0000      9.9996     11.4050    118.6569    127.5581
  1718.2500     10.4906     12.9402    119.5319    120.6795
  1718.5000     11.0357     14.8488    120.4816    113.3675
  1718.7500     11.6239     16.9572    121.5147    111.0656
  1719.0000     12.2417     19.0489    122.6079    110.4592
  1719.2500     12.8821     20.9407    123.7031    110.5997
  1719.5000     13.5501     22.5428    124.7207    109.7109
  1719.7500     14.2598     23.8602    125.5837    108.2863
  1720.0000     15.0226     24.9379    126.2451    106.0394
  1720.2500     15.8329     25.8003    126.7035    104.7923
  1720.5000     16.6572     26.4294    127.0039    102.3091
  1720.7500     17.4325     26.7925    127.2213     99.6629
  1721.0000     18.0763     26.8938    127.4370     95.4229
  1721.2500     18.5105     26.8033    127.7144     94.3266
  1721.5000     18.6896     26.6243    128.0851     98.1918
  1721.7500     18.6173     26.4197    128.5455    104.8635
  1722.0000     18.3420     26.1713    129.0663    119.3355
  1722.2500     17.9351     25.8093    129.6069    129.9149
  1722.5000     17.4654     25.2724    130.1312    142.6664
  1722.7500     16.9799     24.5333    130.6167    146.8286
  1723.0000     16.4958     23.5884    131.0558    145.6426
  1723.2500     16.0025     22.4501    131.4516    141.4489
  1723.5000     15.4772     21.1588    131.8105    134.1858
  1723.7500     14.9049     19.7968    132.1393    130.4005
  1724.0000     14.2911     18.4804    132.4435    126.9640
  1724.2500     13.6609     17.3284    132.7280    125.7508
  1724.5000     13.0471     16.4229    132.9961    124.7686
  1724.7500     12.4777     15.7838    133.2466    124.4997
  1725.0000     11.9703     15.3651    133.4715    124.7894
  1725.2500     11.5325     15.0798    133.6568    125.5413
