~Version Information
VERS.                      2.0: CWLS Log ASCII Standard - VERSION 2.0
WRAP.                       NO: One line per depth step
~Well Information Block
STRT.FT                -6.5000: 
STOP.FT              1719.0000: 
STEP.FT                 0.5000: 
NULL.                -999.2500: 
COMP.          Pioneer Natural Resources: COMPANY
WELL.             Tami J 23-18: WELL
FLD.           Purgatorie River: FIELD
LOC.           2250' FSL & 2400' FWL: LOCATION
PROV.                 Colorado: PROVINCE
CNTY.               Las Animas: COUNTRY
SRVC.          Patterson Wireline: SERVICE COMPANY
DATE.          Fri Dec 17 13:50:12 2004: LOG DATE
UWI.           05-071-08073-00: UNIQUE WELL ID
~Curve Information Block
DEPT.FT            0 000 00 00: Depth
CCL.                          : Casing Collar Locator
TT3.usec                      : CBL 3' Travel Time
AMP3.mV                       : CBL 3' Amplitude
GR.GAPI                       : Gamma Ray
~Parameter Information Block
~A  Depth       CCL         TT3         AMP3         GR     
# ...
   328.5000      0.0000    719.1905      7.2012     70.3202
   329.0000      0.0000    736.3745      7.4473     85.3838
   329.5000      0.0000    764.1749      7.9430    104.7255
   330.0000      0.0000    781.3229      8.4056    119.1982
   330.5000      0.0000    763.9532      8.4355    127.5658
   331.0000      0.0000    730.7372      8.2481    129.4682
   331.5000      0.0000    718.3669      8.0001    124.5432
   332.0000      0.0000    724.3516      7.9063    123.8685
   332.5000      0.0000    738.9032      7.9507    132.8505
   333.0000      0.0000    759.0034      7.9573    133.6657
   333.5000      0.0000    773.8727      7.8942    120.1419
   334.0000      0.0000    784.1205      7.8656    115.5509
   334.5000      0.0000    771.4490      7.9915    127.4356
   335.0000      0.0000    712.8767      8.1471    139.9876
   335.5000      0.0000    627.7079      8.1592    142.8733
   336.0000      0.0000    553.3441      8.1381    138.9336
   336.5000      0.0000    565.7423      8.2319    133.6024
   337.0000      0.0000    680.8429      8.3102    125.3011
   337.5000      0.0000    775.8151      8.2170    116.2913
   338.0000      0.0000    795.3340      8.0393    112.9632
   338.5000      0.0000    795.7911      7.9271    120.1701
   339.0000      0.0000    811.2610      7.9275    131.7916
   339.5000      0.0000    829.0831      7.9327    138.6127
   340.0000      0.0000    833.7497      7.8634    146.1171
   340.5000      0.0000    830.5067      7.8203    152.5661
   341.0000      0.0000    825.4730      7.9401    151.6815
   341.5000      0.0000    813.0734      8.0792    150.0995
   342.0000      0.0000    804.9433      8.0264    146.7843
   342.5000      0.0000    814.3890      7.8505    138.3812
   343.0000      0.0000    830.3743      7.7114    130.8098
   343.5000      0.0000    835.0737      7.6045    129.8256
   344.0000      0.0000    832.1669      7.5584    135.9454
   344.5000      0.0000    829.7489      7.5909    142.5670
   345.0000      0.0000    822.9436      7.5208    139.2133
   345.5000      0.0000    813.6685      7.3368    134.4075
   346.0000      0.0000    808.6135      7.2324    132.5410
   346.5000      0.0000    809.3418      7.2209    125.9239
   347.0000      0.0000    808.3563      7.3762    118.4581
   347.5000      0.0000    796.0193      7.7040    118.5518
   348.0000      0.0000    786.8038      7.9450    121.4305
   348.5000      0.0000    790.2432      7.9889    126.0387
   349.0000      0.0000    785.3311      7.9130    130.4931
   349.5000      0.0000    779.8093      7.7865    129.9507
   350.0000      0.0000    780.6370      7.6943    122.1353
   350.5000      0.0000    779.2582      7.5668    114.1711
   351.0000      0.0000    785.0234      7.3554    116.5219
   351.5000      0.0000    800.3331      7.1366    128.1355
   352.0000      0.0000    810.2100      7.0074    139.0820
   352.5000      0.0000    806.9409      7.0340    141.6923
   353.0000      0.0000    800.8520      7.1258    139.6820
   353.5000      0.0000    795.6484      7.2760    141.8477
   354.0000      0.0000    794.6639      7.4673    145.9920
   354.5000      0.0000    803.1219      7.5064    148.4505
   355.0000      0.0000    803.7378      7.5136    144.1321
   355.5000      0.0000    783.7394      7.6648    130.7266
   356.0000      0.0000    764.4357      7.8091    115.8819
   356.5000      0.0000    761.9337      7.9493    105.3427
   357.0000      0.0000    763.2378      8.0334    100.3482
   357.5000      0.0000    762.8837      7.9005     94.8829
   358.0000      0.0000    759.9332      7.7280     94.0253
   358.5000      0.0000    754.0532      7.6121     98.7208
   359.0000      0.0000    749.2921      7.3937     99.3473
   359.5000      0.0000    746.6943      7.2027    107.7837
   360.0000      0.0000    752.1451      7.3831    115.8944
   360.5000      0.0000    760.3640      7.5697    109.8949
   361.0000      0.0000    760.9568      7.4879    102.6814
   361.5000      0.0000    755.7053      7.2250    100.3759
   362.0000      0.0000    751.7543      6.9658     97.2395
   362.5000      0.0000    750.5059      6.8755     90.0272
   363.0000      0.0000    750.0734      6.7771     82.6861
   363.5000      0.0000    750.2244      6.7476     78.3514
   364.0000      0.0000    750.6886      6.7804     79.2618
   364.5000      0.0000    750.9555      6.7088     80.1922
   365.0000      0.0000    750.8372      6.5640     74.1694
   365.5000      0.0000    750.7596      6.4859     64.8750
   366.0000      0.0000    750.7170      6.4787     61.8783
   366.5000      0.0000    749.1616      6.4454     67.0553
   367.0000      0.0000    742.8959      6.5895     68.2558
   367.5000      0.0000    735.4375      6.7780     56.3803
   368.0000      0.0000    738.6246      6.8452     51.6821
   368.5000      0.0000    749.6353      6.7823     64.4950
   369.0000      0.0000    767.7590      6.5856     75.9352
   369.5000      0.0000    791.9056      6.2541     70.9532
   370.0000      0.0000    794.6948      5.9341     60.1891
   370.5000     -5.0000    780.5082      5.9381     56.5541
   371.0000      0.0000    779.3563      6.1090     59.2649
   371.5000      0.0000    777.9517      6.4256     60.1918
   372.0000      0.0000    759.9838      7.1077     56.2682
   372.5000      0.0000    733.4241      7.7671     53.0273
   373.0000      0.0000    693.8593      8.2297     53.0634
   373.5000      0.0000    650.8642      8.6453     56.5161
   374.0000      0.0000    645.8750      8.9008     64.8335
   374.5000      0.0000    695.2784      8.7525     78.8518
   375.0000      0.0000    730.2633      8.4567     96.9265
   375.5000      0.0000    735.2128      8.3040    113.6543
   376.0000      0.0000    719.9465      8.2505    125.9744
   376.5000      0.0000    686.2003      8.2369    130.1035
   377.0000      0.0000    688.0540      8.2823    128.0182
   377.5000      0.0000    726.8150      8.3061    130.6927
   378.0000      0.0000    746.3143      8.3553    131.9084
   378.5000      0.0000    749.3514      8.4899    126.7358
   379.0000      0.0000    749.6442      8.4763    120.3228
   379.5000      0.0000    749.5228      8.2659    114.5101
   380.0000      0.0000    749.2972      8.0841    109.3457
   380.5000      0.0000    749.2647      7.9145    100.4699
   381.0000      0.0000    749.4715      7.6729     91.4947
   381.5000      0.0000    749.6996      7.4994     88.1481
   382.0000      0.0000    750.0087      7.5668     88.7291
   382.5000      0.0000    750.7551      7.6525     91.0821
   383.0000      0.0000    753.2608      7.4845     85.0543
   383.5000      0.0000    757.8408      7.3445     75.8067
   384.0000      0.0000    758.6671      7.5651     74.1454
   384.5000      0.0000    754.9202      7.9634     80.1418
   385.0000      0.0000    752.2684      8.1834     83.2327
   385.5000      0.0000    751.2235      8.2388     81.8008
   386.0000      0.0000    751.0034      8.2748     82.9944
   386.5000      0.0000    753.4434      8.2114     80.7002
   387.0000      0.0000    757.2137      8.0220     73.1611
   387.5000      0.0000    758.4362      7.9103     68.0164
   388.0000      0.0000    759.5076      8.1056     64.2273
   388.5000      0.0000    762.4186      8.6078     62.6991
   389.0000      0.0000    771.9092      9.0161     71.0532
   389.5000      0.0000    778.8602      9.0292     92.5358
   390.0000      0.0000    775.3948      8.8423    118.0314
   390.5000      0.0000    770.4581      8.7658    133.3275
   391.0000      0.0000    768.6949      8.8273    137.2718
   391.5000      0.0000    764.4656      8.8950    133.9640
   392.0000      0.0000    764.1291      8.9680    138.2683
   392.5000      0.0000    772.8610      9.0172    150.0521
   393.0000      0.0000    782.9625      8.9608    156.1678
   393.5000      0.0000    786.4653      8.9641    161.7883
   394.0000      0.0000    783.3559      8.9803    164.0071
   394.5000      0.0000    780.5023      8.8610    160.9470
   395.0000      0.0000    785.7404      8.6528    152.7404
