~Version Information
VERS.                      2.0: CWLS Log ASCII Standard - VERSION 2.0
WRAP.                       NO: One line per depth step
~Well Information Block
STRT.FT               858.7000: 
STOP.FT              2478.2000: 
STEP.FT                 0.1000: 
NULL.                -999.2500: 
COMP.          Petrogulf Corporation: COMPANY
WELL.           Torcom 17-33 V: WELL
FLD.           Purgatoire River: FIELD
LOC.           1544' FSL & 1746' FEL: LOCATION
PROV.                 Colorado: PROVINCE
CNTY.               Las Animas: COUNTRY
SRVC.                Patterson: SERVICE COMPANY
DATE.          Wed Dec 03 09:22:08 2003: LOG DATE
UWI.                          : UNIQUE WELL ID
~Curve Information Block
DEPT.FT            0 000 00 00: Depth
DCAL.in                       : CDL Caliper
RHOB.g/cc                     : CDL Bulk Density
RHOC.g/cc                     : CDL Density Correction
DPOR.pu                       : CDL Density Porosity
GR.GAPI                       : Gamma Ray
NPOR.pu                       : Neutron Porosity
~Parameter Information Block
~A  Depth       DCAL        RHOB        RHOC        DPOR         GR         NPOR    
# ...
   993.1000      8.1708      2.5956      0.0651      3.2961    118.3987     26.1347
   993.2000      8.1708      2.5587      0.0618      5.5318    117.8395     27.5484
   993.3000      8.2103      2.5512      0.0178      5.9896    123.3787     29.3634
   993.4000      8.2103      2.5854      0.1079      3.9169    132.8080     30.7789
   993.5000      8.3382      2.6245      0.2869      1.5430    140.1747     31.6315
   993.6000      8.3382      2.6191      0.2430      1.8755    139.9147     32.1380
   993.7000      8.3382      2.5811      0.1141      4.1728    134.5205     32.3786
   993.8000      8.3359      2.5535      0.1309      5.8455    132.7959     32.2473
   993.9000      8.3359      2.5514      0.1248      5.9742    138.8640     31.8544
   994.0000      8.2736      2.5678      0.1638      4.9815    145.6332     31.6257
   994.1000      8.2736      2.5857      0.1434      3.8964    145.9254     31.4282
   994.2000      8.2736      2.5903      0.1395      3.6191    143.2857     30.6253
   994.3000      8.2519      2.5875      0.0647      3.7869    141.7176     29.3666
   994.4000      8.2519      2.5929      0.0592      3.4595    137.3420     28.0137
   994.5000      8.2701      2.6019      0.0636      2.9140    128.5953     26.8114
   994.6000      8.2701      2.6120      0.0688      2.3016    120.9498     26.4544
   994.7000      8.2701      2.6439      0.0332      0.3671    119.8465     26.9920
   994.8000      8.2604      2.7044      0.1192     -3.2977    122.4085     27.5611
   994.9000      8.2604      2.7647      0.1441     -6.9520    122.4391     27.9095
   995.0000      8.1844      2.7968      0.1311     -8.8950    120.3809     28.0725
   995.1000      8.1844      2.7955      0.0817     -8.8162    118.7644     27.9616
   995.2000      8.1844      2.7720      0.0974     -7.3942    118.1172     27.9110
   995.3000      8.1169      2.7381      0.0411     -5.3387    117.2718     28.2533
   995.4000      8.1169      2.6949      0.0554     -2.7238    118.3133     28.9115
   995.5000      8.1795      2.6548      0.0040     -0.2922    122.5476     29.8512
   995.6000      8.1795      2.6502     -0.0205     -0.0145    126.6593     31.0464
   995.7000      8.1795      2.6835      0.0603     -2.0323    131.7436     31.7903
   995.8000      8.1981      2.7106      0.1736     -3.6725    136.7574     31.7690
   995.9000      8.1981      2.6932      0.1456     -2.6204    136.0540     31.7435
   996.0000      8.2598      2.6442      0.0310      0.3536    130.3939     32.0250
   996.1000      8.2598      2.6054      0.0391      2.7044    123.2439     32.0017
   996.2000      8.2598      2.5966      0.0540      3.2364    117.0106     31.3105
   996.3000      8.2759      2.6110      0.0889      2.3654    116.1035     30.1795
   996.4000      8.2759      2.6328      0.1034      1.0440    120.2405     29.0222
   996.5000      8.2196      2.6437      0.0948      0.3794    124.6667     28.4459
   996.6000      8.2196      2.6341      0.0749      0.9629    125.8914     28.6319
   996.7000      8.2196      2.6095      0.0743      2.4554    121.8384     28.6713
   996.8000      8.2479      2.5884     -0.0050      3.7354    112.9403     27.9343
   996.9000      8.2479      2.5790      0.0314      4.3029    105.0669     26.9551
   997.0000      8.2360      2.5680      0.0518      4.9672    102.7661     26.3255
   997.1000      8.2360      2.5514      0.0722      5.9763    103.9494     26.2125
   997.2000      8.2360      2.5424      0.0514      6.5217    105.9352     26.5576
   997.3000      8.1849      2.5439      0.0577      6.4277    106.5893     27.0074
   997.4000      8.1849      2.5454      0.0886      6.3413    104.9851     27.0423
   997.5000      8.1618      2.5487      0.0972      6.1422    104.1726     26.4904
   997.6000      8.1618      2.5799      0.1139      4.2507    106.5869     25.7519
   997.7000      8.1618      2.6574      0.2127     -0.4491    109.6744     25.3788
   997.8000      8.0640      2.7554      0.3218     -6.3897    110.7964     25.4035
   997.9000      8.0640      2.8279      0.3550    -10.7836    110.9760     25.4534
   998.0000      7.9644      2.8578      0.3801    -12.5914    111.3308     25.4540
   998.1000      7.9644      2.8543      0.3854    -12.3842    113.5273     25.3221
   998.2000      7.9644      2.8340      0.3241    -11.1521    119.1708     25.1410
   998.3000      8.0724      2.8088      0.2984     -9.6266    126.5009     25.3751
   998.4000      8.0724      2.7722      0.2302     -7.4078    130.8537     25.8711
   998.5000      8.1422      2.7190      0.1452     -4.1793    128.4788     25.9785
   998.6000      8.1422      2.6677      0.0151     -1.0722    123.5079     25.7910
   998.7000      8.1422      2.6374      0.0054      0.7660    124.7805     25.7256
   998.8000      8.1922      2.6221      0.0145      1.6882    130.9774     25.6463
   998.9000      8.1922      2.6122      0.0615      2.2926    133.4695     25.5166
   999.0000      8.2819      2.6147      0.1097      2.1421    132.6014     25.5748
   999.1000      8.2819      2.6337      0.1804      0.9869    135.2880     26.0229
   999.2000      8.2819      2.6484      0.2128      0.0960    142.8766     26.8073
   999.3000      8.3246      2.6342      0.2039      0.9606    147.4758     27.7687
   999.4000      8.3246      2.5974      0.1356      3.1884    143.5301     29.0052
   999.5000      8.2926      2.5687      0.1119      4.9252    138.6720     30.1891
   999.6000      8.2926      2.5615      0.1052      5.3634    138.8205     30.6302
   999.7000      8.2926      2.5599      0.0939      5.4593    137.7870     30.0868
   999.8000      8.2894      2.5495      0.0367      6.0910    133.4092     29.2185
   999.9000      8.2894      2.5359     -0.0052      6.9170    129.4752     28.8402
  1000.0000      8.3139      2.5328     -0.0788      7.1012    126.7793     28.8640
  1000.1000      8.3139      2.5406     -0.0118      6.6323    128.5040     28.6953
  1000.2000      8.3139      2.5457      0.0509      6.3196    135.4006     28.5616
  1000.3000      8.3128      2.5600     -0.0307      5.4555    139.7042     29.1301
  1000.4000      8.3128      2.6030      0.0759      2.8503    137.5814     30.0931
  1000.5000      8.3104      2.6492      0.1330      0.0503    132.6963     30.7916
  1000.6000      8.3104      2.6648      0.1265     -0.8971    127.8096     31.1003
  1000.7000      8.3104      2.6503      0.1005     -0.0206    124.9618     30.9729
  1000.8000      8.3016      2.6224      0.0768      1.6698    125.5112     30.4636
  1000.9000      8.3016      2.5877      0.0713      3.7740    130.7159     29.9585
  1001.0000      8.2893      2.5470      0.0263      6.2428    138.1024     29.5838
  1001.1000      8.2893      2.5282     -0.1018      7.3804    140.5744     29.1621
  1001.2000      8.2893      2.5609      0.0329      5.4019    137.0525     28.7110
  1001.3000      8.2920      2.6132      0.0720      2.2274    132.0621     28.5850
  1001.4000      8.2920      2.6399      0.0973      0.6149    127.1526     28.9805
  1001.5000      8.2781      2.6430      0.0632      0.4224    122.3659     29.3746
  1001.6000      8.2781      2.6413      0.0659      0.5292    121.3985     29.6022
  1001.7000      8.2781      2.6333      0.0903      1.0133    129.6112     30.0139
  1001.8000      8.2654      2.6199      0.0493      1.8233    143.7296     30.3634
  1001.9000      8.2654      2.6138      0.0555      2.1922    149.9664     30.2979
  1002.0000      8.2650      2.6189      0.0519      1.8877    143.4068     29.6676
  1002.1000      8.2650      2.6314      0.0523      1.1249    137.2949     28.5236
  1002.2000      8.2650      2.6428      0.1673      0.4334    139.4138     27.5336
  1002.3000      8.2559      2.6399      0.1717      0.6140    144.4695     27.4289
  1002.4000      8.2559      2.6219      0.1399      1.7009    147.0180     27.9035
  1002.5000      8.2612      2.6043      0.0956      2.7699    144.7555     28.1459
  1002.6000      8.2612      2.5939      0.1216      3.4026    139.5009     28.2554
