~Version Information
VERS.                      2.0: CWLS Log ASCII Standard - VERSION 2.0
WRAP.                       NO: One line per depth step
~Well Information Block
STRT.FT               987.5000: 
STOP.FT              2426.0000: 
STEP.FT                 0.5000: 
NULL.                -999.2500: 
COMP.          Evergreen Operating Corporation: COMPANY
WELL.          McCullough 34-32: WELL
FLD.           Purgatorie River: FIELD
LOC.           261' FSL & 2098' FEL--: LOCATION
PROV.                 Colorado: PROVINCE
CNTY.               Las Animas: COUNTRY
SRVC.          Patterson Wireline: SERVICE COMPANY
DATE.          Mon May 17 13:38:56 2004: LOG DATE
UWI.           05-071-07953-00: UNIQUE WELL ID
~Curve Information Block
DEPT.FT            0 000 00 00: Depth
CCL.                          : Casing Collar Locator
TT3.usec                      : CBL 3' Travel Time
AMP3.mV                       : CBL 3' Amplitude
GR.GAPI                       : Gamma Ray
~Parameter Information Block
~A  Depth       CCL         TT3         AMP3         GR     
   987.5000   -999.2500   -999.2500   -999.2500   -999.2500
   988.0000   -999.2500   -999.2500   -999.2500    147.9760
   988.5000   -999.2500   -999.2500   -999.2500    140.4555
   989.0000   -999.2500   -999.2500   -999.2500    137.4392
   989.5000   -999.2500   -999.2500   -999.2500    139.2794
   990.0000   -999.2500   -999.2500   -999.2500    136.5226
   990.5000   -999.2500   -999.2500   -999.2500    133.4391
   991.0000   -999.2500   -999.2500   -999.2500    134.4818
   991.5000   -999.2500   -999.2500   -999.2500    136.1573
   992.0000   -999.2500   -999.2500   -999.2500    138.1835
   992.5000   -999.2500   -999.2500   -999.2500    140.0282
   993.0000   -999.2500    275.8698   -999.2500    138.4126
   993.5000   -999.2500    275.8995     69.1469    131.6514
   994.0000   -999.2500    275.7570     69.1654    132.0986
   994.5000   -999.2500    275.6474     69.2829    139.1712
   995.0000   -999.2500    275.7504     69.4675    139.7357
   995.5000   -999.2500    275.8612     69.5519    134.7539
   996.0000   -999.2500    275.8038     69.6308    128.3656
   996.5000   -999.2500    275.7313     69.7475    128.0786
   997.0000   -999.2500    275.6294     69.7442    128.8898
   997.5000   -999.2500    275.5487     69.6222    123.2765
   998.0000   -999.2500    275.6103     69.6523    118.4362
   998.5000   -999.2500    275.6562     69.7592    117.5799
   999.0000      0.0000    275.6387     69.7453    116.4176
   999.5000      0.0000    275.5373     69.6854    122.7345
  1000.0000      0.0000    275.4090     69.5973    140.1797
  1000.5000      0.0000    275.4073     69.6188    147.4771
  1001.0000      0.0000    275.5191     69.6291    140.9250
  1001.5000      0.0000    275.5825     69.4899    132.9672
  1002.0000      0.0000    275.6327     69.3840    128.2913
  1002.5000      0.0000    275.6635     69.4335    126.4958
  1003.0000      0.0000    275.5682     69.4589    124.6127
  1003.5000      0.0000    275.5775     69.3251    125.4274
  1004.0000      0.0000    275.6817     69.2479    127.1181
  1004.5000      0.0000    275.7470     69.2712    124.9606
  1005.0000      0.0000    275.7704     69.4927    121.1595
  1005.5000      0.0000    275.8410     69.7941    122.3642
  1006.0000      0.0000    275.7871     69.5941    124.8593
  1006.5000      0.0000    275.6196     69.4415    123.9210
  1007.0000      0.0000    275.6671     69.4931    127.7509
  1007.5000      0.0000    275.7225     69.3236    135.2880
  1008.0000      0.0000    275.6131     69.2988    138.9373
  1008.5000      0.0000    275.6937     69.1276    137.6076
  1009.0000      0.0000    275.8435     68.9133    131.3392
  1009.5000      0.0000    275.8129     69.2900    123.1958
  1010.0000      0.0000    275.8212     69.3286    116.2617
  1010.5000      0.0000    275.9055     68.7720    115.6715
  1011.0000      0.0000    275.8318     68.7466    119.7661
  1011.5000      0.0000    275.5786     69.0303    117.2458
  1012.0000      0.0000    275.3177     69.0374    104.6631
  1012.5000      0.0000    275.3005     69.2559     93.0487
  1013.0000      0.0000    275.6090     69.6613     93.1274
  1013.5000      0.0000    275.8972     69.3503    112.5065
  1014.0000      0.0000    275.9885     68.5085    136.7953
  1014.5000      0.0000    275.9995     68.0407    139.8710
  1015.0000      0.0000    276.0000     68.0558    119.2564
  1015.5000      0.0000    276.0000     68.4730     99.2744
  1016.0000      0.0000    276.0000     69.2765     87.8591
  1016.5000      0.0000    276.0000     69.7315     74.7312
  1017.0000      0.0000    276.0000     69.3442     58.4424
  1017.5000      0.0000    276.0000     68.6778     45.2814
  1018.0000      0.0000    276.0000     68.3281     37.0241
  1018.5000      0.0000    276.0000     67.9704     33.1984
  1019.0000      0.0000    275.9995     68.0211     35.9769
  1019.5000      0.0000    275.9886     68.3430     41.3441
  1020.0000      0.0000    275.8995     68.3701     42.5667
  1020.5000      0.0000    275.6382     68.2969     39.0347
  1021.0000      0.0000    275.4485     68.5650     39.2385
  1021.5000      0.0000    275.6382     69.0966     46.9084
  1022.0000      0.0000    275.8995     69.3407     55.3779
  1022.5000      0.0000    275.9886     69.1279     58.9037
  1023.0000      0.0000    275.9995     68.6598     65.4048
  1023.5000      0.0000    275.9999     68.4116     85.2210
  1024.0000      0.0000    275.9984     68.1585    114.9176
  1024.5000      0.0000    276.0110     67.8709    143.6313
  1025.0000      0.0000    276.4918     65.9522    156.4876
  1025.5000      0.0000    279.9751     58.6298    144.2050
  1026.0000      0.0000    287.6773     48.9955    123.7435
  1026.5000      0.0000    290.7889     42.5339    113.2284
  1027.0000      0.0000    287.2431     39.9159    107.1316
  1027.5000      0.0000    286.2596     39.9391    110.8462
  1028.0000      0.0000    291.7641     40.2203    132.0130
  1028.5000      0.0000    298.1491     42.1141    158.5283
  1029.0000      0.0000    292.3169     48.7741    163.0553
  1029.5000      0.0000    281.0131     58.0820    142.8454
  1030.0000      0.0000    275.9902     65.6977    120.8618
  1030.5000      0.0000    275.1425     68.7313    108.8496
  1031.0000      0.0000    275.1807     68.7348    106.9707
  1031.5000      0.0000    275.2035     68.6767    110.4685
  1032.0000      0.0000    275.1967     69.1461    120.6547
  1032.5000      0.0000    275.3005     69.0945    141.7145
  1033.0000      0.0000    275.4295     68.2285    161.4501
  1033.5000      0.0000    275.4969     67.5535    166.9620
  1034.0000      0.0000    275.5208     67.8301    162.7523
  1034.5000      0.0000    275.5998     68.8341    151.5243
  1035.0000      0.0000    275.6019     69.6092    132.8826
  1035.5000      0.0000    275.5457     69.8150    115.2324
  1036.0000      0.0000    275.5931     69.9726    105.4685
  1036.5000      0.0000    275.5350     70.3664    105.9903
  1037.0000      0.0000    275.3430     70.6516    109.9164
  1037.5000      0.0000    275.3023     70.6089    107.1150
  1038.0000      0.0000    275.3020     70.3171     97.7976
  1038.5000      0.0000    275.2305     69.9055     86.6254
  1039.0000      0.0000    275.1972     69.7693     77.4425
  1039.5000      0.0000    275.2841     69.6815     69.8921
  1040.0000      0.0000    275.3915     68.9557     61.7409
  1040.5000      0.0000    275.5293     68.2235     53.1107
  1041.0000      0.0000    275.5905     68.0871     49.2156
  1041.5000      0.0000    275.5172     68.0573     54.1736
  1042.0000      0.0000    275.3841     68.5617     63.9112
  1042.5000      0.0000    275.2809     69.2895     73.4307
  1043.0000      0.0000    275.3045     69.0015     91.9074
  1043.5000      0.0000    275.3916     67.9123    112.8674
  1044.0000      0.0000    275.5112     67.5675    125.1826
  1044.5000      0.0000    275.5365     68.1263    138.4765
  1045.0000      0.0000    275.5191     68.2037    158.9224
  1045.5000      0.0000    275.5437     68.0511    182.0626
  1046.0000      0.0000    275.4819     68.3241    192.9166
  1046.5000      0.0000    275.4835     68.1517    190.8318
  1047.0000      0.0000    275.5623     67.8659    178.4724
  1047.5000      0.0000    275.5825     68.2185    161.9225
  1048.0000      0.0000    275.6086     68.6454    146.2245
  1048.5000      0.0000    275.6054     68.3722    135.4229
  1049.0000      0.0000    275.6588     67.5201    141.3884
  1049.5000      0.0000    275.7484     67.3510    152.7367
  1050.0000      0.0000    275.5710     68.5134    146.3866
  1050.5000      0.0000    275.2307     69.3904    131.2795
  1051.0000      0.0000    275.1032     68.9354    124.5490
  1051.5000      0.0000    275.1793     68.2285    126.0102
  1052.0000      0.0000    275.1876     68.2931    130.9585
  1052.5000      0.0000    275.1676     68.4585    132.7297
  1053.0000      0.0000    275.3998     68.2793    134.2567
  1053.5000      0.0000    275.7022     68.0773    136.3922
  1054.0000      0.0000    275.7093     67.4973    136.3177
