~Version Information
VERS.                      2.0: CWLS Log ASCII Standard - VERSION 2.0
WRAP.                       NO: One line per depth step
~Well Information Block
STRT.FT               -12.5000: 
STOP.FT              1613.0000: 
STEP.FT                 0.2500: 
NULL.                -999.2500: 
COMP.          Pioneer Natural Resources: COMPANY
WELL.          Peregrine 12-20: WELL
FLD.           Purgatorie River: FIELD
LOC.           1722' FNL & 999' FWL--: LOCATION
PROV.                       CO: PROVINCE
CNTY.               Las Animas: COUNTRY
SRVC.          Patterson Wireline: SERVICE COMPANY
DATE.          Fri Jul 22 12:50:00 2005: LOG DATE
UWI.           05 071 08428 00: UNIQUE WELL ID
~Curve Information Block
DEPT.FT            0 000 00 00: Depth
CCL.                          : Casing Collar Locator
TT3.usec                      : CBL 3' Travel Time
AMP3.mV                       : CBL 3' Amplitude
GR.GAPI                       : Gamma Ray
~Parameter Information Block
~A  Depth       CCL         TT3         AMP3         GR     
# ...
   624.0000      0.0000    707.5935      5.1963    156.2166
   624.2500      0.0000    723.2563      5.3553    155.9357
   624.5000      0.0000    738.6356      5.5188    154.0044
   624.7500      0.0000    751.2946      5.6080    151.7535
   625.0000      0.0000    760.5392      5.5897    149.1889
   625.2500      0.0000    766.4363      5.4799    145.0203
   625.5000      0.0000    769.5776      5.3198    138.4903
   625.7500      0.0000    770.8364      5.1545    130.8649
   626.0000      0.0000    770.9895      5.0259    124.6977
   626.2500      0.0000    770.5646      4.9727    121.5638
   626.5000      0.0000    769.9490      5.0221    120.8715
   626.7500      0.0000    769.4941      5.1768    121.0053
   627.0000      0.0000    769.5753      5.4130    121.1350
   627.2500      0.0000    770.6461      5.6948    121.4877
   627.5000      0.0000    773.2114      5.9924    122.1479
   627.7500      0.0000    777.4338      6.2899    122.2355
   628.0000      0.0000    782.4617      6.5786    120.4736
   628.2500      0.0000    786.3966      6.8435    116.3210
   628.5000      0.0000    787.6199      7.0549    110.5052
   628.7500      0.0000    786.3144      7.1774    104.8309
   629.0000      0.0000    784.1650      7.1935    101.4876
   629.2500      0.0000    782.4556      7.1230    101.7335
   629.5000      0.0000    781.0259      7.0161    104.6093
   629.7500      0.0000    779.1687      6.9212    107.3246
   630.0000      0.0000    776.8109      6.8584    107.5266
   630.2500      0.0000    774.4678      6.8185    105.1058
   630.5000      0.0000    772.5660      6.7841    101.6685
   630.7500      0.0000    771.2078      6.7445     98.7927
   631.0000      0.0000    770.3182      6.6961     97.1611
   631.2500      0.0000    769.6606      6.6342     96.7566
   631.5000      0.0000    768.6788      6.5464     97.0030
   631.7500      0.0000    766.4949      6.4147     96.7791
   632.0000      0.0000    762.4253      6.2243     94.9391
   632.2500      0.0000    756.8303      5.9709     90.9780
   632.5000      0.0000    751.3792      5.6602     85.1322
   632.7500      0.0000    748.0860      5.3029     78.1431
   633.0000      0.0000    748.0836      4.9101     71.0497
   633.2500      0.0000    751.5538      4.4932     64.8221
   633.5000      0.0000    758.7127      4.0707     60.0113
   633.7500      0.0000    770.4662      3.6749     56.8745
   634.0000      0.0000    787.5905      3.3448     55.7594
   634.2500      0.0000    808.7629      3.1107     57.1564
   634.5000      0.0000    829.7085      2.9880     61.3984
   634.7500      0.0000    845.2090      2.9838     68.4009
   635.0000      0.0000    852.0452      3.1013     77.6283
   635.2500      0.0000    849.7964      3.3416     88.1615
   635.5000      0.0000    839.9081      3.7117     98.7332
   635.7500      0.0000    825.0508      4.2283    107.9043
   636.0000      0.0000    808.6395      4.8980    114.6805
   636.2500      0.0000    793.6414      5.6778    119.2117
   636.5000      0.0000    781.3944      6.4641    122.5745
   636.7500      0.0000    771.7035      7.1357    125.5366
   637.0000      0.0000    764.1879      7.6193    127.9326
   637.2500      0.0000    759.2654      7.9148    129.6967
   637.5000      0.0000    757.3458      8.0648    131.8947
   637.7500      0.0000    757.2292      8.1100    135.7902
   638.0000      0.0000    756.2446      8.0736    141.0285
   638.2500      0.0000    752.4832      7.9794    145.4631
   638.5000      0.0000    746.5292      7.8655    146.9669
   638.7500      0.0000    740.7272      7.7655    145.2936
   639.0000      0.0000    737.1155      7.6764    142.2915
   639.2500      0.0000    736.2123      7.5523    140.3124
   639.5000      0.0000    737.1504      7.3383    140.2024
   639.7500      0.0000    738.3107      7.0098    140.7271
   640.0000      0.0000    738.1127      6.5845    139.9975
   640.2500      0.0000    735.9642      6.1094    137.4412
   640.5000      0.0000    732.6526      5.6433    134.4892
   640.7500      0.0000    729.6427      5.2442    133.5402
   641.0000      0.0000    728.0692      4.9587    136.0501
   641.2500      0.0000    728.4793      4.8117    141.0277
   641.5000      0.0000    731.1633      4.8012    145.2766
   641.7500      0.0000    736.2250      4.9021    145.7674
   642.0000      0.0000    743.0900      5.0792    142.1855
   642.2500      0.0000    750.0496      5.2989    137.0605
   642.5000      0.0000    754.6702      5.5316    133.5112
   642.7500      0.0000    755.0970      5.7449    133.1034
   643.0000      0.0000    751.3072      5.9060    135.5221
   643.2500      0.0000    745.2900      5.9934    139.4134
   643.5000      0.0000    739.9788      5.9987    143.1040
   643.7500      0.0000    737.8437      5.9174    145.0554
   644.0000      0.0000    740.1413      5.7513    144.4505
   644.2500      0.0000    746.7234      5.5259    141.5416
   644.5000      0.0000    755.8203      5.2911    137.1826
   644.7500      0.0000    764.3111      5.0983    131.9810
   645.0000      0.0000    769.1686      4.9813    126.2589
   645.2500      0.0000    769.0171      4.9576    120.9661
   645.5000      0.0000    764.3082      5.0236    118.1342
   645.7500      0.0000    756.5670      5.1395    119.8459
   646.0000      0.0000    747.8456      5.2318    126.3184
   646.2500      0.0000    740.2108      5.2298    134.8751
   646.5000      0.0000    734.9274      5.1074    141.2363
   646.7500      0.0000    732.0250      4.9013    142.4517
   647.0000      0.0000    730.7943      4.6932    138.7605
   647.2500      0.0000    730.6783      4.5708    132.7660
   647.5000      0.0000    731.7410      4.5943    127.1592
   647.7500      0.0000    734.4916      4.7843    123.1337
   648.0000      0.0000    739.2293      5.1213    120.5031
   648.2500      0.0000    745.4163      5.5488    118.9966
   648.5000      0.0000    751.8072      5.9864    119.0169
   648.7500      0.0000    757.5076      6.3600    120.7850
   649.0000      0.0000    762.8418      6.6331    123.4424
   649.2500      0.0000    769.0054      6.8113    125.8246
   649.5000      0.0000    777.0383      6.9191    127.6512
   649.7500      0.0000    787.0260      6.9753    129.3006
   650.0000      0.0000    797.5843      6.9909    130.9354
   650.2500      0.0000    806.0226      6.9778    132.3504
   650.5000      0.0000    809.9197      6.9506    133.2102
   650.7500      0.0000    809.0792      6.9159    133.2025
   651.0000      0.0000    805.7289      6.8599    132.2940
   651.2500      0.0000    802.9310      6.7401    130.8519
   651.5000      0.0000    803.2297      6.5008    129.1953
   651.7500      0.0000    808.9108      6.1150    127.0618
   652.0000      0.0000    822.3316      5.6172    124.0159
   652.2500      0.0000    844.2203      5.0838    120.4132
   652.5000      0.0000    871.1522      4.5887    117.2292
   652.7500      0.0000    895.9744      4.1829    114.5838
   653.0000      0.0000    911.8896      3.8964    111.2264
   653.2500      0.0000    916.7802      3.7354    106.1355
   653.5000      0.0000    914.3425      3.6889    100.1628
   653.7500      0.0000    910.9619      3.7429     95.3902
   654.0000      0.0000    910.0840      3.8778     93.0204
   654.2500      0.0000    908.9454      4.0600     92.5098
   654.5000      0.0000    900.9946      4.2644     92.7835
   654.7500      0.0000    881.4115      4.5104     93.5887
   655.0000      0.0000    850.8030      4.8425     95.1502
   655.2500      0.0000    814.9625      5.2531     96.8992
   655.5000      0.0000    781.2107      5.6381     97.2777
   655.7500      0.0000    753.4561      5.8481     94.8902
   656.0000      0.0000    728.8030      5.7966     89.6121
   656.2500      0.0000    698.6497      5.5289     82.5892
   656.5000      0.0000    655.6041      5.1959     75.4921
   656.7500      0.0000    603.3057      4.9612     70.0048
   657.0000      0.0000    559.8033      4.9146     67.6579
   657.2500      0.0000    546.6249      5.0396     69.3550
