~Version Information
VERS.                      2.0: CWLS Log ASCII Standard - VERSION 2.0
WRAP.                       NO: One line per depth step
~Well Information Block
STRT.FT                -9.2500: 
STOP.FT              2685.7500: 
STEP.FT                 0.2500: 
NULL.                -999.2500: 
COMP.          Pioneer Natural Resources: COMPANY
WELL.          Beacon 11-18 Tr: WELL
FLD.           Purgatorie River: FIELD
LOC.           409' FNL & 203' FWL--: LOCATION
PROV.                       CO: PROVINCE
CNTY.               Las Animas: COUNTRY
SRVC.                         : SERVICE COMPANY
DATE.          Fri Jan 21 09:45:44 2005: LOG DATE
UWI.        005 071 08251  : UNIQUE WELL ID
~Curve Information Block
DEPT.FT            0 000 00 00: Depth
CCL.                          : Casing Collar Locator
TT3.usec                      : CBL 3' Travel Time
AMP3.mV                       : CBL 3' Amplitude
GR.GAPI                       : Gamma Ray
~Parameter Information Block
~A  Depth       CCL         TT3         AMP3         GR     
# ...
  2469.7500      0.0000    621.7953      4.6896     96.2344
  2470.0000      0.0000    631.0410      4.1953     94.1502
  2470.2500      0.0000    616.8882      3.7307     93.9954
  2470.5000      0.0000    588.2873      3.3730     93.8175
  2470.7500      0.0000    559.0117      3.1332     92.7902
  2471.0000      0.0000    542.4800      3.0035     91.7777
  2471.2500      0.0000    545.3856      2.9798     91.3053
  2471.5000      0.0000    562.8392      3.0376     90.1941
  2471.7500      0.0000    579.6277      3.1347     86.7591
  2472.0000      0.0000    579.4526      3.2614     80.9660
  2472.2500      0.0000    558.0422      3.4593     74.8151
  2472.5000     -2.0000    529.6580      3.7659     70.6194
  2472.7500     -2.0000    517.9297      4.1575     69.4410
  2473.0000      0.0000    536.6418      4.5579     71.1117
  2473.2500      0.0000    579.0026      4.8912     74.8518
  2473.5000      0.0000    625.2258      5.1051     79.6549
  2473.7500      0.0000    657.8759      5.1612     84.8299
  2474.0000      0.0000    668.9971      5.0554     90.4693
  2474.2500      0.0000    657.1449      4.8697     96.7280
  2474.5000      0.0000    624.2698      4.7564    102.3889
  2474.7500      0.0000    577.8627      4.8198    104.8815
  2475.0000      0.0000    532.7208      5.0220    102.4554
  2475.2500      0.0000    505.2877      5.2229     96.2394
  2475.5000      0.0000    503.1383      5.3048     89.6957
  2475.7500      0.0000    519.1972      5.2492     85.9943
  2476.0000      0.0000    536.4684      5.1108     86.1408
  2476.2500      0.0000    541.2786      4.9399     89.2943
  2476.5000      0.0000    534.8457      4.7354     94.0206
  2476.7500      0.0000    530.5474      4.4817     98.9868
  2477.0000      0.0000    537.9932      4.2305    103.2482
  2477.2500      0.0000    552.2294      4.1046    106.7088
  2477.5000      0.0000    560.2172      4.1782    110.3607
  2477.7500      0.0000    554.1725      4.3691    115.5545
  2478.0000      0.0000    535.6301      4.4956    122.6153
  2478.2500      0.0000    510.2594      4.4377    130.2938
  2478.5000      0.0000    483.3990      4.2134    137.0246
  2478.7500      0.0000    459.2959      3.9178    142.5137
  2479.0000      0.0000    441.3008      3.6333    147.4744
  2479.2500      0.0000    431.6741      3.4010    151.9725
  2479.5000      0.0000    430.5637      3.2373    154.6670
  2479.7500      0.0000    434.7708      3.1508    153.7241
  2480.0000      0.0000    439.7151      3.1477    148.4603
  2480.2500      0.0000    445.0103      3.2333    140.2497
  2480.5000      0.0000    456.4315      3.4077    131.7908
  2480.7500      0.0000    479.1411      3.6508    125.2952
  2481.0000      0.0000    509.9093      3.9030    121.3448
  2481.2500      0.0000    539.4120      4.0627    119.5776
  2481.5000      0.0000    562.1865      4.0298    120.1189
  2481.7500      0.0000    581.0845      3.7823    123.6239
  2482.0000      0.0000    601.5181      3.4133    129.9105
  2482.2500      0.0000    624.6455      3.0785    137.2260
  2482.5000      0.0000    647.3232      2.8995    143.0267
  2482.7500      0.0000    666.0034      2.9060    145.3050
  2483.0000      0.0000    678.9052      3.0492    143.6352
  2483.2500      0.0000    685.1235      3.2567    139.5139
  2483.5000      0.0000    683.5321      3.4798    135.5705
  2483.7500      0.0000    674.3463      3.7022    134.1389
  2484.0000      0.0000    661.9042      3.9150    136.2614
  2484.2500      0.0000    653.4946      4.0927    141.2903
  2484.5000      0.0000    653.3907      4.1959    146.9647
  2484.7500      0.0000    658.8179      4.1959    150.4661
  2485.0000      0.0000    663.1653      4.1024    150.3565
  2485.2500      0.0000    662.4902      3.9733    147.6737
  2485.5000      0.0000    658.0948      3.8870    144.7211
  2485.7500      0.0000    653.1725      3.8960    142.7200
  2486.0000      0.0000    647.8239      4.0016    140.8631
  2486.2500      0.0000    638.8707      4.1714    137.6388
  2486.5000      0.0000    625.8572      4.3727    132.8941
  2486.7500      0.0000    615.6528      4.5835    128.4642
  2487.0000      0.0000    617.7931      4.7829    126.8367
  2487.2500      0.0000    634.5888      4.9432    129.4131
  2487.5000      0.0000    658.1716      5.0375    135.8822
  2487.7500      0.0000    677.7733      5.0518    144.7339
  2488.0000      0.0000    687.9600      4.9886    154.1123
  2488.2500      0.0000    689.9566      4.8579    162.3711
  2488.5000      0.0000    687.9073      4.6684    168.1433
  2488.7500      0.0000    685.2424      4.4318    170.6106
  2489.0000      0.0000    683.3218      4.1702    170.4771
  2489.2500      0.0000    681.7801      3.9118    170.1122
  2489.5000      0.0000    679.5327      3.6749    171.4721
  2489.7500      0.0000    675.8999      3.4604    174.0311
  2490.0000      0.0000    671.5259      3.2596    175.8084
  2490.2500      0.0000    668.3998      3.0694    176.0795
  2490.5000      0.0000    668.4602      2.9022    175.9233
  2490.7500      0.0000    671.8151      2.7829    176.3143
  2491.0000      0.0000    676.3765      2.7379    177.0571
  2491.2500      0.0000    678.7429      2.7897    177.7958
  2491.5000      0.0000    675.2468      2.9582    178.9771
  2491.7500      0.0000    663.4308      3.2491    181.2974
  2492.0000      0.0000    644.2188      3.6207    184.7717
  2492.2500      0.0000    622.5568      3.9682    188.7335
  2492.5000      0.0000    604.8503      4.1719    192.4053
  2492.7500      0.0000    595.3319      4.1851    195.2567
  2493.0000      0.0000    593.9372      4.0751    197.1599
  2493.2500      0.0000    596.1323      3.9678    198.4843
  2493.5000      0.0000    595.1506      3.9370    199.6385
  2493.7500      0.0000    586.4683      3.9511    200.0562
  2494.0000      0.0000    571.1168      3.9453    198.0945
  2494.2500      0.0000    554.3419      3.9266    192.6967
  2494.5000      0.0000    541.1157      3.9528    184.9492
  2494.7500      0.0000    533.2094      4.0140    177.3961
  2495.0000      0.0000    529.7543      4.0020    171.7781
  2495.2500      0.0000    529.2055      3.8234    167.8171
  2495.5000      0.0000    530.6052      3.5105    164.5949
  2495.7500      0.0000    533.7128      3.2065    162.5327
  2496.0000      0.0000    538.3648      3.0638    162.7242
  2496.2500      0.0000    543.5173      3.1578    164.5530
  2496.5000      0.0000    547.1821      3.4666    165.6630
  2496.7500      0.0000    548.2663      3.9039    164.5135
  2497.0000      0.0000    549.0138      4.3660    161.6618
  2497.2500      0.0000    554.8962      4.7602    158.1147
  2497.5000      0.0000    570.5688      5.0108    153.3543
  2497.7500      0.0000    594.4465      5.0638    145.8922
  2498.0000      0.0000    617.0402      4.9091    135.8774
  2498.2500      0.0000    626.1509      4.6115    126.4926
  2498.5000      0.0000    615.9343      4.2960    121.8309
  2498.7500      0.0000    592.4774      4.0703    123.2447
  2499.0000      0.0000    570.9420      3.9546    128.3585
  2499.2500      0.0000    565.7633      3.9015    133.8481
  2499.5000      0.0000    580.2500      3.8804    138.8293
  2499.7500      0.0000    603.4865      3.9211    145.2900
  2500.0000      0.0000    618.2113      4.0585    155.1819
  2500.2500      0.0000    613.7140      4.2489    167.2593
  2500.5000      0.0000    592.7072      4.3688    177.1408
  2500.7500      0.0000    567.2865      4.3191    180.6310
  2501.0000      0.0000    549.4884      4.1228    176.8163
  2501.2500      0.0000    544.7664      3.9169    168.1352
  2501.5000      0.0000    551.3426      3.8498    158.2253
  2501.7500      0.0000    563.1379      3.9757    149.8777
  2502.0000      0.0000    573.1647      4.2249    144.1639
  2502.2500      0.0000    575.0593      4.4484    140.4807
  2502.5000      0.0000    563.4026      4.5091    137.2542
  2502.7500      0.0000    536.7567      4.3797    133.1240
  2503.0000      0.0000    503.1270      4.1824    128.0017
