~Version Information
VERS.                      2.0: CWLS Log ASCII Standard - VERSION 2.0
WRAP.                       NO: One line per depth step
~Well Information Block
STRT.FT               860.0000: 
STOP.FT              2733.7000: 
STEP.FT                 0.1000: 
NULL.                -999.2500: 
COMP.          Pioneer Natural Resources: COMPANY
WELL.          Beacon 11-18 Tr: WELL
FLD.           Purgatoire River: FIELD
LOC.           409' FNL & 203' FWL: LOCATION
PROV.                 Colorado: PROVINCE
CNTY.               Las Animas: COUNTRY
SRVC.                Patterson: SERVICE COMPANY
DATE.          Mon Jan 17 07:36:09 2005: LOG DATE
UWI.           05 071 08251 00: UNIQUE WELL ID
~Curve Information Block
DEPT.FT            0 000 00 00: Depth
DCAL.in                       : CDL Caliper
RHOB.g/cc                     : CDL Bulk Density
RHOC.g/cc                     : CDL Density Correction
DPOR.pu                       : CDL Density Porosity
NPOR.pu                       : Neutron Porosity
GR.GAPI                       : Gamma Ray
~Parameter Information Block
~A  Depth       DCAL        RHOB        RHOC        DPOR        NPOR         GR     
# ...
  1964.0000      8.1012      2.5005      0.0921      9.0628     18.2070     42.4505
  1964.1000      8.1012      2.4951      0.1186      9.3901     17.9349     36.5497
  1964.2000      8.1012      2.4821      0.1095     10.1752     16.6205     33.7903
  1964.3000      8.1008      2.4745      0.0893     10.6382     15.1505     34.9090
  1964.4000      8.1008      2.4835      0.0925     10.0898     14.8344     36.9962
  1964.5000      8.0982      2.4975      0.1040      9.2417     15.5664     38.8262
  1964.6000      8.0982      2.4963      0.0883      9.3167     16.0151     41.9454
  1964.7000      8.0982      2.4758      0.0911     10.5558     15.7647     45.1638
  1964.8000      8.0913      2.4501      0.0598     12.1140     15.5854     46.3691
  1964.9000      8.0913      2.4363      0.0394     12.9498     16.1380     46.9249
  1965.0000      8.0814      2.4412      0.0936     12.6564     17.2359     48.9340
  1965.1000      8.0814      2.4588      0.1055     11.5868     17.7701     49.0074
  1965.2000      8.0814      2.4752      0.1391     10.5923     17.2212     43.6832
  1965.3000      8.0797      2.4758      0.1284     10.5566     16.2675     37.9391
  1965.4000      8.0797      2.4596      0.0776     11.5404     15.6510     38.2463
  1965.5000      8.0923      2.4355      0.0917     12.9985     15.8598     43.2822
  1965.6000      8.0923      2.4169      0.0154     14.1265     16.7359     49.4796
  1965.7000      8.0923      2.4202      0.0070     13.9285     17.3889     54.0742
  1965.8000      8.1128      2.4415      0.0890     12.6379     17.3962     54.5276
  1965.9000      8.1128      2.4552      0.0764     11.8044     17.0795     53.1788
  1966.0000      8.1341      2.4509      0.0816     12.0660     16.8532     52.2795
  1966.1000      8.1341      2.4501      0.0362     12.1149     17.0811     53.2732
  1966.2000      8.1341      2.4755      0.0893     10.5759     17.7634     58.0976
  1966.3000      8.1471      2.5167      0.0917      8.0794     18.4165     64.1570
  1966.4000      8.1471      2.5506      0.1416      6.0245     18.8197     70.0437
  1966.5000      8.1516      2.5716      0.0934      4.7489     19.4669     76.0031
  1966.6000      8.1516      2.5941      0.1012      3.3855     20.8393     81.3088
  1966.7000      8.1516      2.6238      0.1298      1.5905     22.7524     86.4050
  1966.8000      8.1521      2.6351      0.1759      0.9053     24.6546     90.3822
  1966.9000      8.1521      2.6095      0.0834      2.4522     25.6989     95.9000
  1967.0000      8.1468      2.5744      0.0427      4.5809     25.4695    107.1256
  1967.1000      8.1468      2.5635      0.0049      5.2409     24.8001    117.6225
  1967.2000      8.1468      2.5825      0.0421      4.0899     24.6037    118.7809
  1967.3000      8.1431      2.6130      0.0987      2.2419     24.7336    115.7652
  1967.4000      8.1431      2.6268      0.0953      1.4045     24.6181    118.7542
  1967.5000      8.1485      2.6200      0.0674      1.8184     24.4345    126.0669
  1967.6000      8.1485      2.6204      0.0727      1.7959     24.8096    128.9975
  1967.7000      8.1485      2.6427      0.1097      0.4403     25.1337    123.9989
  1967.8000      8.1551      2.6765      0.1174     -1.6082     24.5137    116.7733
  1967.9000      8.1551      2.7082      0.1357     -3.5253     23.2751    115.4998
  1968.0000      8.1564      2.7282      0.1599     -4.7365     22.1669    119.8834
  1968.1000      8.1564      2.7437      0.1315     -5.6793     21.7044    123.0693
  1968.2000      8.1564      2.7634      0.1448     -6.8698     22.1111    122.2756
  1968.3000      8.1549      2.7690      0.1395     -7.2137     22.9112    118.5951
  1968.4000      8.1549      2.7591      0.0693     -6.6099     23.2570    113.2509
  1968.5000      8.1529      2.7629      0.0601     -6.8399     23.0693    109.6787
  1968.6000      8.1529      2.7805      0.0954     -7.9075     22.7384    108.8194
  1968.7000      8.1529      2.7836      0.0284     -8.0981     22.1820    107.8718
  1968.8000      8.1492      2.7552      0.1035     -6.3785     21.2616    108.7374
  1968.9000      8.1492      2.7012      0.0170     -3.1003     20.5445    114.9497
  1969.0000      8.1474      2.6536     -0.0044     -0.2188     20.4525    121.1331
  1969.1000      8.1474      2.6350      0.0209      0.9085     20.5124    121.0815
  1969.2000      8.1474      2.6283      0.0124      1.3167     20.5407    118.2332
  1969.3000      8.1500      2.6093     -0.0017      2.4659     21.0609    118.0369
  1969.4000      8.1500      2.5762     -0.0191      4.4750     22.2456    119.8031
  1969.5000      8.1541      2.5491     -0.0602      6.1150     23.5366    123.1378
  1969.6000      8.1541      2.5491      0.0101      6.1176     24.3166    129.0544
  1969.7000      8.1541      2.5656      0.0313      5.1134     24.0998    134.1806
  1969.8000      8.1562      2.5707      0.0524      4.8047     22.8256    136.5019
  1969.9000      8.1562      2.5654      0.0301      5.1250     21.8778    138.9166
  1970.0000      8.1559      2.5730      0.0780      4.6662     22.3867    141.6498
  1970.1000      8.1559      2.5948      0.1223      3.3480     23.3820    142.3819
  1970.2000      8.1559      2.6163      0.1095      2.0442     23.7398    145.6631
  1970.3000      8.1547      2.6326      0.1128      1.0561     23.5328    153.3681
  1970.4000      8.1547      2.6448      0.1229      0.3167     23.0952    155.9405
  1970.5000      8.1544      2.6521      0.1048     -0.1267     22.8867    152.6675
  1970.6000      8.1544      2.6560      0.1198     -0.3621     23.2918    152.7304
  1970.7000      8.1544      2.6655      0.0789     -0.9421     23.9220    153.5800
  1970.8000      8.1535      2.6750      0.1489     -1.5172     24.1899    149.4677
  1970.9000      8.1535      2.6645      0.0542     -0.8807     23.9069    142.4373
  1971.0000      8.1519      2.6350      0.0538      0.9074     23.3756    135.0282
  1971.1000      8.1519      2.6034      0.0448      2.8231     22.9733    128.7242
  1971.2000      8.1519      2.5855      0.0504      3.9070     22.5344    122.8340
  1971.3000      8.1510      2.5911      0.0135      3.5684     22.1444    115.6726
  1971.4000      8.1510      2.6150      0.0521      2.1205     21.8260    110.5278
  1971.5000      8.1513      2.6357      0.0391      0.8676     21.1508    111.6452
  1971.6000      8.1513      2.6357      0.1020      0.8691     20.1710    116.4294
  1971.7000      8.1513      2.6146      0.0528      2.1485     19.1599    120.4676
  1971.8000      8.1501      2.5853      0.0492      3.9182     18.4418    119.6884
  1971.9000      8.1501      2.5669      0.0280      5.0376     18.1201    112.2346
  1972.0000      8.1393      2.5709      0.0143      4.7948     17.8706    105.0474
  1972.1000      8.1393      2.5840      0.0814      3.9992     17.6651    104.7038
  1972.2000      8.1393      2.5910      0.0456      3.5776     17.5508    108.3870
  1972.3000      8.1160      2.5987      0.0882      3.1120     17.4217    109.0964
  1972.4000      8.1160      2.6071      0.0701      2.6024     17.3466    104.2206
  1972.5000      8.0753      2.6111      0.0347      2.3588     17.0910     98.5119
  1972.6000      8.0753      2.6201      0.0812      1.8118     16.2979     94.3438
  1972.7000      8.0753      2.6446      0.1112      0.3269     15.5490     87.9509
  1972.8000      8.0080      2.6830      0.1580     -1.9990     15.3415     79.9010
  1972.9000      8.0080      2.7232      0.1286     -4.4333     15.0593     74.2396
  1973.0000      7.9416      2.7404      0.2333     -5.4802     14.6470     75.0879
  1973.1000      7.9416      2.7205      0.1094     -4.2754     14.9739     83.5060
  1973.2000      7.9416      2.6969      0.1141     -2.8404     15.9378     91.1102
  1973.3000      7.9174      2.7051      0.0917     -3.3411     16.5145     91.5203
  1973.4000      7.9174      2.7359      0.1370     -5.2057     16.2800     87.5710
  1973.5000      7.9348      2.7557      0.1302     -6.4063     15.7051     80.8836
