~Version Information
VERS.                      2.0: CWLS Log ASCII Standard - VERSION 2.0
WRAP.                       NO: One line per depth step
~Well Information Block
STRT.FT               230.0000: 
STOP.FT              1527.0000: 
STEP.FT                 0.1000: 
NULL.                -999.2500: 
COMP.          Pioneer Natural Resources: COMPANY
WELL.              Border 21-3: WELL
FLD.           Purgatorie River: FIELD
LOC.           865' FNL & 1415' FWL: LOCATION
PROV.                 Colorado: PROVINCE
CNTY.               Las Animas: COUNTRY
SRVC.                         : SERVICE COMPANY
DATE.          Thu Dec 09 16:57:34 2004: LOG DATE
UWI.           05 071 08169 00: UNIQUE WELL ID
~Curve Information Block
DEPT.FT            0 000 00 00: Depth
LTEN.lb                       : Surface Line Tension
DCAL.in                       : CDL Caliper
RHOB.g/cc                     : CDL Bulk Density
RHOC.g/cc                     : CDL Density Correction
DPOR.pu                       : CDL Density Porosity
GR.GAPI                       : Gamma Ray
NPOR.pu                       : Neutron Porosity
~Parameter Information Block
~A  Depth       LTEN        DCAL        RHOB        RHOC        DPOR         GR         NPOR    
# ...
   574.4000    866.0951      7.9921      2.4349      0.0393     13.0368     54.8159     18.9114
   574.5000    872.0216      7.9933      2.4501      0.0944     12.1145     60.4069     18.9795
   574.6000    872.0216      7.9933      2.4641      0.0768     11.2693     64.7612     18.7182
   574.7000    872.0216      7.9933      2.4618      0.0988     11.4076     66.8877     18.6334
   574.8000    875.7134      7.9922      2.4527      0.0320     11.9597     65.8547     18.8622
   574.9000    875.7134      7.9922      2.4621      0.0839     11.3907     62.6069     19.0969
   575.0000    883.8025      7.9935      2.4945      0.1429      9.4214     60.0780     19.1952
   575.1000    883.8025      7.9935      2.5333      0.1571      7.0699     58.4405     19.1672
   575.2000    883.8025      7.9935      2.5673      0.1679      5.0118     55.9110     19.0183
   575.3000    882.0084      7.9938      2.5919      0.2404      3.5207     53.8473     18.7519
   575.4000    882.0084      7.9938      2.5967      0.2335      3.2326     53.8865     18.4194
   575.5000    873.1127      7.9939      2.5850      0.1722      3.9405     55.9373     18.2032
   575.6000    873.1127      7.9939      2.5819      0.1140      4.1258     59.6484     18.1833
   575.7000    873.1127      7.9939      2.5931      0.1403      3.4515     62.5967     18.0044
   575.8000    870.4477      8.0037      2.5890      0.1447      3.6971     61.6905     17.4886
   575.9000    870.4477      8.0037      2.5541      0.0940      5.8094     57.5454     16.9237
   576.0000    863.3464      8.0047      2.5149      0.0387      8.1870     54.1862     16.5695
   576.1000    863.3464      8.0047      2.5015      0.0351      8.9972     53.9758     16.3926
   576.2000    863.3464      8.0047      2.5070      0.0684      8.6641     55.0891     16.2981
   576.3000    862.4351      8.0047      2.5035      0.0795      8.8796     55.1681     16.2628
   576.4000    862.4351      8.0047      2.4840      0.0428     10.0607     54.7913     16.0730
   576.5000    871.4092      8.0054      2.4621      0.0556     11.3849     54.8949     15.5548
   576.6000    871.4092      8.0054      2.4491      0.0400     12.1732     54.4919     14.9800
   576.7000    871.4092      8.0054      2.4474      0.0366     12.2759     54.3738     14.8580
   576.8000    877.7380      8.0054      2.4461      0.0854     12.3550     56.0625     15.1124
   576.9000    877.7380      8.0054      2.4361      0.0658     12.9647     57.3467     15.1531
   577.0000    886.1763      8.0074      2.4259      0.0437     13.5790     56.0617     14.8530
   577.1000    886.1763      8.0074      2.4208      0.0645     13.8930     54.3881     14.5134
   577.2000    886.1763      8.0074      2.4183      0.0352     14.0408     54.4107     14.2575
   577.3000    883.8836      8.0071      2.4224      0.0705     13.7933     54.7415     14.2868
   577.4000    883.8836      8.0071      2.4302      0.0812     13.3203     55.9173     14.7439
   577.5000    892.3032      8.0080      2.4338      0.0735     13.1031     57.8959     15.2991
   577.6000    892.3032      8.0080      2.4295      0.0888     13.3639     58.7485     15.7563
   577.7000    892.3032      8.0080      2.4154      0.0409     14.2169     59.0395     16.1223
   577.8000    871.0345      8.0077      2.3955      0.0591     15.4237     57.9783     16.2662
   577.9000    871.0345      8.0077      2.3816      0.0231     16.2680     54.9599     16.1375
   578.0000    887.5359      8.0072      2.3815      0.0419     16.2713     52.1753     15.8408
   578.1000    887.5359      8.0072      2.3924      0.0396     15.6121     50.5680     15.5875
   578.2000    887.5359      8.0072      2.4086      0.0515     14.6287     49.7815     15.5096
   578.3000    884.1910      8.0085      2.4240      0.0431     13.6964     49.3992     15.6040
   578.4000    884.1910      8.0085      2.4367      0.0623     12.9262     48.7374     15.8521
   578.5000    873.5236      8.0064      2.4495      0.0641     12.1515     47.6563     16.1568
   578.6000    873.5236      8.0064      2.4585      0.0592     11.6053     47.4923     16.4070
   578.7000    873.5236      8.0064      2.4558      0.0585     11.7684     49.8287     16.4924
   578.8000    881.9647      8.0071      2.4429      0.0616     12.5488     53.8844     16.2971
   578.9000    881.9647      8.0071      2.4312      0.0438     13.2632     56.0892     15.8652
   579.0000    880.4518      8.0102      2.4287      0.0350     13.4102     54.3807     15.3983
   579.1000    880.4518      8.0102      2.4328      0.0425     13.1652     50.3860     15.2344
   579.2000    880.4518      8.0102      2.4395      0.0209     12.7601     47.1079     15.5210
   579.3000    877.9670      8.0114      2.4508      0.0350     12.0698     46.4306     15.9959
   579.4000    877.9670      8.0114      2.4633      0.0410     11.3153     47.4208     16.2237
   579.5000    894.8561      8.0079      2.4669      0.0708     11.0944     49.6226     16.0675
   579.6000    894.8561      8.0079      2.4559      0.0541     11.7637     53.5365     15.7043
   579.7000    894.8561      8.0079      2.4329      0.0317     13.1573     55.5133     15.2746
   579.8000    894.4537      8.0084      2.4084      0.0353     14.6395     52.4575     15.0610
   579.9000    894.4537      8.0084      2.3979      0.0194     15.2806     48.0351     15.1704
   580.0000    885.9819      8.0079      2.4028      0.0501     14.9845     47.6443     15.2323
   580.1000    885.9819      8.0079      2.4034      0.0697     14.9452     50.2069     14.9874
   580.2000    885.9819      8.0079      2.3942      0.0148     15.5004     50.7552     14.4834
   580.3000    883.4858      8.0084      2.3906      0.0195     15.7197     49.1603     14.0052
   580.4000    883.4858      8.0084      2.3935      0.0387     15.5425     49.0078     13.7029
   580.5000    884.0734      8.0079      2.3973      0.0522     15.3131     50.5948     13.6983
   580.6000    884.0734      8.0079      2.4086      0.0341     14.6307     51.7677     14.1253
   580.7000    884.0734      8.0079      2.4263      0.0667     13.5600     51.3838     14.6126
   580.8000    875.5190      8.0085      2.4350      0.0701     13.0278     50.4255     14.6135
   580.9000    875.5190      8.0085      2.4283      0.0512     13.4340     50.8919     14.2435
   581.0000    888.0761      8.0107      2.4154      0.0155     14.2180     52.2848     14.1665
   581.1000    888.0761      8.0107      2.4089      0.0461     14.6116     52.5812     14.6714
   581.2000    888.0761      8.0107      2.4111      0.0594     14.4761     51.1967     15.2127
   581.3000    882.8597      8.0097      2.4152      0.0687     14.2288     49.5081     15.1374
   581.4000    882.8597      8.0097      2.4156      0.0770     14.2052     48.7457     14.6267
   581.5000    874.8359      8.0096      2.4142      0.0704     14.2879     49.2703     14.3677
   581.6000    874.8359      8.0096      2.4151      0.0762     14.2361     50.5943     14.6265
   581.7000    874.8359      8.0096      2.4161      0.0494     14.1750     50.8746     15.0506
   581.8000    872.4657      8.0102      2.4134      0.0455     14.3398     48.3998     15.2304
   581.9000    872.4657      8.0102      2.4054      0.0436     14.8231     44.6253     15.1240
   582.0000    878.0638      8.0100      2.3935      0.0545     15.5444     44.0930     14.7746
   582.1000    878.0638      8.0100      2.3828      0.0585     16.1925     47.4733     14.2223
   582.2000    878.0638      8.0100      2.3801      0.0137     16.3560     51.1759     13.8212
   582.3000    876.5174      8.0099      2.3894      0.0415     15.7942     52.9711     13.9637
   582.4000    876.5174      8.0099      2.4077      0.0523     14.6832     52.3826     14.4651
   582.5000    879.3364      8.0100      2.4268      0.0873     13.5247     50.8995     14.9388
   582.6000    879.3364      8.0100      2.4331      0.0819     13.1439     50.8552     15.2108
   582.7000    879.3364      8.0100      2.4199      0.0561     13.9479     51.4114     15.1379
