~Version Information
VERS.                      2.0: CWLS Log ASCII Standard - VERSION 2.0
WRAP.                       NO: One line per depth step
~Well Information Block
STRT.FT                 8.7500: 
STOP.FT              2723.0000: 
STEP.FT                 0.2500: 
NULL.                -999.2500: 
COMP.          Pioneer Natural Resources: COMPANY
WELL.           Desoto 13-7 Tr: WELL
FLD.           Purgatoire River: FIELD
LOC.           1404' FSL & 1115' FWL: LOCATION
PROV.                 Colorado: PROVINCE
CNTY.               Las Animas: COUNTRY
SRVC.                Patterson: SERVICE COMPANY
DATE.          Wed Mar 16 18:00:51 2005: LOG DATE
UWI.           05 071 08216 00: UNIQUE WELL ID
~Curve Information Block
DEPT.FT            0 000 00 00: Depth
GR.GAPI                       : Gamma Ray
CCL.                          : Casing Collar Locator
TT3.usec                      : CBL 3' Travel Time
AMP3.mV                       : CBL 3' Amplitude
AMP5.mV                       : CBL 5' Amplitude
~Parameter Information Block
~A  Depth        GR         CCL         TT3         AMP3        AMP5    
# ...
   372.7500     60.4032      0.0000   1197.6139      9.3835      1.9931
   373.0000     59.3290      0.0000   1134.0934      9.6904      2.0079
   373.2500     58.5065      0.0000   1070.6029     10.0121      2.0166
   373.5000     57.8863      0.0000   1018.0626     10.2960      2.0295
   373.7500     57.3115      0.0000    988.1367     10.5153      2.0553
   374.0000     56.5195      0.0000    990.1365     10.6838      2.0906
   374.2500     55.3803      0.0000   1028.0054     10.8522      2.1206
   374.5000     53.9359      0.0000   1095.8486     11.0867      2.1315
   374.7500     52.2600      0.0000   1175.0071     11.4336      2.1228
   375.0000     50.4373      0.0000   1239.5365     11.8913      2.1054
   375.2500     48.6640      0.0000   1269.0089     12.4059      2.0909
   375.5000     47.2456      0.0000   1259.6040     12.8994      2.0836
   375.7500     46.3891      0.0000   1227.1171     13.3143      2.0800
   376.0000     45.9956      0.0000   1199.6414     13.6410      2.0751
   376.2500     45.7892      0.0000   1199.9178     13.9084      2.0678
   376.5000     45.6883      0.0000   1228.6989     14.1424      2.0606
   376.7500     45.9129      0.0000   1265.4082     14.3325      2.0527
   377.0000     46.7388      0.0000   1285.7057     14.4429      2.0393
   377.2500     48.2585      0.0000   1277.8474     14.4529      2.0181
   377.5000     50.2452      0.0000   1245.8788     14.3763      1.9950
   377.7500     52.1756      0.0000   1202.3854     14.2423      1.9799
   378.0000     53.6488      0.0000   1158.2162     14.0709      1.9746
   378.2500     54.8645      0.0000   1115.9691     13.8748      1.9679
   378.5000     56.3657      0.0000   1072.1907     13.6725      1.9434
   378.7500     58.2996      0.0000   1026.3490     13.4844      1.8946
   379.0000     60.2540      0.0000    986.0497     13.3149      1.8317
   379.2500     61.7782      0.0000    960.9867     13.1403      1.7732
   379.5000     62.7449      0.0000    953.4146     12.9135      1.7302
   379.7500     63.2465      0.0000    958.8759     12.5913      1.7006
   380.0000     63.4181      0.0000    975.2128     12.1798      1.6754
   380.2500     63.3553      0.0000   1005.1937     11.7576      1.6493
   380.5000     62.9844      0.0000   1048.3550     11.4330      1.6218
   380.7500     62.0410      0.0000   1095.1464     11.2758      1.5895
   381.0000     60.3814      0.0000   1133.2397     11.2891      1.5421
   381.2500     58.3312      0.0000   1157.3341     11.4212      1.4698
   381.5000     56.6453      0.0000   1170.6782     11.5739      1.3727
   381.7500     56.0950      0.0000   1178.5740     11.5994      1.2592
   382.0000     57.0367      0.0000   1182.7079     11.3493      1.1417
   382.2500     59.1691      0.0000   1182.7570     10.7879      1.0381
   382.5000     61.5560      0.0000   1183.4495     10.0447      0.9689
   382.7500     63.1633      0.0000   1195.9131      9.2985      0.9414
   383.0000     63.7626      0.0000   1226.9683      8.6255      0.9393
   383.2500     64.2427      0.0000   1269.3726      8.0230      0.9376
   383.5000     65.7657      0.0000   1307.7942      7.5288      0.9244
   383.7500     68.6575      0.0000   1332.5553      7.2096      0.9051
   384.0000     72.2678      0.0000   1344.1392      7.0620      0.8894
   384.2500     75.8620      0.0000   1347.3580      7.0178      0.8793
   384.5000     79.4589      0.0000   1344.7793      7.0513      0.8688
   384.7500     83.6860      0.0000   1334.3013      7.2545      0.8529
   385.0000     88.7636      0.0000   1310.6333      7.8015      0.8339
   385.2500     93.7083      0.0000   1270.5095      8.7881      0.8217
   385.5000     96.7434      0.0000   1218.9485     10.0485      0.8315
   385.7500     96.6531      0.0000   1170.0170     11.1762      0.8811
   386.0000     93.8255      0.0000   1140.2717     11.8289      0.9867
   386.2500     90.0539      0.0000   1140.7834     11.9986      1.1512
   386.5000     87.3685      0.0000   1172.1760     11.9364      1.3472
   386.7500     86.8077      0.0000   1223.0885     11.8719      1.5210
   387.0000     87.8922      0.0000   1274.7856     11.8678      1.6282
   387.2500     89.1030      0.0000   1311.4244     11.8802      1.6669
   387.5000     88.9285      0.0000   1326.7356     11.8667      1.6684
   387.7500     86.6639      0.0000   1322.4465     11.8271      1.6607
   388.0000     82.7071      0.0000   1305.0469     11.7846      1.6499
   388.2500     78.4344      0.0000   1285.1100     11.7572      1.6315
   388.5000     75.4941      0.0000   1273.6479     11.7431      1.6053
   388.7500     74.6729      0.0000   1272.5765     11.7267      1.5799
   389.0000     75.3346      0.0000   1269.9437     11.6964      1.5655
   389.2500     76.1425      0.0000   1249.8175     11.6621      1.5662
   389.5000     76.2101      0.0000   1209.7251     11.6510      1.5761
   389.7500     75.5027      0.0000   1167.7246     11.6798      1.5832
   390.0000     74.5180      0.0000   1150.2273     11.7345      1.5791
   390.2500     73.7449      0.0000   1170.7183     11.7792      1.5663
   390.5000     73.2435      0.0000   1219.4436     11.7808      1.5568
   390.7500     72.7324      0.0000   1273.2355     11.7278      1.5622
   391.0000     72.1071      0.0000   1313.7262     11.6352      1.5831
   391.2500     71.6324      0.0000   1336.2948     11.5379      1.6063
   391.5000     71.5828      0.0000   1345.8796     11.4689      1.6143
   391.7500     71.9206      0.0000   1349.0186     11.4382      1.5988
   392.0000     72.3185      0.0000   1349.8184     11.4298      1.5661
   392.2500     72.3889      0.0000   1349.9758     11.4151      1.5315
   392.5000     72.0821      0.0000   1350.0000     11.3739      1.5077
   392.7500     71.8280      0.0000   1350.0000     11.3117      1.4972
   393.0000     72.0490      0.0000   1350.0000     11.2563      1.4918
   393.2500     72.6308      0.0000   1350.0000     11.2285      1.4800
   393.5000     73.1038      0.0000   1350.0000     11.2173      1.4567
   393.7500     73.3468      0.0000   1350.0000     11.1889      1.4267
   394.0000     74.0130      0.0000   1350.0000     11.1222      1.4019
   394.2500     76.1211      0.0000   1350.0000     11.0300      1.3934
   394.5000     80.0764      0.0000   1350.0000     10.9502      1.4049
   394.7500     85.0397      0.0000   1350.0000     10.9197      1.4300
   395.0000     89.4085      0.0000   1350.0000     10.9512      1.4550
   395.2500     92.0459      0.0000   1350.0000     11.0286      1.4671
   395.5000     92.9732      0.0000   1350.0000     11.1190      1.4621
   395.7500     92.8241      0.0000   1350.0000     11.1862      1.4456
   396.0000     91.8104      0.0000   1350.0000     11.1955      1.4261
   396.2500     89.4934      0.0000   1350.0000     11.1206      1.4080
   396.5000     85.6901      0.0000   1350.0000     10.9560      1.3911
   396.7500     81.3398      0.0000   1350.0000     10.7229      1.3727
   397.0000     77.9991      0.0000   1350.0000     10.4595      1.3496
   397.2500     76.4535      0.0000   1350.0000     10.2075      1.3186
   397.5000     76.1283      0.0000   1350.0000      9.9983      1.2776
   397.7500     75.7216      0.0000   1350.0000      9.8404      1.2296
   398.0000     74.1308      0.0000   1350.0000      9.7186      1.1841
   398.2500     71.1440      0.0000   1350.0000      9.6094      1.1537
   398.5000     67.8199      0.0000   1350.0000      9.4951      1.1469
   398.7500     65.9367      0.0000   1350.0000      9.3701      1.1613
   399.0000     66.3447      0.0000   1350.0000      9.2462      1.1857
   399.2500     67.8357      0.0000   1350.0000      9.1547      1.2077
   399.5000     68.1469      0.0000   1350.0000      9.1259      1.2195
   399.7500     66.1139      0.0000   1350.0000      9.1584      1.2199
   400.0000     62.5484      0.0000   1350.0000      9.2161      1.2120
   400.2500     59.1844      0.0000   1350.0000      9.2608      1.2015
   400.5000     57.1789      0.0000   1350.0000      9.2829      1.1935
