~Version Information
 VERS.                                  2.0 : CWLS LAS VERSION
 WRAP.                                   NO : WRAPING MODE
 SWARE .                 MController 2.5.0J : SOFTWARE VERSION
~Well Information
 WELL.                        MOO MOO 31-36 : WELL
 COMP.    PIONEER NATURAL RESOURCES USA INC : COMPANY
 FLD.                      PURGATOIRE RIVER : FIELD
 LOC.                NW/NE SEC 36 T32S R67W : LOCATION
 DATE.                             06/16/05 : DATE(S) LOGGED
 SRVC.       BLANCO GEOLOGICAL SERVICES LLC : SERVICE COMPANY
 STAT.                             COLORADO : STATE
 CNTY.                           LAS ANIMAS : COUNTY
 CTRY.                                  USA : COUNTRY
 API.                       05-071-08395-00 : API NUMBER
 STRT.FT                             303.00 : START DEPTH
 STOP.FT                            2275.00 : STOP DEPTH
 STEP.FT                               1.00 : DEPTH INCREMENT
 NULL.                                -9999 : NULL VALUE
~Curve information
 DEPTH.FT                                   :
 ROP.MIN/FT                                 :
 GAS.UNITS                                  :
~ASCII Log data
# ...
      1503.0         0.20       1818.1 
      1504.0         0.23       1580.9 
      1505.0         0.17       1433.7 
      1506.0         0.25       1314.0 
      1507.0         0.23       1217.1 
      1508.0         0.17       1156.3 
      1509.0         0.17       1112.5 
      1510.0         0.30       1042.8 
      1511.0         0.27       1014.6 
      1512.0         0.40       1010.4 
      1513.0         0.27       1020.2 
      1514.0         0.20       1010.4 
      1515.0         0.23       1029.0 
      1516.0         0.27       1022.5 
      1517.0         0.27       1006.1 
      1518.0         0.23        981.9 
      1519.0         0.28        964.9 
      1520.0         0.30        954.8 
      1521.0         0.30        941.4 
      1522.0         0.33        935.1 
      1523.0         0.27        939.1 
      1524.0         0.20        941.7 
      1525.0         0.57        953.8 
      1526.0         2.28       1994.1 
      1527.0         0.50       2251.9 
      1528.0         0.50       1780.5 
      1529.0         0.30       1569.5 
      1530.0         0.67       1230.2 
      1531.0         0.33       1124.9 
      1532.0         0.18       1138.0 
      1533.0         0.30       1110.8 
      1534.0         0.27       1099.4 
      1535.0         0.20       1075.5 
      1536.0         0.40        996.7 
      1537.0         0.17        952.2 
      1538.0         0.30        959.0 
      1539.0         0.17        979.6 
      1540.0         0.20       1016.3 
      1541.0         0.37       1020.9 
      1542.0         0.37        982.6 
      1543.0         0.23        929.9 
      1544.0         0.23        924.0 
      1545.0         0.32        920.8 
      1546.0         0.27        931.5 
      1547.0         0.20        934.8 
      1548.0         0.20        928.3 
      1549.0         0.13        956.4 
      1550.0         0.23        947.9 
      1551.0         0.17        933.2 
      1552.0         0.23        941.4 
      1553.0         0.30        945.3 
      1554.0         0.30        955.1 
      1555.0         0.27        957.1 
      1556.0         1.48        793.5 
      1557.0         0.13        790.2 
      1558.0         0.43       1165.5 
      1559.0         0.30       1527.3 
      1560.0         0.23       1829.6 
      1561.0         0.33       2228.4 
      1562.0         0.27       2487.8 
      1563.0         0.47       2431.9 
      1564.0         0.33       2120.7 
      1565.0         0.32       1819.8 
      1566.0         0.27       1583.2 
      1567.0         0.27       1380.7 
      1568.0         0.17       1273.1 
      1569.0         0.23       1177.9 
      1570.0         0.27       1107.2 
      1571.0         0.20       1079.7 
      1572.0         0.33       1054.6 
      1573.0         0.37       1052.6 
      1574.0         0.30       1070.6 
      1575.0         0.33       1070.3 
      1576.0         0.17       1047.4 
      1577.0         0.20       1023.5 
      1578.0         0.35        974.7 
      1579.0         0.20        945.9 
      1580.0         0.30        938.4 
      1581.0         0.30        918.5 
      1582.0         0.37        899.2 
      1583.0         0.23        878.9 
      1584.0         0.20        826.9 
      1585.0         0.67        948.6 
      1586.0       249.65        992.7 
      1587.0         0.20       1053.9 
      1588.0         0.43       1281.6 
      1589.0         0.53       1766.1 
      1590.0         0.23       2045.2 
      1591.0         0.27       2207.8 
      1592.0         0.25       2157.0 
      1593.0         0.23       2042.2 
      1594.0         0.20       1914.0 
      1595.0         0.20       1800.1 
      1596.0         0.17       1708.5 
      1597.0         0.20       1613.7 
      1598.0         0.33       1466.4 
      1599.0         0.37       1341.5 
      1600.0         0.23       1289.4 
      1601.0         0.20       1266.5 
      1602.0         0.27       1243.6 
      1603.0         0.27       1238.7 
      1604.0         0.27       1227.3 
      1605.0         0.27       1220.7 
      1606.0         0.28       1214.9 
      1607.0         0.33       1206.4 
      1608.0         0.27       1195.2 
      1609.0         0.30       1184.4 
      1610.0         0.23       1152.4 
      1611.0         0.20       1162.2 
      1612.0         0.27       1142.2 
      1613.0         0.20       1114.4 
      1614.0         0.27       1112.5 
      1615.0         0.30       1122.6 
      1616.0         1.72       1038.2 
      1617.0         0.53       1285.5 
      1618.0         0.53       1793.6 
      1619.0         0.37       2189.1 
      1620.0         0.30       2471.8 
      1621.0         0.33       2379.5 
      1622.0         0.23       2170.1 
      1623.0         0.25       1875.4 
      1624.0         0.23       1738.0 
      1625.0         0.20       1634.6 
      1626.0         0.23       1518.8 
      1627.0         0.30       1394.1 
      1628.0         0.27       1322.5 
      1629.0         0.30       1284.5 
      1630.0         0.33       1275.1 
      1631.0         0.30       1264.9 
      1632.0         0.33       1253.1 
      1633.0         0.30       1233.8 
      1634.0         0.17       1214.2 
      1635.0         0.17       1214.2 
      1636.0         0.28       1199.2 
      1637.0         0.23       1174.0 
      1638.0         0.27       1167.1 
      1639.0         0.30       1174.3 
      1640.0         0.17       1171.3 
      1641.0         0.23       1160.6 
      1642.0         0.23       1171.7 
      1643.0         0.20       1133.1 
      1644.0         0.23       1174.9 
      1645.0         0.30       1168.1 
      1646.0         1.92       1269.5 
      1647.0         0.30       1545.0 
      1648.0         0.43       2003.9 
      1649.0         0.40       2448.2 
      1650.0         0.33       2458.7 
      1651.0         0.37       2137.1 
      1652.0         0.27       1885.2 
      1653.0         0.28       1685.6 
      1654.0         0.27       1538.1 
      1655.0         0.23       1440.9 
      1656.0         0.13       1401.3 
      1657.0         0.23       1335.2 
      1658.0         0.23       1308.4 
      1659.0         0.13       1301.6 
      1660.0         0.20       1289.4 
      1661.0         0.20       1273.1 
      1662.0         0.20       1262.9 
      1663.0         0.27       1266.2 
      1664.0         0.20       1271.1 
      1665.0         0.20       1262.0 
      1666.0         0.17       1246.6 
      1667.0         0.27       1235.5 
      1668.0         0.23       1226.6 
      1669.0         0.18       1205.4 
      1670.0         0.27       1177.2 
      1671.0         0.23       1148.8 
      1672.0         0.17       1154.3 
      1673.0         0.23       1175.9 
      1674.0         0.13       1181.2 
      1675.0         0.20       1190.7 
      1676.0         1.77       1233.5 
      1677.0         0.23       1451.1 
      1678.0         0.32       1790.3 
      1679.0         0.20       2059.9 
      1680.0         0.20       2307.5 
      1681.0         0.20       2499.2 
      1682.0         0.20       2539.8 
      1683.0         0.20       2438.4 
      1684.0         0.17       2307.2 
      1685.0         0.23       2098.2 
      1686.0         0.20       1881.9 
      1687.0         0.13       1835.1 
      1688.0         0.17       1734.4 
      1689.0         0.17       1636.6 
      1690.0         0.20       1541.7 
      1691.0         0.30       1440.9 
      1692.0         0.17       1390.9 
      1693.0         0.13       1350.3 
      1694.0         0.13       1315.3 
      1695.0         0.15       1289.1 
      1696.0         0.10       1282.6 
      1697.0         0.17       1261.6 
      1698.0         0.20       1250.5 
      1699.0         0.13       1266.2 
      1700.0         0.10       1275.7 
      1701.0         0.17       1263.3 
      1702.0         0.20       1246.3 
