~Version Information
VERS.                      2.0: CWLS Log ASCII Standard - VERSION 2.0
WRAP.                       NO: One line per depth step
~Well Information Block
STRT.FT                -7.0000: 
STOP.FT               867.2500: 
STEP.FT                 0.2500: 
NULL.                -999.2500: 
COMP.          Pioneer Natural Resources: COMPANY
WELL.          Claim Jumper 41-22: WELL
FLD.           Purgatorie River: FIELD
LOC.           1120' FNL & 977' FEL--: LOCATION
PROV.                       CO: PROVINCE
CNTY.               Las Animas: COUNTRY
SRVC.          Patterson Wireline: SERVICE COMPANY
DATE.          Mon Jun 27 12:47:30 2005: LOG DATE
UWI.           05 071 08405 00: UNIQUE WELL ID
~Curve Information Block
DEPT.FT            0 000 00 00: Depth
CCL.                          : Casing Collar Locator
TT3.usec                      : CBL 3' Travel Time
AMP3.mV                       : CBL 3' Amplitude
GR.GAPI                       : Gamma Ray
~Parameter Information Block
~A  Depth       CCL         TT3         AMP3         GR     
# ...
   495.5000      0.0000    761.7671      5.5056     66.6640
   495.7500      0.0000    768.3647      5.5146     60.3754
   496.0000      0.0000    778.4841      5.5087     54.3102
   496.2500      0.0000    788.5709      5.4921     49.9918
   496.5000      0.0000    795.7643      5.4699     47.9445
   496.7500      0.0000    800.0800      5.4499     47.9054
   497.0000      0.0000    803.1822      5.4426     49.0160
   497.2500      0.0000    805.2944      5.4542     49.9552
   497.5000      0.0000    804.3050      5.4804     49.4616
   497.7500      0.0000    798.0035      5.5114     47.0453
   498.0000      0.0000    786.4940      5.5436     43.2680
   498.2500      0.0000    772.3602      5.5831     39.3926
   498.5000      0.0000    759.0225      5.6382     36.7521
   498.7500      0.0000    748.9971      5.7049     36.2104
   499.0000      0.0000    743.1826      5.7614     37.8117
   499.2500      0.0000    741.4275      5.7833     40.7124
   499.5000      0.0000    743.6871      5.7674     43.5791
   499.7500      0.0000    750.4031      5.7407     45.3423
   500.0000      0.0000    761.3754      5.7415     45.7419
   500.2500      0.0000    774.3188      5.7913     45.2774
   500.5000      0.0000    785.2733      5.8831     44.7959
   500.7500      0.0000    791.2452      5.9918     44.9835
   501.0000      0.0000    792.3895      6.0962     45.8833
   501.2500      0.0000    791.0804      6.1910     46.8171
   501.5000      0.0000    788.9806      6.2787     46.9868
   501.7500      0.0000    785.8176      6.3543     46.2693
   502.0000      0.0000    781.3147      6.3988     45.2740
   502.2500      0.0000    777.5898      6.3942     44.5638
   502.5000      0.0000    778.5471      6.3457     44.1074
   502.7500      0.0000    786.1973      6.2836     43.5722
   503.0000      0.0000    797.7761      6.2418     42.8075
   503.2500      0.0000    807.4407      6.2394     41.9246
   503.5000      0.0000    811.0875      6.2818     41.2098
   503.7500      0.0000    808.8640      6.3685     41.1544
   504.0000      0.0000    803.2858      6.4883     42.2395
   504.2500      0.0000    796.4318      6.6137     44.3341
   504.5000      0.0000    789.1758      6.7107     46.4700
   504.7500      0.0000    781.6851      6.7591     47.6296
   505.0000      0.0000    774.0497      6.7595     47.8666
   505.2500      0.0000    766.9730      6.7268     48.3337
   505.5000      0.0000    761.9664      6.6804     50.0080
   505.7500      0.0000    760.4363      6.6387     52.7554
   506.0000      0.0000    762.1180      6.6175     55.9561
   506.2500      0.0000    764.4070      6.6286     59.5096
   506.5000      0.0000    764.1349      6.6753     63.6333
   506.7500      0.0000    760.8260      6.7386     68.0265
   507.0000      0.0000    757.6440      6.7742     71.9161
   507.2500      0.0000    758.3052      6.7366     74.8908
   507.5000      0.0000    763.1639      6.6154     77.2394
   507.7500      0.0000    768.7537      6.4483     79.4431
   508.0000      0.0000    771.0420      6.2999     81.6811
   508.2500      0.0000    768.7443      6.2200     83.8187
   508.5000      0.0000    763.6213      6.2179     85.4682
   508.7500      0.0000    758.4461      6.2714     86.0395
   509.0000      0.0000    755.3141      6.3558     85.2779
   509.2500      0.0000    755.2391      6.4576     83.9661
   509.5000      0.0000    758.3083      6.5633     83.6733
   509.7500      0.0000    763.7969      6.6487     85.4364
   510.0000      0.0000    770.2369      6.6928     88.6865
   510.2500      0.0000    775.8510      6.6991     91.4148
   510.5000      0.0000    779.6247      6.6950     91.4364
   510.7500      0.0000    781.9555      6.7095     87.7628
   511.0000      0.0000    783.5608      6.7529     81.0343
   511.2500      0.0000    783.8922      6.8151     72.9429
   511.5000      0.0000    781.4379      6.8802     65.4511
   511.7500      0.0000    775.5976      6.9443     60.1790
   512.0000      0.0000    767.8242      7.0191     57.7642
   512.2500      0.0000    761.0795      7.1202     57.6118
   512.5000      0.0000    758.1696      7.2511     58.6582
   512.7500      0.0000    759.9045      7.4015     60.4547
   513.0000      0.0000    764.5093      7.5565     63.1422
   513.2500      0.0000    769.2344      7.7040     66.4623
   513.5000      0.0000    773.2285      7.8331     69.4723
   513.7500      0.0000    779.1110      7.9346     71.4553
   514.0000      0.0000    790.9275      8.0074     72.5608
   514.2500      0.0000    809.3295      8.0637     73.2961
   514.5000      0.0000    828.8765      8.1266     73.8758
   514.7500      0.0000    841.4490      8.2143     74.2459
   515.0000      0.0000    842.5243      8.3186     74.3410
   515.2500      0.0000    833.7197      8.4042     74.0126
   515.5000      0.0000    820.4852      8.4381     72.7825
   515.7500      0.0000    808.4320      8.4166     70.0487
   516.0000      0.0000    800.6681      8.3592     65.9905
   516.2500      0.0000    797.0582      8.2881     62.1487
   516.5000      0.0000    795.5640      8.2198     60.4359
   516.7500      0.0000    794.0613      8.1653     61.3662
   517.0000      0.0000    791.2867      8.1278     63.7316
   517.2500      0.0000    787.4496      8.0933     66.0618
   517.5000      0.0000    784.5533      8.0284     67.8065
   517.7500      0.0000    785.0574      7.9006     69.0882
   518.0000      0.0000    789.2179      7.7098     70.0348
   518.2500      0.0000    794.1251      7.4919     70.6425
   518.5000      0.0000    796.0126      7.2912     70.9713
   518.7500      0.0000    793.3693      7.1354     71.3301
   519.0000      0.0000    787.4995      7.0310     72.2269
   519.2500      0.0000    780.7500      6.9632     73.8765
   519.5000      0.0000    774.8986      6.9024     75.6641
   519.7500      0.0000    770.6966      6.8234     76.3213
   520.0000      0.0000    767.9595      6.7245     74.9089
   520.2500      0.0000    766.0807      6.6220     71.7004
   520.5000      0.0000    764.9578      6.5302     68.0170
   520.7500      0.0000    765.3938      6.4525     65.0965
   521.0000      0.0000    768.4763      6.3869     63.1319
   521.2500      0.0000    774.7515      6.3340     61.3340
   521.5000      0.0000    783.9272      6.3023     58.7485
   521.7500      0.0000    794.9160      6.3050     55.0850
   522.0000      0.0000    805.7624      6.3492     51.1400
   522.2500      0.0000    813.8108      6.4284     48.3662
   522.5000      0.0000    816.7907      6.5234     47.5830
   522.7500      0.0000    814.5015      6.6101     48.1652
   523.0000      0.0000    809.4096      6.6670     48.8878
   523.2500      0.0000    804.9945      6.6771     49.4179
   523.5000      0.0000    803.3112      6.6290     50.5013
   523.7500      0.0000    804.2157      6.5229     52.8210
   524.0000      0.0000    806.2206      6.3822     56.2028
   524.2500      0.0000    807.3094      6.2553     59.8322
   524.5000      0.0000    805.6177      6.1926     62.8157
   524.7500      0.0000    800.7283      6.2146     64.6007
   525.0000      0.0000    794.4583      6.3009     65.1927
   525.2500      0.0000    789.4320      6.4090     64.9693
   525.5000      0.0000    786.6375      6.5046     64.1428
   525.7500      0.0000    784.9857      6.5743     62.5329
   526.0000      0.0000    782.9951      6.6188     60.0547
   526.2500      0.0000    780.1284      6.6395     57.3224
   526.5000      0.0000    776.7504      6.6357     55.5055
   526.7500      0.0000    773.7254      6.6119     55.4575
   527.0000      0.0000    771.9597      6.5782     57.0036
   527.2500      0.0000    771.7580      6.5473     59.0508
   527.5000      0.0000    772.8615      6.5320     60.3912
   527.7500      0.0000    775.4887      6.5430     60.5563
   528.0000      0.0000    780.5916      6.5834     60.0559
   528.2500      0.0000    788.1407      6.6451     59.7374
   528.5000      0.0000    795.5629      6.7108     59.8595
   528.7500      0.0000    798.9975      6.7569     59.7938
