~Version Information
VERS.                      2.0: CWLS Log ASCII Standard - VERSION 2.0
WRAP.                       NO: One line per depth step
~Well Information Block
STRT.FT               -19.0000: 
STOP.FT              1343.5000: 
STEP.FT                 0.5000: 
NULL.                -999.2500: 
COMP.          Evergreen Operating Corporation: COMPANY
WELL.            Trigger 13-35: WELL
FLD.           Purgatorie River: FIELD
LOC.           2245' FSL & 594' FWL: LOCATION
PROV.                 Colorado: PROVINCE
CNTY.               Las Animas: COUNTRY
SRVC.                         : SERVICE COMPANY
DATE.          Mon Jun 23 12:06:52 2003: LOG DATE
UWI.           05-071-07838-00: UNIQUE WELL ID
~Curve Information Block
DEPT.FT            0 000 00 00: Depth
TT3.usec                      : CBL 3' Travel Time
AMP3.mV                       : CBL 3' Amplitude
GR.GAPI                       : Gamma Ray
CCL.                          : Casing Collar Locator
~Parameter Information Block
~A  Depth       TT3         AMP3         GR         CCL     
# ...
  1254.0000    772.1757      1.9264    113.6137      0.0000
  1254.5000    780.5484      2.0917    111.5161      0.0000
  1255.0000    774.6842      2.1706    106.1338      0.0000
  1255.5000    769.0844      2.1077    101.7403      0.0000
  1256.0000    769.4999      2.0137     98.1632      0.0000
  1256.5000    759.1841      1.9221     98.2601      0.0000
  1257.0000    739.8405      1.9591    102.7289      0.0000
  1257.5000    737.9459      2.0392    102.7976      0.0000
  1258.0000    739.6961      2.0472    102.6120      0.0000
  1258.5000    709.4554      2.0340    108.4925      0.0000
  1259.0000    685.5150      2.0358    119.1831      0.0000
  1259.5000    671.6586      2.1507    125.2523      0.0000
  1260.0000    588.2667      2.1360    122.2686      0.0000
  1260.5000    482.8250      2.0033    118.7372      0.0000
  1261.0000    501.8367      1.9721    112.9413      0.0000
  1261.5000    584.7385      1.8175    107.5127      0.0000
  1262.0000    649.9127      1.6818    108.9468      0.0000
  1262.5000    711.0939      1.8201    110.6166      0.0000
  1263.0000    703.7202      1.9081    104.7023      0.0000
  1263.5000    713.6658      2.0247     97.0060     -5.0000
  1264.0000    719.9202      1.9285     93.4363      0.0000
  1264.5000    704.1333      1.7359     90.6070      0.0000
  1265.0000    642.6998      1.7957     90.3739      0.0000
  1265.5000    511.3399      1.9392     90.3535      0.0000
  1266.0000    437.5260      1.9869     84.9157      0.0000
  1266.5000    425.8855      2.0413     72.9311      0.0000
  1267.0000    455.4709      2.1479     63.7579      0.0000
  1267.5000    562.4140      2.1915     64.5705      0.0000
  1268.0000    656.3466      2.0640     69.9312      0.0000
  1268.5000    739.9629      1.9269     74.3252      0.0000
  1269.0000    793.6705      1.8230     75.9242      0.0000
  1269.5000    812.8460      1.7423     69.5473      0.0000
  1270.0000    824.5057      1.6955     62.6182      0.0000
  1270.5000    875.6627      1.6466     68.1532      0.0000
  1271.0000    888.9193      1.6010     85.2129      0.0000
  1271.5000    824.3787      1.6038    107.6825      0.0000
  1272.0000    773.2357      1.5291    122.8334      0.0000
  1272.5000    758.1792      1.5866    124.4154      0.0000
  1273.0000    764.4456      1.8617    113.3767      0.0000
  1273.5000    747.6019      1.9384     99.9124      0.0000
  1274.0000    706.9823      1.9158     95.5185      0.0000
  1274.5000    624.7384      1.8110     94.9069      0.0000
  1275.0000    546.0526      1.6444     90.6854      0.0000
  1275.5000    484.5500      1.6349     90.9668      0.0000
  1276.0000    434.2413      1.7879     93.4803      0.0000
  1276.5000    414.5263      1.8680     95.7045      0.0000
  1277.0000    397.4112      1.8388    103.4764      0.0000
  1277.5000    393.8253      1.8185    112.4935      0.0000
  1278.0000    394.1868      1.8150    114.7872      0.0000
  1278.5000    394.1470      1.8607    112.3018      0.0000
  1279.0000    393.2080      1.8986    111.4697      0.0000
  1279.5000    390.4156      1.9351    111.1899      0.0000
  1280.0000    386.5308      1.9495    109.7929      0.0000
  1280.5000    383.3060      1.9386    103.6053      0.0000
  1281.0000    381.5595      1.9280     96.3988      0.0000
  1281.5000    381.0056      1.8756     94.4961      0.0000
  1282.0000    381.6212      1.8475     99.6521      0.0000
  1282.5000    382.9738      1.8771    105.0757      0.0000
  1283.0000    384.3648      1.9480    105.0745      0.0000
  1283.5000    385.8262      1.9497    100.6669      0.0000
  1284.0000    386.5861      1.9407     98.4721      0.0000
  1284.5000    385.8785      1.9431    103.9234      0.0000
  1285.0000    384.8423      1.9568    108.9722      0.0000
  1285.5000    384.1293      1.9443    104.8608      0.0000
  1286.0000    383.0429      1.9106     94.0214      0.0000
  1286.5000    382.4373      1.9356     86.6216      0.0000
  1287.0000    382.1094      1.9513     87.5118      0.0000
  1287.5000    381.8449      1.9635     90.2564      0.0000
  1288.0000    381.2130      1.9251     90.4435      0.0000
  1288.5000    380.4117      1.9256     90.8065      0.0000
  1289.0000    380.0360      1.9792     92.3580      0.0000
  1289.5000    379.8001      1.9921     94.1952      0.0000
  1290.0000    378.9093      1.9825     96.9048      0.0000
  1290.5000    377.4037      1.9907    101.9110      0.0000
  1291.0000    375.6875      1.9656    105.8462      0.0000
  1291.5000    374.2739      1.9275    103.8761      0.0000
  1292.0000    374.0524      1.8973     97.3860      0.0000
  1292.5000    376.5217      1.9346     97.5169      0.0000
  1293.0000    391.5867      1.9995    102.5616      0.0000
  1293.5000    414.1906      2.0003    101.5194      0.0000
  1294.0000    424.3795      1.9538     95.5662      0.0000
  1294.5000    427.7053      1.8773     91.5519      0.0000
  1295.0000    427.6559      1.8468     93.4089      0.0000
  1295.5000    426.7209      1.8741     99.0604      0.0000
  1296.0000    420.4872      1.9034     98.5167      0.0000
  1296.5000    400.0206      1.9154     91.8521      0.0000
  1297.0000    385.5377      1.9118     87.4606      0.0000
  1297.5000    382.3411      1.9617     87.1832      0.0000
  1298.0000    388.1045      1.9940     90.9970      0.0000
  1298.5000    412.2576      1.9682     95.0887      0.0000
  1299.0000    433.4150      1.9863    100.0158      0.0000
  1299.5000    439.8683      2.0214    105.3941      0.0000
  1300.0000    440.3233      1.9987    117.1086      0.0000
  1300.5000    441.7055      2.0121    119.1981      0.0000
  1301.0000    443.0099      2.0084     99.4112      0.0000
  1301.5000    440.5255      1.9138     84.8896      0.0000
  1302.0000    436.2353      1.9216     88.8462      0.0000
  1302.5000    434.4496      1.9943     96.6109      0.0000
  1303.0000    434.6928      1.9743     94.7973      0.0000
  1303.5000    434.6021      1.8903     88.2256      0.0000
  1304.0000    433.6418      1.8070     83.7358      0.0000
  1304.5000    436.1430      1.8134     80.0108      0.0000
  1305.0000    462.2010      1.7847     75.8159      0.0000
  1305.5000    526.7935      1.9521     77.9261      0.0000
  1306.0000    506.9279      2.1193     88.4937      0.0000
  1306.5000    456.4079      2.0027     94.1334      0.0000
  1307.0000    449.9902      1.9597     89.7443      5.0000
  1307.5000    464.1908      1.8982     85.6675      0.0000
  1308.0000    551.3469      1.9254     85.2304      0.0000
  1308.5000    593.7044      2.0174     85.8388      0.0000
  1309.0000    494.1213      1.8535     88.0839      0.0000
  1309.5000    455.9317      1.8672     88.7451      0.0000
  1310.0000    453.7281      1.8763     87.2561      0.0000
  1310.5000    459.6668      1.8325     89.0885      0.0000
  1311.0000    480.1834      1.8077     93.5841      0.0000
  1311.5000    493.8732      1.8612     95.5792      0.0000
  1312.0000    495.8796      1.9181     93.6676      0.0000
  1312.5000    496.0497      1.9466     89.8088      0.0000
  1313.0000    489.8011      1.9324     92.2511      0.0000
  1313.5000    470.0422      1.8805     95.8350      0.0000
  1314.0000    457.6288      1.8508     92.8012      0.0000
  1314.5000    456.9541      1.8501     91.7512      0.0000
  1315.0000    457.3698      1.8315     98.7094      0.0000
  1315.5000    456.4244      1.8750    105.8936      0.0000
  1316.0000    454.5359      1.9826    107.2354      0.0000
  1316.5000    453.7203      2.0246    103.3233      0.0000
  1317.0000    460.1573      1.9643     92.9458      0.0000
  1317.5000    477.4932      1.9010     84.4753      0.0000
  1318.0000    484.2074      1.9507     82.3765      0.0000
  1318.5000    490.8056      2.0275     84.7864      0.0000
  1319.0000    489.2269      2.0284     92.0585      0.0000
  1319.5000    482.0692      2.0105     97.2082      0.0000
  1320.0000    489.1669      2.0070     95.7459      0.0000
  1320.5000    487.7095      1.9843    100.8916      0.0000
