~Version Information
VERS.                      2.0: CWLS Log ASCII Standard - VERSION 2.0
WRAP.                       NO: One line per depth step
~Well Information Block
STRT.FT               898.0000: 
STOP.FT              2359.2000: 
STEP.FT                 0.1000: 
NULL.                -999.2500: 
COMP.          Pioneer Natural Resources: COMPANY
WELL.             Trimax 44-23: WELL
FLD.           Purgatoire River: FIELD
LOC.           527' FSL & 1064' FEL: LOCATION
PROV.                 Colorado: PROVINCE
CNTY.               Las Animas: COUNTRY
SRVC.                Patterson: SERVICE COMPANY
DATE.          Mon Mar 14 07:28:19 2005: LOG DATE
UWI.           05 071 08326 00: UNIQUE WELL ID
~Curve Information Block
DEPT.FT            0 000 00 00: Depth
DCAL.in                       : CDL Caliper
RHOB.g/cc                     : CDL Bulk Density
RHOC.g/cc                     : CDL Density Correction
DPOR.pu                       : CDL Density Porosity
GR.GAPI                       : Gamma Ray
NPOR.pu                       : Neutron Porosity
~Parameter Information Block
~A  Depth       DCAL        RHOB        RHOC        DPOR         GR         NPOR    
# ...
  1090.0000      7.9271      2.5031      0.0612      8.9053     70.8981     19.8371
  1090.1000      7.9271      2.4863     -0.0072      9.9211     68.9975     20.0120
  1090.2000      7.9271      2.4897      0.0213      9.7140     65.3859     20.4433
  1090.3000      7.9309      2.5126      0.0395      8.3258     62.1938     21.0304
  1090.4000      7.9309      2.5258      0.0959      7.5301     59.6740     21.4783
  1090.5000      7.9323      2.5119      0.0281      8.3686     57.2788     21.9362
  1090.6000      7.9323      2.4904      0.0164      9.6727     56.4648     22.4186
  1090.7000      7.9323      2.4850      0.0201      9.9991     58.5624     22.6070
  1090.8000      7.9323      2.4966      0.0054      9.2956     59.8750     22.5648
  1090.9000      7.9323      2.5112      0.0519      8.4127     58.3265     22.2057
  1091.0000      7.9325      2.5210      0.0532      7.8169     56.9880     21.5302
  1091.1000      7.9325      2.5324      0.0458      7.1275     56.5761     21.2075
  1091.2000      7.9325      2.5437      0.0800      6.4449     56.1115     21.5198
  1091.3000      7.9331      2.5424      0.0598      6.5214     55.9667     21.8624
  1091.4000      7.9331      2.5278      0.0514      7.4044     56.5310     21.7899
  1091.5000      7.9336      2.5113      0.0072      8.4065     58.5218     21.3025
  1091.6000      7.9336      2.4944      0.0565      9.4278     61.7076     20.6370
  1091.7000      7.9336      2.4726      0.0011     10.7505     64.9135     20.3881
  1091.8000      7.9335      2.4588     -0.0151     11.5885     68.8807     20.5536
  1091.9000      7.9335      2.4641      0.0002     11.2646     74.7757     20.3545
  1092.0000      7.9329      2.4794      0.0118     10.3371     82.7637     19.7394
  1092.1000      7.9329      2.4934      0.0501      9.4893     92.1272     19.6337
  1092.2000      7.9329      2.4998      0.0662      9.1021     99.9654     20.6059
  1092.3000      7.9319      2.5007      0.0392      9.0473    103.5536     21.9360
  1092.4000      7.9319      2.5051      0.0391      8.7837    109.0234     22.5854
  1092.5000      7.9308      2.5087      0.0709      8.5662    121.5822     22.7496
  1092.6000      7.9308      2.5058     -0.0052      8.7376    134.1884     23.0408
  1092.7000      7.9308      2.5095      0.0046      8.5132    142.2220     23.2408
  1092.8000      7.9303      2.5160      0.0469      8.1198    147.6411     22.8717
  1092.9000      7.9303      2.4929      0.0719      9.5208    148.7092     22.0469
  1093.0000      7.9297      2.4302      0.0376     13.3220    143.8676     21.2430
  1093.1000      7.9297      2.3546      0.0033     17.9041    137.3663     20.8241
  1093.2000      7.9297      2.2881     -0.0116     21.9332    134.3010     20.8216
  1093.3000      7.9295      2.2321     -0.0677     25.3256    133.5747     21.0027
  1093.4000      7.9295      2.1766     -0.0352     28.6883    131.5068     21.3133
  1093.5000      7.9308      2.1175     -0.0306     32.2749    130.9487     21.7973
  1093.6000      7.9308      2.0746     -0.0889     34.8737    135.5787     22.1536
  1093.7000      7.9308      2.0661      0.0242     35.3860    141.9777     21.9949
  1093.8000      7.9322      2.0873      0.0450     34.1045    143.8480     21.5212
  1093.9000      7.9322      2.1280      0.1300     31.6378    141.3796     21.4615
  1094.0000      7.9318      2.1656      0.2428     29.3570    141.7630     21.8356
  1094.1000      7.9318      2.1798      0.1730     28.4983    146.9882     21.8368
  1094.2000      7.9318      2.1830      0.1938     28.3006    151.8625     21.3867
  1094.3000      7.9283      2.1856      0.2103     28.1431    153.8284     21.1405
  1094.4000      7.9283      2.1723      0.1936     28.9504    153.3668     21.1950
  1094.5000      7.9261      2.1321      0.1043     31.3880    150.0332     21.1061
  1094.6000      7.9261      2.0730      0.0658     34.9704    145.3173     20.6183
  1094.7000      7.9261      2.0079      0.0296     38.9169    142.6019     20.0476
  1094.8000      7.9300      1.9424      0.0172     42.8856    142.4664     20.1772
  1094.9000      7.9300      1.8854     -0.0078     46.3405    143.0057     21.1237
  1095.0000      7.9341      1.8563      0.0517     48.1046    144.7793     22.0788
  1095.1000      7.9341      1.8656      0.0837     47.5401    149.1078     22.6812
  1095.2000      7.9341      1.9053      0.0923     45.1311    153.4560     23.0195
  1095.3000      7.9356      1.9519      0.1284     42.3093    155.2261     22.9067
  1095.4000      7.9356      1.9884      0.0954     40.0956    155.0094     22.3629
  1095.5000      7.9360      2.0333      0.1131     37.3783    152.8609     21.7296
  1095.6000      7.9360      2.1144      0.1579     32.4601    150.5641     21.3651
  1095.7000      7.9360      2.2184      0.2676     26.1559    153.5615     21.3307
  1095.8000      7.9357      2.2885      0.3259     21.9080    159.6613     21.4870
  1095.9000      7.9357      2.2911      0.1735     21.7517    161.2381     21.9305
  1096.0000      7.9349      2.2518      0.1156     24.1355    156.7672     22.6342
  1096.1000      7.9349      2.2161      0.1061     26.2955    147.0405     22.9151
  1096.2000      7.9349      2.2135      0.1486     26.4570    133.4779     22.2261
  1096.3000      7.9336      2.2308      0.2426     25.4057    120.6576     21.0765
  1096.4000      7.9336      2.2222      0.2354     25.9302    110.8992     20.2275
  1096.5000      7.9326      2.1612      0.1858     29.6225    101.7426     19.6858
  1096.6000      7.9326      2.0617      0.1205     35.6537     91.6653     19.0742
  1096.7000      7.9326      1.9550      0.0279     42.1213     83.7976     18.4213
  1096.8000      7.9313      1.8643      0.0101     47.6178     79.4010     18.0017
  1096.9000      7.9313      1.7985     -0.0264     51.6039     77.1119     17.9857
  1097.0000      7.9290      1.7539      0.0115     54.3091     76.3926     18.2488
  1097.1000      7.9290      1.7055      0.0357     57.2396     76.1295     18.4047
  1097.2000      7.9290      1.6368     -0.0851     61.4054     74.0613     18.3463
  1097.3000      7.9276      1.5726     -0.0477     65.2970     73.2181     18.5642
  1097.4000      7.9276      1.5492     -0.0326     66.7160     78.2929     19.4421
  1097.5000      7.9301      1.5737      0.0923     65.2277     87.2012     20.7098
  1097.6000      7.9301      1.6281      0.1021     61.9349     96.9466     21.8734
  1097.7000      7.9301      1.6962      0.1299     57.8084    105.6982     22.8782
  1097.8000      7.9398      1.7777      0.0842     52.8654    110.5834     23.8925
  1097.9000      7.9398      1.8858      0.1180     46.3175    113.7299     24.7027
  1098.0000      7.9510      2.0158      0.1720     38.4368    119.8719     25.3202
  1098.1000      7.9510      2.1356      0.2017     31.1764    128.0292     26.0803
  1098.2000      7.9510      2.2325      0.1879     25.3033    133.9927     27.0762
  1098.3000      7.9548      2.3381      0.1493     18.9009    136.4148     28.1115
  1098.4000      7.9548      2.4642      0.1999     11.2632    137.8104     28.7417
  1098.5000      7.9520      2.5529      0.2213      5.8848    142.0343     28.7701
  1098.6000      7.9520      2.5646      0.0526      5.1751    148.5204     28.7033
  1098.7000      7.9520      2.5414      0.0434      6.5828    150.6749     28.8363
  1098.8000      7.9471      2.5330      0.0299      7.0908    146.3412     28.9022
  1098.9000      7.9471      2.5453      0.0342      6.3483    140.4804     28.9357
  1099.0000      7.9433      2.5570      0.0830      5.6374    136.3117     28.9370
  1099.1000      7.9433      2.5534      0.0662      5.8569    134.3234     28.6563
  1099.2000      7.9433      2.5472      0.0148      6.2310    136.7189     28.2575
  1099.3000      7.9418      2.5527      0.0790      5.8969    142.6103     27.9695
  1099.4000      7.9418      2.5595      0.0473      5.4876    146.0026     27.9484
  1099.5000      7.9417      2.5510      0.0738      5.9996    145.1980     28.0518
