~Version Information
VERS.                      2.0: CWLS Log ASCII Standard - VERSION 2.0
WRAP.                       NO: One line per depth step
~Well Information Block
STRT.FT               550.0000: 
STOP.FT              1577.7000: 
STEP.FT                 0.1000: 
NULL.                -999.2500: 
COMP.          Pioneer Natural Resources: COMPANY
WELL.          Kristin 22-23 Tr: WELL
FLD.           Purgatoire River: FIELD
LOC.           2273' FNL & 2029' FWL: LOCATION
PROV.                 Colorado: PROVINCE
CNTY.               Las Animas: COUNTRY
SRVC.                Patterson: SERVICE COMPANY
DATE.          Fri Jan 21 06:58:50 2005: LOG DATE
UWI.           05 071 08259 00: UNIQUE WELL ID
~Curve Information Block
DEPT.FT            0 000 00 00: Depth
DCAL.in                       : CDL Caliper
RHOB.g/cc                     : CDL Bulk Density
RHOC.g/cc                     : CDL Density Correction
DPOR.pu                       : CDL Density Porosity
NPOR.pu                       : Neutron Porosity
GR.GAPI                       : Gamma Ray
~Parameter Information Block
~A  Depth       DCAL        RHOB        RHOC        DPOR        NPOR         GR     
# ...
  1078.0000      8.0764      1.6267     -0.1194     62.0153     34.0889    115.7899
  1078.1000      8.0764      1.6259     -0.1225     62.0664     33.2013    112.1809
  1078.2000      8.0764      1.6876     -0.0116     58.3287     32.4124     97.6708
  1078.3000      8.0807      1.7959      0.1339     51.7650     31.9871     83.6932
  1078.4000      8.0807      1.9222      0.1987     44.1081     31.3347     77.3235
  1078.5000      8.0786      2.0517      0.2536     36.2608     30.3305     76.1104
  1078.6000      8.0786      2.1809      0.2943     28.4275     29.3601     76.6834
  1078.7000      8.0786      2.3081      0.3250     20.7210     28.2177     76.8852
  1078.8000      8.0439      2.4283      0.3252     13.4367     26.5465     74.9539
  1078.9000      8.0439      2.5266      0.3013      7.4784     24.7670     73.6235
  1079.0000      7.9829      2.5878      0.2335      3.7714     23.4340     74.8561
  1079.1000      7.9829      2.6087      0.2055      2.5011     22.8401     76.1408
  1079.2000      7.9829      2.5960      0.1545      3.2704     22.7357     78.1094
  1079.3000      7.9459      2.5720      0.0812      4.7291     22.4760     83.0672
  1079.4000      7.9459      2.5695      0.0474      4.8817     22.2508     89.9603
  1079.5000      7.9367      2.5928      0.1376      3.4665     22.5166     95.9043
  1079.6000      7.9367      2.6160      0.1173      2.0606     23.0289    101.8969
  1079.7000      7.9367      2.6209      0.1127      1.7626     23.4994    110.1100
  1079.8000      7.9318      2.6104      0.1031      2.4008     23.7341    115.9762
  1079.9000      7.9318      2.5950      0.1005      3.3334     23.6041    114.9079
  1080.0000      7.9183      2.5779      0.0777      4.3726     23.2424    109.3496
  1080.1000      7.9183      2.5607      0.0632      5.4135     22.8727    105.0833
  1080.2000      7.9183      2.5506      0.0560      6.0268     22.8371    104.5076
  1080.3000      7.9058      2.5445      0.1001      6.3966     23.3846    107.1085
  1080.4000      7.9058      2.5270      0.0760      7.4539     24.3470    115.1560
  1080.5000      7.9150      2.5041      0.0113      8.8394     25.1187    130.5876
  1080.6000      7.9150      2.5023     -0.0134      8.9518     25.2827    146.2652
  1080.7000      7.9150      2.5175      0.0870      8.0323     25.3814    151.2693
  1080.8000      7.9305      2.5217      0.0779      7.7730     25.6971    145.2062
  1080.9000      7.9305      2.5168      0.0158      8.0733     25.6212    138.8013
  1081.0000      7.9400      2.5232      0.0428      7.6829     25.0227    139.0206
  1081.1000      7.9400      2.5401      0.0588      6.6579     24.4635    144.9291
  1081.2000      7.9400      2.5519      0.0858      5.9476     24.1475    153.9382
  1081.3000      7.9441      2.5520      0.0769      5.9384     23.6928    161.2381
  1081.4000      7.9441      2.5463      0.1084      6.2874     23.0479    160.8630
  1081.5000      7.9421      2.5432      0.0857      6.4755     22.3847    155.2424
  1081.6000      7.9421      2.5502      0.0797      6.0471     21.6105    152.6315
  1081.7000      7.9421      2.5702      0.1046      4.8347     20.9724    152.0371
  1081.8000      7.9382      2.6036      0.0986      2.8113     20.9830    147.7554
  1081.9000      7.9382      2.6397      0.1700      0.6249     21.5333    140.8160
  1082.0000      7.9383      2.6579      0.1239     -0.4796     22.2082    132.0258
  1082.1000      7.9383      2.6530      0.1016     -0.1826     22.7731    122.9355
  1082.2000      7.9383      2.6341      0.0678      0.9632     23.1651    120.3566
  1082.3000      7.9411      2.6114      0.0551      2.3411     23.4413    124.5835
  1082.4000      7.9411      2.5978      0.0100      3.1652     23.7549    132.2780
  1082.5000      7.9423      2.6021      0.0722      2.9005     24.2091    145.3435
  1082.6000      7.9423      2.6140      0.0624      2.1789     24.5402    163.3780
  1082.7000      7.9423      2.6183      0.0841      1.9235     24.7981    175.0693
  1082.8000      7.9441      2.6129      0.0557      2.2461     25.2229    173.9509
  1082.9000      7.9441      2.6093      0.0557      2.4672     25.8799    170.7985
  1083.0000      7.9533      2.6124      0.0603      2.2812     26.6818    174.6380
  1083.1000      7.9533      2.6191      0.0535      1.8743     27.3032    179.3045
  1083.2000      7.9533      2.6270      0.0837      1.3929     27.4208    175.9097
  1083.3000      7.9595      2.6225      0.1247      1.6670     26.9349    167.4001
  1083.4000      7.9595      2.5980      0.0390      3.1528     26.3901    162.2571
  1083.5000      7.9468      2.5765      0.0206      4.4553     26.1196    164.8208
  1083.6000      7.9468      2.5724      0.0461      4.7006     25.7406    171.1854
  1083.7000      7.9468      2.5678      0.0624      4.9841     25.3085    174.9640
  1083.8000      7.9343      2.5507      0.0441      6.0154     24.9920    173.9355
  1083.9000      7.9343      2.5276      0.0589      7.4175     24.7669    168.3955
  1084.0000      7.9298      2.5003      0.0414      9.0705     24.2705    161.9966
  1084.1000      7.9298      2.4692      0.0734     10.9550     23.0194    157.6798
  1084.2000      7.9298      2.4482      0.0306     12.2312     21.8246    156.3810
  1084.3000      7.9228      2.4572      0.0360     11.6826     21.4370    155.1107
  1084.4000      7.9228      2.4914      0.1304      9.6103     21.6080    148.0657
  1084.5000      7.9152      2.5156      0.1359      8.1445     22.1081    136.3852
  1084.6000      7.9152      2.5129      0.0767      8.3090     22.2570    125.9789
  1084.7000      7.9152      2.5061      0.0536      8.7219     21.5191    118.9723
  1084.8000      7.9133      2.5121      0.0659      8.3562     20.8529    114.6094
  1084.9000      7.9133      2.5204      0.0827      7.8558     21.0583    113.2563
  1085.0000      7.9143      2.5201      0.0575      7.8706     21.6758    115.8900
  1085.1000      7.9143      2.5154      0.0771      8.1579     21.9917    119.7487
  1085.2000      7.9143      2.5173      0.0250      8.0402     21.7768    121.8348
  1085.3000      7.9163      2.5266      0.0638      7.4766     21.3094    126.4341
  1085.4000      7.9163      2.5331      0.0694      7.0874     21.2969    138.8323
  1085.5000      7.9266      2.5415      0.0461      6.5764     21.5613    153.7338
  1085.6000      7.9266      2.5567      0.0750      5.6538     21.2690    160.3640
  1085.7000      7.9266      2.5612      0.0823      5.3796     20.8231    156.9200
  1085.8000      7.9353      2.5478      0.0617      6.1917     21.0130    149.9170
  1085.9000      7.9353      2.5411      0.0277      6.6013     21.3346    146.9069
  1086.0000      7.9244      2.5552      0.0826      5.7446     21.0346    146.2649
  1086.1000      7.9244      2.5697      0.0701      4.8652     20.7528    142.2253
  1086.2000      7.9244      2.5672      0.0839      5.0193     21.0606    136.4131
  1086.3000      7.9128      2.5566      0.0489      5.6594     21.3125    129.8927
  1086.4000      7.9128      2.5550      0.0582      5.7579     21.1203    121.6585
  1086.5000      7.9123      2.5641      0.0632      5.2049     20.9637    114.7785
  1086.6000      7.9123      2.5752      0.0664      4.5336     21.1642    111.5632
  1086.7000      7.9123      2.5871      0.0307      3.8093     21.5023    110.7610
  1086.8000      7.9142      2.5993      0.0720      3.0705     21.4608    112.5030
  1086.9000      7.9142      2.5975      0.1039      3.1799     20.7787    116.0387
  1087.0000      7.9133      2.5835      0.0428      4.0330     19.8128    119.3844
  1087.1000      7.9133      2.5846      0.0488      3.9608     18.9427    122.8450
  1087.2000      7.9133      2.6089      0.0955      2.4925     18.2866    123.0468
  1087.3000      7.9113      2.6323      0.0976      1.0720     17.8177    117.7569
  1087.4000      7.9113      2.6370      0.0682      0.7893     17.3966    113.9151
  1087.5000      7.9094      2.6276      0.0682      1.3578     17.3162    115.8130
