~Version Information
VERS.                      2.0: CWLS Log ASCII Standard - VERSION 2.0
WRAP.                       NO: One line per depth step
~Well Information Block
STRT.FT               387.1000: 
STOP.FT              1748.0000: 
STEP.FT                 0.1000: 
NULL.                -999.2500: 
COMP.          Evergreen Operating Corp.: COMPANY
WELL.          Pachorek 13-31 Tr: WELL
FLD.           Cottontail Pass: FIELD
LOC.           1575' FSL & 900' FWL--API# 05-071-07019-00: LOCATION
PROV.                 Colorado: PROVINCE
CNTY.               Las Animas: COUNTRY
SRVC.          Scientific Data Systems, Inc.: SERVICE COMPANY
DATE.          Tue Aug 08 15:02:37 2000: LOG DATE
UWI.                      05071070190000:UNIQUE WELL IDENTIFICATION
~Curve Information Block
DEPT.FT            0 000 00 00: Depth
DCAL.in                       : CDL Caliper
RHOB.g/cc                     : CDL Bulk Density
RHOC.g/cc                     : CDL Density Correction
DPOR.pu                       : CDL Density Porosity
GR.GAPI                       : Gamma Ray
NPOR.pu                       : Neutron Porosity
~Parameter Information Block
~A  Depth       DCAL        RHOB        RHOC        DPOR         GR         NPOR    
# ...
  1020.7000      7.8461      2.6834      0.0596     -2.0229    132.4531     28.4315
  1020.8000      7.8605      2.6865      0.0571     -2.2123    129.9587     28.4589
  1020.9000      7.8605      2.6884      0.0545     -2.3261    127.3182     28.4540
  1021.0000      7.8708      2.6889      0.0516     -2.3580    124.5652     28.4053
  1021.1000      7.8708      2.6880      0.0483     -2.3057    121.7466     28.3041
  1021.2000      7.8708      2.6858      0.0447     -2.1711    118.9358     28.1457
  1021.3000      7.8621      2.6823      0.0408     -1.9604    116.2233     27.9298
  1021.4000      7.8621      2.6778      0.0370     -1.6841    113.7214     27.6614
  1021.5000      7.8422      2.6724      0.0340     -1.3554    111.5480     27.3498
  1021.6000      7.8422      2.6663      0.0322     -0.9896    109.8193     27.0080
  1021.7000      7.8422      2.6599      0.0321     -0.6026    108.6339     26.6518
  1021.8000      7.8356      2.6535      0.0342     -0.2093    108.0591     26.2986
  1021.9000      7.8356      2.6471      0.0386      0.1776    108.1293     25.9662
  1022.0000      7.8464      2.6410      0.0448      0.5484    108.8432     25.6716
  1022.1000      7.8464      2.6352      0.0524      0.8970    110.1714     25.4306
  1022.2000      7.8464      2.6299      0.0607      1.2208    112.0586     25.2562
  1022.3000      7.8600      2.6249      0.0686      1.5203    114.4310     25.1586
  1022.4000      7.8600      2.6203      0.0755      1.7984    117.2048     25.1443
  1022.5000      7.8619      2.6160      0.0805      2.0592    120.2862     25.2154
  1022.6000      7.8619      2.6119      0.0832      2.3073    123.5791     25.3696
  1022.7000      7.8619      2.6080      0.0834      2.5465    126.9861     25.5996
  1022.8000      7.8551      2.6041      0.0813      2.7799    130.4152     25.8933
  1022.9000      7.8551      2.6004      0.0773      3.0088    133.7834     26.2345
  1023.0000      7.8593      2.5966      0.0718      3.2335    137.0225     26.6038
  1023.1000      7.8593      2.5930      0.0656      3.4527    140.0827     26.9798
  1023.2000      7.8593      2.5895      0.0594      3.6652    142.9340     27.3414
  1023.3000      7.8799      2.5862      0.0537      3.8692    145.5602     27.6690
  1023.4000      7.8799      2.5829      0.0488      4.0638    147.9542     27.9463
  1023.5000      7.9028      2.5799      0.0451      4.2489    150.1117     28.1612
  1023.6000      7.9028      2.5770      0.0424      4.4259    152.0235     28.3057
  1023.7000      7.9028      2.5741      0.0407      4.5973    153.6739     28.3758
  1023.8000      7.9168      2.5713      0.0398      4.7672    155.0431     28.3704
  1023.9000      7.9168      2.5685      0.0394      4.9405    156.1197     28.2907
  1024.0000      7.9225      2.5655      0.0395      5.1227    156.8988     28.1399
  1024.1000      7.9225      2.5622      0.0399      5.3190    157.4025     27.9230
  1024.2000      7.9225      2.5587      0.0407      5.5343    157.6827     27.6480
  1024.3000      7.9245      2.5548      0.0418      5.7717    157.8269     27.3263
  1024.4000      7.9245      2.5505      0.0433      6.0325    157.9539     26.9738
  1024.5000      7.9224      2.5458      0.0451      6.3157    158.2005     26.6109
  1024.6000      7.9224      2.5408      0.0474      6.6170    158.7090     26.2616
  1024.7000      7.9224      2.5357      0.0500      6.9295    159.6074     25.9514
  1024.8000      7.9171      2.5305      0.0530      7.2434    160.9847     25.7059
  1024.9000      7.9171      2.5255      0.0563      7.5464    162.8767     25.5476
  1025.0000      7.9135      2.5209      0.0602      7.8244    165.2567     25.4937
  1025.1000      7.9135      2.5170      0.0647      8.0628    168.0304     25.5552
  1025.2000      7.9135      2.5139      0.0698      8.2470    171.0434     25.7365
  1025.3000      7.9107      2.5120      0.0757      8.3640    174.1006     26.0351
  1025.4000      7.9107      2.5113      0.0823      8.4031    176.9950     26.4432
  1025.5000      7.9076      2.5121      0.0893      8.3572    179.5286     26.9483
  1025.6000      7.9076      2.5143      0.0964      8.2229    181.5455     27.5350
  1025.7000      7.9076      2.5180      0.1031      8.0008    182.9500     28.1864
  1025.8000      7.9094      2.5230      0.1089      7.6956    183.7153     28.8847
  1025.9000      7.9094      2.5293      0.1132      7.3151    183.8921     29.6122
  1026.0000      7.9115      2.5366      0.1156      6.8697    183.5876     30.3523
  1026.1000      7.9115      2.5449      0.1158      6.3710    182.9526     31.0893
  1026.2000      7.9115      2.5538      0.1135      5.8312    182.1535     31.8088
  1026.3000      7.8983      2.5632      0.1089      5.2616    181.3485     32.4985
  1026.4000      7.8983      2.5729      0.1022      4.6728    180.6608     33.1470
  1026.5000      7.8827      2.5828      0.0941      4.0732    180.1653     33.7441
  1026.6000      7.8827      2.5927      0.0849      3.4698    179.8734     34.2805
  1026.7000      7.8827      2.6027      0.0756      2.8682    179.7363     34.7474
  1026.8000      7.8776      2.6125      0.0668      2.2731    179.6576     35.1362
  1026.9000      7.8776      2.6221      0.0590      1.6891    179.5118     35.4389
  1027.0000      7.8812      2.6315      0.0528      1.1218    179.1669     35.6483
  1027.1000      7.8812      2.6405      0.0484      0.5778    178.5120     35.7588
  1027.2000      7.8812      2.6489      0.0458      0.0653    177.4797     35.7678
  1027.3000      7.8878      2.6567      0.0448     -0.4053    176.0587     35.6764
  1027.4000      7.8878      2.6636      0.0453     -0.8227    174.2975     35.4907
  1027.5000      7.8869      2.6694      0.0468     -1.1748    172.2947     35.2217
  1027.6000      7.8869      2.6739      0.0490     -1.4496    170.1802     34.8857
  1027.7000      7.8869      2.6770      0.0516     -1.6367    168.0950     34.5023
  1027.8000      7.8745      2.6785      0.0545     -1.7286    166.1688     34.0927
  1027.9000      7.8745      2.6784      0.0574     -1.7208    164.5060     33.6770
  1028.0000      7.8572      2.6766      0.0602     -1.6141    163.1704     33.2720
  1028.1000      7.8572      2.6733      0.0629     -1.4137    162.1980     32.8892
  1028.2000      7.8572      2.6686      0.0655     -1.1302    161.5910     32.5337
  1028.3000      7.8371      2.6628      0.0679     -0.7786    161.3320     32.2049
  1028.4000      7.8371      2.6562      0.0700     -0.3779    161.3959     31.8982
  1028.5000      7.8143      2.6492      0.0720      0.0502    161.7536     31.6071
  1028.6000      7.8143      2.6420      0.0738      0.4822    162.3808     31.3262
  1028.7000      7.8143      2.6352      0.0757      0.8947    163.2519     31.0538
  1028.8000      7.8109      2.6291      0.0779      1.2650    164.3394     30.7932
  1028.9000      7.8109      2.6241      0.0804      1.5724    165.6077     30.5527
  1029.0000      7.8310      2.6203      0.0834      1.7991    167.0049     30.3454
  1029.1000      7.8310      2.6181      0.0871      1.9307    168.4589     30.1863
  1029.2000      7.8310      2.6177      0.0914      1.9567    169.8835     30.0908
  1029.3000      7.8479      2.6191      0.0962      1.8704    171.1779     30.0707
  1029.4000      7.8479      2.6224      0.1013      1.6698    172.2393     30.1329
  1029.5000      7.8393      2.6276      0.1065      1.3571    172.9781     30.2770
  1029.6000      7.8393      2.6345      0.1117      0.9390    173.3291     30.4952
  1029.7000      7.8393      2.6430      0.1167      0.4272    173.2636     30.7719
  1029.8000      7.8097      2.6527      0.1212     -0.1619    172.7915     31.0858
  1029.9000      7.8097      2.6633      0.1252     -0.8075    171.9647     31.4118
  1030.0000      7.7912      2.6745      0.1282     -1.4839    170.8609     31.7235
  1030.1000      7.7912      2.6857      0.1301     -2.1622    169.5771     31.9967
  1030.2000      7.7912      2.6964      0.1303     -2.8110    168.2140     32.2118
