~Version Information
 VERS.                                  2.0 : CWLS LAS VERSION
 WRAP.                                   NO : WRAPING MODE
 SWARE .                 MController 2.5.0J : SOFTWARE VERSION
~Well Information
 WELL.                         Sebring42-29 : WELL
 COMP.    Pioneer Natural Resources USA Inc : COMPANY
 FLD.                      Purgatoire River : FIELD
 LOC.                SE/NE Sec 29 T32S R67W : LOCATION
 DATE.                             08/12/05 : DATE(S) LOGGED
 SRVC.       BLANCO Geological Services LLC : SERVICE COMPANY
 STAT.                                   CO : STATE
 CNTY.                           Las Animas : COUNTY
 CTRY.                                  USA : COUNTRY
 API.                       05-071-08293-00 : API NUMBER
 STRT.FT                             750.00 : START DEPTH
 STOP.FT                            2880.00 : STOP DEPTH
 STEP.FT                               1.00 : DEPTH INCREMENT
 NULL.                                -9999 : NULL VALUE
~Curve information
 DEPTH.FT                                   :
 ROP.MIN/FT                                 :
 GAS.UNITS                                  :
~ASCII Log data
# ...
      1750.0         0.17        173.4 
      1751.0         0.20        136.9 
      1752.0         0.17        103.9 
      1753.0         0.20         82.0 
      1754.0         0.20         60.1 
      1755.0         0.27         43.2 
      1756.0         0.25         28.1 
      1757.0         0.23         21.6 
      1758.0         0.23         17.6 
      1759.0         0.23         15.3 
      1760.0         0.30         14.3 
      1761.0         0.30         17.7 
      1762.0         0.30         28.8 
      1763.0         0.27         39.2 
      1764.0         0.20         42.7 
      1765.0         0.23         44.1 
      1766.0         0.17         44.3 
      1767.0         0.17         44.1 
      1768.0         0.17         44.9 
      1769.0         0.20         46.7 
      1770.0         0.23         51.6 
      1771.0         5.33        242.9 
      1772.0         0.33        246.2 
      1773.0         0.20        247.5 
      1774.0         0.17        248.5 
      1775.0         0.20        247.8 
      1776.0         0.20        230.5 
      1777.0         0.27        185.2 
      1778.0         0.32        117.5 
      1779.0         0.33         66.2 
      1780.0         0.40         35.0 
      1781.0         0.43         20.2 
      1782.0         0.43         14.6 
      1783.0         0.60         16.9 
      1784.0         0.60         24.6 
      1785.0         0.68         36.7 
      1786.0         0.67         61.2 
      1787.0         0.40         71.3 
      1788.0         0.73         82.3 
      1789.0         0.40         85.5 
      1790.0         0.47         91.3 
      1791.0         0.38         99.4 
      1792.0         0.30        101.3 
      1793.0         0.20        100.4 
      1794.0         0.13         98.1 
      1795.0         0.27         96.8 
      1796.0         0.23         98.4 
      1797.0         0.13        100.5 
      1798.0         0.20        103.2 
      1799.0         0.17        103.2 
      1800.0         0.20        101.9 
      1801.0         5.50        348.3 
      1802.0         0.57        328.5 
      1803.0         0.70        296.5 
      1804.0         0.43        278.1 
      1805.0         0.40        319.8 
      1806.0         0.40        328.4 
      1807.0         0.38        274.4 
      1808.0         0.33        144.9 
      1809.0         0.43         65.7 
      1810.0         0.53         26.9 
      1811.0         0.43         16.0 
      1812.0         0.33         13.3 
      1813.0         0.27         13.6 
      1814.0         0.47         18.6 
      1815.0         0.10         20.7 
      1816.0         0.10         23.4 
      1817.0         0.38         29.7 
      1818.0         0.57         40.7 
      1819.0         0.47         48.4 
      1820.0         0.43         53.1 
      1821.0         0.37         60.5 
      1822.0         0.57         86.7 
      1823.0         0.17         96.6 
      1824.0         0.23        113.0 
      1825.0         0.28        130.1 
      1826.0         0.17        136.0 
      1827.0         0.17        136.3 
      1828.0         0.53        133.8 
      1829.0         0.33         89.0 
      1830.0         0.37         57.6 
      1831.0         7.47        260.5 
      1832.0         0.20        278.4 
      1833.0         0.13        289.8 
      1834.0         0.10        297.9 
      1835.0         0.78        326.0 
      1836.0         0.10        325.2 
      1837.0         0.17        323.5 
      1838.0         1.70        317.3 
      1839.0         0.80         44.2 
      1840.0         0.75         14.8 
      1841.0         0.50         13.0 
      1842.0         0.53         12.9 
      1843.0         0.50         12.8 
      1844.0         0.40         12.6 
      1845.0         0.13         12.4 
      1846.0         0.23         12.8 
      1847.0         0.37         12.4 
      1848.0         0.35         12.0 
      1849.0         0.10         11.6 
      1850.0         0.20         11.8 
      1851.0         0.17         11.8 
      1852.0         0.10         11.7 
      1853.0         0.07         11.6 
      1854.0         0.13         12.2 
      1855.0         0.17         11.8 
      1856.0         0.07         11.4 
      1857.0         0.30         11.8 
      1858.0         0.27         26.7 
      1859.0         0.20         27.6 
      1860.0         0.10         25.2 
      1861.0        10.42        299.2 
      1862.0         0.10        266.4 
      1863.0         0.63        263.6 
      1864.0         0.45        251.6 
      1865.0         0.30        265.5 
      1866.0         0.23        282.5 
      1867.0         0.33        321.8 
      1868.0         0.40        338.3 
      1869.0         0.27        295.7 
      1870.0         0.30        190.1 
      1871.0         0.23         94.1 
      1872.0         0.23         53.4 
      1873.0         0.27         33.2 
      1874.0         0.27         23.4 
      1875.0         0.27         18.4 
      1876.0         0.25         16.0 
      1877.0         0.27         16.9 
      1878.0         0.27         21.0 
      1879.0         0.23         26.0 
      1880.0         0.23         29.8 
      1881.0         0.47         30.2 
      1882.0         0.60         28.1 
      1883.0         0.40         29.8 
      1884.0         0.43         33.3 
      1885.0         0.55         41.7 
      1886.0         0.57         49.6 
      1887.0         0.43         53.5 
      1888.0         0.33         58.1 
      1889.0         0.53         74.1 
      1890.0         0.50         99.6 
      1891.0         3.78        289.3 
      1892.0         1.92        291.3 
      1893.0         0.50        255.4 
      1894.0         0.50        246.9 
      1895.0         0.30        257.1 
      1896.0         0.32        286.9 
      1897.0         0.33        318.4 
      1898.0         0.33        317.4 
      1899.0         0.23        241.3 
      1900.0         0.27        159.9 
      1901.0         0.23         92.0 
      1902.0         0.23         53.3 
      1903.0         0.23         34.3 
      1904.0         0.30         24.8 
      1905.0         0.33         19.6 
      1906.0         0.37         16.8 
      1907.0         0.37         15.4 
      1908.0         0.25         15.7 
      1909.0         0.30         18.4 
      1910.0         0.70         24.3 
      1911.0         0.57         31.4 
      1912.0         0.10         32.9 
      1913.0         0.47         41.5 
      1914.0         0.27         47.4 
      1915.0         0.27         53.2 
      1916.0         0.55         56.9 
      1917.0         0.50         57.0 
      1918.0         0.40         54.7 
      1919.0         0.43         53.7 
      1920.0         0.43         56.2 
      1921.0        10.45        268.6 
      1922.0         3.35        294.0 
      1923.0         0.57        286.7 
      1924.0         0.65        311.7 
      1925.0         0.63        315.1 
      1926.0         0.63        215.3 
      1927.0         0.73         57.0 
      1928.0         0.88         19.1 
      1929.0         0.60         20.0 
      1930.0         0.70         32.7 
      1931.0         0.43         39.8 
      1932.0         0.27         42.9 
      1933.0         0.23         45.2 
      1934.0         0.23         47.7 
      1935.0         0.30         49.9 
      1936.0         0.27         51.8 
      1937.0         0.65         52.6 
      1938.0         0.47         53.4 
      1939.0         0.63         57.7 
      1940.0         0.13         58.8 
      1941.0         0.33         60.9 
      1942.0         0.40         61.9 
      1943.0         0.40         61.7 
      1944.0         0.27         60.1 
      1945.0         0.27         59.0 
      1946.0         0.28         60.7 
      1947.0         0.23         65.0 
      1948.0         0.17         69.4 
      1949.0         0.23         77.2 
