~Version Information
VERS.                      2.0: CWLS Log ASCII Standard - VERSION 2.0
WRAP.                       NO: One line per depth step
~Well Information Block
STRT.FT                -6.0000: 
STOP.FT              2490.5000: 
STEP.FT                 0.2500: 
NULL.                -999.2500: 
COMP.          Pioneer Natural Resources: COMPANY
WELL.          Aztec Federal 41-15: WELL
FLD.           Purgatorie River: FIELD
LOC.           706' FNL & 1253' FEL--: LOCATION
CNTY.               Las Animas: COUNTY
SRVC.          Superior Well Services: SERVICE COMPANY
DATE.          Wed May 28 14-18-16 2008: LOG DATE
UWI.           05 071 08342 00: UNIQUE WELL ID
STAT.                       CO: STATE
~Curve Information Block
DEPT.FT            0 000 00 00: Depth
GR.GAPI                       : Gamma Ray
CCL.                          : Casing Collar Locator
AMP3FT.mV                     : AMP3FT Amplitude
TT3FT.usec                    : 3FT Travel Time
AMP5FT.mV                     : AMP5FT Amplitude
~Parameter Information Block
~A  Depth        GR         CCL        AMP3FT      TT3FT       AMP5FT   
# ...
  1954.0000    103.3193      0.0000      2.3732    642.0000      2.0291
  1954.2500     98.1493      0.0000      2.4173    642.0000      2.0325
  1954.5000     92.0828      0.0000      2.5130    642.0000      2.0028
  1954.7500     87.9434      0.0000      2.6579    642.0000      1.9519
  1955.0000     88.5320      0.0000      2.8166    642.0000      1.9044
  1955.2500     94.2887      0.0000      2.9403    642.0000      1.8762
  1955.5000    103.0244      0.0000      2.9963    642.0000      1.8647
  1955.7500    111.8227      0.0000      2.9830    642.0000      1.8585
  1956.0000    119.0746      0.0000      2.9251    642.0000      1.8529
  1956.2500    124.9201      0.0000      2.8589    642.0000      1.8566
  1956.5000    130.2290      0.0000      2.8163    642.0000      1.8815
  1956.7500    135.5869      0.0000      2.8106    642.0000      1.9280
  1957.0000    141.2563      0.0000      2.8351    642.0000      1.9804
  1957.2500    147.4197      0.0000      2.8792    642.0000      2.0177
  1957.5000    153.6863      0.0000      2.9451    642.0000      2.0297
  1957.7500    158.6112      0.0000      3.0484    642.0000      2.0214
  1958.0000    160.6035      0.0000      3.1971    642.0000      2.0013
  1958.2500    159.4168      0.0000      3.3683    642.0000      1.9733
  1958.5000    156.1129      0.0000      3.5118    642.0000      1.9415
  1958.7500    151.6030      0.0000      3.5891    642.0000      1.9162
  1959.0000    145.9110      0.0000      3.6039    642.0000      1.9062
  1959.2500    139.1767      0.0000      3.5882    642.0000      1.9100
  1959.5000    132.9670      0.0000      3.5685    642.0000      1.9186
  1959.7500    129.8526      0.0000      3.5532    642.0000      1.9257
  1960.0000    131.2940      2.9395      3.5416    642.0000      1.9317
  1960.2500    136.2622      0.0000      3.5325    642.0000      1.9406
  1960.5000    142.3567      0.0000      3.5240    642.0000      1.9537
  1960.7500    147.9680      0.0000      3.5115    642.0000      1.9685
  1961.0000    152.8004      0.0000      3.4871    642.0000      1.9800
  1961.2500    156.7070      0.0000      3.4367    642.0000      1.9829
  1961.5000    159.1863      0.0000      3.3425    642.0000      1.9717
  1961.7500    160.1936      0.0000      3.2003    642.0000      1.9433
  1962.0000    160.3247      0.0000      3.0386    642.0000      1.9029
  1962.2500    159.7742      0.0000      2.9101    642.0000      1.8638
  1962.5000    158.1054      0.0000      2.8534    642.0000      1.8378
  1962.7500    155.5363      0.0000      2.8622    642.0000      1.8273
  1963.0000    153.5085      0.0000      2.8922    642.0000      1.8273
  1963.2500    153.3123      0.0000      2.8978    642.0000      1.8323
  1963.5000    154.6178      0.0000      2.8648    642.0000      1.8401
  1963.7500    155.8026      0.0000      2.8119    642.0000      1.8524
  1964.0000    155.5985      0.0000      2.7661    642.0000      1.8715
  1964.2500    154.2180      0.0000      2.7395    642.0000      1.8963
  1964.5000    152.9285      0.0000      2.7263    642.0000      1.9216
  1964.7500    152.6796      0.0000      2.7144    642.0000      1.9429
  1965.0000    153.3207      0.0000      2.6950    642.0000      1.9596
  1965.2500    154.1494      0.0000      2.6657    642.0000      1.9711
  1965.5000    154.8204      0.0000      2.6304    642.0000      1.9716
  1965.7500    155.4497      0.0000      2.5965    642.0000      1.9570
  1966.0000    156.2573      0.0000      2.5673    642.0000      1.9325
  1966.2500    157.6396      0.0000      2.5405    642.0000      1.9109
  1966.5000    160.2104      0.0000      2.5142    642.0000      1.9003
  1966.7500    163.8419      0.0000      2.4910    642.0000      1.9011
  1967.0000    166.5976      0.0000      2.4744    642.0000      1.9083
  1967.2500    165.6016      0.0000      2.4643    642.0000      1.9148
  1967.5000    159.5912      0.0000      2.4595    642.0000      1.9143
  1967.7500    150.3403      0.0000      2.4579    642.0000      1.9063
  1968.0000    141.4536      0.0000      2.4541    642.0000      1.8971
  1968.2500    136.0026      0.0000      2.4408    642.0000      1.8950
  1968.5000    135.0365      0.0000      2.4189    641.9919      1.9022
  1968.7500    137.4656      0.0000      2.4017    641.9470      1.9120
  1969.0000    140.9331      0.0000      2.4040    641.7308      1.9135
  1969.2500    143.0993      0.0000      2.4290    640.9351      1.9010
  1969.5000    142.7238      0.0000      2.4658    638.7200      1.8808
  1969.7500    140.1985      0.0000      2.4981    634.1317      1.8676
  1970.0000    137.2105      0.0000      2.5169    627.3000      1.8754
  1970.2500    135.3736      0.0000      2.5229    620.5989      1.9086
  1970.5000    134.5870      0.0000      2.5199    617.6804      1.9596
  1970.7500    132.7076      0.0000      2.5111    620.1879      2.0099
  1971.0000    127.2259      0.0000      2.5038    625.6114      2.0376
  1971.2500    117.5695      0.0000      2.5120    628.8782      2.0310
  1971.5000    105.8900      0.0000      2.5485    625.8614      2.0004
  1971.7500     95.8569      0.0000      2.6092    615.8583      1.9714
  1972.0000     90.8176      0.0000      2.6659    601.8405      1.9658
  1972.2500     92.4823      0.0000      2.6817    588.0935      1.9851
  1972.5000    100.3099      0.0000      2.6408    577.1356      2.0106
  1972.7500    111.6528      0.0000      2.5635    570.0284      2.0182
  1973.0000    122.8664      0.0000      2.4920    569.2596      1.9981
  1973.2500    130.9792      0.0000      2.4657    577.8861      1.9626
  1973.5000    134.8109      0.0000      2.5088    594.7885      1.9351
  1973.7500    134.7880      0.0000      2.6268    613.7535      1.9304
  1974.0000    131.8805      0.0000      2.8056    628.4720      1.9472
  1974.2500    127.0070      0.0000      3.0237    636.8527      1.9770
  1974.5000    121.4037      0.0000      3.2775    640.4519      2.0163
  1974.7500    116.8579      0.0000      3.5956    641.6320      2.0672
  1975.0000    114.9143      0.0000      4.0242    641.9145      2.1306
  1975.2500    115.8848      0.0000      4.6037    641.8663      2.2048
  1975.5000    118.8218      0.0000      5.3559    641.3411      2.2908
  1975.7500    122.3046      0.0000      6.2843    639.2589      2.3932
  1976.0000    125.2894      0.0000      7.3777    633.0120      2.5181
  1976.2500    127.5231      0.0000      8.6168    618.6354      2.6740
  1976.5000    129.2853      0.0000      9.9664    593.4199      2.8739
  1976.7500    130.8300      0.0000     11.3445    559.9495      3.1291
  1977.0000    132.2547      0.0000     12.6057    526.2266      3.4350
  1977.2500    133.6837      0.0000     13.5932    499.2025      3.7615
  1977.5000    135.1863      0.0000     14.2277    479.2080      4.0563
  1977.7500    136.7351      0.0000     14.5357    463.8332      4.2660
  1978.0000    138.5231      0.0000     14.5893    455.5651      4.3630
  1978.2500    140.8936      0.0000     14.4316    460.4189      4.3629
  1978.5000    143.5906      0.0000     14.0659    478.4359      4.3143
  1978.7500    145.6993      0.0000     13.4940    500.3795      4.2646
  1979.0000    146.8010      0.0000     12.7522    517.1833      4.2221
  1979.2500    147.6527      0.0000     11.9171    530.1557      4.1517
  1979.5000    149.3282      0.0000     11.0896    547.6848      4.0114
  1979.7500    152.1010      0.0000     10.3578    573.1687      3.7963
  1980.0000    155.4807      0.0000      9.7467    600.6735      3.5444
  1980.2500    158.8681      0.0000      9.1967    622.0674      3.3035
  1980.5000    161.7245      0.0000      8.6145    634.3589      3.1016
  1980.7500    163.3098      0.0000      7.9622    639.6846      2.9446
  1981.0000    162.6680      0.0000      7.2944    641.4460      2.8289
  1981.2500    158.9434      0.0000      6.7040    641.8958      2.7450
  1981.5000    151.8203      0.0000      6.2480    641.9866      2.6732
  1981.7500    141.8654      0.0000      5.9282    642.0000      2.5926
