~Version Information
VERS.                      2.0: CWLS Log ASCII Standard - VERSION 2.0
WRAP.                       NO: One line per depth step
~Well Information Block
STRT.FT               580.0000: 
STOP.FT              1756.7500: 
STEP.FT                 0.2500: 
NULL.                -999.2500: 
COMP.          Pioneer Natural Resources: COMPANY
WELL.          Lookout Point 31-23 Tr: WELL
FLD.           Purgatoire River: FIELD
LOC.           541' FNL & 1786' FEL: LOCATION
PROV.                 Colorado: PROVINCE
CNTY.               Las Animas: COUNTRY
SRVC.                Patterson: SERVICE COMPANY
DATE.          Sun Jan 23 04:14:25 2005: LOG DATE
UWI.           05 071 08260 00: UNIQUE WELL ID
~Curve Information Block
DEPT.FT            0 000 00 00: Depth
DIR.Ohm-m                     : IEL Induction Resistivity
GR.GAPI                       : Gamma Ray
SN.Ohm-m                      : IEL Short Normal
SP.mV                         : IEL Spontaneous Potential
~Parameter Information Block
~A  Depth       DIR          GR          SN          SP     
# ...
  1116.0000      7.0029    110.3079      7.9476     98.1448
  1116.2500      6.7859    110.4481      7.6264     98.1939
  1116.5000      6.6352    111.4926      7.4590     98.0889
  1116.7500      6.5436    112.4489      7.4473     97.8414
  1117.0000      6.5048    114.3985      7.5654     97.4485
  1117.2500      6.5124    116.5152      7.7605     96.8953
  1117.5000      6.5603    121.7414      7.9637     96.1619
  1117.7500      6.6432    126.7696      8.1139     95.2361
  1118.0000      6.7599    135.9286      8.1829     94.1346
  1118.2500      6.9136    141.7112      8.1870     92.9270
  1118.5000      7.1109    145.8641      8.1783     91.7481
  1118.7500      7.3597    143.5446      8.2239     90.7837
  1119.0000      7.6658    132.2846      8.3830     90.2255
  1119.2500      8.0318    121.7471      8.6921     90.2081
  1119.5000      8.4567    106.4426      9.1601     90.7583
  1119.7500      8.9387     98.7454      9.7780     91.7839
  1120.0000      9.4768     92.3842     10.5382     93.1074
  1120.2500     10.0710     91.4328     11.4477     94.5280
  1120.5000     10.7215     93.7029     12.5230     95.8818
  1120.7500     11.4265     96.6548     13.7661     97.0742
  1121.0000     12.1823    101.5548     15.1418     98.0811
  1121.2500     12.9808    104.4553     16.5736     98.9279
  1121.5000     13.8048    107.5200     17.9623     99.6621
  1121.7500     14.6200    108.3591     19.2152    100.3302
  1122.0000     15.3733    107.5165     20.2686    100.9629
  1122.2500     16.0051    105.7551     21.0942    101.5690
  1122.5000     16.4771    102.1978     21.6936    102.1375
  1122.7500     16.7947     99.7124     22.0877    102.6448
  1123.0000     17.0010     96.2095     22.3037    103.0659
  1123.2500     17.1461     94.0868     22.3677    103.3829
  1123.5000     17.2605     91.4662     22.3066    103.5896
  1123.7500     17.3546     90.3301     22.1517    103.6918
  1124.0000     17.4364     89.6580     21.9364    103.7064
  1124.2500     17.5219     89.6690     21.6899    103.6612
  1124.5000     17.6252     89.8438     21.4329    103.5969
  1124.7500     17.7424     89.8370     21.1809    103.5683
  1125.0000     17.8511     89.0324     20.9519    103.6381
  1125.2500     17.9273     87.3604     20.7679    103.8591
  1125.5000     17.9639     82.5457     20.6449    104.2514
  1125.7500     17.9709     78.2921     20.5834    104.7878
  1126.0000     17.9606     72.2531     20.5691    105.3976
  1126.2500     17.9342     69.2999     20.5820    105.9918
  1126.5000     17.8844     66.5471     20.6023    106.4953
  1126.7500     17.8105     65.4288     20.6134    106.8681
  1127.0000     17.7278     64.4576     20.6041    107.1042
  1127.2500     17.6613     64.4036     20.5723    107.2138
  1127.5000     17.6298     65.5777     20.5232    107.2018
  1127.7500     17.6352     67.2692     20.4647    107.0593
  1128.0000     17.6663     70.8239     20.4059    106.7693
  1128.2500     17.7098     73.3455     20.3582    106.3226
  1128.5000     17.7603     76.1404     20.3337    105.7303
  1128.7500     17.8199     76.7971     20.3399    105.0240
  1129.0000     17.8911     75.7323     20.3787    104.2465
  1129.2500     17.9686     73.8527     20.4458    103.4374
  1129.5000     18.0404     70.0232     20.5290    102.6260
  1129.7500     18.0978     67.4930     20.6096    101.8328
  1130.0000     18.1467     64.9793     20.6710    101.0769
  1130.2500     18.2070     64.4657     20.7093    100.3808
  1130.5000     18.2988     65.0397     20.7318     99.7687
  1130.7500     18.4263     65.9169     20.7465     99.2599
  1131.0000     18.5752     67.5710     20.7508     98.8625
  1131.2500     18.7225     68.7524     20.7338     98.5725
  1131.5000     18.8515     70.1821     20.6893     98.3756
  1131.7500     18.9570     70.5582     20.6306     98.2501
  1132.0000     19.0400     70.0591     20.5898     98.1695
  1132.2500     19.0996     69.3729     20.5960     98.1077
  1132.5000     19.1311     68.7977     20.6551     98.0490
  1132.7500     19.1336     68.9231     20.7509     97.9982
  1133.0000     19.1184     69.1345     20.8598     97.9843
  1133.2500     19.1084     68.6126     20.9681     98.0474
  1133.5000     19.1272     66.3394     21.0784     98.2109
  1133.7500     19.1890     64.1689     21.2041     98.4530
  1134.0000     19.2961     61.2684     21.3526     98.6979
  1134.2500     19.4428     60.3694     21.5155     98.8374
  1134.5000     19.6168     61.0352     21.6754     98.7753
  1134.7500     19.7983     62.3555     21.8171     98.4704
  1135.0000     19.9635     64.3509     21.9316     97.9535
  1135.2500     20.0938     65.2948     22.0167     97.3127
  1135.5000     20.1844     66.3019     22.0793     96.6561
  1135.7500     20.2438     66.8487     22.1340     96.0736
  1136.0000     20.2859     67.4069     22.1903     95.6142
  1136.2500     20.3227     67.6472     22.2411     95.2816
  1136.5000     20.3601     68.4206     22.2648     95.0459
  1136.7500     20.3978     69.6445     22.2396     94.8601
  1137.0000     20.4296     72.7178     22.1569     94.6805
  1137.2500     20.4453     75.2080     22.0234     94.4855
  1137.5000     20.4343     78.2840     21.8603     94.2883
  1137.7500     20.3896     79.0782     21.6988     94.1359
  1138.0000     20.3077     77.7740     21.5718     94.0906
  1138.2500     20.1869     75.5918     21.5009     94.2005
  1138.5000     20.0291     71.7368     21.4858     94.4750
  1138.7500     19.8476     69.5812     21.5058     94.8786
  1139.0000     19.6719     67.7276     21.5332     95.3468
  1139.2500     19.5398     67.4701     21.5475     95.8121
  1139.5000     19.4783     68.3162     21.5411     96.2268
  1139.7500     19.4888     69.4885     21.5144     96.5734
  1140.0000     19.5454     71.5139     21.4714     96.8603
  1140.2500     19.6084     72.4746     21.4165     97.1115
  1140.5000     19.6431     72.6159     21.3509     97.3545
  1140.7500     19.6348     71.9315     21.2719     97.6104
  1141.0000     19.5916     70.5255     21.1795     97.8884
  1141.2500     19.5349     69.6653     21.0863     98.1846
  1141.5000     19.4869     68.3209     21.0191     98.4864
  1141.7500     19.4630     67.1128     21.0017     98.7771
  1142.0000     19.4730     64.8240     21.0336     99.0426
  1142.2500     19.5240     63.3248     21.0912     99.2746
  1142.5000     19.6193     61.6868     21.1554     99.4736
  1142.7500     19.7552     61.0443     21.2325     99.6494
  1143.0000     19.9192     60.5982     21.3405     99.8187
  1143.2500     20.0928     60.7436     21.4795    100.0002
  1143.5000     20.2551     62.0394     21.6259    100.2091
  1143.7500     20.3889     63.6073     21.7547    100.4540
  1144.0000     20.4877     66.1614     21.8614    100.7363
  1144.2500     20.5622     67.2719     21.9605    101.0498
  1144.5000     20.6399     67.2993     22.0668    101.3803
  1144.7500     20.7551     66.3705     22.1809    101.7052
  1145.0000     20.9330     64.5315     22.2930    101.9972
  1145.2500     21.1779     63.5164     22.4044    102.2337
  1145.5000     21.4717     62.4717     22.5377    102.4078
  1145.7500     21.7844     61.8685     22.7169    102.5348
  1146.0000     22.0886     60.6544     22.9382    102.6499
  1146.2500     22.3685     59.5328     23.1721    102.7966
  1146.5000     22.6155     57.7597     23.3907    103.0098
  1146.7500     22.8165     56.9803     23.5855    103.3040
  1147.0000     22.9477     56.7700     23.7611    103.6673
  1147.2500     22.9813     56.9022     23.9217    104.0673
  1147.5000     22.9015     56.6473     24.0626    104.4628
  1147.7500     22.7206     56.2161     24.1703    104.8185
  1148.0000     22.4823     56.2027     24.2271    105.1141
  1148.2500     22.2472     57.0941     24.2215    105.3467
  1148.5000     22.0662     59.4817     24.1569    105.5247
  1148.7500     21.9603     61.1729     24.0529    105.6570
  1149.0000     21.9196     63.0902     23.9384    105.7445
  1149.2500     21.9179     63.9028     23.8390    105.7770
