~Version Information
 VERS.                                  2.0 : CWLS LAS VERSION
 WRAP.                                   NO : WRAPING MODE
 SWARE .                 MController 2.5.0J : SOFTWARE VERSION
~Well Information
 WELL.                      Oink Oink 14-36 : WELL
 COMP.    Pioneer Natural Resources USA Ink : COMPANY
 FLD.                      Purgatoire River : FIELD
 LOC.                SW/SW Sec 36 T32S R37W : LOCATION
 DATE.                         6/07-08/2005 : DATE(S) LOGGED
 SRVC.       Blanco Geological Services LLC : SERVICE COMPANY
 STAT.                                   CO : STATE
 CNTY.                           Las Animas : COUNTY
 CTRY.                                  USA : COUNTRY
 API.                       05-071-08394-00 : API NUMBER
 STRT.FT                             514.00 : START DEPTH
 STOP.FT                            2457.00 : STOP DEPTH
 STEP.FT                               1.00 : DEPTH INCREMENT
 NULL.                                -9999 : NULL VALUE
~Curve information
 DEPTH.FT                                   :
 ROP.MIN/FT                                 :
 GAS.UNITS                                  :
~ASCII Log data
# ...
      2314.0         0.27       1243.6 
      2315.0         0.40       1198.2 
      2316.0         0.17       1164.8 
      2317.0         0.30       1144.2 
      2318.0         0.30       1060.1 
      2319.0         0.30        987.5 
      2320.0         0.27        990.8 
      2321.0         0.13       1012.0 
      2322.0         0.20       1050.0 
      2323.0         0.35       1105.9 
      2324.0         0.30       1147.1 
      2325.0         0.27       1154.7 
      2326.0         0.30       1204.1 
      2327.0         0.30       1299.3 
      2328.0         0.30       1329.4 
      2329.0         0.23       1328.1 
      2330.0         0.30       1297.6 
      2331.0         0.30       1259.4 
      2332.0         0.27       1220.1 
      2333.0         0.30       1200.5 
      2334.0         0.28       1183.5 
      2335.0         0.30       1167.7 
      2336.0         3.55       1783.8 
      2337.0         0.40       2265.0 
      2338.0         0.37       2624.9 
      2339.0         0.33       2781.9 
      2340.0         0.33       2788.1 
      2341.0         0.33       2554.2 
      2342.0         0.30       2186.2 
      2343.0         0.33       1888.5 
      2344.0         0.32       1672.5 
      2345.0         0.33       1551.5 
      2346.0         0.37       1433.4 
      2347.0         0.43       1344.7 
      2348.0         0.33       1344.7 
      2349.0         0.43       1380.1 
      2350.0         0.43       1380.7 
      2351.0         0.50       1364.4 
      2352.0         0.62       1314.0 
      2353.0         0.50       1276.0 
      2354.0         0.47       1259.7 
      2355.0         0.43       1236.8 
      2356.0         0.47       1215.8 
      2357.0         0.40       1197.8 
      2358.0         0.33       1168.1 
      2359.0         0.30       1125.5 
      2360.0         0.32       1069.9 
      2361.0         0.27        993.7 
      2362.0         0.23        912.6 
      2363.0         0.27        860.2 
      2364.0         0.33        809.5 
      2365.0         0.37        847.1 
      2366.0         2.38        884.8 
      2367.0         0.67       1669.3 
      2368.0         0.50       2117.1 
      2369.0         0.43       2253.9 
      2370.0         0.43       2248.0 
      2371.0         0.42       2091.6 
      2372.0         0.40       1859.0 
      2373.0         0.47       1679.1 
      2374.0         0.43       1532.8 
      2375.0         0.50       1453.7 
      2376.0         0.47       1430.1 
      2377.0         0.43       1421.9 
      2378.0         0.50       1381.1 
      2379.0         0.48       1315.0 
      2380.0         0.50       1268.8 
      2381.0         0.50       1226.0 
      2382.0         0.47       1174.3 
      2383.0         0.57       1135.4 
      2384.0         0.70       1099.4 
      2385.0         0.82       1058.2 
      2386.0         0.67       1017.3 
      2387.0         0.63       1003.8 
      2388.0         0.63        980.9 
      2389.0         0.62        945.3 
      2390.0         0.60        958.4 
      2391.0         0.47        961.6 
      2392.0         0.50        964.6 
      2393.0         0.43        985.9 
      2394.0         0.43        983.6 
      2395.0         0.37        973.4 
      2396.0         3.42       1610.4 
      2397.0         0.48       2166.5 
      2398.0         0.40       2520.2 
      2399.0         0.40       2626.8 
      2400.0         0.37       2586.9 
      2401.0         0.37       2289.2 
      2402.0         0.40       1887.8 
      2403.0         0.50       1646.4 
      2404.0         0.43       1479.5 
      2405.0         0.52       1371.2 
      2406.0         0.43       1368.0 
      2407.0         0.43       1368.0 
      2408.0         0.43       1348.0 
      2409.0         0.43       1302.5 
      2410.0         0.43       1259.4 
      2411.0         0.40       1210.6 
      2412.0         0.48       1168.1 
      2413.0         0.43       1139.0 
      2414.0         0.43       1111.2 
      2415.0         0.43       1089.9 
      2416.0         0.37       1070.9 
      2417.0         0.43       1059.5 
      2418.0         0.37       1055.5 
      2419.0         0.40       1046.4 
      2420.0         0.38       1023.5 
      2421.0         0.43       1016.9 
      2422.0         0.40       1015.6 
      2423.0         0.40       1009.4 
      2424.0         0.40       1007.1 
      2425.0         0.40       1005.8 
      2426.0         2.72       1029.7 
      2427.0         1.03       1665.7 
      2428.0         0.57       2095.9 
      2429.0         0.45       2147.2 
      2430.0         0.40       2045.5 
      2431.0         0.37       1813.9 
      2432.0         0.37       1636.6 
      2433.0         0.50       1502.4 
      2434.0         0.43       1406.9 
      2435.0         0.47       1341.1 
      2436.0         0.45       1346.4 
      2437.0         0.47       1351.6 
      2438.0         0.57       1338.8 
      2439.0         0.63       1294.7 
      2440.0         0.53       1224.7 
      2441.0         0.50       1170.7 
      2442.0         0.43       1122.3 
      2443.0         0.42       1102.0 
      2444.0         0.43       1086.3 
      2445.0         0.37       1079.4 
      2446.0         0.40       1079.1 
      2447.0         0.40       1076.5 
      2448.0         0.43       1072.2 
      2449.0         0.43       1055.5 
      2450.0         0.52       1043.1 
      2451.0         0.50       1023.5 
      2452.0         0.37       1016.9 
      2453.0         0.33       1014.3 
      2454.0         0.50       1014.3 
      2455.0         0.63       1010.4 
      2456.0         2.62      -9999.0 
      2457.0         0.20      -9999.0 
