~Version Information
VERS.                      2.0: CWLS Log ASCII Standard - VERSION 2.0
WRAP.                       NO: One line per depth step
~Well Information Block
STRT.FT                -9.7500: 
STOP.FT              2374.2500: 
STEP.FT                 0.2500: 
NULL.                -999.2500: 
COMP.          Pioneer Natural Resources: COMPANY
WELL.            Chevron 13-13: WELL
FLD.           Purgatorie River: FIELD
LOC.           1560' FSL & 711' FWL--: LOCATION
CNTY.               Las Animas: COUNTY
SRVC.          Superior Well Services: SERVICE COMPANY
DATE.          Wed Apr 11 08:47:55 2007: LOG DATE
UWI.           05 071 08319 00: UNIQUE WELL ID
STAT.                       CO: STATE
~Curve Information Block
DEPT.FT            0 000 00 00: Depth
CCL.                          : Casing Collar Locator
TT3.usec                      : CBL 3' Travel Time
AMP3.mV                       : CBL 3' Amplitude
GR.GAPI                       : Gamma Ray
~Parameter Information Block
~A  Depth       CCL         TT3         AMP3         GR     
# ...
  1698.7500      0.0000    689.4409      3.3233     67.5818
  1699.0000      0.0000    689.1736      3.3382     72.5599
  1699.2500      0.0000    689.0242      3.3534     78.4012
  1699.5000      0.0000    689.0801      3.3711     83.3735
  1699.7500      0.0000    689.4167      3.3989     86.2847
  1700.0000      0.0000    690.0855      3.4439     86.6194
  1700.2500      0.0000    691.0815      3.5051     84.4587
  1700.5000      0.0000    692.3152      3.5716     80.6459
  1700.7500      0.0000    693.6283      3.6330     76.6686
  1701.0000      0.0000    694.8530      3.6895     73.8694
  1701.2500      0.0000    695.8540      3.7496     72.6424
  1701.5000      0.0000    696.5320      3.8187     72.4520
  1701.7500      0.0000    696.8032      3.8913     72.4906
  1702.0000      0.0000    696.5703      3.9547     72.1862
  1702.2500      0.0000    695.6500      3.9982     71.3277
  1702.5000      0.0000    693.7313      4.0172     70.0093
  1702.7500      0.0000    690.5036      4.0103     68.5109
  1703.0000      0.0000    685.8956      3.9738     67.2441
  1703.2500      0.0000    680.1434      3.8996     66.8029
  1703.5000      0.0000    673.6634      3.7829     67.7474
  1703.7500      0.0000    667.0375      3.6322     70.0040
  1704.0000      0.0000    661.0423      3.4710     72.5667
  1704.2500      0.0000    656.3429      3.3269     74.0614
  1704.5000      0.0000    653.0410      3.2177     73.7220
  1704.7500      0.0000    650.6094      3.1473     71.9426
  1705.0000      0.0000    648.2021      3.1109     69.9972
  1705.2500      0.0000    645.0199      3.1011     69.1298
  1705.5000      0.0000    640.7646      3.1101     69.6489
  1705.7500      0.0000    636.1687      3.1288     70.7385
  1706.0000      0.0000    632.9413      3.1472     71.2720
  1706.2500      0.0000    632.5913      3.1558     70.9859
  1706.5000      0.0000    635.0669      3.1483     70.7983
  1706.7500      0.0000    638.7624      3.1245     71.9142
  1707.0000      0.0000    641.8552      3.0951     74.7132
  1707.2500      0.0000    643.2095      3.0774     78.4107
  1707.5000      0.0000    641.7770      3.0820     81.5392
  1707.7500      0.0000    635.0859      3.1040     82.7475
  1708.0000      0.0000    618.5650      3.1297     81.4388
  1708.2500      0.0000    587.5969      3.1508     78.0225
  1708.5000      0.0000    542.1807      3.1683     73.6939
  1708.7500      0.0000    489.9724      3.1864     69.7444
  1709.0000      0.0000    442.9946      3.2061     66.9083
  1709.2500      0.0000    409.9149      3.2296     65.4092
  1709.5000      0.0000    391.4008      3.2638     65.3595
  1709.7500      0.0000    382.6294      3.3160     66.6537
  1710.0000      0.0000    379.6529      3.3810     68.7226
  1710.2500      0.0000    384.0430      3.4376     71.0528
  1710.5000      0.0000    402.5444      3.4616     73.9475
  1710.7500      0.0000    441.5184      3.4454     78.4881
  1711.0000      0.0000    499.5448      3.4026     85.8534
  1711.2500      0.0000    564.8503      3.3556     96.5522
  1711.5000      0.0000    621.6323      3.3216    109.7902
  1711.7500      0.0000    659.7878      3.3097    123.4191
  1712.0000      0.0000    678.2945      3.3221    135.0222
  1712.2500      0.0000    680.1236      3.3550    143.3862
  1712.5000      0.0000    665.9952      3.3997    148.9234
  1712.7500      0.0000    634.3488      3.4471    152.7802
  1713.0000      0.0000    587.5983      3.4902    155.6004
  1713.2500      0.0000    537.6340      3.5249    156.9762
  1713.5000      0.0000    502.9818      3.5501    156.1508
  1713.7500      0.0000    497.7865      3.5667    153.2761
  1714.0000      0.0000    521.4155      3.5744    149.6644
  1714.2500      0.0000    557.7949      3.5695    146.6813
  1714.5000      0.0000    585.6112      3.5492    144.8212
  1714.7500      0.0000    592.2382      3.5181    144.1217
  1715.0000      0.0000    581.8569      3.4920    145.0506
  1715.2500      0.0000    571.8549      3.4925    148.3620
  1715.5000      0.0000    578.8409      3.5346    153.9871
  1715.7500      0.0000    605.2568      3.6179    160.3640
  1716.0000      0.0000    639.4513      3.7281    165.1716
  1716.2500      0.0000    667.8517      3.8462    166.9315
  1716.5000      0.0000    684.9152      3.9538    165.8150
  1716.7500      0.0000    692.7678      4.0347    162.8332
  1717.0000      0.0000    695.6774      4.0814    158.9117
  1717.2500      0.0000    696.5579      4.0998    155.1850
  1717.5000      0.0000    696.6731      4.1047    153.1360
  1717.7500      0.0000    696.4299      4.1058    153.3001
  1718.0000      0.0000    695.9424      4.0962    154.2946
  1718.2500      0.0000    695.2593      4.0556    154.1267
  1718.5000      0.0000    694.4765      3.9682    152.4604
  1718.7500      0.0000    693.7868      3.8433    150.9840
  1719.0000      0.0000    693.3919      3.7140    151.3870
  1719.2500      0.0000    693.3745      3.6138    153.4675
  1719.5000      0.0000    693.6567      3.5552    155.6943
  1719.7500      0.0000    694.0680      3.5331    157.2690
  1720.0000      0.0000    694.4433      3.5415    158.9327
  1720.2500      0.0000    694.6948      3.5806    161.8274
  1720.5000      0.0000    694.7861      3.6515    166.0194
  1720.7500      0.0000    694.5568      3.7508    170.1362
  1721.0000      0.0000    693.3584      3.8742    172.1051
  1721.2500      0.0000    689.8475      4.0201    170.2235
  1721.5000      0.0000    682.6403      4.1787    164.1199
  1721.7500      0.0000    671.8870      4.3195    155.3932
  1722.0000      0.0000    660.3661      4.4057    147.1708
  1722.2500      0.0000    652.4882      4.4281    142.3187
  1722.5000      0.0000    651.6906      4.4110    141.7021
  1722.7500      0.0000    658.4109      4.3809    144.1536
  1723.0000      2.0000    670.0568      4.3499    147.9257
  1723.2500     -2.0000    682.5830      4.3301    151.9857
  1723.5000      0.0000    692.2450      4.3394    156.1462
  1723.7500      0.0000    696.6830      4.3880    160.5951
  1724.0000      0.0000    695.5979      4.4708    165.5197
  1724.2500      0.0000    691.1542      4.5744    170.6548
  1724.5000      0.0000    687.1382      4.6815    174.7980
  1724.7500      0.0000    686.4711      4.7878    176.2106
  1725.0000      0.0000    689.1685      4.9281    174.0517
  1725.2500      0.0000    693.0742      5.1628    169.3872
  1725.5000      0.0000    696.2263      5.5103    164.5247
  1725.7500      0.0000    698.0313      5.9053    161.2643
  1726.0000      0.0000    698.7039      6.2389    159.6743
  1726.2500      0.0000    698.3745      6.4358    158.3069
  1726.5000      0.0000    696.8600      6.4936    155.6547
  1726.7500      0.0000    694.0229      6.4622    151.7862
  1727.0000      0.0000    690.2592      6.3924    148.5332
  1727.2500      0.0000    686.6838      6.3005    147.5618
  1727.5000      0.0000    684.8390      6.1704    148.3362
  1727.7500      0.0000    686.0363      5.9802    148.7193
  1728.0000      0.0000    690.3876      5.7214    147.5673
  1728.2500      0.0000    696.1481      5.4030    145.8810
  1728.5000      0.0000    700.5629      5.0515    145.3017
  1728.7500      0.0000    701.9572      4.7124    146.2091
  1729.0000      0.0000    700.8236      4.4425    147.5282
  1729.2500      0.0000    698.7214      4.2898    148.1187
  1729.5000      0.0000    696.5519      4.2694    148.0868
  1729.7500      0.0000    693.9451      4.3539    148.4440
  1730.0000      0.0000    689.7141      4.4878    149.4440
  1730.2500      0.0000    682.4900      4.6145    149.7486
  1730.5000      0.0000    670.8306      4.7001    147.6744
  1730.7500      0.0000    652.6437      4.7383    143.0539
  1731.0000      0.0000    626.0479      4.7413    137.6130
  1731.2500      0.0000    593.3524      4.7251    133.7129
  1731.5000      0.0000    563.9628      4.6983    132.7353
  1731.7500      0.0000    549.8774      4.6606    134.2845
  1732.0000      0.0000    556.9348      4.6145    136.8544
