~Version Information
VERS.                      2.0: CWLS Log ASCII Standard - VERSION 2.0
WRAP.                       NO: One line per depth step
~Well Information Block
STRT.FT                -9.5000: 
STOP.FT              1862.5000: 
STEP.FT                 0.2500: 
NULL.                -999.2500: 
COMP.          Petrogulf Corporation: COMPANY
WELL.             State 16-34R: WELL
FLD.           Purgatoire River: FIELD
LOC.           1095' FSL & 1498' FEL--: LOCATION
CNTY.               Las Animas: COUNTY
SRVC.                         : SERVICE COMPANY
DATE.          Mon May 10 14:56:57 2004: LOG DATE
UWI.                          : UNIQUE WELL ID
STAT.                       CO: STATE
~Curve Information Block
DEPT.FT            0 000 00 00: Depth
GR.GAPI                       : Gamma Ray
CCL.                          : Casing Collar Locator
TT3.usec                      : CBL 3' Travel Time
AMP3.mV                       : CBL 3' Amplitude
~Parameter Information Block
~A  Depth        GR         CCL         TT3         AMP3    
# ...
   124.5000     58.9786      0.0000    853.2988     11.3664
   124.7500     62.9044      0.0000    838.5621     11.7584
   125.0000     68.5359      0.0000    833.4153     11.7825
   125.2500     75.0364      0.0000    840.9417     11.5102
   125.5000     81.5281      0.0000    849.7134     11.2140
   125.7500     87.8071      0.0000    856.2115     11.0422
   126.0000     94.0342      0.0000    876.2934     10.9754
   126.2500     99.9339      0.0000    914.8808     10.9908
   126.5000    104.6599      0.0000    943.6463     11.0945
   126.7500    107.5299      0.0000    936.9451     11.2206
   127.0000    108.7607      0.0000    906.6363     11.2677
   127.2500    109.3237      0.0000    879.2329     11.2723
   127.5000    109.9537      0.0000    866.9386     11.4395
   127.7500    110.3908      0.0000    869.7769     11.9216
   128.0000    109.6816      0.0000    882.8696     12.5525
   128.2500    107.1287      0.0000    895.7816     12.8875
   128.5000    102.9750      0.0000    898.1439     12.6490
   128.7500     98.3155      0.0000    891.8069     12.0918
   129.0000     94.2211      0.0000    886.8813     11.6806
   129.2500     90.8856      0.0000    885.5288     11.5438
   129.5000     87.8470      0.0000    882.5089     11.5079
   129.7500     85.0211      0.0000    876.7451     11.4202
   130.0000     83.1943      0.0000    872.3084     11.2159
   130.2500     83.4409      0.0000    872.5364     10.9652
   130.5000     86.1190      0.0000    874.2996     10.9401
   130.7500     90.2898      0.0000    867.6171     11.2656
   131.0000     94.2042      0.0000    845.6339     11.6752
   131.2500     96.8969      0.0000    814.8238     11.9401
   131.5000     99.4066      0.0000    789.4306     12.1408
   131.7500    103.8045      0.0000    776.3018     12.3718
   132.0000    110.7599      0.0000    771.9616     12.5123
   132.2500    118.5682      0.0000    770.9677     12.3485
   132.5000    124.6756      0.0000    770.5003     11.8983
   132.7500    127.5491      0.0000    769.7073     11.5418
   133.0000    126.9304      0.0000    768.3998     11.5516
   133.2500    123.1732      0.0000    765.5306     11.7359
   133.5000    117.2803      0.0000    756.5740     11.8737
   133.7500    111.3322      0.0000    733.5608     12.0111
   134.0000    107.7532      0.0000    695.5850     12.1393
   134.2500    107.6214      0.0000    657.3491     12.0930
   134.5000    109.9567      0.0000    632.6353     11.8678
   134.7500    112.8161      0.0000    616.2568     11.6954
   135.0000    114.8713      0.0000    593.9671     11.7314
   135.2500    115.9139      0.0000    566.3269     11.8336
   135.5000    116.3482      0.0000    559.4919     11.6752
   135.7500    116.8412      0.0000    596.4448     11.1055
   136.0000    118.2359      0.0000    661.4521     10.4849
   136.2500    120.7932      0.0000    715.2214     10.3721
   136.5000    123.2244      0.0000    737.7018     10.7612
   136.7500    123.3471      0.0000    738.1010     11.1330
   137.0000    120.3387      0.0000    733.6655     11.2054
   137.2500    115.8289      0.0000    734.2067     11.0910
   137.5000    112.2107      0.0000    741.2280     10.9481
   137.7500    110.3936      0.0000    751.1560     10.8857
   138.0000    109.7912      0.0000    759.1226     11.0102
   138.2500    109.8398      0.0000    763.0587     11.3320
   138.5000    110.5489      0.0000    764.1805     11.6930
   138.7500    111.8128      0.0000    764.3793     11.9132
   139.0000    113.1338      0.0000    764.6642     11.9662
   139.2500    114.1302      0.0000    765.1948     11.9448
   139.5000    114.8357      0.0000    765.7467     11.9045
   139.7500    115.5839      0.0000    766.1508     11.8025
   140.0000    116.8810      0.0000    766.4030     11.5952
   140.2500    119.0443      0.0000    766.5361     11.3801
   140.5000    121.5723      0.0000    766.6240     11.3392
   140.7500    123.1947      0.0000    766.8064     11.5000
   141.0000    122.9615      0.0000    767.1335     11.7416
   141.2500    121.0355      0.0000    767.5015     11.9734
   141.5000    118.1373      0.0000    767.8203     12.1242
   141.7500    114.7551      0.0000    768.0953     12.1492
   142.0000    111.3906      0.0000    768.3316     12.0554
   142.2500    109.0345      0.0000    768.5597     11.8562
   142.5000    108.6567      0.0000    768.8195     11.6571
   142.7500    110.3457      0.0000    768.9689     11.5889
   143.0000    113.2449      0.0000    768.8657     11.5996
   143.2500    115.9412      0.0000    768.7301     11.5896
   143.5000    116.7401      0.0000    768.9065     11.5686
   143.7500    114.3195      0.0000    769.3028     11.5642
   144.0000    108.7841      0.0000    769.2838     11.5731
   144.2500    101.7578      0.0000    767.2057     11.6161
   144.5000     94.9097      0.0000    757.7000     11.7555
   144.7500     88.5317      0.0000    729.3729     12.0555
   145.0000     81.8845      0.0000    673.3398     12.4759
   145.2500     74.5702      0.0000    600.7159     12.8140
   145.5000     67.1367      0.0000    540.9176     12.8983
   145.7500     60.6535      0.0000    516.6627     12.7958
   146.0000     56.0900      0.0000    530.7057     12.7054
   146.2500     53.8225      0.0000    569.2721     12.7522
   146.5000     53.2751      0.0000    611.6971     12.9027
   146.7500     53.1100      0.0000    649.9156     13.0038
   147.0000     52.1971      0.0000    688.5463     13.0048
   147.2500     50.5322      0.0000    722.1455     13.0030
   147.5000     49.0773      0.0000    734.9611     12.9450
   147.7500     48.7856      0.0000    717.2034     12.7649
   148.0000     49.9190      0.0000    683.3230     12.6416
   148.2500     51.8952      0.0000    676.4063     12.6253
   148.5000     53.4472      0.0000    709.7380     12.5990
   148.7500     53.4020      0.0000    725.0889     12.5992
   149.0000     51.7652     -3.2437    684.4143     12.6127
   149.2500     49.7534      4.6426    639.1158     12.5737
   149.5000     48.5600      0.0000    649.8336     12.5660
   149.7500     48.3304      0.0000    724.6180     12.5925
   150.0000     48.3069      0.0000    832.7272     12.4064
   150.2500     47.6555      0.0000    918.2672     11.8477
   150.5000     46.2779      0.0000    937.3665     11.2219
   150.7500     45.1483      0.0000    896.9644     10.9831
   151.0000     45.7462      0.0000    834.4210     11.0445
   151.2500     48.7364      0.0000    774.2341     11.0068
   151.5000     53.0545      0.0000    724.0843     10.8867
   151.7500     56.5041      0.0000    694.2665     10.8679
   152.0000     57.5072      0.0000    687.8026     10.9021
   152.2500     56.2509      0.0000    680.1782     10.9475
   152.5000     54.2521      0.0000    642.5591     11.0052
   152.7500     53.1224      0.0000    580.3481     10.9949
   153.0000     53.6909      0.0000    525.4332     10.9351
   153.2500     55.7277      0.0000    497.6781     10.9779
   153.5000     58.1797      0.0000    496.5134     11.1017
   153.7500     59.8898      0.0000    521.0019     11.0625
   154.0000     60.3374      0.0000    571.2251     10.8111
   154.2500     59.7715      0.0000    627.7718     10.6985
   154.5000     58.7962      0.0000    653.2743     10.9508
   154.7500     57.9493      0.0000    628.0944     11.2907
   155.0000     57.6193      0.0000    573.6382     11.4093
   155.2500     58.1753      0.0000    532.2992     11.3202
   155.5000     59.9549      0.0000    532.4455     11.1683
   155.7500     62.8551      0.0000    573.9022     11.0451
   156.0000     65.7807      0.0000    628.2728     10.9273
   156.2500     66.7771      0.0000    653.7964     10.7917
   156.5000     64.3358      0.0000    630.6148     10.8126
   156.7500     58.8316      0.0000    581.8113     11.1150
   157.0000     52.5444      0.0000    548.8777     11.4300
   157.2500     48.2295      0.0000    546.0606     11.4459
   157.5000     47.6235      0.0000    553.3023     11.2299
   157.7500     50.7626      0.0000    558.2873     11.0088
