~Version Information
VERS.                      2.0: CWLS Log ASCII Standard - VERSION 2.0
WRAP.                       NO: One line per depth step
~Well Information Block
STRT.FT               998.8000: 
STOP.FT              2235.5000: 
STEP.FT                 0.1000: 
NULL.                -999.2500: 
COMP.          Petrogulf Corporation: COMPANY
WELL.          Latiluppe 8-13R: WELL
FLD.           Purgatorie River: FIELD
LOC.           1495' FSL & 946' FWL: LOCATION
CNTY.               Las Animas: COUNTY
SRVC.                         : SERVICE COMPANY
DATE.          Wed Apr 21 10:46:16 2004: LOG DATE
UWI.           05 071 08035 00: UNIQUE WELL ID
STAT.                 Colorado: STATE
~Curve Information Block
DEPT.FT            0 000 00 00: Depth
DCAL.in                       : CDL Caliper
RHOB.g/cc                     : CDL Bulk Density
RHOC.g/cc                     : CDL Density Correction
DPOR.pu                       : CDL Density Porosity
NPOR.pu                       : Neutron Porosity
GR.GAPI                       : Gamma Ray
~Parameter Information Block
~A  Depth       DCAL        RHOB        RHOC        DPOR        NPOR         GR     
# ...
  1642.0000      7.8042      2.4483      0.0203     12.2262     16.7945     76.8636
  1642.1000      7.8042      2.4503     -0.0003     12.1018     16.6687     75.4787
  1642.2000      7.8042      2.4645      0.0297     11.2435     16.8186     75.3903
  1642.3000      7.8118      2.4852      0.0113      9.9878     16.9642     76.7810
  1642.4000      7.8118      2.5035      0.0485      8.8804     16.8460     78.2520
  1642.5000      7.8124      2.5011      0.0639      9.0213     16.6061     77.8934
  1642.6000      7.8124      2.4723      0.0294     10.7678     16.4588     77.4171
  1642.7000      7.8124      2.4383     -0.0016     12.8292     16.4886     78.3978
  1642.8000      7.8106      2.4220      0.0034     13.8181     16.6434     77.5201
  1642.9000      7.8106      2.4200      0.0448     13.9373     16.7156     74.3281
  1643.0000      7.8072      2.4249     -0.0045     13.6445     16.6194     73.7909
  1643.1000      7.8072      2.4423      0.0152     12.5876     16.5494     75.9615
  1643.2000      7.8072      2.4645      0.0483     11.2402     16.6014     75.9525
  1643.3000      7.8057      2.4729      0.0554     10.7346     16.5487     74.7114
  1643.4000      7.8057      2.4673      0.0345     11.0756     16.3501     75.6129
  1643.5000      7.8026      2.4604      0.0600     11.4917     16.5491     75.7015
  1643.6000      7.8026      2.4540      0.0192     11.8776     17.3725     71.0916
  1643.7000      7.8026      2.4408      0.0512     12.6779     17.9006     64.7210
  1643.8000      7.8017      2.4223      0.0080     13.8021     17.4664     63.1714
  1643.9000      7.8017      2.4147      0.0035     14.2582     16.8227     66.6124
  1644.0000      7.7865      2.4291      0.0131     13.3895     16.7075     69.9420
  1644.1000      7.7865      2.4581      0.0429     11.6328     17.0537     71.2731
  1644.2000      7.7865      2.4816      0.0762     10.2039     17.4710     71.7711
  1644.3000      7.8030      2.4881      0.0487      9.8119     17.6542     71.5224
  1644.4000      7.8030      2.4832      0.0539     10.1101     17.7140     71.3067
  1644.5000      7.8083      2.4717      0.0436     10.8055     17.7491     72.1621
  1644.6000      7.8083      2.4589      0.0051     11.5817     17.5281     73.4905
  1644.7000      7.8083      2.4582      0.0036     11.6232     16.9363     73.6395
  1644.8000      7.8095      2.4756      0.0499     10.5688     16.2989     72.0500
  1644.9000      7.8095      2.4991      0.0894      9.1452     15.9097     68.8750
  1645.0000      7.8060      2.5092      0.0850      8.5345     15.8285     65.3640
  1645.1000      7.8060      2.4981      0.0727      9.2040     16.0930     65.0566
  1645.2000      7.8060      2.4776      0.0100     10.4501     16.4574     68.4235
  1645.3000      7.8072      2.4639      0.0230     11.2760     16.6911     72.0760
  1645.4000      7.8072      2.4617      0.0185     11.4141     17.0328     74.9226
  1645.5000      7.8384      2.4653      0.0358     11.1965     17.4758     76.7324
  1645.6000      7.8384      2.4657      0.0407     11.1707     17.4876     75.3194
  1645.7000      7.8384      2.4560      0.0536     11.7575     16.9461     72.3699
  1645.8000      7.8164      2.4386      0.0160     12.8093     16.4267     70.5465
  1645.9000      7.8164      2.4205      0.0249     13.9096     16.3603     69.2559
  1646.0000      7.8088      2.4067     -0.0069     14.7432     16.5439     68.6621
  1646.1000      7.8088      2.4041     -0.0089     14.9026     16.5540     68.6142
  1646.2000      7.8088      2.4143      0.0122     14.2845     16.2474     67.6740
  1646.3000      7.8065      2.4329      0.0586     13.1560     15.9586     65.5781
  1646.4000      7.8065      2.4559      0.0556     11.7634     15.9738     64.4657
  1646.5000      7.8032      2.4798      0.0340     10.3138     15.9456     66.7747
  1646.6000      7.8032      2.4979      0.0751      9.2164     15.6637     70.5790
  1646.7000      7.8032      2.5004      0.0817      9.0648     15.4938     70.2947
  1646.8000      7.8077      2.4831      0.0736     10.1155     15.6091     65.3709
  1646.9000      7.8077      2.4585      0.0405     11.6035     15.8726     62.2150
  1647.0000      7.8037      2.4441      0.0345     12.4780     16.1259     64.7928
  1647.1000      7.8037      2.4367      0.0665     12.9277     16.3806     70.9672
  1647.2000      7.8037      2.4342     -0.0239     13.0788     16.6580     76.1699
  1647.3000      7.7777      2.4436      0.0466     12.5104     16.9266     76.6908
  1647.4000      7.7777      2.4500      0.0580     12.1234     17.2375     72.3919
  1647.5000      7.7995      2.4403      0.0368     12.7113     17.4362     67.7029
  1647.6000      7.7995      2.4326      0.0085     13.1768     17.4741     67.3661
  1647.7000      7.7995      2.4439      0.0376     12.4935     17.5597     69.2171
  1647.8000      7.8046      2.4610      0.0645     11.4538     17.6840     70.8512
  1647.9000      7.8046      2.4660      0.0634     11.1510     17.7245     73.8740
  1648.0000      7.8074      2.4645      0.0644     11.2404     17.5925     77.0766
  1648.1000      7.8074      2.4704      0.0712     10.8877     17.3257     76.6359
  1648.2000      7.8074      2.4785      0.0855     10.3912     17.0818     72.8313
  1648.3000      7.8085      2.4742      0.0669     10.6565     17.0531     69.5862
  1648.4000      7.8085      2.4579      0.0428     11.6412     17.1467     68.6511
  1648.5000      7.8073      2.4420      0.0242     12.6071     16.9040     70.5727
  1648.6000      7.8073      2.4355      0.0047     13.0005     16.4537     74.7309
  1648.7000      7.8073      2.4357      0.0256     12.9905     16.4268     76.6836
  1648.8000      7.7902      2.4320      0.0277     13.2151     16.6824     72.6619
  1648.9000      7.7902      2.4307     -0.0021     13.2923     16.7953     66.2577
  1649.0000      7.8021      2.4439      0.0208     12.4934     16.9406     64.0419
  1649.1000      7.8021      2.4645      0.0426     11.2406     17.3034     66.4328
  1649.2000      7.8021      2.4833      0.0509     10.1038     17.7416     68.0237
  1649.3000      7.8084      2.4961      0.0842      9.3249     17.9792     67.0825
  1649.4000      7.8084      2.4956      0.0552      9.3589     17.7276     67.0808
  1649.5000      7.8168      2.4876      0.0497      9.8449     17.2025     69.3931
  1649.6000      7.8168      2.4921      0.0186      9.5706     16.8092     72.0557
  1649.7000      7.8168      2.5093      0.0418      8.5246     16.5186     72.6593
  1649.8000      7.8100      2.5158      0.0832      8.1358     16.4903     72.2346
  1649.9000      7.8100      2.5067      0.0157      8.6822     16.8567     74.0669
  1650.0000      7.8040      2.4996      0.0549      9.1143     17.3691     77.3018
  1650.1000      7.8040      2.4926      0.0626      9.5384     17.7486     78.8260
  1650.2000      7.8040      2.4757      0.0368     10.5651     17.8888     79.7267
  1650.3000      7.7887      2.4626     -0.0352     11.3560     17.8366     81.4360
  1650.4000      7.7887      2.4683      0.0332     11.0094     17.6672     80.4579
  1650.5000      7.8038      2.4842      0.0339     10.0495     17.5210     74.7154
  1650.6000      7.8038      2.4976      0.0456      9.2393     17.5516     68.4209
  1650.7000      7.8038      2.5008      0.0617      9.0427     17.6082     67.3686
  1650.8000      7.8070      2.4950      0.0217      9.3969     17.5902     71.6099
  1650.9000      7.8070      2.4873      0.0327      9.8618     17.8101     77.6078
  1651.0000      7.8096      2.4752      0.0337     10.5932     18.3151     82.6260
  1651.1000      7.8096      2.4594     -0.0013     11.5517     18.9525     85.4911
  1651.2000      7.8096      2.4560     -0.0335     11.7567     19.6329     87.4500
  1651.3000      7.8133      2.4704      0.0166     10.8836     20.1242     90.4346
  1651.4000      7.8133      2.4887      0.0508      9.7729     20.3599     94.6833
  1651.5000      7.8119      2.5034     -0.0041      8.8824     20.6074     99.4396
