~Version Information
VERS.                      2.0: CWLS Log ASCII Standard - VERSION 2.0
WRAP.                       NO: One line per depth step
~Well Information Block
STRT.FT               375.0000: 
STOP.FT              2795.7000: 
STEP.FT                 0.1000: 
NULL.                -999.2500: 
COMP.          Pioneer Natural Resources: COMPANY
WELL.              Getem 21-23: WELL
FLD.           Purgatoire River: FIELD
LOC.           2623' FWL & 790' FNL--: LOCATION
PROV.                 Colorado: PROVINCE
CNTY.               Las Animas: COUNTRY
SRVC.                Patterson: SERVICE COMPANY
DATE.          Mon Jun 20 07:26:21 2005: LOG DATE
UWI.           05 071 08411 00: UNIQUE WELL ID
~Curve Information Block
DEPT.FT            0 000 00 00: Depth
DCAL.in                       : CDL Caliper
RHOB.g/cc                     : CDL Bulk Density
RHOC.g/cc                     : CDL Density Correction
DPOR.pu                       : CDL Density Porosity
NPOR.pu                       : Neutron Porosity
GR.GAPI                       : Gamma Ray
~Parameter Information Block
~A  Depth       DCAL        RHOB        RHOC        DPOR        NPOR         GR     
# ...
  1805.4000      7.9738      2.6454      0.1261      0.2802     22.3460    112.7337
  1805.5000      7.9754      2.6243      0.0638      1.5553     22.4055    103.3074
  1805.6000      7.9754      2.6499      0.1386      0.0078     22.7455     96.7100
  1805.7000      7.9754      2.7098      0.2986     -3.6247     23.2849     93.5732
  1805.8000      7.9786      2.7391      0.2675     -5.4007     23.4299     91.1074
  1805.9000      7.9786      2.7120      0.1044     -3.7569     22.8663     86.1976
  1806.0000      7.9830      2.6626      0.0310     -0.7612     22.1542     80.0659
  1806.1000      7.9830      2.6262      0.0204      1.4441     21.5392     75.8076
  1806.2000      7.9830      2.6074      0.0198      2.5808     20.9629     72.3610
  1806.3000      7.9843      2.5962      0.0221      3.2620     20.8141     69.7436
  1806.4000      7.9843      2.5871      0.0220      3.8145     20.8186     71.3515
  1806.5000      7.9821      2.5833      0.0398      4.0432     20.2056     75.8724
  1806.6000      7.9821      2.5847      0.0409      3.9546     19.2466     77.0365
  1806.7000      7.9821      2.5818      0.0539      4.1310     18.7991     73.7506
  1806.8000      7.9831      2.5703      0.0530      4.8324     19.0383     73.3171
  1806.9000      7.9831      2.5613      0.0313      5.3753     19.6894     78.6247
  1807.0000      7.9896      2.5691      0.0526      4.9024     20.5434     82.9752
  1807.1000      7.9896      2.5902      0.0778      3.6252     21.2007     83.2474
  1807.2000      7.9896      2.6028      0.1094      2.8624     21.3974     83.0911
  1807.3000      7.9957      2.5940      0.0597      3.3953     21.6452     83.3987
  1807.4000      7.9957      2.5764      0.0555      4.4592     22.4105     81.5292
  1807.5000      7.9982      2.5651      0.0639      5.1442     23.1529     77.7293
  1807.6000      7.9982      2.5624      0.0407      5.3096     23.6497     75.9712
  1807.7000      7.9982      2.5699      0.0168      4.8552     24.5689     79.7332
  1807.8000      7.9975      2.5855      0.0682      3.9111     25.9874     87.8497
  1807.9000      7.9975      2.5923      0.1060      3.4969     27.1917     98.1107
  1808.0000      7.9934      2.5699      0.0700      4.8531     27.6116    110.8513
  1808.1000      7.9934      2.5109      0.0757      8.4324     27.3854    121.7091
  1808.2000      7.9934      2.4357     -0.0155     12.9903     26.9197    124.7350
  1808.3000      7.9912      2.3819     -0.0442     16.2493     26.4675    123.9969
  1808.4000      7.9912      2.3531     -0.0117     17.9910     26.1929    125.8850
  1808.5000      7.9929      2.3245     -0.0025     19.7255     25.9261    130.3299
  1808.6000      7.9929      2.3009     -0.0514     21.1581     25.2809    137.9586
  1808.7000      7.9929      2.3034      0.0074     21.0083     24.2044    147.5760
  1808.8000      7.9972      2.3198      0.0610     20.0146     23.1502    150.2414
  1808.9000      7.9972      2.3283      0.0785     19.4952     22.5450    142.8618
  1809.0000      8.0115      2.3373      0.0721     18.9508     22.2301    136.2740
  1809.1000      8.0115      2.3653      0.1646     17.2540     21.8485    141.8839
  1809.2000      8.0115      2.4082      0.2236     14.6535     21.2970    155.2255
  1809.3000      8.0319      2.4389      0.2496     12.7966     20.3914    162.6924
  1809.4000      8.0319      2.4363      0.1832     12.9537     18.9859    160.5341
  1809.5000      8.0448      2.4041      0.1523     14.9030     17.4218    157.8789
  1809.6000      8.0448      2.3426      0.1575     18.6292     16.1400    159.6157
  1809.7000      8.0448      2.2376      0.1184     24.9932     15.2445    157.5421
  1809.8000      8.0486      2.0981      0.0511     33.4508     14.6473    148.1357
  1809.9000      8.0486      1.9657     -0.0350     41.4718     14.1364    137.8067
  1810.0000      8.0503      1.8712     -0.0160     47.2014     13.5095    130.3475
  1810.1000      8.0503      1.8063     -0.0492     51.1345     12.7859    122.5606
  1810.2000      8.0503      1.7548     -0.0669     54.2525     12.0621    112.2942
  1810.3000      8.0508      1.7222     -0.0577     56.2305     11.3394    103.6585
  1810.4000      8.0508      1.7271     -0.0252     55.9358     10.6596    100.1620
  1810.5000      8.0406      1.7788      0.0903     52.8016     10.1473     98.9289
  1810.6000      8.0406      1.8664      0.1742     47.4928      9.9023     97.1874
  1810.7000      8.0406      1.9671      0.2284     41.3877      9.9265     98.6692
  1810.8000      8.0281      2.0610      0.2871     35.6963      9.9865    103.0490
  1810.9000      8.0281      2.1468      0.2684     30.4982     10.0944    102.8819
  1811.0000      8.0262      2.2322      0.2854     25.3224     10.5314     96.8810
  1811.1000      8.0262      2.3022      0.2900     21.0800     11.2302     90.0851
  1811.2000      8.0262      2.3291      0.2308     19.4500     11.9312     86.8254
  1811.3000      8.0307      2.3189      0.1225     20.0671     12.4744     90.3598
  1811.4000      8.0307      2.3038      0.1559     20.9807     12.9540     96.7407
  1811.5000      8.0344      2.2859      0.1705     22.0683     13.7032     97.6186
  1811.6000      8.0344      2.2494      0.1309     24.2767     14.7243     94.5117
  1811.7000      8.0344      2.2171      0.0382     26.2347     15.6290     97.5055
  1811.8000      8.0360      2.2300      0.0740     25.4542     16.2309    105.8272
  1811.9000      8.0360      2.2888      0.1292     21.8887     16.6223    108.6503
  1812.0000      8.0388      2.3567      0.2006     17.7784     16.6278    104.5457
  1812.1000      8.0388      2.3958      0.2493     15.4055     16.2163    100.9042
  1812.2000      8.0388      2.3934      0.1973     15.5492     15.7644    102.1610
  1812.3000      8.0407      2.3678      0.1268     17.1027     15.4428    107.2012
  1812.4000      8.0407      2.3409      0.1585     18.7308     15.1407    111.5930
  1812.5000      8.0428      2.3177      0.1478     20.1413     14.6259    113.4193
  1812.6000      8.0428      2.2980      0.0778     21.3331     13.9590    114.5291
  1812.7000      8.0428      2.2747      0.0774     22.7457     13.5010    115.0440
  1812.8000      8.0447      2.2344      0.0346     25.1872     13.0767    114.0412
  1812.9000      8.0447      2.1831      0.0312     28.2978     12.3185    112.5987
  1813.0000      8.0422      2.1447      0.0320     30.6259     11.5361    112.0579
  1813.1000      8.0422      2.1438      0.0722     30.6784     11.3265    113.8852
  1813.2000      8.0422      2.1946      0.1197     27.5984     11.7483    118.0290
  1813.3000      8.0185      2.2907      0.2157     21.7780     12.3032    121.6040
  1813.4000      8.0185      2.3926      0.3559     15.6026     12.5902    120.1391
  1813.5000      7.9747      2.4495      0.3535     12.1531     12.8571    111.4327
  1813.6000      7.9747      2.4584      0.2449     11.6139     13.5911     99.5837
  1813.7000      7.9747      2.4542      0.2227     11.8685     14.4729     94.0975
  1813.8000      7.9435      2.4445      0.2438     12.4571     14.9643     99.0055
  1813.9000      7.9435      2.4173      0.2065     14.1035     15.3914    108.3056
  1814.0000      7.9258      2.3904      0.0853     15.7358     16.0373    114.9314
  1814.1000      7.9258      2.3980      0.1188     15.2708     16.6402    115.7806
  1814.2000      7.9258      2.4428      0.1613     12.5560     17.1396    113.6368
  1814.3000      7.9161      2.4928      0.2135      9.5247     17.6967    111.7374
  1814.4000      7.9161      2.5242      0.1628      7.6255     18.3027    108.0770
  1814.5000      7.9143      2.5432      0.1933      6.4698     18.8844    103.0263
  1814.6000      7.9143      2.5586      0.2418      5.5383     19.3637     99.2533
  1814.7000      7.9143      2.5747      0.2059      4.5655     19.8638     97.3747
  1814.8000      7.9135      2.5959      0.2309      3.2763     20.8074     96.1223
  1814.9000      7.9135      2.6088      0.2457      2.4965     22.1104     93.0770
