~Version Information
VERS.                      2.0: CWLS Log ASCII Standard - VERSION 2.0
WRAP.                       NO: One line per depth step
~Well Information Block
STRT.FT                -2.5000: 
STOP.FT              2329.5000: 
STEP.FT                 0.2500: 
NULL.                -999.2500: 
COMP.          Pioneer Natural Resources: COMPANY
WELL.              Whinny 42-2: WELL
FLD.           Purgatorie River: FIELD
LOC.           1836' FNL & 466' FEL--: LOCATION
PROV.                       CO: PROVINCE
CNTY.               Las Animas: COUNTRY
SRVC.          Patterson Wireline: SERVICE COMPANY
DATE.          Mon Aug 29 13:18:04 2005: LOG DATE
UWI.           05 071 08406 00: UNIQUE WELL ID
~Curve Information Block
DEPT.FT            0 000 00 00: Depth
CCL.                          : Casing Collar Locator
TT3.usec                      : CBL 3' Travel Time
AMP3.mV                       : CBL 3' Amplitude
GR.GAPI                       : Gamma Ray
~Parameter Information Block
~A  Depth       CCL         TT3         AMP3         GR     
# ...
  2309.0000      0.0000    713.8592      6.2816     76.1660
  2309.2500      0.0000    710.4097      6.8974     74.6593
  2309.5000      0.0000    700.1620      7.5637     73.3724
  2309.7500      0.0000    687.2968      8.2463     72.7990
  2310.0000      0.0000    675.6356      8.8923     72.8793
  2310.2500      0.0000    667.2704      9.4375     72.8496
  2310.5000      0.0000    661.5948      9.8291     72.2199
  2310.7500      0.0000    653.6918     10.0521     71.4935
  2311.0000      0.0000    636.4002     10.1356     71.4833
  2311.2500      0.0000    608.3005     10.1332     72.3397
  2311.5000      0.0000    579.3015     10.0953     73.7410
  2311.7500      0.0000    564.7631     10.0522     75.6666
  2312.0000      0.0000    572.6971     10.0211     78.3837
  2312.2500      0.0000    597.5336     10.0231     81.6641
  2312.5000      0.0000    626.1915     10.0866     84.5201
  2312.7500      0.0000    648.8636     10.2324     86.0979
  2313.0000      0.0000    663.9189     10.4636     86.6452
  2313.2500      0.0000    674.6230     10.7746     87.1319
  2313.5000      0.0000    683.2637     11.1623     88.0371
  2313.7500      0.0000    688.8883     11.6231     89.0614
  2314.0000      0.0000    689.9633     12.1410     89.8733
  2314.2500      0.0000    688.0725     12.6896     90.3624
  2314.5000      0.0000    687.6866     13.2488     90.0385
  2314.7500      0.0000    691.9706     13.8186     87.6137
  2315.0000      0.0000    699.5161     14.4082     81.3248
  2315.2500      0.0000    705.6653     15.0045     69.8716
  2315.5000      0.0000    706.6486     15.5468     53.7177
  2315.7500      0.0000    701.9656     15.9445     35.7520
  2316.0000      0.0000    693.0005     16.1273     20.0238
  2316.2500      0.0000    680.7309     16.0819      9.2322
  2316.5000      0.0000    666.6236     15.8441      3.4483
  2316.7500      0.0000    655.2974     15.4675      1.0314
  2317.0000      0.0000    653.0553     14.9972      0.2447
  2317.2500      0.0000    661.9861     14.4636      0.0454
  2317.5000      0.0000    677.2424     13.8907      0.0061
  2317.7500      0.0000    691.4609     13.3109      0.0000
  2318.0000      0.0000    700.5121     12.7719   -999.2500
  2318.2500      0.0000    704.1806     12.3314   -999.2500
  2318.5000      0.0000    703.5935     12.0376   -999.2500
  2318.7500      0.0000    700.3456     11.9054   -999.2500
  2319.0000      0.0000    697.1868     11.9051   -999.2500
  2319.2500      0.0000    696.9908     11.9742   -999.2500
  2319.5000      0.0000    700.1889     12.0422   -999.2500
  2319.7500      0.0000    703.3766     12.0388   -999.2500
  2320.0000      0.0000    699.7583     11.8721   -999.2500
  2320.2500      0.0000    679.6804     11.3924   -999.2500
  2320.5000      0.0000    631.2957     10.3979   -999.2500
  2320.7500      0.0000    544.7382      8.7451   -999.2500
  2321.0000      0.0000    421.8041      6.5312   -999.2500
  2321.2500      0.0000    283.0822      4.1613   -999.2500
  2321.5000      0.0000    159.8398      2.1505   -999.2500
  2321.7500      0.0000     74.2267      0.8058   -999.2500
  2322.0000      0.0000     27.8925      0.0998   -999.2500
  2322.2500      0.0000      8.3836     -0.1905   -999.2500
  2322.5000      0.0000      1.9971     -0.2838   -999.2500
  2322.7500      0.0000      0.3721     -0.3072   -999.2500
  2323.0000      0.0000      0.0503     -0.3118   -999.2500
  2323.2500      0.0000   -999.2500   -999.2500   -999.2500
  2323.5000      0.0000   -999.2500   -999.2500   -999.2500
  2323.7500      0.0000   -999.2500   -999.2500   -999.2500
  2324.0000      0.0000   -999.2500   -999.2500   -999.2500
  2324.2500      0.0000   -999.2500   -999.2500   -999.2500
  2324.5000      0.0000   -999.2500   -999.2500   -999.2500
  2324.7500      0.0000   -999.2500   -999.2500   -999.2500
  2325.0000      0.0000   -999.2500   -999.2500   -999.2500
  2325.2500      0.0000   -999.2500   -999.2500   -999.2500
  2325.5000      0.0000   -999.2500   -999.2500   -999.2500
  2325.7500      0.0000   -999.2500   -999.2500   -999.2500
  2326.0000      0.0000   -999.2500   -999.2500   -999.2500
  2326.2500      0.0000   -999.2500   -999.2500   -999.2500
  2326.5000      0.0000   -999.2500   -999.2500   -999.2500
  2326.7500      0.0000   -999.2500   -999.2500   -999.2500
  2327.0000      0.0000   -999.2500   -999.2500   -999.2500
  2327.2500      0.0000   -999.2500   -999.2500   -999.2500
  2327.5000      0.0000   -999.2500   -999.2500   -999.2500
  2327.7500      0.0000   -999.2500   -999.2500   -999.2500
  2328.0000      0.0000   -999.2500   -999.2500   -999.2500
  2328.2500      0.0000   -999.2500   -999.2500   -999.2500
  2328.5000      0.0000   -999.2500   -999.2500   -999.2500
  2328.7500   -999.2500   -999.2500   -999.2500   -999.2500
  2329.0000   -999.2500   -999.2500   -999.2500   -999.2500
  2329.2500   -999.2500   -999.2500   -999.2500   -999.2500
  2329.5000   -999.2500   -999.2500   -999.2500   -999.2500
