~Version Information
VERS.                      2.0: CWLS Log ASCII Standard - VERSION 2.0
WRAP.                       NO: One line per depth step
~Well Information Block
STRT.FT               846.6000: 
STOP.FT              2609.1000: 
STEP.FT                 0.1000: 
NULL.                -999.2500: 
COMP.          Petrogulf Corporation: COMPANY
WELL.            Lavedure 7-44: WELL
FLD.           Purgatoire River: FIELD
LOC.           969' FSL & 501' FEL: LOCATION
PROV.                 Colorado: PROVINCE
CNTY.               Las Animas: COUNTRY
SRVC.                Patterson: SERVICE COMPANY
DATE.          Sun Dec 07 14:55:17 2003: LOG DATE
UWI.                          : UNIQUE WELL ID
~Curve Information Block
DEPT.FT            0 000 00 00: Depth
DCAL.in                       : CDL Caliper
RHOB.g/cc                     : CDL Bulk Density
RHOC.g/cc                     : CDL Density Correction
DPOR.pu                       : CDL Density Porosity
GR.GAPI                       : Gamma Ray
NPOR.pu                       : Neutron Porosity
~Parameter Information Block
~A  Depth       DCAL        RHOB        RHOC        DPOR         GR         NPOR    
# ...
  1557.0000      8.0674      2.6279      0.0501      1.3414     93.6955     18.9693
  1557.1000      8.0674      2.6223      0.0447      1.6759     93.8759     19.2191
  1557.2000      8.0674      2.6165      0.0399      2.0281     94.0408     19.4896
  1557.3000      8.0818      2.6106      0.0359      2.3883     94.1221     19.7576
  1557.4000      8.0818      2.6047      0.0324      2.7473     94.0785     20.0007
  1557.5000      8.0956      2.5989      0.0295      3.0961     93.8989     20.1995
  1557.6000      8.0956      2.5935      0.0270      3.4267     93.5977     20.3399
  1557.7000      8.0956      2.5884      0.0247      3.7320     93.2165     20.4139
  1557.8000      8.0923      2.5839      0.0227      4.0066     92.8107     20.4210
  1557.9000      8.0923      2.5799      0.0210      4.2466     92.4470     20.3665
  1558.0000      8.0814      2.5766      0.0198      4.4498     92.1942     20.2611
  1558.1000      8.0814      2.5738      0.0191      4.6162     92.1164     20.1184
  1558.2000      8.0814      2.5717      0.0192      4.7473     92.2606     19.9532
  1558.3000      8.0813      2.5700      0.0201      4.8466     92.6512     19.7796
  1558.4000      8.0813      2.5688      0.0216      4.9189     93.2834     19.6100
  1558.5000      8.0886      2.5680      0.0237      4.9702     94.1208     19.4542
  1558.6000      8.0886      2.5674      0.0261      5.0068     95.0994     19.3193
  1558.7000      8.0886      2.5669      0.0287      5.0351     96.1348     19.2095
  1558.8000      8.0923      2.5665      0.0312      5.0607     97.1291     19.1268
  1558.9000      8.0923      2.5660      0.0337      5.0881     97.9929     19.0709
  1559.0000      8.0920      2.5655      0.0361      5.1199     98.6520     19.0401
  1559.1000      8.0920      2.5649      0.0387      5.1571     99.0595     19.0315
  1559.2000      8.0920      2.5642      0.0416      5.1984     99.2028     19.0415
  1559.3000      8.0906      2.5635      0.0451      5.2411     99.1002     19.0664
  1559.4000      8.0906      2.5629      0.0495      5.2811     98.7967     19.1022
  1559.5000      8.0865      2.5623      0.0547      5.3133     98.3538     19.1446
  1559.6000      8.0865      2.5620      0.0608      5.3330     97.8360     19.1892
  1559.7000      8.0865      2.5620      0.0676      5.3356     97.2944     19.2315
  1559.8000      8.0868      2.5622      0.0747      5.3182     96.7605     19.2664
  1559.9000      8.0868      2.5629      0.0818      5.2794     96.2369     19.2887
  1560.0000      8.0938      2.5639      0.0885      5.2199     95.7003     19.2933
  1560.1000      8.0938      2.5651      0.0944      5.1428     95.1068     19.2756
  1560.2000      8.0938      2.5666      0.0991      5.0530     94.4031     19.2318
  1560.3000      8.0815      2.5682      0.1025      4.9575     93.5398     19.1593
  1560.4000      8.0815      2.5697      0.1045      4.8647     92.4816     19.0571
  1560.5000      8.0502      2.5711      0.1049      4.7838     91.2106     18.9258
  1560.6000      8.0502      2.5721      0.1040      4.7241     89.7308     18.7675
  1560.7000      8.0502      2.5725      0.1017      4.6946     88.0620     18.5862
  1560.8000      8.0361      2.5724      0.0982      4.7032     86.2330     18.3875
  1560.9000      8.0361      2.5715      0.0935      4.7559     84.2720     18.1785
  1561.0000      8.0600      2.5699      0.0878      4.8566     82.2022     17.9674
  1561.1000      8.0600      2.5674      0.0812      5.0063     80.0367     17.7627
  1561.2000      8.0600      2.5641      0.0737      5.2034     77.7820     17.5728
  1561.3000      8.0951      2.5602      0.0655      5.4431     75.4422     17.4051
  1561.4000      8.0951      2.5556      0.0569      5.7182     73.0225     17.2652
  1561.5000      8.1153      2.5507      0.0482      6.0189     70.5358     17.1565
  1561.6000      8.1153      2.5455      0.0396      6.3338     68.0081     17.0805
  1561.7000      8.1153      2.5403      0.0317      6.6505     65.4802     17.0369
  1561.8000      8.1163      2.5352      0.0248      6.9564     63.0022     17.0242
  1561.9000      8.1163      2.5305      0.0191      7.2399     60.6346     17.0406
  1562.0000      8.1109      2.5264      0.0150      7.4906     58.4413     17.0844
  1562.1000      8.1109      2.5229      0.0123      7.7005     56.4840     17.1546
  1562.2000      8.1109      2.5202      0.0112      7.8643     54.8177     17.2515
  1562.3000      8.1076      2.5183      0.0115      7.9795     53.4893     17.3759
  1562.4000      8.1076      2.5172      0.0128      8.0464     52.5329     17.5298
  1562.5000      8.1109      2.5169      0.0148      8.0678     51.9702     17.7147
  1562.6000      8.1109      2.5172      0.0172      8.0482     51.8104     17.9320
  1562.7000      8.1109      2.5181      0.0197      7.9931     52.0478     18.1816
  1562.8000      8.1193      2.5195      0.0221      7.9084     52.6660     18.4622
  1562.9000      8.1193      2.5213      0.0244      7.7992     53.6333     18.7704
  1563.0000      8.1249      2.5234      0.0264      7.6700     54.9028     19.1016
  1563.1000      8.1249      2.5259      0.0285      7.5233     56.4139     19.4495
  1563.2000      8.1249      2.5286      0.0309      7.3605     58.0963     19.8072
  1563.3000      8.1235      2.5315      0.0339      7.1817     59.8719     20.1674
  1563.4000      8.1235      2.5347      0.0377      6.9863     61.6633     20.5227
  1563.5000      8.1220      2.5382      0.0427      6.7734     63.3988     20.8663
  1563.6000      8.1220      2.5420      0.0490      6.5430     65.0196     21.1917
  1563.7000      8.1220      2.5461      0.0564      6.2967     66.4839     21.4940
  1563.8000      8.1166      2.5504      0.0647      6.0374     67.7677     21.7691
  1563.9000      8.1166      2.5548      0.0735      5.7707     68.8573     22.0150
  1564.0000      8.1033      2.5592      0.0823      5.5039     69.7482     22.2311
  1564.1000      8.1033      2.5634      0.0904      5.2457     70.4383     22.4186
  1564.2000      8.1033      2.5674      0.0973      5.0057     70.9211     22.5795
  1564.3000      8.0970      2.5709      0.1024      4.7931     71.1905     22.7165
  1564.4000      8.0970      2.5738      0.1055      4.6157     71.2411     22.8324
  1564.5000      8.1395      2.5761      0.1065      4.4791     71.0769     22.9303
  1564.6000      8.1395      2.5776      0.1055      4.3855     70.7163     23.0142
  1564.7000      8.1395      2.5785      0.1030      4.3340     70.1965     23.0896
  1564.8000      8.3665      2.5787      0.0997      4.3199     69.5728     23.1649
  1564.9000      8.3665      2.5785      0.0964      4.3361     68.9116     23.2520
  1565.0000      8.9391      2.5778      0.0941      4.3738     68.2801     23.3659
  1565.1000      8.9391      2.5770      0.0936      4.4236     67.7330     23.5245
  1565.2000      8.9391      2.5761      0.0955      4.4780     67.3024     23.7462
  1565.3000      9.9960      2.5752      0.1001      4.5319     66.9906     24.0473
  1565.4000      9.9960      2.5744      0.1074      4.5848     66.7718     24.4397
  1565.5000     11.4104      2.5734      0.1167      4.6415     66.6000     24.9279
  1565.6000     11.4104      2.5722      0.1274      4.7128     66.4186     25.5078
  1565.7000     11.4104      2.5706      0.1383      4.8149     66.1723     26.1651
  1565.8000     12.4524      2.5680      0.1484      4.9696     65.8215     26.8766
  1565.9000     12.4524      2.5642      0.1565      5.2021     65.3472     27.6120
  1566.0000     12.8326      2.5586      0.1618      5.5405     64.7508     28.3367
  1566.1000     12.8326      2.5508      0.1637      6.0126     64.0498     29.0158
  1566.2000     12.8326      2.5404      0.1617      6.6447     63.2720     29.6181
  1566.3000     12.8524      2.5269      0.1557      7.4589     62.4450     30.1184
  1566.4000     12.8524      2.5102      0.1459      8.4712     61.5926     30.5001
  1566.5000     12.7393      2.4901      0.1329      9.6894     60.7304     30.7560
