~Version Information
VERS.                      2.0: CWLS Log ASCII Standard - VERSION 2.0
WRAP.                       NO: One line per depth step
~Well Information Block
STRT.FT                -7.5000: 
STOP.FT              2339.2500: 
STEP.FT                 0.2500: 
NULL.                -999.2500: 
COMP.          Pioneer Natural Resources: COMPANY
WELL.            Harrier 44-33: WELL
FLD.           Purgatorie River: FIELD
LOC.           456' FSL & 930' FEL--: LOCATION
PROV.                       CO: PROVINCE
CNTY.               Las Animas: COUNTRY
SRVC.          Patterson Wireline: SERVICE COMPANY
DATE.          Wed Jun 29 11:08:51 2005: LOG DATE
UWI.           05 071 08398 00: UNIQUE WELL ID
~Curve Information Block
DEPT.FT            0 000 00 00: Depth
CCL.                          : Casing Collar Locator
TT3.usec                      : CBL 3' Travel Time
AMP3.mV                       : CBL 3' Amplitude
GR.GAPI                       : Gamma Ray
~Parameter Information Block
~A  Depth       CCL         TT3         AMP3         GR     
# ...
  1835.0000      0.0000    644.8352      6.4482     49.2003
  1835.2500      0.0000    648.6689      6.4599     60.6429
  1835.5000      0.0000    656.9868      6.4360     73.6854
  1835.7500      0.0000    667.7147      6.3515     85.9357
  1836.0000      0.0000    680.2914      6.1961     95.3244
  1836.2500      0.0000    693.7701      5.9881    100.7459
  1836.5000      0.0000    705.8461      5.7809    102.1882
  1836.7500      0.0000    713.4063      5.6336    100.7293
  1837.0000      0.0000    714.1998      5.5677     98.4514
  1837.2500      0.0000    708.7872      5.5679     97.8543
  1837.5000      0.0000    700.9236      5.6251    100.4953
  1837.7500      0.0000    695.6633      5.7564    105.8029
  1838.0000      0.0000    697.3264      5.9668    111.5606
  1838.2500      0.0000    708.3862      6.2145    115.8963
  1838.5000      0.0000    728.0701      6.4298    118.5945
  1838.7500      0.0000    751.1523      6.5598    120.3697
  1839.0000      0.0000    769.9215      6.5952    121.5288
  1839.2500      0.0000    779.2639      6.5734    122.1302
  1839.5000      0.0000    780.1868      6.5553    122.9094
  1839.7500      0.0000    778.3330      6.5840    124.6334
  1840.0000      0.0000    779.4471      6.6589    126.4246
  1840.2500      0.0000    786.0834      6.7432    126.0401
  1840.5000      0.0000    797.3046      6.7840    122.3277
  1840.7500      0.0000    809.8553      6.7327    116.6600
  1841.0000      0.0000    819.2842      6.5687    111.7066
  1841.2500      0.0000    821.2348      6.3213    109.2604
  1841.5000      0.0000    813.7286      6.0612    109.3366
  1841.7500      0.0000    799.7753      5.8596    111.0704
  1842.0000      0.0000    787.3128      5.7498    114.2393
  1842.2500      0.0000    784.3489      5.7244    119.6537
  1842.5000      0.0000    792.6769      5.7590    127.8190
  1842.7500      0.0000    806.7392      5.8316    137.4545
  1843.0000      0.0000    818.9998      5.9214    145.7395
  1843.2500      0.0000    825.7947      5.9905    150.1654
  1843.5000      0.0000    828.2023      5.9849    150.1166
  1843.7500      0.0000    828.8919      5.8774    147.0056
  1844.0000      0.0000    829.3736      5.7117    143.1893
  1844.2500      0.0000    829.6706      5.5869    140.5301
  1844.5000      0.0000    829.2814      5.5842    139.5109
  1844.7500      0.0000    828.2175      5.7020    139.4789
  1845.0000      0.0000    827.5477      5.8562    139.6265
  1845.2500      0.0000    828.7255      5.9447    139.5877
  1845.5000      0.0000    832.0746      5.9223    139.3252
  1845.7500      0.0000    836.3101      5.8209    138.9446
  1846.0000      0.0000    839.7072      5.7080    138.7963
  1846.2500      0.0000    841.3353      5.6373    139.4795
  1846.5000      0.0000    841.0945      5.6274    141.3762
  1846.7500      0.0000    839.1572      5.6629    144.0613
  1847.0000      0.0000    835.8688      5.7075    146.1737
  1847.2500      0.0000    832.0086      5.7249    146.0149
  1847.5000      0.0000    828.5438      5.6979    142.7538
  1847.7500      0.0000    825.8598      5.6330    137.4046
  1848.0000      0.0000    823.5510      5.5502    132.2896
  1848.2500      0.0000    821.1555      5.4712    129.2163
  1848.5000      0.0000    818.7691      5.4241    128.3896
  1848.7500      0.0000    816.7921      5.4459    129.2197
  1849.0000      0.0000    815.3136      5.5558    131.4710
  1849.2500      0.0000    813.9746      5.7287    135.1086
  1849.5000      0.0000    812.5739      5.9147    139.5989
  1849.7500      0.0000    811.5722      6.0767    143.9387
  1850.0000      0.0000    811.4974      6.1875    147.2134
  1850.2500      0.0000    811.8406      6.2100    149.0124
  1850.5000      0.0000    810.9765      6.1178    149.5867
  1850.7500      0.0000    807.1381      5.9299    149.6416
  1851.0000      0.0000    799.1390      5.7020    149.7040
  1851.2500      0.0000    786.7135      5.4895    149.6774
  1851.5000      0.0000    771.5083      5.3362    149.1536
  1851.7500      0.0000    757.8636      5.2844    147.8855
  1852.0000      0.0000    750.8601      5.3572    145.5343
  1852.2500      0.0000    752.2548      5.5230    141.1009
  1852.5000      0.0000    758.9281      5.6976    133.3615
  1852.7500      0.0000    765.9480      5.7965    122.3614
  1853.0000      0.0000    770.2729      5.7956    110.2826
  1853.2500      0.0000    770.9467      5.7497    100.4715
  1853.5000      0.0000    767.3871      5.7418     95.2728
  1853.7500      0.0000    759.0374      5.8035     94.5683
  1854.0000      0.0000    746.3557      5.8822     96.3095
  1854.2500      0.0000    731.6949      5.8902     98.2448
  1854.5000      0.0000    719.4785      5.7903     98.9094
  1854.7500      0.0000    714.9034      5.6402     97.4604
  1855.0000      0.0000    720.9515      5.5486     93.6334
  1855.2500      0.0000    735.6391      5.5753     88.0711
  1855.5000      0.0000    752.6283      5.6744     82.0770
  1855.7500      0.0000    765.7190      5.7417     76.9219
  1856.0000      0.0000    773.0493      5.7060     73.6796
  1856.2500      0.0000    776.7753      5.5664     73.4426
  1856.5000      0.0000    779.5226      5.3672     76.9858
  1856.7500      0.0000    781.7023      5.1643     83.8912
  1857.0000      0.0000    781.6245      5.0118     92.3837
  1857.2500      0.0000    778.2430      4.9541    100.4487
  1857.5000      0.0000    773.8447      5.0146    107.1273
  1857.7500      0.0000    772.4635      5.1846    112.8407
  1858.0000      0.0000    775.3099      5.4148    118.8477
  1858.2500      0.0000    779.5330      5.6316    126.2434
  1858.5000      0.0000    781.4393      5.7740    134.6115
  1858.7500      0.0000    779.2430      5.8183    141.5700
  1859.0000      0.0000    773.8450      5.7728    144.6550
  1859.2500      0.0000    769.2394      5.6553    143.7753
  1859.5000      0.0000    770.8103      5.4818    140.9382
  1859.7500      0.0000    780.5661      5.2770    137.5904
  1860.0000      0.0000    794.4518      5.0823    133.3353
  1860.2500      0.0000    805.8195      4.9360    127.7542
  1860.5000      0.0000    811.1076      4.8500    122.5429
  1860.7500      0.0000    811.4714      4.8167    120.6143
  1861.0000      0.0000    810.0770      4.8265    123.0507
  1861.2500      0.0000    809.2352      4.8709    127.7744
  1861.5000      0.0000    809.6061      4.9456    131.5226
  1861.7500      0.0000    810.6104      5.0529    132.7297
  1862.0000      0.0000    811.1189      5.1884    132.2307
  1862.2500      0.0000    810.2711      5.3352    131.5022
  1862.5000      0.0000    807.8047      5.4804    130.6883
  1862.7500      0.0000    803.2715      5.6151    128.5989
  1863.0000      0.0000    795.0782      5.7193    124.5443
  1863.2500      0.0000    780.9821      5.7802    119.7188
  1863.5000      0.0000    760.0921      5.8188    116.3413
  1863.7500      0.0000    734.0407      5.8628    115.4363
  1864.0000      0.0000    705.2849      5.9007    115.9539
  1864.2500      0.0000    674.7078      5.9000    116.2668
  1864.5000      0.0000    642.9278      5.8659    115.9432
  1864.7500      0.0000    614.9576      5.8553    115.5444
  1865.0000      0.0000    601.8387      5.9312    115.2159
  1865.2500      0.0000    614.8068      6.1062    114.3704
  1865.5000      0.0000    655.6704      6.3310    112.7375
  1865.7500      0.0000    712.5824      6.5379    111.0126
  1866.0000      0.0000    766.7198      6.6945    110.2178
  1866.2500      0.0000    804.3246      6.8106    110.7379
  1866.5000      0.0000    822.9244      6.9017    111.9671
  1866.7500      0.0000    828.0657      6.9739    112.6828
  1867.0000      0.0000    826.4443      7.0510    111.9878
  1867.2500      0.0000    821.7060      7.1823    110.1278
  1867.5000      0.0000    814.4748      7.3877    108.1751
  1867.7500      0.0000    804.8063      7.6067    106.7730
  1868.0000      0.0000    794.1154      7.7341    105.4609
  1868.2500      0.0000    784.7330      7.7029    103.3374
