~Version Information
VERS.                      2.0: CWLS Log ASCII Standard - VERSION 2.0
WRAP.                       NO: One line per depth step
~Well Information Block
STRT.FT               520.0000: 
STOP.FT              2183.5000: 
STEP.FT                 0.1000: 
NULL.                -999.2500: 
COMP.          Pioneer Natural Resources: COMPANY
WELL.             Enzo 43-8 Tr: WELL
FLD.           Purgatoire River: FIELD
LOC.           2303' FSL & 604' FEL: LOCATION
PROV.                 Colorado: PROVINCE
CNTY.               Las Animas: COUNTRY
SRVC.                Patterson: SERVICE COMPANY
DATE.          Sun Oct 31 15:10:54 2004: LOG DATE
UWI.           05 071 08213 00: UNIQUE WELL ID
~Curve Information Block
DEPT.FT            0 000 00 00: Depth
DCAL.in                       : CDL Caliper
RHOB.g/cc                     : CDL Bulk Density
RHOC.g/cc                     : CDL Density Correction
DPOR.pu                       : CDL Density Porosity
NPOR.pu                       : Neutron Porosity
GR.GAPI                       : Gamma Ray
~Parameter Information Block
~A  Depth       DCAL        RHOB        RHOC        DPOR        NPOR         GR     
# ...
  1393.6000      8.0902      2.9121      0.2448    -15.8820     28.7671     86.6424
  1393.7000      8.0902      2.9755      0.2236    -19.7268     30.4357     87.8201
  1393.8000      8.0896      2.9849      0.1597    -20.2957     31.7673     94.0442
  1393.9000      8.0896      2.9504      0.1141    -18.2061     32.5097    100.1958
  1394.0000      8.0946      2.8939      0.0401    -14.7818     32.8346    101.2859
  1394.1000      8.0946      2.8302     -0.0160    -10.9224     32.7822     97.7910
  1394.2000      8.0946      2.7747     -0.1081     -7.5578     32.2145     94.7089
  1394.3000      8.1092      2.7359     -0.1046     -5.2085     31.2579     99.3742
  1394.4000      8.1092      2.6970     -0.1051     -2.8501     30.1783    109.4585
  1394.5000      8.1245      2.6476     -0.1489      0.1463     29.1215    115.0899
  1394.6000      8.1245      2.6010     -0.0171      2.9702     28.1072    117.4783
  1394.7000      8.1245      2.5595      0.0208      5.4848     27.0027    121.6168
  1394.8000      8.1316      2.5224      0.0033      7.7326     25.9312    122.9933
  1394.9000      8.1316      2.4986      0.0294      9.1744     25.3157    117.5097
  1395.0000      8.1323      2.4953     -0.0023      9.3768     25.3336    110.2422
  1395.1000      8.1323      2.5096      0.0112      8.5107     25.5994    107.4362
  1395.2000      8.1323      2.5224      0.0667      7.7305     25.7596    107.5427
  1395.3000      8.1337      2.5201      0.0372      7.8734     25.9678    108.1540
  1395.4000      8.1337      2.5097      0.0342      8.5000     26.4212    109.0275
  1395.5000      8.1356      2.5043      0.0411      8.8281     26.8033    110.4004
  1395.6000      8.1356      2.5126      0.0184      8.3259     26.8986    114.4056
  1395.7000      8.1356      2.5324      0.0377      7.1255     27.0051    121.4243
  1395.8000      8.1362      2.5424      0.0612      6.5189     27.0945    127.8435
  1395.9000      8.1362      2.5269      0.0366      7.4604     26.9391    131.5231
  1396.0000      8.1354      2.4978      0.0088      9.2234     26.9109    133.9404
  1396.1000      8.1354      2.4727      0.0166     10.7446     27.1769    134.1714
  1396.2000      8.1354      2.4557     -0.0054     11.7782     27.2217    131.2950
  1396.3000      8.1347      2.4463     -0.0137     12.3468     26.8996    129.3855
  1396.4000      8.1347      2.4477     -0.0401     12.2611     26.5449    129.8467
  1396.5000      8.1338      2.4618      0.0277     11.4080     26.2374    128.0838
  1396.6000      8.1338      2.4824      0.0413     10.1585     26.0261    120.5772
  1396.7000      8.1338      2.5016      0.0584      8.9923     26.1497    112.5631
  1396.8000      8.1337      2.5101      0.0886      8.4764     26.3892    110.1553
  1396.9000      8.1337      2.5057      0.0394      8.7438     26.2346    110.0645
  1397.0000      8.1348      2.5022      0.0484      8.9600     25.6518    108.0123
  1397.1000      8.1348      2.4986      0.1032      9.1747     25.0917    105.8000
  1397.2000      8.1348      2.4750      0.0750     10.6076     24.9648    107.9522
  1397.3000      8.1354      2.4278      0.0541     13.4693     25.2019    115.6731
  1397.4000      8.1354      2.3646      0.0430     17.3000     25.2458    121.1104
  1397.5000      8.1355      2.2890      0.0170     21.8764     24.6658    115.6646
  1397.6000      8.1355      2.2058      0.0234     26.9217     23.5783    104.1522
  1397.7000      8.1355      2.1213     -0.0631     32.0400     22.2566     97.3692
  1397.8000      8.1367      2.0482     -0.0830     36.4702     20.8762     99.0624
  1397.9000      8.1367      2.0013     -0.1063     39.3122     19.4518    104.8513
  1398.0000      8.1392      1.9927     -0.0468     39.8385     17.8786    108.5896
  1398.1000      8.1392      2.0205      0.0101     38.1517     16.4004    108.1929
  1398.2000      8.1392      2.0681      0.0810     35.2651     15.2931    105.4462
  1398.3000      8.1394      2.1246      0.1191     31.8448     14.6293    101.9675
  1398.4000      8.1394      2.1885      0.1543     27.9725     14.2929     98.3785
  1398.5000      8.1376      2.2528      0.2010     24.0718     13.9681     96.6905
  1398.6000      8.1376      2.3092      0.1797     20.6563     13.6227     97.7623
  1398.7000      8.1376      2.3566      0.2218     17.7803     13.8203    101.8572
  1398.8000      8.1424      2.3941      0.1714     15.5120     15.0655    106.2899
  1398.9000      8.1424      2.4275      0.1373     13.4877     16.7807    105.9193
  1399.0000      8.1581      2.4663      0.1335     11.1313     18.0671    103.3430
  1399.1000      8.1581      2.5011      0.0939      9.0258     19.0355    103.2189
  1399.2000      8.1581      2.5135      0.0980      8.2742     20.1153    106.1527
  1399.3000      8.1732      2.5066      0.0307      8.6887     21.2237    110.2150
  1399.4000      8.1732      2.5061     -0.0108      8.7234     22.2243    111.6570
  1399.5000      8.1773      2.5188      0.0484      7.9534     23.1263    112.1564
  1399.6000      8.1773      2.5262      0.0163      7.5021     23.8076    116.0845
  1399.7000      8.1773      2.5339     -0.0287      7.0393     24.2986    122.2952
  1399.8000      8.1774      2.5632      0.0648      5.2608     24.7587    125.1279
  1399.9000      8.1774      2.6051      0.0287      2.7187     25.0763    123.5503
  1400.0000      8.1674      2.6251      0.1020      1.5080     25.2352    122.2927
  1400.1000      8.1674      2.6061      0.0295      2.6634     25.4772    122.4624
  1400.2000      8.1674      2.5734      0.0124      4.6406     25.7325    123.2657
  1400.3000      8.1497      2.5501      0.0637      6.0544     25.7392    126.4181
  1400.4000      8.1497      2.5345      0.0085      7.0007     25.6078    130.6459
  1400.5000      8.1384      2.5309     -0.0100      7.2187     25.4777    131.0996
  1400.6000      8.1384      2.5456      0.0146      6.3277     25.1247    126.1199
  1400.7000      8.1384      2.5663      0.0549      5.0729     24.4453    119.0980
  1400.8000      8.1307      2.5728      0.0350      4.6787     23.9505    115.4041
  1400.9000      8.1307      2.5667      0.0199      5.0476     23.9463    116.4890
  1401.0000      8.1217      2.5702      0.0239      4.8364     24.0208    116.2524
  1401.1000      8.1217      2.6019      0.0078      2.9159     24.1616    109.9391
  1401.2000      8.1217      2.6660      0.0457     -0.9695     24.9130    101.2928
  1401.3000      8.1166      2.7474      0.1082     -5.9022     25.9909     96.5907
  1401.4000      8.1166      2.8166      0.1319    -10.0995     26.7691     96.6081
  1401.5000      8.1164      2.8446      0.1385    -11.7940     27.4465     96.6746
  1401.6000      8.1164      2.8156      0.1322    -10.0369     28.1754     95.1735
  1401.7000      8.1164      2.7439      0.0179     -5.6898     28.6103     95.0485
  1401.8000      8.1214      2.6727     -0.0599     -1.3777     28.8237     96.7979
  1401.9000      8.1214      2.6284     -0.0225      1.3111     29.1631     97.5061
  1402.0000      8.1321      2.5969     -0.0809      3.2185     29.4149     97.5309
  1402.1000      8.1321      2.5602     -0.1172      5.4408     29.0108    100.9790
  1402.2000      8.1321      2.5273     -0.1703      7.4353     27.8572    106.9046
  1402.3000      8.1426      2.5222     -0.0880      7.7477     26.4245    110.0275
  1402.4000      8.1426      2.5402      0.0666      6.6522     25.0943    109.4696
  1402.5000      8.1526      2.5564      0.0431      5.6753     23.9019    109.5890
  1402.6000      8.1526      2.5658      0.0741      5.1041     22.7673    113.7427
  1402.7000      8.1526      2.5745      0.1013      4.5768     21.7867    119.2095
  1402.8000      8.1605      2.5821      0.0886      4.1175     21.0606    118.6247
  1402.9000      8.1605      2.5815      0.1267      4.1519     20.6515    111.9600
  1403.0000      8.1574      2.5647      0.0519      5.1719     20.6227    105.9384
  1403.1000      8.1574      2.5447      0.0038      6.3837     20.9419    101.9347
