~Version Information
VERS.                      2.0: CWLS Log ASCII Standard - VERSION 2.0
WRAP.                       NO: One line per depth step
~Well Information Block
STRT.FT                -7.0000: 
STOP.FT              2389.2500: 
STEP.FT                 0.2500: 
NULL.                -999.2500: 
COMP.          Pioneer Natural Resources: COMPANY
WELL.            Victory 12-14: WELL
FLD.           Purgatorie River: FIELD
LOC.           2434' FNL & 188' FWL------: LOCATION
PROV.                       CO: PROVINCE
CNTY.               Las Animas: COUNTRY
SRVC.          Patterson Wireline: SERVICE COMPANY
DATE.          Fri Apr 22 14:29:17 2005: LOG DATE
UWI.           05 071 08332 00: UNIQUE WELL ID
~Curve Information Block
DEPT.FT            0 000 00 00: Depth
CCL.                          : Casing Collar Locator
TT3.usec                      : CBL 3' Travel Time
AMP3.mV                       : CBL 3' Amplitude
GR.GAPI                       : Gamma Ray
~Parameter Information Block
~A  Depth       CCL         TT3         AMP3         GR     
# ...
   462.0000      0.0000    780.4998      6.4013     73.9668
   462.2500      0.0000    789.4474      6.4440     75.9681
   462.5000      0.0000    789.0280      6.4866     77.3624
   462.7500      0.0000    778.4296      6.4970     77.8130
   463.0000      0.0000    763.4247      6.4440     77.6151
   463.2500      0.0000    750.5660      6.3218     77.3169
   463.5000      0.0000    742.4128      6.1527     76.9339
   463.7500      0.0000    737.7680      5.9673     75.8704
   464.0000      0.0000    734.6487      5.7877     73.7616
   464.2500      0.0000    732.3156      5.6304     71.0909
   464.5000      0.0000    731.1157      5.5121     68.7686
   464.7500      0.0000    731.1170      5.4454     67.2214
   465.0000      0.0000    731.3910      5.4335     66.0225
   465.2500      0.0000    730.8902      5.4668     64.4190
   465.5000      0.0000    729.7659      5.5220     62.2239
   465.7500      0.0000    729.3401      5.5707     60.0546
   466.0000      0.0000    730.7798      5.5928     58.5837
   466.2500      0.0000    734.2550      5.5802     57.7954
   466.5000      0.0000    739.5259      5.5307     57.2267
   466.7500      0.0000    746.8296      5.4475     56.6657
   467.0000      0.0000    756.6646      5.3432     56.2332
   467.2500      0.0000    768.7196      5.2391     55.8886
   467.5000      0.0000    781.1701      5.1558     55.2102
   467.7500      0.0000    791.1039      5.1027     53.8281
   468.0000      0.0000    795.9363      5.0755     51.9353
   468.2500      0.0000    794.9587      5.0662     50.1412
   468.5000      0.0000    789.8138      5.0744     48.7377
   468.7500      0.0000    783.3768      5.1021     47.3372
   469.0000      0.0000    778.0117      5.1407     45.5528
   469.2500      0.0000    774.6489      5.1731     43.8288
   469.5000      0.0000    773.0555      5.1897     43.0801
   469.7500      0.0000    772.5717      5.1951     43.6151
   470.0000      0.0000    772.6020      5.2023     44.9457
   470.2500      0.0000    772.7257      5.2232     46.5576
   470.5000      0.0000    772.5862      5.2612     48.3956
   470.7500      0.0000    771.7258      5.3075     50.6510
   471.0000      0.0000    769.5093      5.3486     53.3710
   471.2500      0.0000    765.3651      5.3804     56.1598
   471.5000      0.0000    759.3672      5.4095     58.2114
   471.7500      0.0000    752.6041      5.4435     58.8929
   472.0000      0.0000    746.6765      5.4839     58.3128
   472.2500      0.0000    742.6550      5.5257     57.0127
   472.5000      0.0000    740.5592      5.5635     55.1362
   472.7500      0.0000    739.7263      5.5972     52.3536
   473.0000      0.0000    739.4487      5.6306     48.6942
   473.2500      0.0000    739.3063      5.6616     45.0115
   473.5000      0.0000    739.1692      5.6781     42.4273
   473.7500      0.0000    739.0732      5.6655     41.4689
   474.0000      0.0000    739.0997      5.6170     41.8448
   474.2500      0.0000    739.2961      5.5418     43.0153
   474.5000      0.0000    739.6698      5.4639     44.9465
   474.7500      0.0000    740.2983      5.4093     48.1954
   475.0000      0.0000    741.5381      5.3927     53.0418
   475.2500      0.0000    744.1008      5.4128     58.4956
   475.5000      0.0000    748.6878      5.4559     62.4854
   475.7500      0.0000    755.2484      5.5006     63.3856
   476.0000      0.0000    762.5661      5.5241     61.3547
   476.2500      0.0000    768.8451      5.5110     57.9536
   476.5000      0.0000    772.8870      5.4611     54.5596
   476.7500      0.0000    774.6928      5.3869     51.5308
   477.0000      0.0000    775.0482      5.3057     48.8865
   477.2500      0.0000    774.7679      5.2329     47.1869
   477.5000      0.0000    774.3220      5.1816     47.2958
   477.7500      0.0000    773.8916      5.1634     49.3417
   478.0000      0.0000    773.5370      5.1883     52.0822
   478.2500      0.0000    773.2883      5.2581     53.4610
   478.5000      0.0000    773.1658      5.3601     52.1795
   478.7500      0.0000    773.1709      5.4678     48.9666
   479.0000      0.0000    773.2677      5.5540     46.1696
   479.2500      0.0000    773.3902      5.6054     45.7930
   479.5000      0.0000    773.4911      5.6287     47.7912
   479.7500      0.0000    773.5851      5.6451     50.3235
   480.0000      0.0000    773.7344      5.6773     51.6800
   480.2500      0.0000    773.9930      5.7373     51.8039
   480.5000      0.0000    774.3703      5.8216     51.9046
   480.7500      0.0000    774.8284      5.9178     52.8926
   481.0000      0.0000    775.3001      6.0199     54.5254
   481.2500      0.0000    775.6921      6.1331     55.8535
   481.5000      0.0000    775.8577      6.2599     56.0081
   481.7500      0.0000    775.5787      6.3822     54.6635
   482.0000      0.0000    774.6793      6.4609     52.2425
   482.2500      0.0000    773.3416      6.4556     49.8135
   482.5000      0.0000    772.2765      6.3433     48.6367
   482.7500      0.0000    772.2603      6.1263     49.5447
   483.0000      0.0000    773.6910      5.8413     52.3723
   483.2500      0.0000    777.4518      5.5702     55.8611
   483.5000      0.0000    785.8512      5.4113     58.4101
   483.7500      0.0000    800.5956      5.4007     59.1317
   484.0000      0.0000    819.2590      5.4710     58.1540
   484.2500      0.0000    836.0481      5.5252     55.9552
   484.5000      0.0000    847.1565      5.5384     52.7559
   484.7500      0.0000    853.6901      5.5574     48.8318
   485.0000     -2.0000    858.9323      5.6194     45.0795
   485.2500     -2.0000    864.5746      5.7075     42.6652
   485.5000      2.0000    869.7823      5.7723     42.0004
   485.7500      0.0000    871.8633      5.7810     42.3769
   486.0000      0.0000    867.4807      5.7550     42.7235
   486.2500      0.0000    855.0067      5.7554     42.5704
   486.5000      0.0000    836.6563      5.8075     42.2912
   486.7500      0.0000    817.5563      5.8538     42.7525
   487.0000      0.0000    802.3210      5.8210     45.0255
   487.2500      0.0000    792.8576      5.7216     50.0994
   487.5000      0.0000    789.1667      5.6464     58.2582
   487.7500      0.0000    790.9991      5.6658     68.5942
   488.0000      0.0000    797.7830      5.7782     79.3372
   488.2500      0.0000    807.5646      5.9432     88.6707
   488.5000      0.0000    817.6981      6.1273     95.2773
   488.7500      0.0000    826.4590      6.3144     98.5428
   489.0000      0.0000    832.6937      6.4896     98.6523
   489.2500      0.0000    835.0751      6.6280     96.6453
   489.5000      0.0000    833.9022      6.7087     94.2090
   489.7500      0.0000    832.4387      6.7503     92.9341
   490.0000      0.0000    833.9761      6.8292     93.2568
   490.2500      0.0000    837.9559      7.0433     94.2486
   490.5000      0.0000    840.3918      7.4405     94.8619
   490.7500      0.0000    837.2979      7.9788     95.2587
   491.0000      0.0000    827.2531      8.5559     96.3154
   491.2500      0.0000    812.6434      9.0728     97.7240
   491.5000      0.0000    799.0724      9.4698     97.3408
   491.7500      0.0000    791.1189      9.7154     93.0891
   492.0000      0.0000    787.7724      9.7879     85.3014
   492.2500      0.0000    784.1428      9.6838     76.6197
   492.5000      0.0000    778.1100      9.4436     69.6974
   492.7500      0.0000    772.3716      9.1581     65.5584
   493.0000      0.0000    769.3560      8.9320     63.9412
   493.2500      0.0000    768.0724      8.8245     64.2290
   493.5000      0.0000    768.5949      8.8116     65.5672
   493.7500      0.0000    775.8087      8.8053     66.7890
   494.0000      0.0000    793.9418      8.7171     67.0554
   494.2500      0.0000    819.3378      8.5152     66.5574
   494.5000      0.0000    842.7141      8.2348     66.1826
   494.7500      0.0000    857.3104      7.9463     66.5641
   495.0000      0.0000    862.1727      7.7107     67.5890
   495.2500      0.0000    859.4555      7.5529     68.6412
