~Version Information
 VERS.                                  2.0 : CWLS LAS VERSION
 WRAP.                                   NO : WRAPING MODE
 SWARE .                 MController 2.5.0I : SOFTWARE VERSION
~Well Information
 WELL.                       Montoya 13-41v : WELL
 COMP.                        Pertogulf Corp: COMPANY
 FLD.                      Pergatorie River : FIELD
 LOC.                NE/NE Sec 13 T33S R68W : LOCATION
 DATE.                           8/16-17/04 : DATE(S) LOGGED
 SRVC.       Blanco Geological Services LLC : SERVICE COMPANY
 STAT.                                   CO : STATE
 CNTY.                           Las Animas : COUNTY
 CTRY.                                  USA : COUNTRY
 API.                       05-071-08021-00 : API NUMBER
 STRT.FT                             767.00 : START DEPTH
 STOP.FT                            2499.00 : STOP DEPTH
 STEP.FT                               1.00 : DEPTH INCREMENT
 NULL.                                -9999 : NULL VALUE
~Curve information
 DEPTH.FT                                   :
 ROP.MIN/FT                                 :
 GAS.UNITS                                  :
~ASCII Log data
# ...
      1167.0          0.2          0.1 
      1168.0          3.3          1.9 
      1169.0          0.4          2.2 
      1170.0          0.3          2.1 
      1171.0          0.2          2.1 
      1172.0          0.3          2.5 
      1173.0          0.3          2.6 
      1174.0          0.5          2.7 
      1175.0          0.4          2.6 
      1176.0          0.2          2.7 
      1177.0          0.2          2.6 
      1178.0          0.2          2.8 
      1179.0          0.1          2.8 
      1180.0          0.2          2.8 
      1181.0          0.2          2.7 
      1182.0          0.2          2.7 
      1183.0          0.1          2.6 
      1184.0          0.2          2.7 
      1185.0          0.2          2.9 
      1186.0          0.3          3.0 
      1187.0          0.2          2.7 
      1188.0          0.2          2.8 
      1189.0          0.2          2.8 
      1190.0          0.2          3.1 
      1191.0          0.2          2.9 
      1192.0          0.2          3.0 
      1193.0          0.1          3.1 
      1194.0          0.1          3.1 
      1195.0          0.1          3.0 
      1196.0          0.1          2.9 
      1197.0          0.1          2.9 
      1198.0          2.7          3.6 
      1199.0          0.2          3.7 
      1200.0          0.2          3.9 
      1201.0          0.2          3.7 
      1202.0          0.3          3.6 
      1203.0          0.3          3.6 
      1204.0          0.2          3.5 
      1205.0          0.2          3.6 
      1206.0          0.2          3.6 
      1207.0          0.3          3.6 
      1208.0          0.3          3.5 
      1209.0          0.4          3.5 
      1210.0          0.2          3.7 
      1211.0          0.2          3.4 
      1212.0          0.2          3.2 
      1213.0          0.2          3.4 
      1214.0          0.1          3.3 
      1215.0          0.1          3.5 
      1216.0          0.1          3.2 
      1217.0          0.1          3.2 
      1218.0          0.1          3.3 
      1219.0          0.1          3.2 
      1220.0          0.2          3.4 
      1221.0          0.2          3.5 
      1222.0          0.2          3.5 
      1223.0          0.2          3.8 
      1224.0          0.2          4.3 
      1225.0          0.2          4.5 
      1226.0          0.2          4.3 
      1227.0          0.2          3.9 
      1228.0          2.8          3.8 
      1229.0          0.3          3.9 
      1230.0          0.5          4.2 
      1231.0          0.3          4.0 
      1232.0          0.3          3.9 
      1233.0          0.3          3.8 
      1234.0          0.3          3.8 
      1235.0          0.2          3.6 
      1236.0          0.2          3.4 
      1237.0          0.3          3.4 
      1238.0          0.2          3.5 
      1239.0          0.2          3.7 
      1240.0          0.2          3.7 
      1241.0          0.2          3.5 
      1242.0          0.2          3.7 
      1243.0          0.2          3.6 
      1244.0          0.2          3.7 
      1245.0          0.2          3.6 
      1246.0          0.1          3.5 
      1247.0          0.1          3.5 
      1248.0          0.1          3.6 
      1249.0          0.1          3.5 
      1250.0          0.1          3.6 
      1251.0          0.2          3.8 
      1252.0          0.2          3.6 
      1253.0          0.1          3.9 
      1254.0          0.2          3.9 
      1255.0          0.2          4.1 
      1256.0          0.2          4.4 
      1257.0          0.2          4.4 
      1258.0          3.3          4.6 
      1259.0          0.3          4.3 
      1260.0          0.3          4.0 
      1261.0          0.2          4.0 
      1262.0          0.3          4.0 
      1263.0          0.3          4.0 
      1264.0          0.3          4.0 
      1265.0          0.2          4.1 
      1266.0          0.2          4.0 
      1267.0          0.1          3.9 
      1268.0          0.2          3.8 
      1269.0          0.2          4.0 
      1270.0          0.2          3.9 
      1271.0          0.2          3.9 
      1272.0          0.2          3.9 
      1273.0          0.2          4.0 
      1274.0          0.2          3.7 
      1275.0          0.2          3.9 
      1276.0          0.2          3.9 
      1277.0          0.2          4.0 
      1278.0          0.2          4.0 
      1279.0          0.2          3.8 
      1280.0          0.2          3.9 
      1281.0          0.2          3.8 
      1282.0          0.2          3.8 
      1283.0          0.3          3.8 
      1284.0          0.3          4.0 
      1285.0          0.2          4.2 
      1286.0          0.2          4.5 
      1287.0          0.2          4.5 
      1288.0          2.7          4.4 
      1289.0          0.5          5.1 
      1290.0          0.5          5.7 
      1291.0          0.5          5.5 
      1292.0          0.4          4.6 
      1293.0          0.4          4.5 
      1294.0          0.3          3.9 
      1295.0          0.4          3.9 
      1296.0          0.3          4.0 
      1297.0          0.2          4.1 
      1298.0          0.2          4.0 
      1299.0          0.2          3.9 
      1300.0          0.2          3.8 
      1301.0          0.2          4.0 
      1302.0          0.2          3.9 
      1303.0          0.2          4.0 
      1304.0          0.2          4.0 
      1305.0          0.3          4.2 
      1306.0          0.2          4.1 
      1307.0          0.2          4.1 
      1308.0          0.3          4.0 
      1309.0          0.3          4.1 
      1310.0          0.4          4.2 
      1311.0          0.4          4.1 
      1312.0          0.2          4.3 
      1313.0          0.2          4.0 
      1314.0          0.2          4.2 
      1315.0          0.2          4.4 
      1316.0          0.3          4.8 
      1317.0          0.2          4.1 
      1318.0          3.2          4.8 
      1319.0          0.4          7.3 
      1320.0          0.4          7.8 
      1321.0          0.3          6.4 
      1322.0          0.2          4.8 
      1323.0          0.2          4.7 
      1324.0          0.3          4.6 
      1325.0          0.2          4.2 
      1326.0          0.2          4.1 
      1327.0          0.2          4.2 
      1328.0          0.2          4.1 
      1329.0          0.2          4.2 
      1330.0          0.2          4.3 
      1331.0          0.2          4.1 
      1332.0          0.2          4.0 
      1333.0          0.2          3.9 
      1334.0          0.3          4.3 
      1335.0          0.4          4.4 
      1336.0          0.3          5.6 
      1337.0          0.3          7.7 
      1338.0          0.4          7.9 
      1339.0          0.5          7.0 
      1340.0          0.6          7.7 
      1341.0          0.7          8.5 
      1342.0          0.6          9.1 
      1343.0          0.4          9.0 
      1344.0          0.5          8.7 
      1345.0          0.4         12.4 
      1346.0          0.4         16.6 
      1347.0          0.8          9.4 
      1348.0          0.3          3.4 
      1349.0          0.4          3.9 
      1350.0          4.6         91.3 
      1351.0          0.4          3.8 
      1352.0          0.6          6.3 
      1353.0          0.6         12.1 
      1354.0          0.6         12.3 
      1355.0          0.4         10.7 
      1356.0          0.4          9.7 
      1357.0          0.4          9.1 
      1358.0          0.5          9.4 
      1359.0          0.4          8.9 
      1360.0          0.4          9.1 
      1361.0          0.3          8.9 
      1362.0          0.4          8.8 
      1363.0          0.4          9.0 
      1364.0          0.5          9.3 
      1365.0          0.4          9.0 
      1366.0          0.2          8.5 
