~Version Information
 VERS.                                  2.0 : CWLS LAS VERSION
 WRAP.                                   NO : WRAPING MODE
 SWARE .                 MController 2.5.0N : SOFTWARE VERSION
~Well Information
 WELL.                         Tomcat 32-10 : WELL
 COMP.    Pioneer Natural Resources USA Inc : COMPANY
 FLD.                      Purgatoire River : FIELD
 LOC.                SW/NE Sec 10 T33S R65W : LOCATION
 DATE.                              3/21/05 : DATE(S) LOGGED
 SRVC.       Blanco Geological Services LLC : SERVICE COMPANY
 STAT.                                   CO : STATE
 CNTY.                           Las Animas : COUNTY
 CTRY.                                  USA : COUNTRY
 API.                       05-071-08301-00 : API NUMBER
 STRT.FT                             356.00 : START DEPTH
 STOP.FT                             980.00 : STOP DEPTH
 STEP.FT                               1.00 : DEPTH INCREMENT
 NULL.                                -9999 : NULL VALUE
~Curve information
 DEPTH.FT                                   :
 ROP.MIN/FT                                 :
 GAS.UNITS                                  :
~ASCII Log data
# ...
       556.0         0.27        261.9 
       557.0         0.53        254.2 
       558.0         0.27        247.6 
       559.0         0.27        249.4 
       560.0         0.27        251.9 
       561.0         0.27        250.2 
       562.0         0.53        246.1 
       563.0         0.53        241.2 
       564.0         0.25        240.0 
       565.0         0.27        241.4 
       566.0         3.38       2217.7 
       567.0         0.53       1034.8 
       568.0         0.53        794.9 
       569.0         0.27        693.2 
       570.0         0.37        617.1 
       571.0         0.37        552.7 
       572.0         0.27        502.8 
       573.0         0.33        494.4 
       574.0         0.27        499.1 
       575.0         0.38        518.7 
       576.0         0.27        519.0 
       577.0         0.53        521.0 
       578.0         0.53        492.1 
       579.0         0.53        475.2 
       580.0         0.27        471.8 
       581.0         0.80        491.0 
       582.0         0.55        483.3 
       583.0         0.53        480.3 
       584.0         0.53        495.8 
       585.0         0.27        471.8 
       586.0         0.53        537.9 
       587.0         0.53        584.0 
       588.0         0.30        559.1 
       589.0         0.28        547.3 
       590.0         0.53        546.3 
       591.0         0.27        507.2 
       592.0         0.27        488.7 
       593.0         0.27        165.1 
       594.0         0.33        170.4 
       595.0         0.27        173.9 
       596.0         2.85       1840.4 
       597.0         1.07        730.3 
       598.0         0.60        572.2 
       599.0         0.52        527.8 
       600.0         0.13        515.0 
       601.0         0.53        501.5 
       602.0         0.53        467.8 
       603.0         0.53        459.7 
       604.0         0.53        462.7 
       605.0         0.53        461.4 
       606.0         0.55        468.8 
       607.0         0.53        465.4 
       608.0         0.53        452.0 
       609.0         0.27        443.5 
       610.0         0.30        506.2 
       611.0         0.27        632.2 
       612.0         0.27        692.9 
       613.0         0.47        719.1 
       614.0         0.32        722.8 
       615.0         0.53        726.2 
       616.0         0.53        709.7 
       617.0         0.53        696.6 
       618.0         0.53        695.9 
       619.0         0.27        695.6 
       620.0         0.27        689.2 
       621.0         0.53        680.1 
       622.0         0.55        539.2 
       623.0         0.50        564.8 
       624.0         0.53        547.3 
       625.0         0.53        481.9 
       626.0         2.65       2436.7 
       627.0         0.53        947.6 
       628.0         0.27        842.4 
       629.0         0.57        783.5 
       630.0         0.65        706.3 
       631.0         0.27        676.3 
       632.0         0.27        667.3 
       633.0         0.47        682.4 
       634.0         0.53        696.2 
       635.0         0.53        682.7 
       636.0         0.53        634.6 
       637.0         0.27        623.5 
       638.0         0.55        627.5 
       639.0         0.27        627.5 
       640.0         0.53        629.5 
       641.0         0.27        633.9 
       642.0         0.53        643.7 
       643.0         0.53        640.6 
       644.0         0.53        623.1 
       645.0         0.27        623.8 
       646.0         0.28        624.1 
       647.0         0.53        617.7 
       648.0         0.53        618.7 
       649.0         0.27        620.8 
       650.0         0.27        624.5 
       651.0         0.53        630.2 
       652.0         0.53        629.2 
       653.0         0.53        613.7 
       654.0         0.28        491.0 
       655.0         0.37        506.9 
       656.0         2.53       1872.4 
       657.0         0.55        863.7 
       658.0         0.53        972.8 
       659.0         0.27        847.8 
       660.0         0.67        824.3 
       661.0         0.27        710.0 
       662.0         0.60        686.8 
       663.0         0.78        646.7 
       664.0         0.53        621.1 
       665.0         0.27        610.0 
       666.0         0.53        619.1 
       667.0         0.27        620.4 
       668.0         0.53        615.7 
       669.0         0.53        603.2 
       670.0         0.53        606.9 
       671.0         0.28        600.2 
       672.0         0.53        602.6 
       673.0         0.60        601.2 
       674.0         0.27        590.8 
       675.0         0.53        605.6 
       676.0         0.53        610.3 
       677.0         0.53        597.8 
       678.0         0.55        612.3 
       679.0         0.53        614.0 
       680.0         0.53        606.9 
       681.0         0.80        601.2 
       682.0         0.53        587.7 
       683.0         0.53        594.1 
       684.0         0.82        592.8 
       685.0         0.53        463.8 
       686.0         2.52       2034.8 
       687.0         0.53       1427.7 
       688.0         0.53        804.0 
       689.0         0.27        836.7 
       690.0         0.53        904.8 
       691.0         0.80        798.0 
       692.0         0.75        677.4 
       693.0         0.57        614.4 
       694.0         0.27        591.1 
       695.0         0.63        596.5 
       696.0         0.53        593.5 
       697.0         0.53        589.1 
       698.0         0.28        584.7 
       699.0         0.53        590.1 
       700.0         0.53        588.8 
       701.0         0.53        583.7 
       702.0         0.27        566.9 
       703.0         0.53        572.9 
       704.0         0.53        584.0 
       705.0         0.27        583.7 
       706.0         0.28        585.4 
       707.0         0.53        586.4 
       708.0         0.53        583.4 
       709.0         0.27        579.3 
       710.0         0.27        573.3 
       711.0         0.53        569.2 
       712.0         0.27        566.9 
       713.0         0.27        563.1 
       714.0         0.27        559.1 
       715.0         0.55        563.1 
       716.0         3.88        623.8 
       717.0         0.57       2713.7 
       718.0         0.27       1370.4 
       719.0         0.53       1033.1 
       720.0         0.27        899.7 
       721.0         0.53       1049.3 
       722.0         0.35        938.1 
       723.0         0.27        857.3 
       724.0         0.47        840.8 
       725.0         0.27        753.5 
       726.0         0.33        699.9 
       727.0         0.33        697.2 
       728.0         0.53        695.9 
       729.0         0.53        684.1 
       730.0         0.27        677.0 
       731.0         0.28        666.6 
       732.0         0.43        654.8 
       733.0         0.27        624.5 
       734.0         0.53        617.1 
       735.0         0.47        656.8 
       736.0         0.53        689.8 
       737.0         0.27        682.7 
       738.0         0.37        676.7 
       739.0         0.27        675.0 
       740.0         0.28        673.0 
       741.0         0.53        664.2 
       742.0         0.27        604.2 
       743.0         0.53        665.9 
       744.0         0.30        746.8 
       745.0         0.47        676.0 
       746.0         2.85       2282.1 
       747.0         0.27       1546.3 
       748.0         0.53       1137.9 
       749.0         0.53        923.3 
       750.0         0.55       1060.8 
       751.0         0.67        906.5 
       752.0         0.50        815.2 
       753.0         0.57        766.0 
       754.0         0.53        733.3 
       755.0         0.63        672.3 
