~Version Information
VERS.                      2.0: CWLS Log ASCII Standard - VERSION 2.0
WRAP.                       NO: One line per depth step
~Well Information Block
STRT.FT                 0.5000: 
STOP.FT              2891.5000: 
STEP.FT                 0.2500: 
NULL.                -999.2500: 
COMP.          Petrogulf Corporation: COMPANY
WELL.            Montoya 1-41V: WELL
FLD.           Purgatoire River: FIELD
LOC.           610' FNL & 1205' FEL--: LOCATION
PROV.                 Colorado: PROVINCE
CNTY.               Las Animas: COUNTRY
SRVC.                Patterson: SERVICE COMPANY
DATE.          Mon Sep 12 11:42:30 2005: LOG DATE
UWI.           05 071 08144 00: UNIQUE WELL ID
~Curve Information Block
DEPT.FT            0 000 00 00: Depth
CCL.                          : Casing Collar Locator
TT3.usec                      : CBL 3' Travel Time
AMP3.mV                       : CBL 3' Amplitude
GR.GAPI                       : Gamma Ray
~Parameter Information Block
~A  Depth       CCL         TT3         AMP3         GR     
# ...
  1508.0000      0.0000    746.0336      7.6590     91.6895
  1508.2500      0.0000    725.7421      7.6015     92.2973
  1508.5000      0.0000    717.6293      7.7157     94.3227
  1508.7500      0.0000    719.1520      7.9045     99.0624
  1509.0000      0.0000    726.2510      8.0500    105.8839
  1509.2500      0.0000    734.8131      8.0826    112.9253
  1509.5000      0.0000    741.7076      7.9923    118.4653
  1509.7500      0.0000    745.3294      7.8117    121.9433
  1510.0000      0.0000    745.9204      7.5994    124.1262
  1510.2500      0.0000    744.9863      7.4208    126.4815
  1510.5000      0.0000    743.9518      7.3215    130.1288
  1510.7500      0.0000    743.2796      7.2967    134.8549
  1511.0000      0.0000    742.5729      7.2876    138.8647
  1511.2500      0.0000    741.1993      7.2250    139.7968
  1511.5000      0.0000    739.0104      7.0880    136.5475
  1511.7500      0.0000    736.7670      6.9150    130.5321
  1512.0000      0.0000    735.7667      6.7563    125.1901
  1512.2500      0.0000    736.7091      6.6264    123.8278
  1512.5000      0.0000    739.0079      6.5058    127.4250
  1512.7500      0.0000    741.3952      6.3792    134.4521
  1513.0000      0.0000    743.0274      6.2594    142.7344
  1513.2500      0.0000    743.8570      6.1769    150.9682
  1513.5000      0.0000    744.2365      6.1556    158.2576
  1513.7500      0.0000    744.4824      6.2015    163.1454
  1514.0000      0.0000    744.7828      6.3014    164.0590
  1514.2500      0.0000    745.3074      6.4248    160.7494
  1514.5000      0.0000    746.3029      6.5292    154.8833
  1514.7500      0.0000    747.9587      6.5756    149.0104
  1515.0000      0.0000    749.9258      6.5450    144.8755
  1515.2500      0.0000    750.8384      6.4436    142.6233
  1515.5000      0.0000    748.8119      6.2964    141.2013
  1515.7500      0.0000    743.2474      6.1334    139.0501
  1516.0000      0.0000    736.2381      5.9756    134.8034
  1516.2500      0.0000    731.3949      5.8307    128.4620
  1516.5000      0.0000    730.8123      5.7028    122.2513
  1516.7500      0.0000    733.5259      5.5975    119.5036
  1517.0000      0.0000    737.0427      5.5110    121.9944
  1517.2500      0.0000    739.7742      5.4246    128.3341
  1517.5000      0.0000    741.8456      5.3205    134.9908
  1517.7500      0.0000    744.2552      5.2048    138.8021
  1518.0000      0.0000    747.6589      5.1023    138.7927
  1518.2500      0.0000    751.7416      5.0299    136.1945
  1518.5000      0.0000    755.6520      4.9829    133.1555
  1518.7500      0.0000    759.0740      4.9519    131.3531
  1519.0000      0.0000    762.6387      4.9488    131.2571
  1519.2500      0.0000    767.1323      5.0122    132.0933
  1519.5000      0.0000    772.5104      5.1865    132.5197
  1519.7500      0.0000    777.5408      5.4929    131.7965
  1520.0000      0.0000    780.1267      5.9110    130.5367
  1520.2500      0.0000    778.3092      6.3824    130.0423
  1520.5000      0.0000    771.5306      6.8304    130.6564
  1520.7500      0.0000    761.0966      7.1819    130.9017
  1521.0000      0.0000    749.4691      7.3904    128.5388
  1521.2500      0.0000    739.2756      7.4608    122.6560
  1521.5000      0.0000    732.6519      7.4553    114.6213
  1521.7500      0.0000    730.4751      7.4523    106.8184
  1522.0000      0.0000    731.7925      7.4821    100.7384
  1522.2500      0.0000    734.8929      7.5037     96.5923
  1522.5000      0.0000    740.1163      7.4440     94.2056
  1522.7500      0.0000    751.0094      7.2530     93.3988
  1523.0000      0.0000    770.6194      6.9287     93.4842
  1523.2500      0.0000    795.4639      6.5090     93.1757
  1523.5000      0.0000    815.1969      6.0547     91.4215
  1523.7500      0.0000    820.8491      5.6321     88.1508
  1524.0000      0.0000    813.0160      5.2942     84.1176
  1524.2500      0.0000    800.2719      5.0672     80.1132
  1524.5000      0.0000    790.0986      4.9458     76.4798
  1524.7500      0.0000    783.0018      4.8995     73.3565
  1525.0000      0.0000    775.1121      4.8902     71.1192
  1525.2500      0.0000    764.0532      4.8924     70.3110
  1525.5000      0.0000    750.8251      4.9006     71.0481
  1525.7500      0.0000    737.4592      4.9176     72.6165
  1526.0000      0.0000    725.0659      4.9393     73.8644
  1526.2500      0.0000    714.2133      4.9532     74.0661
  1526.5000      0.0000    705.6879      4.9472     73.2751
  1526.7500      0.0000    700.0579      4.9164     71.8797
  1527.0000      0.0000    697.0651      4.8633     70.1325
  1527.2500      0.0000    695.7925      4.7953     68.1774
  1527.5000      0.0000    695.3337      4.7257     66.1330
  1527.7500      0.0000    695.1644      4.6732     64.0062
  1528.0000      0.0000    695.0881      4.6540     61.8095
  1528.2500      0.0000    695.0227      4.6706     59.8089
  1528.5000      0.0000    694.8908      4.7095     58.4066
  1528.7500      0.0000    694.6398      4.7506     57.8068
  1529.0000      0.0000    694.2943      4.7789     58.0724
  1529.2500      0.0000    693.9421      4.7889     59.5068
  1529.5000      0.0000    693.6641      4.7815     62.6168
  1529.7500      0.0000    693.4796      4.7593     67.4539
  1530.0000      0.0000    693.3669      4.7245     73.2412
  1530.2500      0.0000    693.3140      4.6794     78.8912
  1530.5000      0.0000    693.3277      4.6274     83.3970
  1530.7500      0.0000    693.3986      4.5735     85.4531
  1531.0000      0.0000    693.4904      4.5221     83.6458
  1531.2500      0.0000    693.5691      4.4727     77.8783
  1531.5000      0.0000    693.6222      4.4207     70.1619
  1531.7500      0.0000    693.6442      4.3627     63.3662
  1532.0000      0.0000    693.6226      4.3010     59.3646
  1532.2500      0.0000    693.5485      4.2415     58.4358
  1532.5000      0.0000    693.4314      4.1901     59.8226
  1532.7500      0.0000    693.2820      4.1514     62.3441
  1533.0000      0.0000    693.0728      4.1273     64.6450
  1533.2500      0.0000    692.6674      4.1162     65.4911
  1533.5000      0.0000    691.6796      4.1156     64.3419
  1533.7500      0.0000    689.2391      4.1286     61.6386
  1534.0000      0.0000    683.9954      4.1581     58.5091
  1534.2500      0.0000    674.9778      4.1892     56.3402
  1534.5000      0.0000    663.2979      4.1890     56.3286
  1534.7500      0.0000    653.0143      4.1380     58.8422
  1535.0000      0.0000    649.1735      4.0591     63.1424
  1535.2500      0.0000    653.9193      4.0089     68.0338
  1535.5000      0.0000    664.2762      4.0445     72.7503
  1535.7500      0.0000    673.5862      4.2009     77.1570
  1536.0000      0.0000    674.2874      4.4888     81.4123
  1536.2500      0.0000    659.7295      4.8973     85.6609
  1536.5000      0.0000    626.7664      5.3855     89.8163
  1536.7500      0.0000    581.0042      5.8689     93.3234
  1537.0000      0.0000    539.3840      6.2270     95.3412
  1537.2500      0.0000    521.9789      6.3529     95.5956
  1537.5000      0.0000    536.4560      6.2211     94.9103
  1537.7500      0.0000    571.3943      5.9093     94.4024
  1538.0000      0.0000    607.2088      5.5537     94.2110
  1538.2500      0.0000    632.4250      5.2789     93.3586
  1538.5000      0.0000    648.2772      5.1500     90.8675
  1538.7500      0.0000    661.3234      5.1558     86.9538
  1539.0000      0.0000    675.6546      5.2262     83.0173
  1539.2500      0.0000    690.4514      5.2893     80.2150
  1539.5000      0.0000    701.5452      5.3196     78.1164
  1539.7500      0.0000    705.5154      5.3263     75.1793
  1540.0000      0.0000    703.2977      5.3120     70.5294
  1540.2500      2.0000    699.2645      5.2640     64.9618
  1540.5000      0.0000    696.7396      5.1754     60.2342
  1540.7500      0.0000    695.3588      5.0541     57.6327
  1541.0000      0.0000    692.7515      4.9163     57.1860
  1541.2500      0.0000    687.9493      4.7761     57.9686
