~Version Information
 VERS.                                  2.0 : CWLS LAS VERSION
 WRAP.                                   NO : WRAPING MODE
 SWARE .                 MController 2.5.0J : SOFTWARE VERSION
~Well Information
 WELL.                         Schedler9-23R: WELL
 COMP.                             Petrogulf: COMPANY
 FLD.                      Purgatoire River : FIELD
 LOC.                 NE/SW Sec.9 T33s R67w : LOCATION
 DATE.                              10/31/04: DATE(S) LOGGED
 SRVC.                    Blanco Geological : SERVICE COMPANY
 STAT.                                   CO : STATE
 CNTY.                           Las Animas : COUNTY
 CTRY.                                  USA: COUNTRY
 API.                           05-071-08040: API NUMBER
 STRT.FT                             713.00 : START DEPTH
 STOP.FT                            2080.00 : STOP DEPTH
 STEP.FT                               1.00 : DEPTH INCREMENT
 NULL.                                -9999 : NULL VALUE
~Curve information
 DEPTH.FT                                   :
 ROP.MIN/FT                                 :
 GAS.UNITS                                  :
~ASCII Log data
# ...
      1513.0         0.23         21.5 
      1514.0         0.23         21.3 
      1515.0         0.27         22.0 
      1516.0         0.23         22.0 
      1517.0         0.27         22.4 
      1518.0         0.27         22.8 
      1519.0         0.27         60.2 
      1520.0         0.23         60.2 
      1521.0         0.27         60.8 
      1522.0         0.28         53.7 
      1523.0         0.27         38.4 
      1524.0         0.30         37.4 
      1525.0         0.27         29.8 
      1526.0         0.27         29.4 
      1527.0         0.27         28.2 
      1528.0         0.27         28.4 
      1529.0         0.37         28.2 
      1530.0         0.33         26.6 
      1531.0         0.27         27.0 
      1532.0         0.30         24.2 
      1533.0         0.23         24.3 
      1534.0         0.23         25.3 
      1535.0         0.22         24.2 
      1536.0         0.33         23.7 
      1537.0         0.20         23.7 
      1538.0         0.20         23.3 
      1539.0         0.20         22.3 
      1540.0         0.20         22.0 
      1541.0         0.23         22.0 
      1542.0         0.20         21.7 
      1543.0         0.27         21.8 
      1544.0         0.13         21.8 
      1545.0         0.20         20.9 
      1546.0         0.23         20.7 
      1547.0         0.30         20.9 
      1548.0         0.27         21.4 
      1549.0         0.27         50.1 
      1550.0         0.28         50.1 
      1551.0         0.33         51.0 
      1552.0         0.30         47.6 
      1553.0         0.27         40.0 
      1554.0         0.20         39.1 
      1555.0         0.30         36.6 
      1556.0         0.20         35.9 
      1557.0         0.27         34.5 
      1558.0         0.53         32.8 
      1559.0         0.55         29.7 
      1560.0         0.47         25.5 
      1561.0         0.40         24.4 
      1562.0         0.43         23.7 
      1563.0         0.27         23.9 
      1564.0         0.37         24.0 
      1565.0         0.27         23.1 
      1566.0         0.27         20.5 
      1567.0         0.27         20.5 
      1568.0         0.27         20.8 
      1569.0         0.25         22.6 
      1570.0         0.23         25.9 
      1571.0         0.23         26.9 
      1572.0         0.50         27.7 
      1573.0         0.23         23.9 
      1574.0         0.23         56.5 
      1575.0         0.23         20.1 
      1576.0         0.20         20.2 
      1577.0         0.17         20.1 
      1578.0         0.17         20.1 
      1579.0         0.17         18.5 
      1580.0         0.17         18.2 
      1581.0         0.17         18.8 
      1582.0         0.20         19.5 
      1583.0         0.20         19.6 
      1584.0         0.22         21.9 
      1585.0         0.27         23.7 
      1586.0         0.17         25.8 
      1587.0         0.40         27.6 
      1588.0         0.27         28.7 
      1589.0         0.23         26.7 
      1590.0         0.27         26.0 
      1591.0         0.17         25.8 
      1592.0         0.17         24.9 
      1593.0         0.17         32.7 
      1594.0         0.23         26.3 
      1595.0         0.28         25.5 
      1596.0         0.17         23.4 
      1597.0         0.17         57.3 
      1598.0         0.17         47.2 
      1599.0         0.17         44.3 
      1600.0         0.17         44.0 
      1601.0         0.27         45.3 
      1602.0         0.40         44.4 
      1603.0         0.23         54.1 
      1604.0         0.37         20.6 
      1605.0         0.27         70.4 
      1606.0         0.17         64.6 
      1607.0         0.17         64.6 
      1608.0         0.17         61.0 
      1609.0         0.13         49.4 
      1610.0         0.20         39.6 
      1611.0         0.18         39.6 
      1612.0         0.17         37.1 
      1613.0         0.17         28.5 
      1614.0         0.23         27.5 
      1615.0         0.30         26.5 
      1616.0         0.27         27.7 
      1617.0         0.37         28.0 
      1618.0         0.42         27.6 
      1619.0         0.60         27.3 
      1620.0         0.43         24.5 
      1621.0         0.40         22.3 
      1622.0         0.30         21.3 
      1623.0         0.30         20.4 
      1624.0         0.33         20.1 
      1625.0         0.30         20.5 
      1626.0         0.30         20.8 
      1627.0         0.25         21.0 
      1628.0         0.20         20.5 
      1629.0         0.23         20.0 
      1630.0         0.20         20.2 
      1631.0         0.23         20.0 
      1632.0         0.23         20.0 
      1633.0         0.23         20.7 
      1634.0         0.23         20.5 
      1635.0         0.33         21.8 
      1636.0         0.17         13.8 
      1637.0         0.20         17.2 
      1638.0         0.17         18.5 
      1639.0         0.20         22.1 
      1640.0         0.20         29.1 
      1641.0         0.20         32.5 
      1642.0         0.20         37.6 
      1643.0         0.18         45.2 
      1644.0         0.20         45.6 
      1645.0         0.27         45.8 
      1646.0         0.17         45.9 
      1647.0         0.17         44.9 
      1648.0         0.35         44.6 
      1649.0         0.27         41.0 
      1650.0         0.27         36.3 
      1651.0         0.27         36.0 
      1652.0         0.27         32.0 
      1653.0         0.43         28.8 
      1654.0         0.40         25.7 
      1655.0         0.33         24.2 
      1656.0         0.37         22.6 
      1657.0         0.23         20.9 
      1658.0         0.20         20.8 
      1659.0         0.20         21.4 
      1660.0         0.18         21.1 
      1661.0         0.17         21.1 
      1662.0         0.20         20.8 
      1663.0         0.30         21.0 
      1664.0         0.23         19.8 
      1665.0         0.20         69.1 
      1666.0         0.27         49.4 
      1667.0         0.20         48.5 
      1668.0         0.23         43.1 
      1669.0         0.20         36.7 
      1670.0         0.17         33.1 
      1671.0         0.17         31.2 
      1672.0         0.27         27.4 
      1673.0         0.27         25.1 
      1674.0         0.13         24.3 
      1675.0         0.20         23.8 
      1676.0         0.32         22.6 
      1677.0         0.35         22.4 
      1678.0         0.27         21.1 
      1679.0         0.27         21.5 
      1680.0         0.33         20.6 
      1681.0         0.27         19.8 
      1682.0         0.27         20.6 
      1683.0         0.30         20.4 
      1684.0         0.27         21.1 
      1685.0         0.27         20.8 
      1686.0         0.30         20.7 
      1687.0         0.30         19.7 
      1688.0         0.30         18.8 
      1689.0         0.32         18.7 
      1690.0         0.30         18.7 
      1691.0         0.30         18.3 
      1692.0         0.27         18.5 
      1693.0         0.27         17.7 
      1694.0         0.33         17.6 
      1695.0         0.33         18.0 
      1696.0         0.27         18.5 
      1697.0         0.27         17.7 
      1698.0         0.30         20.8 
      1699.0         0.27         16.4 
      1700.0         0.28         21.0 
      1701.0         0.23         22.4 
      1702.0         0.27         27.8 
      1703.0         0.30         30.7 
      1704.0         0.27         31.5 
      1705.0         0.27         32.4 
      1706.0         0.27         33.2 
      1707.0         0.10         35.0 
      1708.0         0.23         35.0 
      1709.0         0.37         35.2 
      1710.0         0.30         32.7 
      1711.0         0.37         32.2 
      1712.0         0.33         27.2 
