~Version Information
VERS.                      2.0: CWLS Log ASCII Standard - VERSION 2.0
WRAP.                       NO: One line per depth step
~Well Information Block
STRT.FT               987.5000: 
STOP.FT              2426.0000: 
STEP.FT                 0.5000: 
NULL.                -999.2500: 
COMP.          Evergreen Operating Corporation: COMPANY
WELL.          McCullough 34-32: WELL
FLD.           Purgatorie River: FIELD
LOC.           261' FSL & 2098' FEL--: LOCATION
PROV.                 Colorado: PROVINCE
CNTY.               Las Animas: COUNTRY
SRVC.          Patterson Wireline: SERVICE COMPANY
DATE.          Mon May 17 13:38:56 2004: LOG DATE
UWI.           05-071-07953-00: UNIQUE WELL ID
~Curve Information Block
DEPT.FT            0 000 00 00: Depth
CCL.                          : Casing Collar Locator
TT3.usec                      : CBL 3' Travel Time
AMP3.mV                       : CBL 3' Amplitude
GR.GAPI                       : Gamma Ray
~Parameter Information Block
~A  Depth       CCL         TT3         AMP3         GR     
# ...
  1456.5000      0.0000    514.4513      7.0117     92.0278
  1457.0000      0.0000    658.2614      6.1827    111.6859
  1457.5000      0.0000    733.8160      5.7234    118.8570
  1458.0000      0.0000    743.7268      5.4955    111.2945
  1458.5000      0.0000    748.2903      4.7662     97.8405
  1459.0000      0.0000    752.1687      4.0408     88.9467
  1459.5000      0.0000    740.3355      4.4208     92.0405
  1460.0000      0.0000    696.2134      5.7880    106.9067
  1460.5000      0.0000    584.2068      7.4867    122.4013
  1461.0000      0.0000    476.5089      8.8196    138.3326
  1461.5000      0.0000    497.4507      8.9023    153.1428
  1462.0000      0.0000    557.0346      7.7417    161.8910
  1462.5000      0.0000    517.6372      6.0170    160.3364
  1463.0000      0.0000    447.9828      4.6243    143.6020
  1463.5000      0.0000    416.7649      4.4770    116.4124
  1464.0000      0.0000    443.8969      5.1525     98.1242
  1464.5000      0.0000    519.2331      5.8825     99.7830
  1465.0000      0.0000    545.7346      7.0891    115.3662
  1465.5000      0.0000    543.5356      8.6830    124.5290
  1466.0000      0.0000    597.5114      8.7916    118.2249
  1466.5000      0.0000    653.5781      7.8872    109.0296
  1467.0000      0.0000    640.8697      7.6524    106.8871
  1467.5000      0.0000    588.1466      8.2602    116.0892
  1468.0000      0.0000    609.2314      9.0219    133.1282
  1468.5000      0.0000    671.5315      9.1673    144.6720
  1469.0000      0.0000    697.4406      8.4368    147.6581
  1469.5000      0.0000    701.8061      7.7520    151.8058
  1470.0000      0.0000    702.6367      8.0371    156.6108
  1470.5000      0.0000    702.9684      8.7045    158.0689
  1471.0000      0.0000    703.4821      9.0042    158.2574
  1471.5000      0.0000    705.3928      8.6947    150.3174
  1472.0000      0.0000    712.8942      7.8584    137.5406
  1472.5000      0.0000    727.5337      6.8847    135.2840
  1473.0000      0.0000    738.9066      6.4214    147.1109
  1473.5000      0.0000    737.8196      6.8593    159.3245
  1474.0000      0.0000    708.2728      7.7882    160.2563
  1474.5000      0.0000    637.6786      8.4062    158.4026
  1475.0000      0.0000    592.2133      8.1620    160.6836
  1475.5000      0.0000    626.1510      7.1456    162.5210
  1476.0000      0.0000    672.9691      6.2901    154.9327
  1476.5000      0.0000    690.7144      6.3871    140.5486
  1477.0000      0.0000    698.1439      7.0945    126.1588
  1477.5000      0.0000    702.2184      7.4732    109.9681
  1478.0000      0.0000    709.2083      7.0127    100.4456
  1478.5000      0.0000    718.2616      6.3113    105.7892
  1479.0000      0.0000    701.5159      6.5009    116.4652
  1479.5000      0.0000    676.9951      7.3844    114.6722
  1480.0000      0.0000    684.2607      7.8509    103.9350
  1480.5000      0.0000    649.3112      7.4619     98.0438
  1481.0000      0.0000    549.0518      6.8422     98.2037
  1481.5000      0.0000    509.3964      7.0973    100.4134
  1482.0000      0.0000    498.5862      8.0099    107.9301
  1482.5000      0.0000    428.4935      8.2671    115.1845
  1483.0000      0.0000    377.1952      7.6349    120.0410
  1483.5000      0.0000    365.5276      7.1677    123.5688
  1484.0000      0.0000    364.7820      7.6762    122.0947
  1484.5000      0.0000    365.7943      8.4573    118.4998
  1485.0000      0.0000    366.9669      8.4200    118.0931
  1485.5000      0.0000    367.2880      7.7461    114.7253
  1486.0000      0.0000    366.8326      7.6045    113.8973
  1486.5000      0.0000    366.2298      8.1231    120.8282
  1487.0000      0.0000    366.2888      8.2755    127.3606
  1487.5000      0.0000    367.5540      7.6407    141.0270
  1488.0000      0.0000    379.1043      6.9009    158.1989
  1488.5000      0.0000    438.4798      6.7048    163.3421
  1489.0000      0.0000    551.6168      6.4142    159.9308
  1489.5000      0.0000    639.5359      5.6604    156.2090
  1490.0000      0.0000    679.1032      5.4538    141.2184
  1490.5000      0.0000    660.2829      5.9029    116.3609
  1491.0000      0.0000    597.8281      5.8344    101.7271
  1491.5000      0.0000    555.0768      5.5552     93.4288
  1492.0000      0.0000    473.9329      6.3288     79.6842
  1492.5000      0.0000    384.7725      7.5665     72.6313
  1493.0000      0.0000    361.8679      7.7703     83.7559
  1493.5000      0.0000    365.7366      7.5015    100.3986
  1494.0000      0.0000    378.4707      7.9609    113.4167
  1494.5000      0.0000    430.8309      8.6223    116.2663
  1495.0000      0.0000    498.5165      8.4579    114.8909
  1495.5000      0.0000    470.7043      7.7876    120.4428
  1496.0000      0.0000    393.4875      7.7956    130.3488
  1496.5000      0.0000    368.3064      8.4513    133.9864
  1497.0000      0.0000    402.6702      8.5032    126.8311
  1497.5000      0.0000    498.5995      7.8785    116.6586
  1498.0000      0.0000    559.3315      7.8613    118.4305
  1498.5000      0.0000    486.4155      8.3341    131.1850
  1499.0000      0.0000    397.0511      8.2913    137.5586
  1499.5000      0.0000    367.9042      8.0297    137.8842
  1500.0000      0.0000    364.6264      8.2506    138.1790
  1500.5000      0.0000    365.3299      8.4680    140.9868
  1501.0000      0.0000    366.0530      8.0586    147.4445
  1501.5000      0.0000    366.1189      7.4558    157.2157
  1502.0000      0.0000    367.5253      7.5844    159.9895
  1502.5000      0.0000    380.4731      7.7885    154.1311
  1503.0000      0.0000    440.9051      7.2836    139.3483
  1503.5000      0.0000    566.0889      7.0870    121.8759
  1504.0000      0.0000    670.3628      7.4508    115.3608
  1504.5000      0.0000    693.4709      7.2848    120.7824
  1505.0000      0.0000    668.3866      6.6938    135.4979
  1505.5000      0.0000    650.8665      6.6893    147.7433
  1506.0000      0.0000    682.2609      6.6697    150.3664
  1506.5000      0.0000    688.7286      5.8876    136.9277
  1507.0000      0.0000    641.4431      5.3581    111.9805
  1507.5000     -2.6440    622.6224      5.8048    101.0395
  1508.0000      0.0000    647.5842      6.3425    115.3386
  1508.5000      0.0000    660.1208      6.3586    135.2311
  1509.0000      0.0000    665.5889      6.6705    144.8488
  1509.5000      0.0000    688.3515      7.1636    150.1978
  1510.0000      0.0000    699.9312      7.0767    159.8191
  1510.5000      0.0000    701.4591      7.1231    164.5632
  1511.0000      0.0000    701.4048      7.3871    162.5130
  1511.5000      0.0000    700.9491      7.1403    162.1156
  1512.0000      0.0000    700.4360      7.0041    165.5142
  1512.5000      0.0000    700.6344      7.4887    164.8145
  1513.0000      0.0000    701.4039      7.7563    161.2883
  1513.5000      0.0000    701.9725      7.9075    162.4012
  1514.0000      0.0000    703.1798      8.1354    161.1080
  1514.5000      0.0000    707.4215      8.3331    152.2346
  1515.0000      0.0000    711.2330      9.0787    144.4450
  1515.5000      0.0000    709.5181      9.5451    147.7531
  1516.0000      0.0000    710.7014      9.3049    160.8282
  1516.5000      0.0000    719.2318      9.3619    165.9438
  1517.0000      0.0000    712.0836      9.6286    156.5060
  1517.5000      0.0000    668.4004      9.4421    149.8528
  1518.0000      0.0000    624.7430      9.4821    152.7042
  1518.5000      0.0000    582.3627     10.0464    161.3782
  1519.0000      0.0000    563.6213      9.8622    167.9768
  1519.5000      0.0000    634.2157      8.8204    161.7437
  1520.0000      0.0000    723.8766      8.4195    148.4469
  1520.5000      0.0000    756.3433      8.8865    135.7004
  1521.0000      0.0000    734.5849      9.1039    121.3065
  1521.5000      0.0000    672.2712      8.8835    111.3579
  1522.0000      0.0000    593.7081      9.3383    109.7804
  1522.5000      0.0000    477.4490     10.4412    112.8161
  1523.0000      0.0000    382.5779     10.6802    115.6928
