~Version Information
VERS.                      2.0: CWLS Log ASCII Standard - VERSION 2.0
WRAP.                       NO: One line per depth step
~Well Information Block
STRT.FT               480.0000: 
STOP.FT              1994.2500: 
STEP.FT                 0.2500: 
NULL.                -999.2500: 
COMP.          Evergreen Operating Corporation: COMPANY
WELL.          McCullough 34-32 Tr: WELL
FLD.           Purgatoire River: FIELD
LOC.           394' FSL & 2077' FEL: LOCATION
PROV.                 Colorado: PROVINCE
CNTY.               Las Animas: COUNTRY
SRVC.                Patterson: SERVICE COMPANY
DATE.          Sun Sep 19 05:48:59 2004: LOG DATE
UWI.           05 071 08157 00: UNIQUE WELL ID
~Curve Information Block
DEPT.FT            0 000 00 00: Depth
SN.Ohm-m                      : IEL Short Normal
SP.mV                         : IEL Spontaneous Potential
DIR.Ohm-m                     : IEL Induction Resistivity
GR.GAPI                       : Gamma Ray
~Parameter Information Block
~A  Depth        SN          SP         DIR          GR     
# ...
  1552.0000     24.5943    296.5948     19.8671     70.2341
  1552.2500     24.7713    296.6081     19.7951     68.6670
  1552.5000     24.9943    296.6132     19.8452     66.7132
  1552.7500     25.2690    296.6118     20.0616     66.0936
  1553.0000     25.5881    296.6049     20.4330     66.2206
  1553.2500     25.9367    296.5931     20.8976     66.8522
  1553.5000     26.2932    296.5762     21.3723     68.4042
  1553.7500     26.6299    296.5531     21.7868     69.6678
  1554.0000     26.9242    296.5215     22.1050     71.3232
  1554.2500     27.1778    296.4779     22.3259     71.8362
  1554.5000     27.4186    296.4182     22.4690     71.2472
  1554.7500     27.6785    296.3377     22.5515     70.0674
  1555.0000     27.9707    296.2326     22.5714     68.0228
  1555.2500     28.2882    296.1012     22.5124     67.1227
  1555.5000     28.6129    295.9449     22.3743     67.1506
  1555.7500     28.9206    295.7687     22.2030     68.1285
  1556.0000     29.1853    295.5797     22.0837     70.5322
  1556.2500     29.3878    295.3860     22.0965     72.1801
  1556.5000     29.5211    295.1960     22.2650     73.6289
  1556.7500     29.5898    295.0174     22.5388     73.6016
  1557.0000     29.6064    294.8578     22.8254     72.5359
  1557.2500     29.5897    294.7245     23.0533     71.8054
  1557.5000     29.5587    294.6245     23.2147     71.6003
  1557.7500     29.5213    294.5645     23.3512     72.1213
  1558.0000     29.4715    294.5499     23.5000     73.3222
  1558.2500     29.4007    294.5836     23.6522     74.0422
  1558.5000     29.3134    294.6639     23.7549     74.8319
  1558.7500     29.2268    294.7825     23.7520     75.3441
  1559.0000     29.1523    294.9246     23.6263     76.6114
  1559.2500     29.0778    295.0701     23.4085     78.0383
  1559.5000     28.9725    295.1975     23.1510     81.2435
  1559.7500     28.8120    295.2881     22.8987     84.0634
  1560.0000     28.6004    295.3309     22.6839     88.9072
  1560.2500     28.3708    295.3241     22.5338     92.0174
  1560.5000     28.1693    295.2753     22.4690     95.2998
  1560.7500     28.0364    295.1971     22.4868     95.9372
  1561.0000     27.9909    295.1032     22.5508     94.1102
  1561.2500     28.0245    295.0047     22.6063     91.3175
  1561.5000     28.1093    294.9086     22.6173     85.9772
  1561.7500     28.2127    294.8183     22.5926     82.3274
  1562.0000     28.3080    294.7351     22.5746     77.3523
  1562.2500     28.3784    294.6589     22.6057     74.6663
  1562.5000     28.4174    294.5884     22.7047     72.3598
  1562.7500     28.4309    294.5215     22.8651     72.2790
  1563.0000     28.4381    294.4553     23.0644     73.9331
  1563.2500     28.4641    294.3875     23.2693     75.5836
  1563.5000     28.5253    294.3173     23.4341     78.0604
  1563.7500     28.6164    294.2465     23.5082     79.6941
  1564.0000     28.7111    294.1790     23.4573     82.6548
  1564.2500     28.7779    294.1193     23.2892     85.2483
  1564.5000     28.8020    294.0699     23.0558     89.8973
  1564.7500     28.7936    294.0288     22.8257     92.9611
  1565.0000     28.7764    293.9893     22.6494     96.1948
  1565.2500     28.7714    293.9422     22.5422     96.7703
  1565.5000     28.7882    293.8788     22.4914     94.7656
  1565.7500     28.8268    293.7958     22.4762     91.7472
  1566.0000     28.8813    293.6977     22.4858     85.7699
  1566.2500     28.9447    293.5964     22.5251     81.5051
  1566.5000     29.0118    293.5079     22.6036     75.4887
  1566.7500     29.0758    293.4471     22.7185     72.0117
  1567.0000     29.1234    293.4233     22.8446     68.0688
  1567.2500     29.1332    293.4385     22.9418     66.6044
  1567.5000     29.0806    293.4872     22.9741     66.4310
  1567.7500     28.9445    293.5599     22.9248     67.4632
  1568.0000     28.7147    293.6453     22.7964     69.9240
  1568.2500     28.4016    293.7329     22.6012     71.8364
  1568.5000     28.0372    293.8150     22.3494     75.3261
  1568.7500     27.6636    293.8868     22.0457     78.3857
  1569.0000     27.3120    293.9471     21.6953     83.7860
  1569.2500     26.9916    293.9972     21.3144     86.9935
  1569.5000     26.6936    294.0382     20.9358     89.2225
  1569.7500     26.4058    294.0703     20.5992     88.4300
  1570.0000     26.1264    294.0906     20.3338     84.6180
  1570.2500     25.8678    294.0938     20.1468     81.4847
  1570.5000     25.6490    294.0738     20.0281     77.9197
  1570.7500     25.4842    294.0254     19.9640     77.0423
  1571.0000     25.3774    293.9465     19.9471     78.0757
  1571.2500     25.3233    293.8402     19.9731     79.7353
  1571.5000     25.3117    293.7150     20.0336     82.2449
  1571.7500     25.3313    293.5837     20.1141     83.3969
  1572.0000     25.3717    293.4597     20.1989     84.2968
  1572.2500     25.4216    293.3531     20.2770     84.5420
  1572.5000     25.4662    293.2679     20.3416     84.5967
  1572.7500     25.4893    293.2024     20.3878     84.4726
  1573.0000     25.4857    293.1515     20.4095     84.1380
  1573.2500     25.4695    293.1105     20.4000     83.9129
  1573.5000     25.4671    293.0757     20.3568     83.8100
  1573.7500     25.5011    293.0447     20.2898     83.9790
  1574.0000     25.5802    293.0156     20.2261     84.3882
  1574.2500     25.7000    292.9869     20.2061     84.5056
  1574.5000     25.8483    292.9587     20.2661     84.2122
  1574.7500     26.0105    292.9336     20.4184     83.8346
  1575.0000     26.1744    292.9162     20.6437     83.5583
  1575.2500     26.3306    292.9107     20.9007     83.8509
  1575.5000     26.4671    292.9188     21.1469     84.8543
  1575.7500     26.5678    292.9371     21.3531     85.3478
  1576.0000     26.6205    292.9580     21.5043     84.8699
  1576.2500     26.6271    292.9725     21.5938     83.8514
  1576.5000     26.6033    292.9742     21.6187     82.7785
  1576.7500     26.5712    292.9628     21.5813     83.2345
  1577.0000     26.5523    292.9452     21.4911     85.6684
  1577.2500     26.5629    292.9325     21.3648     87.6732
  1577.5000     26.6062    292.9368     21.2251     90.0257
  1577.7500     26.6641    292.9666     21.0980     90.9761
  1578.0000     26.7026    293.0244     21.0028     91.4586
  1578.2500     26.6918    293.1071     20.9428     90.8335
  1578.5000     26.6239    293.2068     20.9024     87.7548
  1578.7500     26.5128    293.3139     20.8607     84.4485
  1579.0000     26.3835    293.4184     20.8086     79.2736
  1579.2500     26.2692    293.5114     20.7559     76.7609
  1579.5000     26.2074    293.5864     20.7194     74.8272
  1579.7500     26.2229    293.6396     20.7072     74.0499
  1580.0000     26.3140    293.6714     20.7132     72.1349
  1580.2500     26.4554    293.6861     20.7254     70.0937
  1580.5000     26.6153    293.6915     20.7389     66.5373
  1580.7500     26.7692    293.6958     20.7600     64.2587
  1581.0000     26.9093    293.7049     20.8011     61.1723
  1581.2500     27.0481    293.7192     20.8705     59.3598
  1581.5000     27.2147    293.7335     20.9697     57.3400
  1581.7500     27.4431    293.7386     21.0987     56.7938
  1582.0000     27.7611    293.7261     21.2630     57.7705
  1582.2500     28.1825    293.6916     21.4712     59.8188
  1582.5000     28.7031    293.6370     21.7243     64.4644
  1582.7500     29.2950    293.5696     22.0094     67.5821
  1583.0000     29.9088    293.4985     22.3062     70.0048
  1583.2500     30.4896    293.4314     22.6026     69.3640
  1583.5000     30.9999    293.3723     22.9019     65.6777
  1583.7500     31.4275    293.3228     23.2135     62.5036
  1584.0000     31.7746    293.2842     23.5356     58.2330
  1584.2500     32.0368    293.2609     23.8428     56.0845
  1584.5000     32.1926    293.2600     24.0878     54.0527
  1584.7500     32.2099    293.2896     24.2174     53.5753
  1585.0000     32.0638    293.3530     24.1947     54.3789
  1585.2500     31.7550    293.4459     24.0158     56.0989
