~Version Information
 VERS.                                  2.0 : CWLS LAS VERSION
 WRAP.                                   NO : WRAPING MODE
 SWARE .                 MController 2.5.0J : SOFTWARE VERSION
~Well Information
 WELL.                      McDaniel 09-34V : WELL
 COMP.                Petrogulf Corporation : COMPANY
 FLD.                      Purgatoire River : FIELD
 LOC.                SW/SE Sec 09 T33S R67W : LOCATION
 DATE.                             09/27/05 : DATE(S) LOGGED
 SRVC.       BLANCO Geological Services LLC : SERVICE COMPANY
 STAT.                                   CO : STATE
 CNTY.                           Las Animas : COUNTY
 CTRY.                                  USA : COUNTRY
 API.                       05-071-08333-00 : API NUMBER
 STRT.FT                               0.00 : START DEPTH
 STOP.FT                             2433.0 : STOP DEPTH 775.00
 STEP.FT                               1.00 : DEPTH INCREMENT
 NULL.                                -9999 : NULL VALUE
~Curve information
 DEPTH.FT                                   :
 ROP.MIN/FT                                 :
 GAS.UNITS                                  :
~ASCII Log data
# ...
       400.0         0.30         13.3 
       401.0         0.37         13.9 
       402.0         0.20         13.8 
       403.0         0.20         14.1 
       404.0         0.23         13.5 
       405.0         0.25         13.7 
       406.0         0.13         13.6 
       407.0         0.17         14.1 
       408.0         0.23         13.5 
       409.0         0.27         13.3 
       410.0         0.47         13.3 
       411.0         0.30         13.3 
       412.0         0.23         13.3 
       413.0         0.20         13.3 
       414.0         0.17         14.0 
       415.0         0.13         13.2 
       416.0         1.48         12.9 
       417.0         0.43         13.8 
       418.0         0.57         14.7 
       419.0         0.60         13.8 
       420.0         0.58         14.7 
       421.0         0.63         14.5 
       422.0         0.23         14.6 
       423.0         0.33         13.8 
       424.0         0.27         14.1 
       425.0         0.40         13.6 
       426.0         0.43         13.9 
       427.0         0.93         14.3 
       428.0         0.88         14.7 
       429.0         0.40         14.0 
       430.0         0.30         14.4 
       431.0         0.27         14.8 
       432.0         0.23         14.1 
       433.0         0.20         14.0 
       434.0         0.13         14.1 
       435.0         0.23         14.9 
       436.0         0.27         14.3 
       437.0         0.27         14.0 
       438.0         0.32         13.1 
       439.0         0.23         13.4 
       440.0         0.27         14.2 
       441.0         0.23         14.6 
       442.0         0.30         13.6 
       443.0         0.23         13.4 
       444.0         0.30         13.2 
       445.0         0.27         13.7 
       446.0         2.25         13.9 
       447.0         0.40         14.2 
       448.0         0.23         15.0 
       449.0         0.23         14.1 
       450.0         0.17         14.1 
       451.0         0.13         14.2 
       452.0         0.13         14.8 
       453.0         0.13         14.9 
       454.0         0.10         14.9 
       455.0         0.13         14.7 
       456.0         0.20         13.7 
       457.0         0.23         13.6 
       458.0         0.25         13.6 
       459.0         0.37         15.2 
       460.0         0.27         14.7 
       461.0         0.33         14.4 
       462.0         0.30         13.8 
       463.0         0.27         14.9 
       464.0         0.30         13.6 
       465.0         0.27         13.9 
       466.0         0.30         13.8 
       467.0         0.27         13.9 
       468.0         0.23         13.5 
       469.0         0.30         14.1 
       470.0         0.35         13.9 
       471.0         0.27         14.2 
       472.0         0.30         14.0 
       473.0         0.20         14.1 
       474.0         0.23         14.3 
       475.0         0.27         14.6 
       476.0         1.88         14.2 
       477.0         0.20         14.3 
       478.0         0.30         14.3 
       479.0         0.27         15.3 
       480.0         0.27         14.4 
       481.0         0.27         14.2 
       482.0         0.27         15.0 
       483.0         0.27         14.2 
       484.0         0.30         14.0 
       485.0         0.23         14.1 
       486.0         0.23         14.2 
       487.0         0.23         13.5 
       488.0         0.20         13.6 
       489.0         0.28         13.5 
       490.0         0.30         13.8 
       491.0         0.33         13.5 
       492.0         0.33         12.5 
       493.0         0.37         12.7 
       494.0         0.27         13.9 
       495.0         0.30         12.9 
       496.0         0.37         13.2 
       497.0         0.47         13.0 
       498.0         0.45         12.7 
       499.0         0.43         13.1 
       500.0         0.43         13.3 
       501.0         0.40         14.6 
       502.0         0.40         15.4 
       503.0         0.37         15.8 
       504.0         0.30         15.6 
       505.0         0.20         16.6 
       506.0         1.52         14.5 
       507.0         0.27         15.1 
       508.0         0.20         14.3 
       509.0         0.17         14.3 
       510.0         0.17         13.9 
       511.0         0.20         14.3 
       512.0         0.20         14.2 
       513.0         0.23         15.7 
       514.0         0.23         15.4 
       515.0         0.23         16.4 
       516.0         0.27         15.0 
       517.0         0.25         15.2 
       518.0         0.23         15.2 
       519.0         0.23         15.1 
       520.0         0.23         15.2 
       521.0         0.23         14.8 
       522.0         0.27         14.9 
       523.0         0.20         15.2 
       524.0         0.23         15.1 
       525.0         0.47         15.3 
       526.0         0.33         15.2 
       527.0         0.23         16.1 
       528.0         0.27         14.7 
       529.0         0.25         14.7 
       530.0         0.23         14.9 
       531.0         0.23         15.5 
       532.0         0.23         15.8 
       533.0         0.23         14.8 
       534.0         0.27         14.7 
       535.0         0.37         15.0 
       536.0         1.98         15.4 
       537.0         0.27         14.2 
       538.0         0.33         15.2 
       539.0         0.27         14.7 
       540.0         0.30         14.3 
       541.0         0.17         14.4 
       542.0         0.20         14.4 
       543.0         0.23         14.7 
       544.0         0.17         13.8 
       545.0         0.23         13.2 
       546.0         0.17         13.4 
       547.0         0.17         12.8 
       548.0         0.13         12.8 
       549.0         0.17         12.5 
       550.0         0.18         12.5 
       551.0         0.13         12.3 
       552.0         0.17         12.8 
       553.0         0.13         13.2 
       554.0         0.17         12.4 
       555.0         0.13         12.4 
       556.0         0.13         12.4 
       557.0         0.13         13.0 
       558.0         0.20         13.1 
       559.0         0.27         13.5 
       560.0         0.23         15.3 
       561.0         0.20         15.7 
       562.0         0.20         16.0 
       563.0         0.17         15.4 
       564.0         0.17         14.8 
       565.0         0.13         14.9 
       566.0         1.38         14.8 
       567.0         0.20         14.5 
       568.0         0.23         14.7 
       569.0         0.27         14.7 
       570.0         0.23         15.0 
       571.0         0.27         14.7 
       572.0         0.17         14.9 
       573.0         0.17         15.2 
       574.0         0.20         14.9 
       575.0         0.20         15.0 
       576.0         0.13         14.8 
       577.0         0.17         15.3 
       578.0         0.18         14.8 
       579.0         0.27         14.5 
       580.0         0.27         15.8 
       581.0         0.27         15.9 
       582.0         0.30         15.7 
       583.0         0.33         15.2 
       584.0         0.27         14.7 
       585.0         0.30         14.6 
       586.0         0.27         14.4 
       587.0         0.30         14.4 
       588.0         0.27         14.4 
       589.0         0.32         14.7 
       590.0         0.33         14.5 
       591.0         0.47         14.3 
       592.0         0.47         15.2 
       593.0         0.30         14.6 
       594.0         0.23         15.4 
       595.0         0.37         14.5 
       596.0         2.92         14.7 
       597.0         0.23         14.9 
       598.0         0.20         14.9 
       599.0         0.22         14.3 
