~Version Information
 VERS.                                  2.0 : CWLS LAS VERSION
 WRAP.                                   NO : WRAPING MODE
 SWARE .                 MController 2.5.0I : SOFTWARE VERSION
~Well Information
 WELL.                        Montoya 1-44v : WELL
 COMP.                       Petrogulf Corp : COMPANY
 FLD.                      Purgatorie River : FIELD
 LOC.                 SE/SE Sec 1 T33S R68W : LOCATION
 DATE.                           8/24-25/04 : DATE(S) LOGGED
 SRVC.       Blanco Geological services LLC : SERVICE COMPANY
 STAT.                                   CO : STATE
 CNTY.                           Las Animas : COUNTY
 CTRY.                                  USA : COUNTRY
 API.                       05-071-08142-00 : API NUMBER
 STRT.FT                             556.00 : START DEPTH
 STOP.FT                            2600.00 : STOP DEPTH
 STEP.FT                               1.00 : DEPTH INCREMENT
 NULL.                                -9999 : NULL VALUE
~Curve information
 DEPTH.FT                                   :
 ROP.MIN/FT                                 :
 GAS.UNITS                                  :
~ASCII Log data
# ...
      2356.0          0.3          8.6 
      2357.0          0.2          8.3 
      2358.0          0.3          8.4 
      2359.0          0.3          7.9 
      2360.0          0.2          6.4 
      2361.0          0.3          5.5 
      2362.0          0.2          5.0 
      2363.0          0.2          4.5 
      2364.0          0.4          4.1 
      2365.0          0.4          3.9 
      2366.0          0.2          3.7 
      2367.0          0.2          3.9 
      2368.0          0.2          3.9 
      2369.0          0.2          3.5 
      2370.0          0.3          2.7 
      2371.0          0.3          2.2 
      2372.0          0.2          2.4 
      2373.0          0.2          3.4 
      2374.0          0.4          3.9 
      2375.0          0.3          3.5 
      2376.0          0.4          2.2 
      2377.0          5.9         49.3 
      2378.0          0.3          8.9 
      2379.0          0.3          7.0 
      2380.0          0.3          6.3 
      2381.0          0.4          7.9 
      2382.0          0.3          8.1 
      2383.0          0.2          7.2 
      2384.0          0.1          6.6 
      2385.0          0.3          6.1 
      2386.0          0.3          5.7 
      2387.0          0.3          5.9 
      2388.0          0.3         14.8 
      2389.0          0.3         16.4 
      2390.0          0.3         13.1 
      2391.0          0.3          8.8 
      2392.0          0.3          6.4 
      2393.0          0.3          5.1 
      2394.0          0.3          4.1 
      2395.0          0.4          3.9 
      2396.0          0.4          3.3 
      2397.0          0.5          3.2 
      2398.0          0.4          3.0 
      2399.0          0.5          2.4 
      2400.0          0.4          2.3 
      2401.0          0.4          2.3 
      2402.0          0.4          2.1 
      2403.0          0.4          2.2 
      2404.0          0.4          2.0 
      2405.0          0.4          2.0 
      2406.0          0.4          2.0 
      2407.0          0.4          2.2 
      2408.0          0.3          2.6 
      2409.0          4.9         52.3 
      2410.0          0.3         12.0 
      2411.0          0.4          8.4 
      2412.0          0.4          5.9 
      2413.0          0.4          5.0 
      2414.0          0.4          5.0 
      2415.0          0.3          5.0 
      2416.0          0.3          5.1 
      2417.0          0.3          4.7 
      2418.0          0.3          4.3 
      2419.0          0.3          3.6 
      2420.0          0.4          3.1 
      2421.0          0.2          2.9 
      2422.0          0.1          2.7 
      2423.0          0.2          2.7 
      2424.0          0.2          2.7 
      2425.0          0.2          2.6 
      2426.0          0.3          2.5 
      2427.0          0.3         11.3 
      2428.0          0.3         16.1 
      2429.0          0.3         15.6 
      2430.0          0.3         11.6 
      2431.0          0.2          8.4 
      2432.0          0.2          6.9 
      2433.0          0.3          5.9 
      2434.0          0.3          4.9 
      2435.0          0.3          4.3 
      2436.0          0.4          5.9 
      2437.0          0.5         29.2 
      2438.0          0.4         55.9 
      2439.0          6.1         64.1 
      2440.0          0.4         48.6 
      2441.0          0.4         27.5 
      2442.0          0.4         17.7 
      2443.0          0.2         14.6 
      2444.0          0.1         14.2 
      2445.0          0.1         14.0 
      2446.0          0.3         14.5 
      2447.0          0.3         14.5 
      2448.0          0.6         31.8 
      2449.0          0.3         37.7 
      2450.0          0.3         36.5 
      2451.0          0.2         32.2 
      2452.0          0.3         30.4 
      2453.0          0.3         28.9 
      2454.0          0.3         19.3 
      2455.0          0.3         12.9 
      2456.0          0.3          9.7 
      2457.0          0.2          8.2 
      2458.0          0.3          7.2 
      2459.0          0.3          8.5 
      2460.0          0.3         10.5 
      2461.0          0.2         11.5 
      2462.0          0.3         14.1 
      2463.0          0.2         15.6 
      2464.0          0.3         17.4 
      2465.0          0.4         17.8 
      2466.0          0.3         15.0 
      2467.0          0.3          7.8 
      2468.0          0.3          3.0 
      2469.0          5.4         81.4 
      2470.0          0.2         41.2 
      2471.0          0.2         35.9 
      2472.0          0.2         33.1 
      2473.0          0.2         31.0 
      2474.0          0.2         28.8 
      2475.0          0.1         24.0 
      2476.0          0.1         21.1 
      2477.0          0.1         17.7 
      2478.0          0.1         15.7 
      2479.0          0.2         13.7 
      2480.0          0.2         12.1 
      2481.0          0.2         11.0 
      2482.0          0.3         15.7 
      2483.0          0.3         24.6 
      2484.0          0.2         31.4 
      2485.0          0.3         34.4 
      2486.0          0.2         33.8 
      2487.0          0.2         30.5 
      2488.0          0.3         27.3 
      2489.0          0.3         23.4 
      2490.0          0.3         20.9 
      2491.0          0.2         22.2 
      2492.0          0.3         24.0 
      2493.0          0.3         23.0 
      2494.0          0.3         20.4 
      2495.0          0.4         18.3 
      2496.0          0.2         17.5 
      2497.0          0.2         17.3 
      2498.0          0.5         17.2 
      2499.0          4.8         66.8 
      2500.0          0.3         62.3 
      2501.0          0.3         48.1 
      2502.0          0.3         32.8 
      2503.0          0.4         23.5 
      2504.0          0.3         18.7 
      2505.0          0.3         17.8 
      2506.0          0.4         17.3 
      2507.0          0.3         16.6 
      2508.0          0.3         16.2 
      2509.0          0.3         14.3 
      2510.0          0.3         11.7 
      2511.0          0.3         10.7 
      2512.0          0.4         10.7 
      2513.0          0.3         10.9 
      2514.0          0.3         10.6 
      2515.0          0.4         11.0 
      2516.0          0.4         11.3 
      2517.0          0.4         11.2 
      2518.0          0.4         11.9 
      2519.0          0.3         11.6 
      2520.0          0.4         11.6 
      2521.0          0.4         11.9 
      2522.0          0.3         11.8 
      2523.0          0.4         11.9 
      2524.0          0.3         11.9 
      2525.0          0.3         12.0 
      2526.0          0.4         11.8 
      2527.0          0.4         11.3 
      2528.0          0.3         11.0 
      2529.0          5.3         76.3 
      2530.0          0.4         54.0 
      2531.0          0.4         28.4 
      2532.0          0.4         17.2 
      2533.0          0.4         14.0 
      2534.0          0.4         13.5 
      2535.0          0.4         13.3 
      2536.0          0.4         13.2 
      2537.0          0.3         12.8 
      2538.0          0.4         12.9 
      2539.0          0.4         10.2 
      2540.0          0.3          9.5 
      2541.0          0.3          9.8 
      2542.0          0.4         10.8 
      2543.0          0.4         11.9 
      2544.0          0.4         12.2 
      2545.0          0.3         12.1 
      2546.0          0.3         12.2 
      2547.0          0.4         11.7 
      2548.0          0.4         12.3 
      2549.0          0.3         12.2 
      2550.0          0.4         11.9 
      2551.0          0.6         12.0 
      2552.0          0.5         11.8 
      2553.0          0.5         11.8 
      2554.0          0.4         11.0 
      2555.0          0.4         11.4 
