~Version Information
VERS.                      2.0: CWLS Log ASCII Standard - VERSION 2.0
WRAP.                       NO: One line per depth step
~Well Information Block
STRT.FT               -10.0000: 
STOP.FT              2544.2500: 
STEP.FT                 0.2500: 
NULL.                -999.2500: 
COMP.          Pioneer Natural Resources: COMPANY
WELL.            Cortina 23-25: WELL
FLD.           Purgatorie River: FIELD
LOC.           2344' FWL  & 2526' FSL------: LOCATION
PROV.                       CO: PROVINCE
CNTY.               Las Animas: COUNTRY
SRVC.          Patterson Wireline: SERVICE COMPANY
DATE.          Fri Apr 01 11:50:55 2005: LOG DATE
UWI.           05 071 08340 00: UNIQUE WELL ID
~Curve Information Block
DEPT.FT            0 000 00 00: Depth
CCL.                          : Casing Collar Locator
TT3.usec                      : CBL 3' Travel Time
AMP3.mV                       : CBL 3' Amplitude
GR.GAPI                       : Gamma Ray
~Parameter Information Block
~A  Depth       CCL         TT3         AMP3         GR     
# ...
  1162.5000      0.0000    808.1954      6.5078     90.4930
  1162.7500      0.0000    814.7759      6.5376     88.1553
  1163.0000      0.0000    820.8633      6.7514     88.0655
  1163.2500      0.0000    825.6112      7.0570     90.7613
  1163.5000      0.0000    827.5644      7.3218     95.2272
  1163.7500      0.0000    825.8754      7.4531     99.6929
  1164.0000      0.0000    820.8324      7.4287    103.0553
  1164.2500      0.0000    813.6690      7.2811    105.3726
  1164.5000      0.0000    806.1420      7.0659    107.1263
  1164.7500      0.0000    799.6172      6.8343    108.2473
  1165.0000      0.0000    794.0592      6.6130    107.9095
  1165.2500      0.0000    788.3802      6.4079    105.2427
  1165.5000      0.0000    782.0786      6.2328    100.3146
  1165.7500      0.0000    776.0236      6.1374     94.3881
  1166.0000      0.0000    771.4544      6.1912     89.1471
  1166.2500      0.0000    768.7859      6.4222     85.8416
  1166.5000      0.0000    767.5850      6.7717     85.0772
  1166.7500      0.0000    767.2158      7.1196     86.7612
  1167.0000      0.0000    767.2521      7.3546     89.8826
  1167.2500      0.0000    767.5021      7.4204     92.7226
  1167.5000      0.0000    767.9048      7.3161     93.8166
  1167.7500      0.0000    768.4200      7.0852     92.9169
  1168.0000      0.0000    768.9736      6.8129     90.9664
  1168.2500      0.0000    769.4988      6.6136     89.0950
  1168.5000      0.0000    770.0333      6.5869     87.6674
  1168.7500      0.0000    770.7761      6.7588     86.2358
  1169.0000      0.0000    772.0693      7.0519     84.2274
  1169.2500      0.0000    774.2765      7.3292     81.5936
  1169.5000      0.0000    777.4946      7.4887     78.8467
  1169.7500      0.0000    781.3335      7.5271     76.6401
  1170.0000      0.0000    785.2665      7.5226     75.4384
  1170.2500      0.0000    789.3210      7.5593     75.4615
  1170.5000      0.0000    793.9288      7.6550     76.5755
  1170.7500      0.0000    798.6558      7.7523     78.1011
  1171.0000      0.0000    801.3730      7.7814     79.0864
  1171.2500      0.0000    799.0089      7.7342     79.0990
  1171.5000      0.0000    789.1687      7.6722     78.6090
  1171.7500      0.0000    771.5476      7.6556     78.3968
  1172.0000      0.0000    748.6893      7.6767     78.8513
  1172.2500      0.0000    725.4492      7.6780     80.0733
  1172.5000      0.0000    706.7346      7.6354     82.1474
  1172.7500      0.0000    695.0300      7.5945     84.6858
  1173.0000      0.0000    690.0570      7.6100     86.5513
  1173.2500      0.0000    690.6249      7.6704     87.1046
  1173.5000      0.0000    696.1620      7.7071     87.7821
  1173.7500      0.0000    705.9611      7.6748     91.4258
  1174.0000      0.0000    716.7134      7.5999     99.5189
  1174.2500      0.0000    721.2088      7.5376    110.4186
  1174.5000      0.0000    711.3028      7.4950    120.5481
  1174.7500      0.0000    684.7915      7.4220    127.2011
  1175.0000      0.0000    650.6486      7.2851    130.1726
  1175.2500      0.0000    625.8695      7.1254    130.9969
  1175.5000      0.0000    623.8072      7.0208    131.0917
  1175.7500      0.0000    643.4681      6.9975    130.6786
  1176.0000      0.0000    670.7090      7.0015    129.0391
  1176.2500      0.0000    691.2552      6.9566    125.5249
  1176.5000      0.0000    702.6013      6.8342    120.3975
  1176.7500      0.0000    712.8646      6.6651    114.8257
  1177.0000      0.0000    729.6046      6.5014    110.1080
  1177.2500      0.0000    752.0854      6.3723    106.7448
  1177.5000      0.0000    773.9720      6.2738    104.0767
  1177.7500      0.0000    790.5633      6.1972    100.8184
  1178.0000      0.0000    801.6810      6.1528     96.1088
  1178.2500      0.0000    809.0912      6.1489     90.1300
  1178.5000      0.0000    813.6567      6.1553     83.8344
  1178.7500      0.0000    815.4763      6.1191     78.1670
  1179.0000      0.0000    815.3754      6.0222     73.3460
  1179.2500      0.0000    815.0370      5.9046     68.7284
  1179.5000      0.0000    815.6340      5.8192     63.6747
  1179.7500      0.0000    816.8472      5.7824     58.8661
  1180.0000      0.0000    817.4634      5.7789     56.5581
  1180.2500      0.0000    816.8122      5.7988     59.0850
  1180.5000      0.0000    815.5637      5.8484     66.9025
  1180.7500      0.0000    815.1750      5.9345     78.0637
  1181.0000      0.0000    816.5304      6.0613     89.5498
  1181.2500      0.0000    819.1639      6.2398     99.1488
  1181.5000      0.0000    821.8549      6.4770    106.4441
  1181.7500      0.0000    823.8058      6.7525    112.5227
  1182.0000      0.0000    825.1866      7.0165    118.8445
  1182.2500      0.0000    826.8584      7.2074    126.0479
  1182.5000      0.0000    829.7663      7.2690    133.5299
  1182.7500      0.0000    834.2133      7.1697    139.8113
  1183.0000      0.0000    839.2699      6.9282    143.1402
  1183.2500      0.0000    843.1205      6.6206    142.2304
  1183.5000      0.0000    844.5248      6.3370    137.1541
  1183.7500      0.0000    843.8564      6.1192    129.6828
  1184.0000      0.0000    842.2126      5.9468    122.3959
  1184.2500      2.0000    839.7499      5.7845    117.2802
  1184.5000      2.0000    835.8044      5.6251    115.1914
  1184.7500      0.0000    830.8411      5.4893    116.2775
  1185.0000      0.0000    827.3088      5.4056    120.2692
  1185.2500      0.0000    827.5364      5.3962    126.3126
  1185.5000      0.0000    830.9583      5.4568    133.1577
  1185.7500      0.0000    834.3737      5.5402    139.8402
  1186.0000      0.0000    834.8732      5.5807    145.8639
  1186.2500      0.0000    831.5052      5.5504    150.5644
  1186.5000      0.0000    824.3623      5.4763    152.8799
  1186.7500      0.0000    813.9478      5.3997    152.2945
  1187.0000      0.0000    802.4694      5.3386    149.7245
  1187.2500      0.0000    794.4326      5.2920    146.8802
  1187.5000      0.0000    793.8616      5.2580    144.9262
  1187.7500      0.0000    800.5829      5.2372    144.0337
  1188.0000      0.0000    810.2977      5.2298    143.6898
  1188.2500      0.0000    818.4630      5.2377    143.0743
  1188.5000      0.0000    823.3250      5.2642    141.7698
  1188.7500      0.0000    825.5240      5.3067    140.4631
  1189.0000      0.0000    826.0898      5.3517    140.3395
  1189.2500      0.0000    825.3553      5.3806    141.6170
  1189.5000      0.0000    823.2609      5.3825    143.2813
  1189.7500      0.0000    820.1511      5.3612    144.3830
  1190.0000      0.0000    817.1041      5.3326    144.8155
  1190.2500      0.0000    815.4271      5.3118    144.5124
  1190.5000      0.0000    815.7599      5.3031    142.7384
  1190.7500      0.0000    817.5502      5.2975    138.8180
  1191.0000      0.0000    819.4019      5.2827    133.0907
  1191.2500      0.0000    820.1641      5.2559    126.6618
  1191.5000      0.0000    819.7348      5.2246    120.4931
  1191.7500      0.0000    818.5109      5.1950    115.0399
  1192.0000      0.0000    815.9026      5.1628    110.6615
  1192.2500      0.0000    810.0280      5.1212    107.9631
  1192.5000      0.0000    799.7655      5.0790    107.1931
  1192.7500      0.0000    787.1434      5.0594    107.3587
  1193.0000      0.0000    776.7736      5.0795    106.7533
  1193.2500      0.0000    772.3705      5.1348    104.7368
  1193.5000      0.0000    774.0686      5.2054    102.5163
  1193.7500      0.0000    778.9982      5.2675    101.9523
  1194.0000      0.0000    783.6279      5.3043    103.8404
  1194.2500      0.0000    785.3483      5.3173    107.2321
  1194.5000      0.0000    782.8613      5.3273    109.9964
  1194.7500      0.0000    776.4960      5.3506    110.2421
  1195.0000      0.0000    768.7913      5.3850    107.8720
  1195.2500      0.0000    763.8546      5.4274    104.7996
  1195.5000      0.0000    764.5250      5.4872    103.2334
  1195.7500      0.0000    769.6771      5.5716    103.6703
