~Version Information
VERS.                      2.0: CWLS Log ASCII Standard - VERSION 2.0
WRAP.                       NO: One line per depth step
~Well Information Block
STRT.FT              1727.9000: 
STOP.FT              1961.0000: 
STEP.FT                 0.1000: 
NULL.                -999.2500: 
COMP.          Petrogulf Corporation: COMPANY
WELL.              Royal 8-33R: WELL
FLD.           Purgatorie River: FIELD
LOC.           2401' FSL & 2270' FEL: LOCATION
CNTY.               Las Animas: COUNTY
SRVC.                         : SERVICE COMPANY
DATE.          Mon Apr 26 06:57:24 2004: LOG DATE
UWI.           05 071 08041 00: UNIQUE WELL ID
STAT.                 Colorado: STATE
~Curve Information Block
DEPT.FT            0 000 00 00: Depth
DCAL.in                       : CDL Caliper
RHOB.g/cc                     : CDL Bulk Density
RHOC.g/cc                     : CDL Density Correction
DPOR.pu                       : CDL Density Porosity
GR.GAPI                       : Gamma Ray
~Parameter Information Block
~A  Depth       DCAL        RHOB        RHOC        DPOR         GR     
# ...
  1884.7000      7.8700      2.4783      0.1656     10.4045     47.1560
  1884.8000      7.8777      2.4897      0.1945      9.7171     39.3823
  1884.9000      7.8777      2.4490      0.1716     12.1807     31.8241
  1885.0000      7.8735      2.3926      0.0278     15.6027     29.2638
  1885.1000      7.8735      2.3568      0.0692     17.7715     34.4881
  1885.2000      7.8735      2.3342     -0.0142     19.1381     40.3702
  1885.3000      7.8777      2.3154      0.0223     20.2807     42.8352
  1885.4000      7.8777      2.3052      0.1133     20.8983     45.2658
  1885.5000      7.8853      2.3028      0.0427     21.0413     47.2778
  1885.6000      7.8853      2.3090      0.0928     20.6689     48.0897
  1885.7000      7.8853      2.3212      0.1071     19.9243     47.1547
  1885.8000      7.8797      2.3280      0.0610     19.5170     42.4039
  1885.9000      7.8797      2.3258      0.1311     19.6467     38.4185
  1886.0000      7.8733      2.3251      0.0844     19.6935     40.4410
  1886.1000      7.8733      2.3345      0.0698     19.1213     43.0949
  1886.2000      7.8733      2.3482      0.0370     18.2921     39.6392
  1886.3000      7.8762      2.3579      0.0647     17.7009     34.2940
  1886.4000      7.8762      2.3598      0.0349     17.5893     30.6552
  1886.5000      7.8818      2.3501      0.0452     18.1766     26.7162
  1886.6000      7.8818      2.3469     -0.0062     18.3692     22.6850
  1886.7000      7.8818      2.3771      0.0063     16.5413     22.6139
  1886.8000      7.8828      2.4225      0.0777     13.7896     26.7004
  1886.9000      7.8828      2.4422      0.1062     12.5969     28.9278
  1887.0000      7.8716      2.4232      0.1437     13.7430     30.7400
  1887.1000      7.8716      2.3868      0.0765     15.9533     38.3396
  1887.2000      7.8716      2.3626      0.1176     17.4164     44.2761
  1887.3000      7.8723      2.3654      0.0542     17.2510     37.9579
  1887.4000      7.8723      2.3928      0.0798     15.5892     28.7277
  1887.5000      7.8682      2.4120      0.1479     14.4241     30.6674
  1887.6000      7.8682      2.3961      0.0347     15.3868     40.3085
  1887.7000      7.8682      2.3736     -0.0431     16.7487     45.1194
  1887.8000      7.8710      2.3706      0.0820     16.9317     41.9074
  1887.9000      7.8710      2.3834      0.0846     16.1563     38.3096
  1888.0000      7.8755      2.4086      0.0741     14.6321     40.2133
  1888.1000      7.8755      2.4216      0.1170     13.8402     45.0172
  1888.2000      7.8755      2.3973      0.0808     15.3156     46.9191
  1888.3000      7.8747      2.3515      0.0689     18.0939     41.4957
  1888.4000      7.8747      2.3134     -0.0194     20.3977     29.5771
  1888.5000      7.8565      2.3021     -0.0118     21.0844     18.5210
  1888.6000      7.8565      2.3315      0.0119     19.3060     14.8582
  1888.7000      7.8565      2.3898      0.1264     15.7712     16.9387
  1888.8000      7.8453      2.4188      0.1625     14.0112     20.4139
  1888.9000      7.8453      2.3933     -0.0025     15.5546     26.0330
  1889.0000      7.8666      2.3685      0.0493     17.0612     32.4915
  1889.1000      7.8666      2.3849      0.1089     16.0643     35.7012
  1889.2000      7.8666      2.4272      0.0980     13.5025     36.6772
  1889.3000      7.8764      2.4710      0.1632     10.8495     38.2777
  1889.4000      7.8764      2.5061      0.1638      8.7206     39.0424
  1889.5000      7.8607      2.5172      0.1557      8.0484     38.4524
  1889.6000      7.8607      2.4986      0.0675      9.1739     42.8449
  1889.7000      7.8607      2.4781      0.0985     10.4192     53.2311
  1889.8000      7.8444      2.4688      0.1721     10.9805     60.6390
  1889.9000      7.8444      2.4483      0.1430     12.2260     59.3555
  1890.0000      7.8534      2.4022      0.0928     15.0157     50.8594
  1890.1000      7.8534      2.3479      0.0078     18.3106     41.8724
  1890.2000      7.8534      2.3103      0.0095     20.5873     38.0472
  1890.3000      7.8567      2.2962     -0.0025     21.4453     38.8814
  1890.4000      7.8567      2.3008      0.0090     21.1654     39.5887
  1890.5000      7.8572      2.3190      0.0463     20.0600     38.6054
  1890.6000      7.8572      2.3436      0.0648     18.5686     39.7400
  1890.7000      7.8572      2.3657      0.0980     17.2331     42.2673
  1890.8000      7.8659      2.3849     -0.0499     16.0693     42.2797
  1890.9000      7.8659      2.4106      0.0526     14.5065     37.2429
  1891.0000      7.8659      2.4347      0.0474     13.0500     26.3072
  1891.1000      7.8659      2.4373      0.0721     12.8923     16.5637
  1891.2000      7.8659      2.4211      0.0149     13.8707     14.1762
  1891.3000      7.8577      2.4138      0.0000     14.3142     18.3272
  1891.4000      7.8577      2.4281      0.0813     13.4460     26.5603
  1891.5000      7.8606      2.4492      0.0765     12.1675     32.1155
  1891.6000      7.8606      2.4643      0.1491     11.2538     29.5493
  1891.7000      7.8606      2.4684      0.0895     11.0056     24.3688
  1891.8000      7.8563      2.4768     -0.0235     10.4989     21.0595
  1891.9000      7.8563      2.5008      0.1060      9.0448     19.5726
  1892.0000      7.8610      2.5087      0.1200      8.5660     23.0864
  1892.1000      7.8610      2.4912      0.0687      9.6246     34.1617
  1892.2000      7.8610      2.4942      0.0756      9.4418     47.2092
  1892.3000      7.8501      2.5370      0.1026      6.8469     54.8711
  1892.4000      7.8501      2.5814      0.1607      4.1595     59.1381
  1892.5000      7.8405      2.5888      0.1434      3.7069     67.4369
  1892.6000      7.8405      2.5712      0.0270      4.7747     79.4612
  1892.7000      7.8405      2.5606      0.1258      5.4158     84.2630
  1892.8000      7.8310      2.5652      0.0911      5.1379     76.5198
  1892.9000      7.8310      2.5807      0.1583      4.1983     67.1505
  1893.0000      7.8277      2.5868      0.0952      3.8274     72.1352
  1893.1000      7.8277      2.5601      0.1430      5.4512     91.4401
  1893.2000      7.8277      2.5103      0.0863      8.4674    111.7138
  1893.3000      7.7973      2.4696      0.0226     10.9321    127.3099
  1893.4000      7.7973      2.4747     -0.0112     10.6235    141.2764
  1893.5000      7.7907      2.5498      0.0615      6.0744    156.6958
  1893.6000      7.7907      2.6507      0.2280     -0.0403    165.9418
  1893.7000      7.7907      2.6884      0.2324     -2.3287    154.3080
  1893.8000      7.8291      2.6471      0.1283      0.1739    127.1941
  1893.9000      7.8291      2.5921      0.0370      3.5109    108.0774
  1894.0000      7.8446      2.5710      0.0600      4.7868    109.5088
  1894.1000      7.8446      2.5801      0.0368      4.2388    114.0909
  1894.2000      7.8446      2.5949      0.1094      3.3379    105.0963
  1894.3000      7.8633      2.5960      0.0569      3.2730     95.2843
  1894.4000      7.8633      2.5850      0.0875      3.9400     94.2031
  1894.5000      7.8634      2.5736      0.0036      4.6309    100.2638
  1894.6000      7.8634      2.5709      0.0579      4.7935    113.6914
  1894.7000      7.8634      2.5720      0.1186      4.7266    125.0595
  1894.8000      7.8537      2.5721      0.0105      4.7210    127.4276
  1894.9000      7.8537      2.5730      0.0834      4.6697    126.6925
  1895.0000      7.8561      2.5633      0.0905      5.2565    126.9850
  1895.1000      7.8561      2.5415      0.0291      6.5756    124.7338
  1895.2000      7.8561      2.5246     -0.0016      7.6020    112.5014
  1895.3000      7.8678      2.5198      0.0705      7.8939     93.6457
  1895.4000      7.8678      2.5357      0.0329      6.9277     91.1024
  1895.5000      7.8599      2.5799      0.1028      4.2480    108.6660
  1895.6000      7.8599      2.6188      0.0889      1.8898    116.4750
  1895.7000      7.8599      2.6095      0.0513      2.4522    104.4697
  1895.8000      7.8603      2.5649     -0.0401      5.1549     91.2063
