~Version Information
VERS.                      2.0: CWLS Log ASCII Standard - VERSION 2.0
WRAP.                       NO: One line per depth step
~Well Information Block
STRT.FT               675.0000: 
STOP.FT              2371.5000: 
STEP.FT                 0.1000: 
NULL.                -999.2500: 
COMP.          Pioneer Natural Resources: COMPANY
WELL.            Harrier 44-33: WELL
FLD.           Purgatoire River: FIELD
LOC.           456' FSL & 930' FEL: LOCATION
PROV.                 Colorado: PROVINCE
CNTY.               Las Animas: COUNTRY
SRVC.                Patterson: SERVICE COMPANY
DATE.          Mon Jun 20 10:36:59 2005: LOG DATE
UWI.           05 071 08398 00: UNIQUE WELL ID
~Curve Information Block
DEPT.FT            0 000 00 00: Depth
DCAL.in                       : CDL Caliper
RHOB.g/cc                     : CDL Bulk Density
RHOC.g/cc                     : CDL Density Correction
DPOR.pu                       : CDL Density Porosity
GR.GAPI                       : Gamma Ray
NPOR.pu                       : Neutron Porosity
~Parameter Information Block
~A  Depth       DCAL        RHOB        RHOC        DPOR         GR         NPOR    
# ...
  1567.8000      7.9636      2.5177      0.0573      8.0197    104.5616     17.8960
  1567.9000      7.9636      2.5107      0.0995      8.4418    105.7890     17.1178
  1568.0000      7.9661      2.4763      0.0569     10.5267    102.2595     17.3689
  1568.1000      7.9661      2.4464      0.0044     12.3383     96.9088     18.0009
  1568.2000      7.9661      2.4422      0.0776     12.5943     97.1033     17.9433
  1568.3000      7.9709      2.4454      0.0315     12.4020    103.0235     17.2008
  1568.4000      7.9709      2.4421      0.0374     12.5993    108.1634     16.3438
  1568.5000      7.9710      2.4390     -0.0042     12.7866    109.7954     15.8243
  1568.6000      7.9710      2.4438      0.0265     12.4941    107.7767     15.5113
  1568.7000      7.9710      2.4556      0.0214     11.7796    102.1341     15.1895
  1568.8000      7.9739      2.4693      0.0513     10.9513     96.9527     15.0781
  1568.9000      7.9739      2.4799      0.1033     10.3096     97.0981     15.3678
  1569.0000      7.9765      2.4877      0.0693      9.8355    100.3400     15.6995
  1569.1000      7.9765      2.5001      0.1138      9.0827     98.6346     15.6011
  1569.2000      7.9765      2.5179      0.0970      8.0074     90.8157     15.5543
  1569.3000      7.9551      2.5280      0.0991      7.3964     85.2569     16.2922
  1569.4000      7.9551      2.5210      0.0785      7.8196     87.4809     17.4502
  1569.5000      7.9482      2.5087      0.0648      8.5645     94.0280     18.0567
  1569.6000      7.9482      2.5025      0.0638      8.9413     98.1184     17.8036
  1569.7000      7.9482      2.4939      0.1152      9.4598     98.8006     17.1875
  1569.8000      7.9688      2.4772      0.0908     10.4703     98.2778     16.7221
  1569.9000      7.9688      2.4638      0.0642     11.2820     97.7587     16.5322
  1570.0000      7.9713      2.4586      0.0724     11.5986     96.3383     16.7897
  1570.1000      7.9713      2.4588      0.0371     11.5850     92.2673     17.5643
  1570.2000      7.9713      2.4680      0.0511     11.0330     88.4876     18.3463
  1570.3000      7.9690      2.4863      0.0208      9.9186     90.1545     18.6905
  1570.4000      7.9690      2.5082      0.1263      8.5955     95.1370     18.9143
  1570.5000      7.9724      2.5257      0.1358      7.5346     96.8346     19.0113
  1570.6000      7.9724      2.5390      0.1175      6.7274     95.3419     18.4410
  1570.7000      7.9724      2.5556      0.1309      5.7198     96.1538     17.6845
  1570.8000      7.9769      2.5779      0.1257      4.3707     98.3061     17.6034
  1570.9000      7.9769      2.5904      0.1931      3.6126     97.7859     18.1951
  1571.0000      7.9805      2.5780      0.1487      4.3635     97.7448     19.1825
  1571.1000      7.9805      2.5459      0.1391      6.3081    103.5628     20.0724
  1571.2000      7.9805      2.5097      0.0729      8.5047    111.9525     20.1096
  1571.3000      7.9825      2.4864      0.0352      9.9133    114.4859     19.4408
  1571.4000      7.9825      2.4785      0.0160     10.3967    109.6076     18.6147
  1571.5000      7.9795      2.4784      0.0115     10.3986    103.2009     18.1053
  1571.6000      7.9795      2.4858      0.0323      9.9527    100.5360     18.5204
  1571.7000      7.9795      2.4935      0.0369      9.4851    101.8689     19.5157
  1571.8000      7.9701      2.4949      0.0390      9.4010    104.9551     20.0447
  1571.9000      7.9701      2.4936      0.0581      9.4810    108.1575     20.0200
  1572.0000      7.9774      2.4880      0.0583      9.8197    109.2125     20.0621
  1572.1000      7.9774      2.4718      0.0753     10.7988    108.4904     20.0842
  1572.2000      7.9774      2.4462      0.0488     12.3542    110.0676     19.3702
  1572.3000      7.9800      2.4261     -0.0139     13.5676    112.8406     18.3157
  1572.4000      7.9800      2.4299      0.0413     13.3423    111.6972     17.7995
  1572.5000      7.9730      2.4502      0.0560     12.1072    105.7833     17.6205
  1572.6000      7.9730      2.4589      0.0682     11.5826     95.7332     17.5913
  1572.7000      7.9730      2.4490      0.0472     12.1804     85.9822     17.8736
  1572.8000      7.9649      2.4418      0.0989     12.6153     82.8605     18.3118
  1572.9000      7.9649      2.4505      0.0831     12.0910     86.5460     18.4105
  1573.0000      7.9536      2.4711      0.1034     10.8421     90.9132     17.6284
  1573.1000      7.9536      2.4934      0.1213      9.4885     89.1079     16.3489
  1573.2000      7.9536      2.5074      0.0901      8.6407     83.5346     15.9436
  1573.3000      7.9643      2.5097      0.1303      8.5056     80.7279     16.8283
  1573.4000      7.9643      2.4988      0.1087      9.1613     78.8813     17.8114
  1573.5000      7.9643      2.4737      0.1000     10.6832     74.6365     17.7525
  1573.6000      7.9643      2.4387      0.0582     12.8077     70.6262     16.7919
  1573.7000      7.9643      2.4121     -0.0089     14.4208     69.0829     16.0011
  1573.8000      7.9682      2.4137      0.0271     14.3208     70.0832     16.3842
  1573.9000      7.9682      2.4365      0.0599     12.9367     72.9581     17.0579
  1574.0000      7.9653      2.4566      0.0454     11.7192     75.6310     16.7475
  1574.1000      7.9653      2.4625      0.0854     11.3612     77.5350     16.5412
  1574.2000      7.9653      2.4603      0.0054     11.4960     79.1708     16.9319
  1574.3000      7.9667      2.4564      0.0498     11.7310     80.3703     16.8941
  1574.4000      7.9667      2.4502      0.0298     12.1104     80.6215     16.2103
  1574.5000      7.9709      2.4476      0.0171     12.2692     78.2445     15.4287
  1574.6000      7.9709      2.4505      0.0708     12.0880     73.8245     15.1260
  1574.7000      7.9709      2.4493      0.0649     12.1619     70.5896     15.3567
  1574.8000      7.9739      2.4456      0.0633     12.3908     69.2517     15.7788
  1574.9000      7.9739      2.4549      0.0462     11.8248     69.7628     16.3413
  1575.0000      7.9750      2.4748      0.0879     10.6203     72.8413     16.6778
  1575.1000      7.9750      2.4802      0.0823     10.2906     76.7421     16.2152
  1575.2000      7.9750      2.4691      0.0660     10.9615     79.7458     15.4031
  1575.3000      7.9767      2.4663      0.0228     11.1359     82.4239     15.2261
  1575.4000      7.9767      2.4737      0.0571     10.6855     85.5808     15.8724
  1575.5000      7.9963      2.4708      0.0542     10.8617     89.7756     16.3906
  1575.6000      7.9963      2.4575      0.0406     11.6640     92.3139     15.9357
  1575.7000      7.9963      2.4525      0.0310     11.9696     90.3189     15.0580
  1575.8000      8.0098      2.4631      0.0696     11.3251     88.4674     14.8356
  1575.9000      8.0098      2.4762      0.0915     10.5335     87.4166     15.4385
  1576.0000      8.0171      2.4873      0.0291      9.8599     83.2222     15.8598
  1576.1000      8.0171      2.5078      0.0600      8.6165     78.3690     15.5842
  1576.2000      8.0171      2.5302      0.0927      7.2587     75.4039     15.2572
  1576.3000      8.0223      2.5401      0.0784      6.6591     72.0417     15.2036
  1576.4000      8.0223      2.5323      0.1035      7.1337     67.0118     15.3149
  1576.5000      8.0469      2.5108      0.0544      8.4390     64.0594     15.2563
  1576.6000      8.0469      2.4915      0.0526      9.6034     68.1680     14.8019
  1576.7000      8.0469      2.4772      0.0662     10.4731     76.8969     14.2514
  1576.8000      8.0949      2.4563      0.0672     11.7385     82.2728     13.8862
  1576.9000      8.0949      2.4341      0.0097     13.0878     79.6176     13.8763
  1577.0000      8.1090      2.4274      0.0217     13.4939     72.5779     14.0204
  1577.1000      8.1090      2.4365      0.0521     12.9407     69.6555     13.8484
  1577.2000      8.1090      2.4488      0.0377     12.1961     72.8064     13.5113
  1577.3000      8.1134      2.4583      0.0714     11.6210     76.0023     13.2506
