~Version Information
VERS.                      2.0: CWLS Log ASCII Standard - VERSION 2.0
WRAP.                       NO: One line per depth step
~Well Information Block
STRT.FT               250.0000: 
STOP.FT              1017.5000: 
STEP.FT                 0.1000: 
NULL.                -999.2500: 
COMP.          Pioneer Natural Resources: COMPANY
WELL.              Oscar 41-31: WELL
FLD.           Purgatoire River: FIELD
LOC.           412' FNL & 1216' FEL: LOCATION
PROV.                 Colorado: PROVINCE
CNTY.               Las Animas: COUNTRY
SRVC.                Patterson: SERVICE COMPANY
DATE.          Thu Feb 24 15:11:09 2005: LOG DATE
UWI.           05 071 08290 00: UNIQUE WELL ID
~Curve Information Block
DEPT.FT            0 000 00 00: Depth
DCAL.in                       : CDL Caliper
RHOB.g/cc                     : CDL Bulk Density
RHOC.g/cc                     : CDL Density Correction
DPOR.pu                       : CDL Density Porosity
GR.GAPI                       : Gamma Ray
NPOR.pu                       : Neutron Porosity
~Parameter Information Block
~A  Depth       DCAL        RHOB        RHOC        DPOR         GR         NPOR    
# ...
   451.6000      7.8943      2.5783      0.0828      4.3427    122.4146     22.9745
   451.7000      7.8943      2.5345      0.0402      7.0007    132.9520     23.2358
   451.8000      7.8952      2.5037      0.0137      8.8695    142.8560     23.5656
   451.9000      7.8952      2.4926      0.0279      9.5385    146.3621     23.7383
   452.0000      7.8957      2.4903      0.0385      9.6764    146.8625     23.7053
   452.1000      7.8957      2.4914     -0.0100      9.6145    148.6767     23.4929
   452.2000      7.8957      2.5015      0.0209      9.0004    149.9318     23.9511
   452.3000      7.8945      2.5210      0.0301      7.8167    149.8255     26.0343
   452.4000      7.8945      2.5464      0.0902      6.2787    150.7434     28.2311
   452.5000      7.8932      2.5697      0.0937      4.8685    151.8064     28.6993
   452.6000      7.8932      2.5759      0.1461      4.4893    151.0036     28.3229
   452.7000      7.8932      2.5594      0.0778      5.4887    151.4444     28.3557
   452.8000      7.8924      2.5413      0.0414      6.5907    157.9606     28.6614
   452.9000      7.8924      2.5387      0.0814      6.7453    166.2220     29.1190
   453.0000      7.8912      2.5414      0.0589      6.5813    166.6161     30.2244
   453.1000      7.8912      2.5469      0.0027      6.2467    157.5902     31.3256
   453.2000      7.8912      2.5620      0.0527      5.3362    145.2128     31.4382
   453.3000      7.8898      2.5773      0.0648      4.4047    136.2990     30.9632
   453.4000      7.8898      2.5886      0.0455      3.7210    131.2053     30.5902
   453.5000      7.8881      2.5957      0.0557      3.2927    126.3087     30.5233
   453.6000      7.8881      2.5949      0.0447      3.3376    121.7186     30.6202
   453.7000      7.8881      2.6000     -0.0087      3.0302    117.3979     30.3392
   453.8000      7.8834      2.6223      0.0289      1.6796    112.1816     29.2514
   453.9000      7.8834      2.6398      0.0404      0.6153    110.3184     27.7205
   454.0000      7.8731      2.6299      0.0244      1.2206    116.4170     26.0812
   454.1000      7.8731      2.6049      0.0056      2.7355    127.3685     24.6245
   454.2000      7.8731      2.5987     -0.0146      3.1102    135.2486     23.8929
   454.3000      7.8682      2.6250      0.0354      1.5165    137.0169     23.5062
   454.4000      7.8682      2.6503      0.1268     -0.0168    137.4272     22.7939
   454.5000      7.8815      2.6360      0.0533      0.8489    140.3953     22.2776
   454.6000      7.8815      2.5932     -0.0072      3.4412    144.0510     22.6969
   454.7000      7.8815      2.5541      0.0279      5.8145    148.1391     23.3729
   454.8000      7.8981      2.5312     -0.0034      7.2004    153.6933     23.2341
   454.9000      7.8981      2.5216      0.0093      7.7789    157.1043     22.7949
   455.0000      7.9056      2.5179      0.0041      8.0031    156.4034     23.0288
   455.1000      7.9056      2.5215     -0.0100      7.7905    157.4149     24.1042
   455.2000      7.9056      2.5319      0.0493      7.1549    164.7303     25.6336
   455.3000      7.9042      2.5329      0.0749      7.0958    175.4374     26.7197
   455.4000      7.9042      2.5204      0.0177      7.8532    184.4519     26.7245
   455.5000      7.9020      2.5048      0.0726      8.7994    184.4333     26.2095
   455.6000      7.9020      2.4831      0.0682     10.1161    171.3420     26.1153
   455.7000      7.9020      2.4631     -0.0398     11.3303    154.4066     26.5500
   455.8000      7.9018      2.4706     -0.0296     10.8750    148.6769     26.9897
   455.9000      7.9018      2.5045      0.0301      8.8192    156.2380     26.9518
   456.0000      7.9011      2.5389      0.0117      6.7354    166.9977     26.6271
   456.1000      7.9011      2.5574      0.0648      5.6102    174.4051     26.4014
   456.2000      7.9011      2.5609      0.0600      5.3977    179.0833     26.2123
   456.3000      7.8996      2.5602      0.0940      5.4396    180.3079     26.0831
   456.4000      7.8996      2.5571      0.1066      5.6327    175.5164     26.1585
   456.5000      7.8988      2.5430      0.1144      6.4832    168.6734     26.4702
   456.6000      7.8988      2.5240      0.0777      7.6340    166.1670     27.0141
   456.7000      7.8988      2.5135      0.0739      8.2749    164.1558     27.2824
   456.8000      7.8999      2.5048      0.0842      8.8007    158.9265     27.0091
   456.9000      7.8999      2.4874      0.0296      9.8543    157.4333     26.7734
   457.0000      7.9009      2.4742     -0.0055     10.6572    161.1434     26.6066
   457.1000      7.9009      2.4794      0.0090     10.3381    164.2844     26.2526
   457.2000      7.9009      2.4901      0.1027      9.6935    169.3406     25.8584
   457.3000      7.9011      2.4875      0.0730      9.8478    179.6745     25.7211
   457.4000      7.9011      2.4786      0.0790     10.3878    187.7056     26.4434
   457.5000      7.9013      2.4785      0.1213     10.3946    185.7078     27.9053
   457.6000      7.9013      2.4885      0.1774      9.7859    178.4330     28.8280
   457.7000      7.9013      2.4976      0.1387      9.2390    172.5481     28.4201
   457.8000      7.9016      2.4944      0.1272      9.4285    167.1144     27.3443
   457.9000      7.9016      2.4837      0.0990     10.0782    163.1550     26.7284
   458.0000      7.9017      2.4868      0.0696      9.8918    162.7356     26.8391
   458.1000      7.9017      2.5146      0.1766      8.2087    164.4399     26.9899
   458.2000      7.9017      2.5522      0.2133      5.9244    167.1651     26.6958
   458.3000      7.9015      2.5838      0.2226      4.0093    170.8518     26.3159
   458.4000      7.9015      2.6021      0.3283      2.9023    176.0562     26.5599
   458.5000      7.9013      2.6031      0.2198      2.8399    179.7859     27.5080
   458.6000      7.9013      2.5927      0.1777      3.4738    175.5722     28.4026
   458.7000      7.9013      2.5767      0.1778      4.4444    163.6962     28.7994
   458.8000      7.9009      2.5569      0.1530      5.6443    153.3388     29.0066
   458.9000      7.9009      2.5419      0.0912      6.5542    150.8429     29.3076
   459.0000      7.9008      2.5337      0.1531      7.0495    153.8346     29.7890
   459.1000      7.9008      2.5225      0.1081      7.7272    156.7816     30.1201
   459.2000      7.9008      2.5120      0.0741      8.3659    155.0169     30.4109
   459.3000      7.9014      2.5167      0.0476      8.0803    149.4456     31.4731
   459.4000      7.9014      2.5442      0.0552      6.4099    146.7888     32.8757
   459.5000      7.9021      2.5808      0.0946      4.1931    148.4279     33.2518
   459.6000      7.9021      2.6041      0.0668      2.7837    150.5104     32.4891
   459.7000      7.9021      2.6197      0.0311      1.8353    151.4578     31.5252
   459.8000      7.9012      2.6447      0.0937      0.3231    150.9823     30.6089
   459.9000      7.9012      2.6732      0.1379     -1.4031    147.2853     29.4424
   460.0000      7.8997      2.6890      0.1192     -2.3646    142.5541     28.0539
   460.1000      7.8997      2.6809      0.1000     -1.8754    142.8492     26.7452
   460.2000      7.8997      2.6503      0.0022     -0.0181    147.9849     26.0221
   460.3000      7.8990      2.6113      0.0067      2.3445    154.8663     25.9901
   460.4000      7.8990      2.5767      0.0086      4.4404    162.3863     25.8961
   460.5000      7.8988      2.5555     -0.0417      5.7259    167.3171     25.2539
   460.6000      7.8988      2.5472      0.0576      6.2315    168.4002     24.5129
   460.7000      7.8988      2.5424      0.0402      6.5218    169.9512     24.3791
   460.8000      7.8984      2.5418      0.0680      6.5567    171.1886     24.9179
   460.9000      7.8984      2.5378      0.1158      6.8004    168.7728     25.6431
   461.0000      7.8984      2.5150      0.0764      8.1804    168.6422     26.1817
   461.1000      7.8984      2.4820      0.0384     10.1827    176.4120     26.4887
