~Version Information
VERS.                      2.0: CWLS Log ASCII Standard - VERSION 2.0
WRAP.                       NO: One line per depth step
~Well Information Block
STRT.FT                -7.5000: 
STOP.FT              1545.0000: 
STEP.FT                 0.2500: 
NULL.                -999.2500: 
COMP.          Pioneer Natural Resources: COMPANY
WELL.          Kristin 22-23 Tr: WELL
FLD.           Purgatorie River: FIELD
LOC.           2273' FNL & 2029' FWL--: LOCATION
PROV.                       CO: PROVINCE
CNTY.               Las Animas: COUNTRY
SRVC.                         : SERVICE COMPANY
DATE.          Tue Jan 25 11:16:36 2005: LOG DATE
UWI.           071-08259      : UNIQUE WELL ID
~Curve Information Block
DEPT.FT            0 000 00 00: Depth
CCL.                          : Casing Collar Locator
TT3.usec                      : CBL 3' Travel Time
AMP3.mV                       : CBL 3' Amplitude
GR.GAPI                       : Gamma Ray
~Parameter Information Block
~A  Depth       CCL         TT3         AMP3         GR     
# ...
  1500.0000      0.0000    585.2316      5.3270    149.6363
  1500.2500      0.0000    600.2175      5.1129    146.6201
  1500.5000      0.0000    622.0772      4.9307    147.1268
  1500.7500      0.0000    648.0957      4.8363    151.6313
  1501.0000      0.0000    673.0336      4.8508    158.3789
  1501.2500      0.0000    692.7263      4.9476    164.8840
  1501.5000      0.0000    706.2623      5.0725    169.1658
  1501.7500      0.0000    714.9667      5.1708    170.2434
  1502.0000      0.0000    720.1639      5.2072    168.4252
  1502.2500      0.0000    722.3796      5.1721    165.1158
  1502.5000      0.0000    722.1729      5.0828    161.9822
  1502.7500      0.0000    720.9472      4.9779    160.2693
  1503.0000      0.0000    720.5023      4.9021    160.5661
  1503.2500      0.0000    721.7416      4.8890    162.6395
  1503.5000      0.0000    724.0283      4.9509    165.5049
  1503.7500      0.0000    725.9480      5.0780    167.7264
  1504.0000      0.0000    726.4675      5.2382    167.4248
  1504.2500      0.0000    725.3654      5.3845    162.6463
  1504.5000      0.0000    723.1426      5.4689    152.9266
  1504.7500      0.0000    720.7795      5.4527    140.6008
  1505.0000      0.0000    718.7454      5.3165    129.7011
  1505.2500      0.0000    714.7910      5.0816    123.1974
  1505.5000      0.0000    702.2653      4.8224    121.3923
  1505.7500      0.0000    672.3827      4.6355    122.6059
  1506.0000      0.0000    621.2575      4.5844    124.6586
  1506.2500      0.0000    556.0660      4.6764    125.7163
  1506.5000      0.0000    492.5350      4.8812    124.7116
  1506.7500      0.0000    444.6173      5.1468    121.8350
  1507.0000      0.0000    416.8927      5.4039    118.6489
  1507.2500     -2.0000    406.5942      5.5868    117.0361
  1507.5000     -2.0000    411.1302      5.6583    117.4503
  1507.7500      0.0000    432.7782      5.6156    118.2658
  1508.0000      0.0000    475.8388      5.4840    117.2038
  1508.2500      0.0000    538.0941      5.3182    113.2293
  1508.5000      0.0000    605.2418      5.1944    106.9037
  1508.7500      0.0000    656.6196      5.1789     99.5231
  1509.0000      0.0000    678.5783      5.2998     92.4663
  1509.2500      0.0000    671.7930      5.5418     86.9462
  1509.5000      0.0000    646.2473      5.8583     83.6473
  1509.7500      0.0000    612.8451      6.1918     82.5143
  1510.0000      0.0000    582.2046      6.4893     83.1539
  1510.2500      0.0000    567.1872      6.7004     85.5306
  1510.5000      0.0000    577.9709      6.7805     90.2070
  1510.7500      0.0000    611.5846      6.7208     97.8811
  1511.0000      0.0000    650.8710      6.5729    108.6555
  1511.2500      0.0000    676.1203      6.4221    121.6649
  1511.5000      0.0000    676.1037      6.3267    135.3492
  1511.7500      0.0000    650.1005      6.2896    148.2249
  1512.0000      0.0000    605.3293      6.2784    159.3829
  1512.2500      0.0000    553.8380      6.2564    167.9235
  1512.5000      0.0000    508.1953      6.2013    172.4115
  1512.7500      0.0000    477.3591      6.1134    172.0591
  1513.0000      0.0000    465.0918      6.0131    168.3976
  1513.2500      0.0000    469.8144      5.9333    164.5317
  1513.5000      0.0000    484.9823      5.9067    162.6381
  1513.7500      0.0000    501.5386      5.9397    162.9982
  1514.0000      0.0000    512.1178      5.9965    165.0332
  1514.2500      0.0000    514.2462      6.0287    168.0085
  1514.5000      0.0000    510.8483      6.0214    170.7337
  1514.7500      0.0000    507.6967      5.9916    171.6947
  1515.0000      0.0000    508.6558      5.9465    169.9689
  1515.2500      0.0000    512.5433      5.8701    165.7799
  1515.5000      0.0000    515.2505      5.7497    160.0350
  1515.7500      0.0000    514.1362      5.5943    153.3975
  1516.0000      0.0000    509.4554      5.4311    146.0446
  1516.2500      0.0000    503.3792      5.2961    138.6656
  1516.5000      0.0000    499.4020      5.2204    133.1561
  1516.7500      0.0000    500.8601      5.2069    131.1647
  1517.0000      0.0000    508.0245      5.2275    131.9478
  1517.2500      0.0000    517.4566      5.2512    132.6568
  1517.5000      0.0000    525.0482      5.2668    130.9090
  1517.7500      0.0000    528.9812      5.2781    126.5355
  1518.0000      0.0000    529.7476      5.2926    121.0431
  1518.2500      0.0000    528.5657      5.3100    116.1055
  1518.5000      0.0000    526.2664      5.3125    112.6775
  1518.7500      0.0000    522.9147      5.2792    110.9243
  1519.0000      0.0000    517.5953      5.2216    110.4128
  1519.2500      0.0000    508.4436      5.1854    110.3325
  1519.5000      0.0000    493.6533      5.2009    109.9410
  1519.7500      0.0000    473.5171      5.2497    109.2333
  1520.0000      0.0000    451.7991      5.2925    109.1463
  1520.2500      0.0000    434.6132      5.3109    110.6658
  1520.5000      0.0000    427.6202      5.3065    113.4984
  1520.7500      0.0000    433.9026      5.2820    116.0113
  1521.0000      0.0000    453.4471      5.2458    116.6371
  1521.2500      0.0000    483.5448      5.2202    115.1289
  1521.5000      0.0000    519.7705      5.2200    112.5617
  1521.7500      0.0000    557.3728      5.2242    110.4234
  1522.0000      0.0000    592.3322      5.1920    109.4243
  1522.2500      0.0000    621.4044      5.1159    108.7348
  1522.5000      0.0000    641.3131      5.0421    106.4688
  1522.7500      0.0000    649.3128      5.0211    101.4251
  1523.0000      0.0000    646.6221      5.0495     94.5556
  1523.2500      0.0000    641.0854      5.0859     88.3734
  1523.5000      0.0000    643.2423      5.1167     84.5861
  1523.7500      0.0000    657.5287      5.1679     82.5064
  1524.0000      0.0000    678.3903      5.2508     80.0704
  1524.2500      0.0000    696.0980      5.3335     76.2884
  1524.5000      0.0000    704.9533      5.3824     72.4001
  1524.7500      0.0000    705.4371      5.4022     70.5911
  1525.0000      0.0000    700.9913      5.4073     71.5237
  1525.2500      0.0000    694.7130      5.3755     73.3311
  1525.5000      0.0000    688.4862      5.2682     73.3723
  1525.7500      0.0000    683.4286      5.0975     70.7066
  1526.0000      0.0000    680.1006      4.9409     66.3784
  1526.2500      0.0000    678.4188      4.8733     61.7097
  1526.5000      0.0000    677.8193      4.8990     57.1018
  1526.7500      0.0000    677.7175      4.9616     52.5627
  1527.0000      0.0000    677.7230      5.0129     48.7527
  1527.2500      0.0000    677.4905      5.0528     46.8760
  1527.5000      0.0000    676.4739      5.1014     47.4552
  1527.7500      0.0000    673.8224      5.1571     49.6163
  1528.0000      0.0000    668.5304      5.2035     51.9343
  1528.2500      0.0000    659.8116      5.2447     53.8679
  1528.5000      0.0000    647.5571      5.3045     55.9684
  1528.7500      0.0000    632.9575      5.3822     58.6460
  1529.0000      0.0000    619.0584      5.4286     61.1306
  1529.2500      0.0000    609.8729      5.3866     61.9462
  1529.5000      0.0000    607.1208      5.2583     60.3225
  1529.7500      0.0000    607.3802      5.1223     57.0073
  1530.0000      0.0000    603.9542      5.0696     53.7065
  1530.2500      0.0000    592.6664      5.1156     51.7192
  1530.5000      0.0000    575.5021      5.1790     50.8767
  1530.7500      0.0000    558.3732      5.1545     49.4343
  1531.0000      0.0000    546.0446      5.0085     45.0545
  1531.2500      0.0000    539.5073      4.8100     36.6053
  1531.5000      0.0000    537.1046      4.6774     25.4586
  1531.7500      0.0000    536.8049      4.6906     14.7234
  1532.0000      0.0000    537.3494      4.8425      6.9422
  1532.2500      0.0000    538.2011      5.0526      2.6333
  1532.5000      0.0000    539.1653      5.2189      0.7961
  1532.7500      0.0000    540.1490      5.2724      0.1905
  1533.0000      0.0000    541.1735      5.2126      0.0356
  1533.2500      0.0000    542.6695      5.1037      0.0048
