~Version Information
VERS.                      2.0: CWLS Log ASCII Standard - VERSION 2.0
WRAP.                       NO: One line per depth step
~Well Information Block
STRT.FT               647.0000: 
STOP.FT              1166.0000: 
STEP.FT                 0.1000: 
NULL.                -999.2500: 
COMP.          Pioneer Natural Resources: COMPANY
WELL.             Linda T 32-3: WELL
FLD.           Purgatoire River: FIELD
LOC.           1350' FNL & 2290' FEL: LOCATION
PROV.                 Colorado: PROVINCE
CNTY.               Las Animas: COUNTRY
SRVC.                Patterson: SERVICE COMPANY
DATE.          Sat Feb 05 08:06:50 2005: LOG DATE
UWI.           05 071 08215 00: UNIQUE WELL ID
~Curve Information Block
DEPT.FT            0 000 00 00: Depth
DCAL.in                       : CDL Caliper
RHOB.g/cc                     : CDL Bulk Density
RHOC.g/cc                     : CDL Density Correction
DPOR.pu                       : CDL Density Porosity
GR.GAPI                       : Gamma Ray
NPOR.pu                       : Neutron Porosity
~Parameter Information Block
~A  Depth       DCAL        RHOB        RHOC        DPOR         GR         NPOR    
# ...
   887.0000      8.0662      2.5517      0.0486      5.9590     87.5705     24.8641
   887.1000      8.0662      2.5693      0.0744      4.8936     84.9426     24.6502
   887.2000      8.0662      2.5876      0.0998      3.7798     79.4504     24.3353
   887.3000      8.0610      2.5862      0.1174      3.8647     78.5225     23.8659
   887.4000      8.0610      2.5663      0.0531      5.0712     83.7509     23.0226
   887.5000      8.0590      2.5485      0.0658      6.1531     86.5357     22.2577
   887.6000      8.0590      2.5464      0.0411      6.2806     80.3322     22.0239
   887.7000      8.0590      2.5537      0.0996      5.8365     71.6879     22.2306
   887.8000      8.0622      2.5547      0.0539      5.7763     66.8997     22.3739
   887.9000      8.0622      2.5506      0.0284      6.0229     64.3190     22.4037
   888.0000      8.0756      2.5529      0.0436      5.8858     63.5610     22.4049
   888.1000      8.0756      2.5632      0.0496      5.2597     67.1899     21.9915
   888.2000      8.0756      2.5735      0.0746      4.6352     74.5950     21.3714
   888.3000      8.0583      2.5766      0.0602      4.4479     81.1579     20.9549
   888.4000      8.0583      2.5745      0.0855      4.5771     84.4487     20.6216
   888.5000      8.0411      2.5714      0.0742      4.7634     85.9539     20.3864
   888.6000      8.0411      2.5682      0.0817      4.9593     87.0321     20.5721
   888.7000      8.0411      2.5592      0.0473      5.5033     88.3240     21.3437
   888.8000      8.0521      2.5453      0.0451      6.3440     90.5516     22.2574
   888.9000      8.0521      2.5392      0.0157      6.7174     93.1458     22.6581
   889.0000      8.0999      2.5412      0.0259      6.5917     93.5223     22.6561
   889.1000      8.0999      2.5359      0.0620      6.9180     92.1220     22.6534
   889.2000      8.0999      2.5182      0.0724      7.9883     91.4982     22.6100
   889.3000      8.1114      2.5044      0.0390      8.8217     89.3506     22.7955
   889.4000      8.1114      2.5069      0.0932      8.6741     86.1195     23.5495
   889.5000      8.0774      2.5188      0.0705      7.9493     85.4324     24.2613
   889.6000      8.0774      2.5280      0.0569      7.3924     85.0101     24.2632
   889.7000      8.0774      2.5287      0.0456      7.3524     82.5446     23.8888
   889.8000      8.0615      2.5237      0.0400      7.6558     79.7538     23.8026
   889.9000      8.0615      2.5183      0.0591      7.9799     78.6096     24.1075
   890.0000      8.0675      2.5155      0.0473      8.1494     80.8856     24.4144
   890.1000      8.0675      2.5201      0.0420      7.8748     86.7120     24.5700
   890.2000      8.0675      2.5321      0.0668      7.1468     92.2795     24.5992
   890.3000      8.0582      2.5399      0.1012      6.6711     93.3992     24.3134
   890.4000      8.0582      2.5331      0.0770      7.0832     90.5798     23.8462
   890.5000      8.0495      2.5179      0.0466      8.0057     87.7732     23.5617
   890.6000      8.0495      2.5034      0.0845      8.8853     87.7704     23.5926
   890.7000      8.0495      2.4911      0.0497      9.6329     88.8347     23.8781
   890.8000      8.0607      2.4887      0.0616      9.7761     87.2391     24.0491
   890.9000      8.0607      2.5042      0.0421      8.8373     82.9454     23.8271
   891.0000      8.0524      2.5329      0.0893      7.0973     77.7629     23.3014
   891.1000      8.0524      2.5636      0.1342      5.2384     72.3778     22.6731
   891.2000      8.0524      2.5911      0.1430      3.5692     69.0736     22.1468
   891.3000      8.0334      2.6142      0.1522      2.1697     70.5239     21.7839
   891.4000      8.0334      2.6255      0.1817      1.4824     76.0259     21.7540
   891.5000      7.9998      2.6194      0.1661      1.8574     81.6079     22.0588
   891.6000      7.9998      2.6012      0.1229      2.9564     83.9274     22.3016
   891.7000      7.9998      2.5840      0.1121      4.0025     84.1319     22.3762
   891.8000      7.9840      2.5741      0.1040      4.6000     85.3705     22.4027
   891.9000      7.9840      2.5629      0.0988      5.2794     86.6894     22.2419
   892.0000      8.0081      2.5423      0.0490      6.5291     84.4372     21.8405
   892.1000      8.0081      2.5240      0.0376      7.6387     80.3872     21.4173
   892.2000      8.0081      2.5227      0.0299      7.7178     76.9395     21.1894
   892.3000      8.0546      2.5339      0.0627      7.0379     71.2370     21.1354
   892.4000      8.0546      2.5408      0.1030      6.6188     64.4330     21.1747
   892.5000      8.0641      2.5401      0.0546      6.6633     61.7090     21.3442
   892.6000      8.0641      2.5446      0.0473      6.3867     62.4659     21.5531
   892.7000      8.0641      2.5624      0.0579      5.3114     63.8638     21.4457
   892.8000      8.0796      2.5886      0.0534      3.7191     65.8000     21.3364
   892.9000      8.0796      2.6058      0.0971      2.6770     69.5890     21.8717
   893.0000      8.0849      2.5927      0.0815      3.4735     76.3704     22.5973
   893.1000      8.0849      2.5469      0.0638      6.2467     84.5475     22.5631
   893.2000      8.0849      2.4916      0.0090      9.6012     88.9418     22.0934
   893.3000      8.0499      2.4516      0.0245     12.0250     88.8509     22.2805
   893.4000      8.0499      2.4394     -0.0173     12.7642     89.4680     22.9951
   893.5000      8.0312      2.4540      0.0298     11.8815     90.7804     23.3320
   893.6000      8.0312      2.4767      0.0624     10.5045     86.7808     23.3141
   893.7000      8.0312      2.4974      0.0583      9.2486     77.9927     23.5755
   893.8000      8.0661      2.5172      0.1100      8.0482     72.8559     24.1663
   893.9000      8.0661      2.5205      0.1713      7.8513     76.0695     24.4859
   894.0000      8.0199      2.5006      0.1124      9.0526     82.9671     23.9399
   894.1000      8.0199      2.4893      0.0875      9.7379     84.9264     23.1335
   894.2000      8.0199      2.5163      0.0936      8.1045     80.5732     22.9166
   894.3000      7.9693      2.5701      0.1495      4.8434     75.4741     23.0596
   894.4000      7.9693      2.6160      0.1924      2.0629     72.1587     23.0327
   894.5000      7.9606      2.6381      0.1569      0.7231     69.9365     22.5395
   894.6000      7.9606      2.6452      0.2011      0.2922     67.0764     21.5592
   894.7000      7.9606      2.6471      0.1549      0.1778     62.1723     20.9672
   894.8000      7.9698      2.6463      0.1742      0.2238     55.8879     21.1466
   894.9000      7.9698      2.6383      0.1202      0.7073     51.2092     21.1286
   895.0000      8.0337      2.6221      0.1297      1.6933     51.1981     20.6969
   895.1000      8.0337      2.6007      0.0847      2.9873     52.8756     20.5136
   895.2000      8.0337      2.5805      0.0564      4.2124     51.6995     20.4924
   895.3000      8.0628      2.5736      0.0393      4.6319     50.9844     20.3325
   895.4000      8.0628      2.5829      0.0793      4.0687     56.1924     20.3532
   895.5000      8.0680      2.5965      0.0901      3.2423     66.0204     20.5804
   895.6000      8.0680      2.6000      0.1235      3.0312     75.7091     20.7683
   895.7000      8.0680      2.5876      0.0945      3.7800     81.5345     20.9459
   895.8000      8.0335      2.5706      0.0800      4.8144     80.6282     21.1748
   895.9000      8.0335      2.5612      0.1090      5.3805     73.6248     21.1313
   896.0000      8.0395      2.5576      0.1264      5.6027     67.1063     20.5235
   896.1000      8.0395      2.5570      0.0587      5.6352     67.5689     19.9443
   896.2000      8.0395      2.5648      0.0678      5.1661     72.3380     19.6701
   896.3000      8.0151      2.5831      0.0697      4.0548     72.8571     19.1710
   896.4000      8.0151      2.6072      0.0887      2.5946     65.8052     18.6840
   896.5000      8.0522      2.6214      0.1256      1.7308     56.6889     18.7385
