~Version Information
VERS.                      2.0: CWLS Log ASCII Standard - VERSION 2.0
WRAP.                       NO: One line per depth step
~Well Information Block
STRT.FT               846.5000: 
STOP.FT              2610.0000: 
STEP.FT                 0.2500: 
NULL.                -999.2500: 
COMP.          Petrogulf Corporation: COMPANY
WELL.            Lavedure 7-44: WELL
FLD.           Purgatoire River: FIELD
LOC.           969' FSL & 501' FEL: LOCATION
PROV.                 Colorado: PROVINCE
CNTY.               Las Animas: COUNTRY
SRVC.                Patterson: SERVICE COMPANY
DATE.          Sun Dec 07 15:26:03 2003: LOG DATE
UWI.                          : UNIQUE WELL ID
~Curve Information Block
DEPT.FT            0 000 00 00: Depth
SP.mV                         : DIL Spontaneous Potential
RILD.Ohm-m                    : DIL Deep Resistivity
RILM.Ohm-m                    : DIL Medium Resistivity
RLL3.Ohm-m                    : DIL Shallow Resistivity
GR.GAPI                       : Gamma Ray
~Parameter Information Block
~A  Depth        SP         RILD        RILM        RLL3         GR     
# ...
   874.5000   2000.0000     11.2295 100000.0000   2000.0000     88.3608
   874.7500   2000.0000     11.1824 100000.0000   2000.0000     87.8072
   875.0000   2000.0000     11.1227 100000.0000   2000.0000     87.3443
   875.2500   2000.0000     11.1303 100000.0000   2000.0000     87.5689
   875.5000   2000.0000     11.3254 100000.0000   2000.0000     89.0609
   875.7500   2000.0000     11.8363 100000.0000   2000.0000     90.7832
   876.0000   2000.0000     12.7590 100000.0000   2000.0000     93.9720
   876.2500   2000.0000     14.0984 100000.0000   2000.0000     96.0322
   876.5000   2000.0000     15.6867 100000.0000   2000.0000     98.2213
   876.7500   2000.0000     17.1502 100000.0000   2000.0000     98.8518
   877.0000   2000.0000     18.0688 100000.0000   2000.0000     98.6667
   877.2500   2000.0000     18.2709 100000.0000   2000.0000     97.9485
   877.5000   2000.0000     17.9267 100000.0000   2000.0000     96.0850
   877.7500   2000.0000     17.3672 100000.0000   2000.0000     94.4074
   878.0000   2000.0000     16.8994 100000.0000   2000.0000     91.8745
   878.2500   2000.0000     16.7403 100000.0000   2000.0000     90.7634
   878.5000   2000.0000     16.9819 100000.0000   2000.0000     90.5635
   878.7500   2000.0000     17.5023 100000.0000   2000.0000     91.2732
   879.0000   2000.0000     17.8413 100000.0000   2000.0000     92.8126
   879.2500   2000.0000     17.3168 100000.0000   2000.0000     93.6273
   879.5000   2000.0000     15.6682 100000.0000   2000.0000     94.0287
   879.7500   2000.0000     13.4520 100000.0000   2000.0000     93.9509
   880.0000   2000.0000     11.4204 100000.0000   2000.0000     94.1893
   880.2500   2000.0000      9.9271 100000.0000   2000.0000     94.8254
   880.5000   2000.0000      8.9847 100000.0000   2000.0000     95.9609
   880.7500   2000.0000      8.4934 100000.0000   2000.0000     96.3128
   881.0000   2000.0000      8.3656 100000.0000   2000.0000     95.6992
   881.2500   2000.0000      8.5688 100000.0000   2000.0000     94.5829
   881.5000   2000.0000      9.1081 100000.0000   2000.0000     92.4376
   881.7500   2000.0000      9.9105 100000.0000   2000.0000     91.0787
   882.0000   2000.0000     10.5584 100000.0000   2000.0000     89.4808
   882.2500   2000.0000     10.2119 100000.0000   2000.0000     88.7232
   882.5000   2000.0000      8.5906 100000.0000   2000.0000     88.0193
   882.7500   2000.0000      6.6122 100000.0000   2000.0000     87.8667
   883.0000   2000.0000      5.0946 100000.0000   2000.0000     88.5027
   883.2500   2000.0000      4.1677 100000.0000   2000.0000     90.0671
   883.5000   2000.0000      3.6915 100000.0000   2000.0000     95.1647
   883.7500   2000.0000      3.5231 100000.0000   2000.0000    100.4709
   884.0000   2000.0000      3.5599 100000.0000   2000.0000    110.1597
   884.2500   2000.0000      3.7166 100000.0000   2000.0000    116.8056
   884.5000   2000.0000      3.8941 100000.0000   2000.0000    125.7193
   884.7500   2000.0000      3.9659 100000.0000   2000.0000    130.3785
   885.0000   2000.0000      3.8367 100000.0000   2000.0000    134.6400
   885.2500   2000.0000      3.5490 100000.0000   2000.0000    135.5045
   885.5000   2000.0000      3.2766 100000.0000   2000.0000    134.6055
   885.7500   2000.0000      3.2093 100000.0000   2000.0000    133.4949
   886.0000   2000.0000      3.5440     28.4761   2000.0000    132.6414
   886.2500   2000.0000      4.7092     13.2330   2000.0000    132.9946
   886.5000   2000.0000      8.5237     10.1551   2000.0000    134.3564
   886.7500   2000.0000     43.4816     10.0164   2000.0000    135.0713
   887.0000   2000.0000 100000.0000     11.9849   2000.0000    134.6597
   887.2500   2000.0000 100000.0000     17.0046   2000.0000    133.0561
   887.5000   2000.0000 100000.0000     28.1155   2000.0000    128.9242
   887.7500   2000.0000 100000.0000     53.3707   2000.0000    125.6691
   888.0000   2000.0000 100000.0000    125.2020   2000.0000    121.5313
   888.2500   2000.0000 100000.0000   7185.3447   2000.0000    119.8773
   888.5000   2000.0000 100000.0000 100000.0000   2000.0000    118.9816
   888.7500   2000.0000 100000.0000 100000.0000   2000.0000    118.8347
   889.0000   2000.0000 100000.0000 100000.0000   2000.0000    118.2848
   889.2500   2000.0000 100000.0000 100000.0000   2000.0000    117.7706
   889.5000   2000.0000 100000.0000 100000.0000   2000.0000    118.2367
   889.7500   2000.0000    225.5661 100000.0000   2000.0000    120.3012
   890.0000   2000.0000     94.6589 100000.0000   2000.0000    126.1047
   890.2500   2000.0000     75.3237    317.3117   2000.0000    130.7641
   890.5000   2000.0000     68.6524     84.6429   2000.0000    136.8237
   890.7500   2000.0000     64.5298     53.8678   2000.0000    139.6838
   891.0000   2000.0000     60.6232     41.9245   2000.0000    142.6313
   891.2500   2000.0000     56.3452     35.3792   2000.0000    144.1784
   891.5000   2000.0000     51.7166     31.1883   2000.0000    146.3277
   891.7500   2000.0000     47.1565     28.4506   2000.0000    147.7642
   892.0000   2000.0000     43.2528     26.8192   2000.0000    149.8648
   892.2500   2000.0000     40.3657     26.0832   2000.0000    150.7900
   892.5000   2000.0000     38.5152     26.0659   2000.0000    150.1821
   892.7500   2000.0000     37.4971     26.6169   2000.0000    147.9792
   893.0000   2000.0000     37.0496     27.6108   2000.0000    142.3181
   893.2500   2000.0000     36.9834     28.9277   2000.0000    137.7412
   893.5000   2000.0000     37.2387     30.4065   2000.0000    131.6145
   893.7500   2000.0000     37.8465     31.8159   2000.0000    129.2175
   894.0000   2000.0000     38.8247     32.9102   2000.0000    128.9213
   894.2500   2000.0000     40.0857     33.5650   2000.0000    130.1353
   894.5000   2000.0000     41.4408     33.8473   2000.0000    131.6934
   894.7500   2000.0000     42.6856     33.9222   2000.0000    131.6982
   895.0000   2000.0000     43.6705     33.8899   2000.0000    130.2309
   895.2500   2000.0000     44.2722     33.7235   2000.0000    128.7103
   895.5000   2000.0000     44.3844     33.3490   2000.0000    126.2566
   895.7500   2000.0000     44.0492     32.7844   2000.0000    124.8145
   896.0000   2000.0000     43.6016     32.1978   2000.0000    123.2242
   896.2500   2000.0000     43.6137     31.8381   2000.0000    122.3900
   896.5000   2000.0000     44.6732     31.9097   2000.0000    121.0513
   896.7500   2000.0000     47.1769     32.4891   2000.0000    120.2012
   897.0000   2000.0000     51.1379     33.5104   2000.0000    119.7609
   897.2500   2000.0000     55.9212     34.8051   2000.0000    120.3874
   897.5000   2000.0000     60.1325     36.1817   2000.0000    122.6064
   897.7500   2000.0000     62.2209     37.5048   2000.0000    124.3794
   898.0000   2000.0000     61.6536     38.7303   2000.0000    126.0034
   898.2500   2000.0000     59.2224     39.8968   2000.0000    125.7604
   898.5000   2000.0000     56.1620     41.0770   2000.0000    123.5636
   898.7500   2000.0000     53.3528     42.2924   2000.0000    121.4740
   899.0000   2000.0000     51.1774     43.4444   2000.0000    118.1258
   899.2500   2000.0000     49.6826     44.3739   2000.0000    115.7481
   899.5000   2000.0000     48.7667     45.0713   2000.0000    111.9049
   899.7500   2000.0000     48.3276     45.8304   2000.0000    109.5502
   900.0000   2000.0000     48.3423     47.1668   2000.0000    107.6024
   900.2500   2000.0000     48.8292     49.5916   2000.0000    107.8240
   900.5000   2000.0000     49.7374     53.4096   2000.0000    109.8162
   900.7500   2000.0000     50.8667     58.5286   2000.0000    111.2331
   901.0000   2000.0000     51.9173     64.1918   2000.0000    111.7382
   901.2500   2000.0000     52.6443     68.8285   2000.0000    110.4314
   901.5000   2000.0000     52.9760     70.5843   2000.0000    106.2321
   901.7500   2000.0000     52.9784     68.6717   2000.0000    102.7747
   902.0000   2000.0000     52.7333     64.0889   2000.0000     98.5884
   902.2500   2000.0000     52.2845     58.6565   2000.0000     97.3346
