~Version Information
 VERS.                                  2.0 : CWLS LAS VERSION
 WRAP.                                   NO : WRAPING MODE
 SWARE .                 MController 2.5.0J : SOFTWARE VERSION
~Well Information
 WELL.                      Oink Oink 14-36 : WELL
 COMP.    Pioneer Natural Resources USA Ink : COMPANY
 FLD.                      Purgatoire River : FIELD
 LOC.                SW/SW Sec 36 T32S R37W : LOCATION
 DATE.                         6/07-08/2005 : DATE(S) LOGGED
 SRVC.       Blanco Geological Services LLC : SERVICE COMPANY
 STAT.                                   CO : STATE
 CNTY.                           Las Animas : COUNTY
 CTRY.                                  USA : COUNTRY
 API.                       05-071-08394-00 : API NUMBER
 STRT.FT                             514.00 : START DEPTH
 STOP.FT                            2457.00 : STOP DEPTH
 STEP.FT                               1.00 : DEPTH INCREMENT
 NULL.                                -9999 : NULL VALUE
~Curve information
 DEPTH.FT                                   :
 ROP.MIN/FT                                 :
 GAS.UNITS                                  :
~ASCII Log data
# ...
       914.0         0.17        901.8 
       915.0         0.17        894.6 
       916.0         0.13        874.6 
       917.0         0.23        870.4 
       918.0         0.23        885.7 
       919.0         0.20        901.8 
       920.0         0.23        915.2 
       921.0         0.17        912.9 
       922.0         0.15        915.5 
       923.0         0.10        917.2 
       924.0         0.23        917.5 
       925.0         0.10        915.2 
       926.0         1.73        926.3 
       927.0         0.37       1462.5 
       928.0         0.30       2097.8 
       929.0         0.30       2402.4 
       930.0         0.28       2411.9 
       931.0         0.27       2284.3 
       932.0         0.30       1967.3 
       933.0         0.23       1650.3 
       934.0         0.20       1439.9 
       935.0         0.17       1289.1 
       936.0         0.13       1187.7 
       937.0         0.13       1141.6 
       938.0         0.13       1116.7 
       939.0         0.20       1080.7 
       940.0         0.20       1036.2 
       941.0         0.20       1003.2 
       942.0         0.20        971.1 
       943.0         0.23        938.1 
       944.0         0.27        909.0 
       945.0         0.20        882.5 
       946.0         0.18        864.8 
       947.0         0.20        873.0 
       948.0         0.17        871.7 
       949.0         0.17        866.1 
       950.0         0.17        857.3 
       951.0         0.17        851.4 
       952.0         0.17        852.1 
       953.0         0.20        849.8 
       954.0         0.13        839.6 
       955.0         0.20        854.3 
       956.0         1.43        851.4 
       957.0         0.65        934.2 
       958.0         0.27       1200.8 
       959.0         0.23       1365.3 
       960.0         0.20       1484.1 
       961.0         0.17       1558.4 
       962.0         0.17       1600.6 
       963.0         0.20       1603.8 
       964.0         0.20       1574.7 
       965.0         0.13       1512.2 
       966.0         0.10       1477.9 
       967.0         0.10       1450.4 
       968.0         0.10       1431.4 
       969.0         0.13       1364.0 
       970.0         0.13       1266.9 
       971.0         0.17       1201.8 
       972.0         0.17       1137.3 
       973.0         0.17       1066.0 
       974.0         0.17       1003.8 
       975.0         0.18        932.2 
       976.0         0.13        919.1 
       977.0         0.20        941.0 
       978.0         0.20        953.8 
       979.0         0.20        959.7 
       980.0         0.17        958.4 
       981.0         0.23        955.1 
       982.0         0.20        940.4 
       983.0         0.20        931.9 
       984.0         0.23        921.7 
       985.0         0.17        914.9 
       986.0         1.45        928.9 
       987.0         0.20        678.3 
       988.0         0.40        838.0 
       989.0         0.33       1164.8 
       990.0         0.33       1425.5 
       991.0         0.27       1554.8 
       992.0         0.30       1639.8 
       993.0         3.52       1672.5 
       994.0         0.40        668.8 
       995.0         0.37        681.9 
       996.0         0.27        683.9 
       997.0         0.32        681.3 
       998.0         0.33        670.2 
       999.0         0.23        660.3 
      1000.0         0.30        659.0 
      1001.0         0.27        659.4 
      1002.0         0.20        657.1 
      1003.0         0.17        647.9 
      1004.0         0.27        648.9 
      1005.0         0.23        650.9 
      1006.0         0.27        643.7 
      1007.0         0.27        641.4 
      1008.0         0.27        629.6 
      1009.0         0.23        627.3 
      1010.0         0.32        629.3 
      1011.0         0.30        640.1 
      1012.0         0.27        657.7 
      1013.0         0.20        635.2 
      1014.0         0.20        621.4 
      1015.0         0.20        701.2 
      1016.0         2.52       1417.0 
      1017.0         0.23       1888.5 
      1018.0         0.27       2435.1 
      1019.0         0.23       2693.6 
      1020.0         0.23       2693.9 
      1021.0         0.30       2488.1 
      1022.0         0.20       1944.1 
      1023.0         0.17       1666.0 
      1024.0         0.20       1486.1 
      1025.0         0.17       1317.9 
      1026.0         0.10       1216.2 
      1027.0         0.10       1186.7 
      1028.0         0.17       1161.5 
      1029.0         0.17       1145.2 
      1030.0         0.13       1131.4 
      1031.0         0.25       1109.2 
      1032.0         0.20       1062.1 
      1033.0         0.20       1023.5 
      1034.0         0.30        990.1 
      1035.0         0.20        950.5 
      1036.0         0.30        918.5 
      1037.0         0.23        891.3 
      1038.0         0.23        876.3 
      1039.0         0.27        872.7 
      1040.0         0.23        872.3 
      1041.0         0.27        868.1 
      1042.0         0.23        859.6 
      1043.0         0.23        853.4 
      1044.0         0.25        843.5 
      1045.0         0.33        880.2 
      1046.0         1.63       1299.6 
      1047.0         0.40       2196.0 
      1048.0         0.27       2723.3 
      1049.0         0.27       2889.9 
      1050.0         0.23       2831.3 
      1051.0         0.17       2447.9 
      1052.0         0.22       2120.7 
      1053.0         0.27       1786.4 
      1054.0         0.27       1436.7 
      1055.0         0.30       1213.9 
      1056.0         0.27       1141.9 
      1057.0         0.30       1143.2 
      1058.0         0.23       1131.1 
      1059.0         0.17       1099.4 
      1060.0         0.17       1049.6 
      1061.0         0.17       1012.7 
      1062.0         0.13        966.2 
      1063.0         0.20        927.3 
      1064.0         0.17        873.0 
      1065.0         0.10        840.3 
      1066.0         0.13        823.3 
      1067.0         0.10        813.4 
      1068.0         0.13        813.4 
      1069.0         0.08        803.3 
      1070.0         0.13        777.5 
      1071.0         0.20        756.9 
      1072.0         0.23        704.5 
      1073.0         0.20        689.5 
      1074.0         0.20        763.4 
      1075.0         0.20        846.5 
      1076.0         1.90       1512.2 
      1077.0         0.38       2324.2 
      1078.0         0.27       2732.8 
      1079.0         0.37       2861.1 
      1080.0         0.37       2615.1 
      1081.0         0.43       1996.4 
      1082.0         0.37       1297.3 
      1083.0         0.57       1112.5 
      1084.0         0.23       1117.4 
      1085.0         0.20       1109.5 
      1086.0         0.20       1072.2 
      1087.0         0.13       1049.0 
      1088.0         0.15       1046.1 
      1089.0         0.10       1030.0 
      1090.0         0.13       1013.0 
      1091.0         0.10        961.6 
      1092.0         0.27        908.3 
      1093.0         0.33        804.6 
      1094.0         0.33        790.5 
      1095.0         0.40        941.7 
      1096.0         0.37       1006.1 
      1097.0         0.27       1009.1 
      1098.0         0.27        997.3 
      1099.0         0.33        965.6 
      1100.0         0.23        924.7 
      1101.0         0.28        902.4 
      1102.0         0.27        875.3 
      1103.0         0.23        856.3 
      1104.0         0.27        827.8 
      1105.0         0.23        796.4 
      1106.0         2.72       2650.7 
      1107.0         0.30       3507.2 
      1108.0         0.17       3786.2 
      1109.0         0.10       3908.3 
      1110.0         0.07       3930.5 
      1111.0         0.43       3924.0 
      1112.0         0.30       3020.7 
      1113.0         0.27       2201.5 
