~Version Information
VERS.                      2.0: CWLS Log ASCII Standard - VERSION 2.0
WRAP.                       NO: One line per depth step
~Well Information Block
STRT.FT               650.0000: 
STOP.FT              2085.0000: 
STEP.FT                 0.1000: 
NULL.                -999.2500: 
COMP.          Pioneer Natural Resources: COMPANY
WELL.           Galloway 32-13: WELL
FLD.           Purgatoire River: FIELD
LOC.           1809' FNL & 2004' FEL: LOCATION
PROV.                 Colorado: PROVINCE
CNTY.               Las Animas: COUNTRY
SRVC.                Patterson: SERVICE COMPANY
DATE.          Sat Jul 09 02:17:51 2005: LOG DATE
UWI.           05 071 08423 00: UNIQUE WELL ID
~Curve Information Block
DEPT.FT            0 000 00 00: Depth
DCAL.in                       : CDL Caliper
RHOB.g/cc                     : CDL Bulk Density
RHOC.g/cc                     : CDL Density Correction
DPOR.pu                       : CDL Density Porosity
GR.GAPI                       : Gamma Ray
NPOR.pu                       : Neutron Porosity
~Parameter Information Block
~A  Depth       DCAL        RHOB        RHOC        DPOR         GR         NPOR    
# ...
  1696.4000      7.9867      2.4715      0.0396     10.8194    105.7731     26.7236
  1696.5000      7.9792      2.4906      0.0521      9.6581    106.7273     26.2289
  1696.6000      7.9792      2.4981      0.0419      9.2073    107.1107     26.3245
  1696.7000      7.9792      2.4907      0.0399      9.6516    105.9309     26.0292
  1696.8000      7.9775      2.4786      0.0063     10.3888    105.9653     25.0017
  1696.9000      7.9775      2.4717      0.0248     10.8044    106.2772     24.1475
  1697.0000      7.9718      2.4679     -0.0041     11.0349    102.6914     23.9790
  1697.1000      7.9718      2.4631      0.0291     11.3266     94.0542     24.0364
  1697.2000      7.9718      2.4583     -0.0070     11.6210     84.7160     23.8538
  1697.3000      7.9623      2.4589      0.0304     11.5802     80.8684     23.4997
  1697.4000      7.9623      2.4667      0.0408     11.1111     84.8833     23.1749
  1697.5000      7.9557      2.4715      0.0623     10.8160     94.3399     23.1512
  1697.6000      7.9557      2.4666     -0.0041     11.1145    105.6914     23.6866
  1697.7000      7.9557      2.4631      0.0498     11.3300    115.3459     24.5370
  1697.8000      7.9554      2.4644      0.0547     11.2474    117.8493     25.3472
  1697.9000      7.9554      2.4565      0.0515     11.7292    110.5759     25.9554
  1698.0000      7.9452      2.4338     -0.0013     13.1037    101.8017     25.8055
  1698.1000      7.9452      2.4118     -0.0363     14.4369    100.8544     25.1173
  1698.2000      7.9452      2.4012      0.0203     15.0806    108.3028     25.4127
  1698.3000      7.9259      2.3947      0.0165     15.4733    118.5821     26.4741
  1698.4000      7.9259      2.3867      0.0369     15.9571    126.9955     26.5899
  1698.5000      7.9170      2.3827      0.0256     16.2004    132.9854     26.0471
  1698.6000      7.9170      2.3973      0.0400     15.3131    135.1199     26.4180
  1698.7000      7.9170      2.4309      0.0853     13.2816    132.8990     27.6059
  1698.8000      7.9245      2.4643      0.1044     11.2551    128.9402     27.9406
  1698.9000      7.9245      2.4883      0.1202      9.8027    125.7017     26.8058
  1699.0000      7.9381      2.5006      0.1075      9.0557    122.2482     26.1663
  1699.1000      7.9381      2.4932      0.1241      9.5019    118.9679     27.2440
  1699.2000      7.9381      2.4711      0.0782     10.8397    119.9301     27.9142
  1699.3000      7.9491      2.4569      0.0389     11.7047    125.1121     27.0622
  1699.4000      7.9491      2.4549      0.0447     11.8232    127.1591     26.2409
  1699.5000      7.9570      2.4528      0.0300     11.9536    120.4126     26.0332
  1699.6000      7.9570      2.4511      0.0607     12.0517    107.2614     25.8502
  1699.7000      7.9570      2.4521      0.0573     11.9965     96.8596     25.6663
  1699.8000      7.9622      2.4506      0.0402     12.0859     96.8443     25.8168
  1699.9000      7.9622      2.4500      0.0382     12.1223    106.4700     25.7980
  1700.0000      7.9614      2.4660      0.0345     11.1537    118.5434     25.1170
  1700.1000      7.9614      2.5033      0.0430      8.8891    124.2229     24.3876
  1700.2000      7.9614      2.5328      0.1317      7.1048    120.9417     24.7202
  1700.3000      7.9529      2.5284      0.0738      7.3726    115.0521     26.2918
  1700.4000      7.9529      2.5002      0.0667      9.0807    109.5986     27.5765
  1700.5000      7.9455      2.4643      0.0510     11.2560    107.4721     27.2189
  1700.6000      7.9455      2.4326      0.0275     13.1736    110.0015     26.0790
  1700.7000      7.9455      2.4127      0.0506     14.3811    111.1499     25.6796
  1700.8000      7.9436      2.3969      0.0300     15.3379    109.3453     26.1374
  1700.9000      7.9436      2.3789     -0.0131     16.4333    110.1820     26.8949
  1701.0000      7.9448      2.3547      0.0266     17.8944    116.9641     27.3699
  1701.1000      7.9448      2.3134      0.0043     20.3975    124.9165     27.1306
  1701.2000      7.9448      2.2535      0.0536     24.0278    126.7938     26.8487
  1701.3000      7.9478      2.1909      0.0040     27.8271    121.8849     27.2922
  1701.4000      7.9478      2.1499      0.0014     30.3099    115.3936     28.1494
  1701.5000      7.9500      2.1446      0.0026     30.6279    111.8206     28.7881
  1701.6000      7.9500      2.1716      0.0084     28.9959    110.4137     29.0886
  1701.7000      7.9500      2.2163      0.0845     26.2828    106.4591     29.0690
  1701.8000      7.9507      2.2639      0.0793     23.4003    100.4941     28.7777
  1701.9000      7.9507      2.3132      0.1220     20.4106     98.4748     28.7674
  1702.0000      7.9515      2.3674      0.1235     17.1254    102.8689     28.5861
  1702.1000      7.9515      2.4128      0.1841     14.3741    109.8482     27.4450
  1702.2000      7.9515      2.4314      0.1080     13.2481    116.7026     26.2366
  1702.3000      7.9519      2.4380      0.0267     12.8506    123.1746     25.6782
  1702.4000      7.9519      2.4608      0.0931     11.4693    124.5572     25.6003
  1702.5000      7.9521      2.4906      0.0607      9.6614    117.0949     25.6294
  1702.6000      7.9521      2.4939      0.0819      9.4592    105.3384     24.8551
  1702.7000      7.9521      2.4671      0.0247     11.0843     97.7836     23.5027
  1702.8000      7.9583      2.4423      0.0135     12.5883     98.0770     23.3353
  1702.9000      7.9583      2.4367     -0.0099     12.9280    104.3259     24.5841
  1703.0000      7.9719      2.4441      0.0282     12.4785    113.2165     25.5701
  1703.1000      7.9719      2.4623      0.0322     11.3759    119.7353     25.5197
  1703.2000      7.9719      2.4842      0.0519     10.0498    121.0438     25.1347
  1703.3000      7.9825      2.4843      0.1055     10.0434    119.1934     25.0481
  1703.4000      7.9825      2.4547     -0.0203     11.8378    118.4847     25.0475
  1703.5000      7.9845      2.4314     -0.0313     13.2507    120.4093     24.7049
  1703.6000      7.9845      2.4392      0.0212     12.7748    124.3464     24.3971
  1703.7000      7.9845      2.4551      0.0997     11.8136    126.8102     24.5220
  1703.8000      7.9736      2.4552      0.0494     11.8074    123.1145     24.7997
  1703.9000      7.9736      2.4521      0.0053     11.9949    115.0627     24.6085
  1704.0000      7.9519      2.4648      0.0146     11.2257    108.3514     23.8929
  1704.1000      7.9519      2.4885      0.0669      9.7893    103.7621     23.2255
  1704.2000      7.9519      2.5141      0.0426      8.2378    101.5935     22.5003
  1704.3000      7.9349      2.5401      0.0640      6.6630    102.1489     21.9563
  1704.4000      7.9349      2.5489      0.1072      6.1282    103.1820     22.5226
  1704.5000      7.9295      2.5288      0.0230      7.3429    104.3916     23.9436
  1704.6000      7.9295      2.5098      0.0010      8.4970    107.3909     24.9225
  1704.7000      7.9295      2.5174      0.0755      8.0342    111.4350     25.0771
  1704.8000      7.9353      2.5353      0.0508      6.9514    112.2061     24.8992
  1704.9000      7.9353      2.5441      0.0518      6.4193    107.9755     24.7423
  1705.0000      7.9462      2.5427      0.0695      6.5001    105.4534     24.4751
  1705.1000      7.9462      2.5324      0.0765      7.1291    110.3821     24.1190
  1705.2000      7.9462      2.5113      0.0296      8.4067    117.3881     24.3735
  1705.3000      7.9548      2.4834      0.0113     10.0949    118.6197     24.9588
  1705.4000      7.9548      2.4608      0.0080     11.4691    115.7545     24.8150
  1705.5000      7.9582      2.4502      0.0075     12.1075    112.8159     23.9073
  1705.6000      7.9582      2.4503     -0.0249     12.1007    109.0747     22.8416
  1705.7000      7.9582      2.4533     -0.0101     11.9212    106.3835     22.2447
  1705.8000      7.9560      2.4535     -0.0096     11.9093    108.1236     22.3041
  1705.9000      7.9560      2.4641     -0.0717     11.2668    112.7899     22.7635
