~Version Information
VERS.                      2.0: CWLS Log ASCII Standard - VERSION 2.0
WRAP.                       NO: One line per depth step
~Well Information Block
STRT.FT               -16.0000: 
STOP.FT              2454.2500: 
STEP.FT                 0.2500: 
NULL.                -999.2500: 
COMP.                         : COMPANY
WELL.                         : WELL
FLD.                          : FIELD
LOC.                          : LOCATION
CNTY.                         : COUNTY
SRVC.                         : SERVICE COMPANY
DATE.          Tue Aug 31 08:09:44 2004: LOG DATE
UWI.                          : UNIQUE WELL ID
STAT.                         : STATE
~Curve Information Block
DEPT.FT            0 000 00 00: Depth
GR.GAPI                       : Gamma Ray
CCL.                          : Casing Collar Locator
TT3.usec                      : CBL 3' Travel Time
AMP3.mV                       : CBL 3' Amplitude
~Parameter Information Block
~A  Depth        GR         CCL         TT3         AMP3    
# ...
   319.0000     68.1581      0.0000    313.0512     84.0730
   319.2500     69.5656      0.0000    313.1464     83.9422
   319.5000     69.6208      0.0000    313.3224     83.8708
   319.7500     68.0827      0.0000    313.4789     84.0034
   320.0000     65.1540      0.0000    313.4789     84.1652
   320.2500     61.2749      0.0000    313.3223     84.2092
   320.5000     57.1023      0.0000    313.1453     84.2672
   320.7500     53.1677      0.0000    313.0436     84.4820
   321.0000     49.4792      0.0000    313.0086     84.7073
   321.2500     45.7399      0.0000    313.0012     84.7532
   321.5000     41.9413      0.0000    313.0011     84.6817
   321.7500     38.4317      0.0000    313.0076     84.6042
   322.0000     35.4212      0.0000    313.0360     84.5374
   322.2500     32.7455      0.0000    313.1093     84.5203
   322.5000     30.1882      0.0000    313.2130     84.6086
   322.7500     27.8005      0.0000    313.2660     84.8089
   323.0000     25.8073      0.0000    313.2130     85.0987
   323.2500     24.3757      0.0000    313.1093     85.4149
   323.5000     23.6407      0.0000    313.0360     85.6051
   323.7500     23.7898      0.0000    313.0076     85.5266
   324.0000     24.9598      0.0000    313.0010     85.2828
   324.2500     27.0968      0.0000    313.0001     85.1765
   324.5000     29.9500      0.0000    313.0000     85.2580
   324.7500     33.1781      0.0000    313.0001     85.2488
   325.0000     36.5198      0.0000    313.0010     85.0473
   325.2500     39.8748      0.0000    313.0076     84.8140
   325.5000     43.1357      0.0000    313.0360     84.5968
   325.7500     46.0594      0.0000    313.1093     84.3248
   326.0000     48.4913      0.0000    313.2130     84.0572
   326.2500     50.6340      0.0000    313.2660     83.9397
   326.5000     53.0480      0.0000    313.2130     84.0004
   326.7500     56.4426      0.0000    313.1093     84.1938
   327.0000     61.3048      0.0000    313.0360     84.4928
   327.2500     67.5032      0.0000    313.0076     84.8447
   327.5000     74.2358      0.0000    313.0010     85.2023
   327.7500     80.2617      0.0000    313.0001     85.5262
   328.0000     84.1247      0.0000    313.0000     85.6976
   328.2500     84.7746      0.0000    313.0000     85.5907
   328.5000     82.5532      0.0000    313.0000     85.2516
   328.7500     79.0835      0.0000    313.0000     84.8524
   329.0000     75.6233      0.0000    313.0001     84.5205
   329.2500     72.1484      0.0000    313.0010     84.3683
   329.5000     68.4632      0.0000    313.0076     84.4596
   329.7500     65.1923      0.0000    313.0360     84.6563
   330.0000     62.9572      0.0000    313.1094     84.8139
   330.2500     61.4030      0.0000    313.2140     85.0505
   330.5000     59.8011      0.0000    313.2736     85.4460
   330.7500     58.2103      0.0000    313.2491     85.7207
   331.0000     57.4695      0.0000    313.2198     85.5952
   331.2500     58.1571      0.0000    313.2576     85.1042
   331.5000     59.9844      0.0000    313.3171     84.3576
   331.7500     62.1926      0.0000    313.3593     83.5190
   332.0000     64.1067      0.0000    313.4317     83.0136
   332.2500     65.2443      0.0000    313.5149     83.1947
   332.5000     65.3169      0.0000    313.4865     83.8865
   332.7500     64.4396      0.0000    313.3234     84.5610
   333.0000     63.2188      0.0000    313.1465     84.8104
   333.2500     62.5168      0.0000    313.0512     84.5983
   333.5000     63.1009      0.0000    313.0447     84.2006
   333.7500     65.2332      0.0000    313.1115     83.9664
   334.0000     68.2345      0.0000    313.2206     84.0301
   334.2500     70.6027      0.0000    313.3020     84.2393
   334.5000     71.0747      0.0000    313.3222     84.4952
   334.7500     69.7045      0.0000    313.3213     84.8941
   335.0000     67.7098      0.0000    313.2944     85.4357
   335.2500     66.4008      0.0000    313.1846     85.9459
   335.5000     66.3919      0.0000    313.0010     86.2610
   335.7500     67.4391      0.0000    312.8231     86.3059
   336.0000     68.6871      0.0000    312.7417     86.1455
   336.2500     69.3080      0.0000    312.7891     85.9712
   336.5000     69.1423      0.0000    312.8983     85.8389
   336.7500     68.6336      0.0000    313.0000     85.5446
   337.0000     68.1919      0.0000    313.1017     85.0000
   337.2500     67.9252      0.0000    313.2119     84.4673
   337.5000     67.9388      0.0000    313.2659     84.1511
   337.7500     68.4998      0.0000    313.2130     84.0011
   338.0000     69.8769      0.0000    313.1094     84.0249
   338.2500     72.1771      0.0000    313.0370     84.3089
   338.5000     75.1822      0.0000    313.0153     84.7625
   338.7500     78.1590      0.0000    313.0381     85.1454
   339.0000     80.1661      0.0000    313.1180     85.2758
   339.2500     80.9617      0.0000    313.2566     85.1253
   339.5000     81.2521      0.0000    313.4114     84.7880
   339.7500     81.5305      0.0000    313.5363     84.5030
   340.0000     81.1762      0.0000    313.5959     84.5387
   340.2500     79.3418      0.0000    313.5509     84.8482
   340.5000     76.3307      0.0000    313.4392     85.1178
   340.7500     73.4510      0.0000    313.3593     85.2449
   341.0000     71.6733      0.0000    313.3096     85.4184
   341.2500     70.9041      0.0000    313.2216     85.7317
   341.5000     70.6516      0.0000    313.1105     86.0269
   341.7500     71.0959      0.0000    313.0361     86.1170
   342.0000     73.1182      0.0000    313.0076     86.0599
   342.2500     77.1014      0.0000    313.0010     86.1089
   342.5000     81.9532      0.0000    313.0001     86.3272
   342.7500     85.6502      0.0000    313.0000     86.4809
   343.0000     86.7629      0.0000    313.0001     86.4179
   343.2500     85.4287      0.0000    313.0010     86.2028
   343.5000     83.0486      0.0000    313.0077     85.8723
   343.7500     81.0891      0.0000    313.0370     85.4518
   344.0000     80.0326      0.0000    313.1169     85.0601
   344.2500     79.4291      0.0000    313.2491     84.8610
   344.5000     78.9279      0.0000    313.3763     85.0064
   344.7500     78.9337      0.0000    313.4335     85.3855
   345.0000     79.9663      0.0000    313.4113     85.6135
   345.2500     81.5872      0.0000    313.3583     85.5232
   345.5000     82.5325      0.0000    313.3299     85.2691
   345.7500     82.0092      0.0000    313.3030     85.0296
   346.0000     80.4754      0.0000    313.2207     84.9468
   346.2500     78.9624      0.0000    313.1114     85.0900
   346.5000     77.9771      0.0000    313.0437     85.3400
   346.7500     77.3735      0.0000    313.0436     85.4941
   347.0000     77.0138      0.0000    313.1104     85.5186
   347.2500     77.0330      0.0000    313.2130     85.5144
   347.5000     77.3694      0.0000    313.2660     85.4233
   347.7500     77.4276      0.0000    313.2130     85.1313
   348.0000     76.6582      0.0000    313.1093     84.7888
   348.2500     75.4724      0.0000    313.0360     84.6136
   348.5000     75.2136      0.0000    313.0077     84.6516
   348.7500     76.9434      0.0000    313.0021     84.8846
   349.0000     80.2642      0.0000    313.0088     85.1752
   349.2500     83.3340      0.0000    313.0447     85.2464
   349.5000     84.1540      0.0000    313.1541     85.0139
   349.7500     82.1256      0.0000    313.3669     84.6974
   350.0000     78.5466      0.0000    313.6322     84.5561
   350.2500     75.4808      0.0000    313.8421     84.6810
   350.5000     74.0045      0.0000    313.9500     84.8429
   350.7500     73.5483      0.0000    314.0521     84.3941
   351.0000     72.9717      0.0000    314.4356     82.2172
   351.2500     71.9627      0.0000    315.4958     76.9213
   351.5000     71.0467      0.0000    317.3070     68.3502
   351.7500     70.6045      0.0000    319.3188     59.2396
   352.0000     70.5211      0.0000    320.8030     53.3027
   352.2500     70.5012      0.0000    321.4869     51.4953
