~Version Information
VERS.                      2.0: CWLS Log ASCII Standard - VERSION 2.0
WRAP.                       NO: One line per depth step
~Well Information Block
STRT.FT                -8.2500: 
STOP.FT               836.2500: 
STEP.FT                 0.2500: 
NULL.                -999.2500: 
COMP.          Pioneer Natural Res.: COMPANY
WELL.            Hustler 12-17: WELL
FLD.           Purgatorie River: FIELD
LOC.           2150' FNL & 450' FWL----------: LOCATION
PROV.                       CO: PROVINCE
CNTY.               Las Animas: COUNTRY
SRVC.                Patterson: SERVICE COMPANY
DATE.          Wed Dec 29 13:37:10 2004: LOG DATE
UWI.           05 071 08236 00: UNIQUE WELL ID
~Curve Information Block
DEPT.FT            0 000 00 00: Depth
AMP3.mV                       : CBL 3' Amplitude
CCL.                          : Casing Collar Locator
GR.GAPI                       : Gamma Ray
TT3.usec                      : CBL 3' Travel Time
~Parameter Information Block
~A  Depth       AMP3        CCL          GR         TT3     
# ...
   427.2500      9.3048      0.0000    139.9988    782.4659
   427.5000      9.2691      0.0000    128.6220    781.3712
   427.7500      9.2161      0.0000    121.2426    778.4950
   428.0000      9.1891      0.0000    119.3146    773.0937
   428.2500      9.2019      0.0000    120.6761    765.3267
   428.5000      9.2115      0.0000    120.8470    756.6470
   428.7500      9.1368      0.0000    116.1466    749.1465
   429.0000      8.9200      0.0000    106.2535    744.2711
   429.2500      8.5751      0.0000     94.1524    742.1217
   429.5000      8.1708      0.0000     83.5953    741.8307
   429.7500      7.7682      0.0000     76.3764    742.3733
   430.0000      7.3847      0.0000     71.6092    743.0783
   430.2500      7.0179      0.0000     67.1828    743.6733
   430.5000      6.6823      0.0000     61.9725    744.1101
   430.7500      6.4074      0.0000     56.9264    744.4803
   431.0000      6.2058      0.0000     54.0026    745.1324
   431.2500      6.0636      0.0000     54.1665    746.7516
   431.5000      5.9658      0.0000     56.5361    749.9619
   431.7500      5.9140      0.0000     59.1802    754.5464
   432.0000      5.9164      0.0000     60.4140    759.2047
   432.2500      5.9750      0.0000     59.6494    762.4133
   432.5000      6.0800      0.0000     57.5584    763.4435
   432.7500      6.2074      0.0000     55.5842    762.4732
   433.0000      6.3288      0.0000     55.2005    760.2460
   433.2500      6.4278      0.0000     57.3256    758.0381
   433.5000      6.5018      0.0000     62.0500    757.4462
   433.7500      6.5526      0.0000     68.8977    759.8221
   434.0000      6.5869      0.0000     77.5868    766.0264
   434.2500      6.6184      0.0000     88.2834    776.2250
   434.5000      6.6579      0.0000    100.7351    788.9387
   434.7500      6.6994      0.0000    113.3916    800.5019
   435.0000      6.7229      0.0000    123.9830    806.8393
   435.2500      6.7118      0.0000    131.1935    806.4758
   435.5000      6.6699      0.0000    135.5562    801.4550
   435.7500      6.6242      0.0000    138.6910    795.2817
   436.0000      6.6114      0.0000    141.9118    790.3862
   436.2500      6.6511      0.0000    145.6398    787.3580
   436.5000      6.7281      0.0000    149.8441    785.7256
   436.7500      6.8043      0.0000    154.4523    784.9059
   437.0000      6.8446      0.0000    158.8881    784.5305
   437.2500      6.8321      0.0000    161.5958    784.2696
   437.5000      6.7633      0.0000    161.0703    783.5270
   437.7500      6.6442      0.0000    157.8510    781.3825
   438.0000      6.4961      0.0000    154.6507    776.9961
   438.2500      6.3542      0.0000    153.5418    770.3641
   438.5000      6.2517      0.0000    153.3721    762.7132
   438.7500      6.2068      0.0000    150.8188    755.8710
   439.0000      6.2244      0.0000    143.9268    751.0723
   439.2500      6.2955      0.0000    133.9477    748.4043
   439.5000      6.3944      0.0000    123.8561    747.2864
   439.7500      6.4912      0.0000    115.9860    747.2500
   440.0000      6.5777      0.0000    111.3081    748.3420
   440.2500      6.6762      0.0000    110.0258    751.0239
   440.5000      6.8116      0.0000    111.9805    755.5974
   440.7500      6.9776      0.0000    116.6045    761.3630
   441.0000      7.1397      0.0000    123.0413    766.3582
   441.2500      7.2670      0.0000    130.4185    768.4813
   441.5000      7.3527      0.0000    137.9258    767.3746
   441.7500      7.4124      0.0000    144.8241    765.0096
   442.0000      7.4674      0.0000    150.5820    763.8254
   442.2500      7.5283      0.0000    154.8878    764.1591
   442.5000      7.5963      0.0000    157.2424    764.0291
   442.7500      7.6944      0.0000    156.8989    761.6324
   443.0000      7.8811      0.0000    153.9987    757.3629
   443.2500      8.1947      0.0000    150.5802    753.0342
   443.5000      8.5642      0.0000    149.2977    749.9094
   443.7500      8.8211      0.0000    150.7910    748.0480
   444.0000      8.8425      0.0000    153.2238    746.9951
   444.2500      8.6449      0.0000    154.6655    746.4942
   444.5000      8.3300      0.0000    154.8562    746.6965
   444.7500      8.0367      0.0000    154.1340    748.1041
   445.0000      7.9526      0.0000    151.9673    751.2505
   445.2500      8.2179      0.0000    147.7257    755.9132
   445.5000      8.7466      0.0000    142.0407    760.3776
   445.7500      9.2423      0.0000    136.1305    761.9783
   446.0000      9.4514      0.0000    151.0525    759.0263
   446.2500      9.3553      0.0000    143.2094    752.1612
   446.5000      9.1087      0.0000    135.5421    743.8212
   446.7500      8.8583      0.0000    130.3026    737.0984
   447.0000      8.6481      0.0000    128.3020    735.0309
   447.2500      8.4445      0.0000    129.0788    739.3922
   447.5000      8.2036      0.0000    132.1495    748.9142
   447.7500      7.9148      0.0000    137.5342    759.1780
   448.0000      7.6020      0.0000    144.7834    765.3123
   448.2500      7.2978      0.0000    152.0489    765.2844
   448.5000      7.0244      0.0000    156.7568    760.7452
   448.7500      6.7930      0.0000    157.3011    755.0465
   449.0000      6.6047      0.0000    154.0100    750.6741
   449.2500      6.4513      0.0000    148.6307    748.2715
   449.5000      6.3251      0.0000    143.1821    747.2996
   449.7500      6.2331      0.0000    139.2436    746.9177
   450.0000      6.3928      0.0000    137.6725    776.4875
   450.2500      6.5513      0.0000    138.3484    776.1722
   450.5000      6.7243      0.0000    140.1530    774.4787
   450.7500      6.8073      0.0000    141.5108    769.7565
   451.0000      6.7820      0.0000    141.0540    763.2098
   451.2500      6.7171      0.0000    138.1034    758.3358
   451.5000      6.6690      0.0000    133.1856    757.4656
   451.7500      6.6316      0.0000    128.1184    760.8223
   452.0000      6.5902      2.0000    124.9944    768.9466
   452.2500      6.5695      2.0000    124.9155    783.7524
   452.5000      6.6176      0.0000    127.7161    805.9086
   452.7500      6.7742      0.0000    132.4648    831.7739
   453.0000      7.0487      0.0000    137.9824    853.6949
   453.2500      7.3900      0.0000    143.3173    864.3508
   453.5000      7.6908      0.0000    148.1279    862.0788
   453.7500      7.8772      0.0000    152.6113    851.9357
   454.0000      7.9797      0.0000    157.1027    841.0033
   454.2500      8.0733      0.0000    161.7970    833.3481
   454.5000      8.1786      0.0000    166.4707    829.4763
   454.7500      8.2669      0.0000    170.2484    828.6501
   455.0000      8.3244      0.0000    172.2058    830.0617
   455.2500      8.3612      0.0000    172.6555    832.4375
   455.5000      8.3815      0.0000    173.2584    834.1796
   455.7500      8.3911      0.0000    175.2974    834.4047
   456.0000      8.4224      0.0000    178.2036    833.2676
   456.2500      8.5103      0.0000    179.9896    831.0838
   456.5000      8.6468      0.0000    178.6701    827.5089
   456.7500      8.7820      0.0000    173.4649    821.8453
   457.0000      8.8676      0.0000    165.5921    814.1268
   457.2500      8.8835      0.0000    158.0340    805.7673
   457.5000      8.8275      0.0000    153.6115    798.9342
   457.7500      8.7071      0.0000    152.9343    795.3122
   458.0000      8.5417      0.0000    154.4270    795.5335
   458.2500      8.3544      0.0000    155.9727    799.3338
   458.5000      8.1585      0.0000    156.1107    805.4810
   458.7500      7.9606      0.0000    154.4131    811.6412
   459.0000      7.7692      0.0000    151.8374    815.3820
   459.2500      7.5855      0.0000    150.5926    816.0839
   459.5000      7.3981      0.0000    152.6125    815.5659
   459.7500      7.2006      0.0000    157.7443    816.1309
   460.0000      7.0015      0.0000    163.7572    818.0738
   460.2500      6.8088      0.0000    168.1901    819.6205
   460.5000      6.6277      0.0000    170.0065    819.1951
