~Version Information
 VERS.                2.0:  CWLS LOG ASCII STANDARD -VERSION 2.0
 WRAP.                 NO:  ONE LINE PER DEPTH STEP
~WELL INFORMATION BLOCK
#MNEM.UNIT       DATA		            DESCRIPTION OF MNEMONIC
#---------    -------------            ------------------------
 STRT.FT  0.500                          :START DEPTH
 STOP.FT  1812.700                       :STOP DEPTH
 STEP.FT  0.100                          :STEP    UP_HOLE  
 NULL.    -999.25                        :NULL VALUE
 COMP.              EL PASO PRODUCTIONS  :COMPANY
 WELL.                     COREHOLE #38  :WELL
 FLD .                 PURGATOIRE RIVER  :FIELD
 LOC .      15   35S   65W               :LOCATION
 CNTY.                           COLFAX  :COUNTY
 STAT.                     NM            :STATE
 CTRY.                                   :
 SRVC.     O'DRISCOLL                    :SERVICE COMPANY
 DATE.   04/28/05                        :LOG DATE
 API .                                   :API NUMBER
 LIC .                                   :LICENSE NUMBER
~Curve Information Block
#MNEM.UNIT      API CODE     Curve Description
#---------    -------------  ------------------------
 DEPT     .FT        00 001 00 00          :  1  DEPTH   
 GAMMA    .API-GR    00 310 00 00          :  2                GAMMA
 TEMP     .DEG F     00 660 00 00          :  3                 TEMP
 RES(16N) .OHM-M     00 040 00 00          :  4             RES(16N)
 RES(64N) .OHM-M     00 060 00 00          :  5             RES(64N)
 RES      .OHM       00 000 00 00          :  6                  RES
 LATERAL  .OHM-M     00 070 00 00          :  7              LATERAL
 NEUTRON  .API-N     00 000 00 00          :  8              NEUTRON
 POR(NEU) .PERCENT   00 330 00 00          :  9             POR(NEU)
 SANGB    .DEG       00 631 00 00          : 10                SANGB
 DEL_TEMP .DEG F     00 000 00 00          : 11             DEL_TEMP
 SANG     .DEG       00 620 00 00          : 12                 SANG
 SP       .MV        00 010 00 00          : 13                   SP
 TIME     .MINUTES   00 000 00 00          : 14                 TIME
~Parameter Information Block
#MNEM.UNIT   Information     Description
#---------- ---------------  ------------------------
 FILE.      ORIGINAL           :File Type
 FIID.      9057A              :File Type Identifier
 VERS.      3.58G              :System Version
 SER .      1                  :System Serial Number
 TRUK.      .498775            :Truck Calibration Number
 TOOL.        1061             :Tool Serial Number
 TIME.      1335               :Time    HrHrMinMin
 LAT .       36 59'            :Latitude
 LON .       104 39'           :Longitude
 LMF .            GL           :Log Measured From
 DMF .            GL           :Driller Measured From
 PD  .            GL           :Permanent Data
 PDEV.                         :Elevation Permanent Data
 EKB .M                        :Elevation Kelly Bushing
 ELEV.DF                       :Elevation DF
 EGL .M        7777            :Elevation Ground Level
 DRDP.          1825           :Driller's Depth
 CASD.       10.               :Casing Diameter
 CASB.           300           :Casing Bottom
 CASX.         STEEL           :Casing Type
 CAST.                         :Casing Thickness
 TNOC.                         :Time Circulation Stopped
 LOGU.        108              :Logging Unit
 RECB.           R.SIPES       :Recorded By
 OSR1.          9139           :Other Services
 OSR2.                         :Other Services
 OSR3.                         :Other Services
 BS  .MM         3.5           :Bit Size
 MST .                         :Mean Surface Temperature
 TGRD.                         :Temperature Gradiant
 MAGN.            12           :Magnetic Declination
 MDEN.       2.7               :Density Matrix
 MATR.      SANDSTONE          :Neutron Matrix
 DTMT.            54           :Delta T Matrix
 DTFL.                         :Delta T Fluid
 MUDS.                         :Mud Sample Source
 MRS .                         :Mud Resistivity
 MTP .                         :Mud Temperature
 MFRS.                         :Resistivity Mud Filtrate
 MFTP.                         :Temperature Mud Filtrate
 MCRS.                         :Resistivity Mud Cake
 MCTP.                         :Temperature Mud Cake
 FTYP.                         :Fluid Type
 FD  .K/M3                     :Fluid Density
 DFV .S                        :Fluid Viscosity
 FPH .                         :Fuild PH
 ELCO.       50000             :Electron Cutoff
~Other Information
#MNEM.UNIT  Information      Description
#---------- ---------------  ------------------------
# -------------------------- 
~A DEPTH  GAMMA    TEMP  RES(16N) RES(64N) RES      LATERAL  NEUTRON  POR(NEU) SANGB  DEL_TEMP SANG   SP    TIME    
# ...
1079.900    123.3  77.0      0.4      7.9      7.7     -1.9   1082.1  30.9  122.41 -0.04  1.87  -1317.5 0.20000 
1080.000    118.0  77.0     -1.6      8.2      8.0     -5.3   1082.1  30.7  122.35 0.04  1.87  -1317.4 0.20000 
1080.100    120.2  77.0     -0.5      8.3      8.1     -4.3   1044.6  30.8  122.93 -0.03  1.87  -1317.4 0.20000 
1080.200    116.5  77.0      0.3      8.4      8.4     -3.1   1047.7  30.5  131.78 0.05  1.90  -1317.4 0.10000 
1080.300    113.8  77.0      0.3      8.5      8.0     -2.5   1052.4  30.4  131.68 -0.01  1.93  -1317.4 0.20000 
1080.400    112.2  77.0     -1.4      8.6      8.4     -4.8   1024.3  30.1  131.69 -0.02  1.93  -1317.5 0.20000 
1080.500    110.1  77.0      0.7      8.6      7.9     -1.7   1021.1  30.2  149.24 0.03  1.93  -1317.5 0.20000 
1080.600    107.5  77.0      0.3      8.6      8.0     -2.3   1032.1  29.7  152.17 0.00  1.96  -1317.5 0.20000 
1080.700    110.6  77.0      0.8      8.6      8.1     -2.1   1032.1  29.5  152.12 -0.04  1.99  -1317.5 0.20000 
1080.800    108.0  77.0     -0.7      8.6      8.0     -4.0   1063.4  29.4  152.16 -0.07  1.99  -1317.4 0.20000 
1080.900    105.3  77.0      0.6      8.3      8.4     -2.0   1083.7  29.1  134.88 0.08  1.99  -1317.4 0.20000 
1081.000    102.2  77.0      1.0      8.0      8.3     -1.6   1124.3  29.3  131.21 0.03  2.01  -1317.4 0.20000 
1081.100    103.2  77.0      0.0      7.9      8.0     -3.2   1136.9  29.8  131.15 -0.09  2.04  -1317.4 0.20000 
1081.200    103.8  77.0     -0.9      8.0      8.4     -3.5   1191.6  30.0  131.15 0.04  2.04  -1317.5 0.20000 
1081.300     98.5  77.0      0.0      7.8      8.6     -2.0   1186.9  29.8  126.31 -0.01  2.04  -1317.6 0.20000 
1081.400     90.0  77.0      2.8      7.6      8.9      1.3   1204.1  29.5  126.94 -0.02  2.06  -1317.6 0.20000 
1081.500     86.3  77.1      0.7      7.5      8.4     -1.8   1201.0  29.5  126.89 0.03  2.08  -1317.6 0.20000 
1081.600     76.2  77.1     -1.0      7.3      8.8     -3.5   1158.7  29.2  126.88 -0.07  2.08  -1317.6 0.20000 
1081.700     74.6  77.1     -1.6      7.1      8.0     -4.5   1055.5  29.3  123.65 0.04  2.08  -1317.5 0.20000 
1081.800     72.0  77.1      0.2      7.0      8.0     -2.0   1008.6  29.2  119.46 0.06  2.10  -1317.5 0.20000 
1081.900     73.1  77.1      0.3      7.0      8.1     -2.7    993.0  29.2  119.42 -0.08  2.11  -1317.5 0.20000 
1082.000     70.9  77.1     -0.9      7.2      8.4     -3.1    989.9  29.3  119.42 0.01  2.11  -1317.6 0.20000 
1082.100     69.3  77.1     -0.5      7.4      7.9     -2.1   1013.3  29.6  121.28 -0.01  2.11  -1317.6 0.20000 
1082.200     76.8  77.1      1.4      7.5      8.2     -0.7   1107.1  29.8  118.77 0.07  2.11  -1317.6 0.20000 
1082.300     79.9  77.1      0.7      7.7      7.5     -1.1   1140.0  30.1  117.88 -0.08  2.00  -1317.6 0.20000 
1082.400     84.7  77.0     -1.0      8.0      8.0     -3.5   1149.4  30.5  117.88 0.01  2.00  -1317.8 0.10000 
1082.500     92.6  77.0     -1.4      8.1      7.8     -3.9   1155.6  30.4  116.67 0.11  2.00  -1318.0 0.20000 
1082.600     92.6  77.1      0.3      8.2      8.4     -3.1   1168.1  30.2  120.39 -0.07  2.00  -1318.0 0.20000 
1082.700     95.3  77.1      1.2      8.2      7.4     -1.4   1136.9  30.4  119.11 -0.04  1.94  -1318.0 0.20000 
1082.800     99.0  77.1     -1.4      8.4      7.2     -5.0   1118.1  30.8  119.11 0.01  1.94  -1317.8 0.20000 
1082.900     99.5  77.1     -1.7      8.6      6.7     -5.1   1089.9  31.1  119.39 -0.07  1.94  -1317.5 0.20000 
1083.000     98.5  77.1      0.4      8.5      7.1     -3.4   1052.4  31.4  111.81 0.13  1.95  -1317.5 0.20000 
1083.100     93.2  77.1      1.3      8.5      7.1     -1.7   1024.3  32.3  109.82 -0.07  1.89  -1317.5 0.20000 
1083.200     92.1  77.1     -1.5      8.6      6.8     -4.9    975.8  32.8  109.82 -0.03  1.89  -1317.5 0.20000 
1083.300     87.9  77.1     -1.8      8.7      7.5     -5.4    938.3  33.3  111.04 0.04  1.89  -1317.3 0.20000 
1083.400     82.6  77.1      0.0      8.5      7.7     -3.1    927.3  33.9  96.39  -0.01  1.90  -1317.3 0.20000 
1083.500     82.1  77.1      1.6      8.4      7.7     -0.8    922.6  35.0  94.94  -0.01  1.86  -1317.3 0.20000 
1083.600     83.6  77.1      0.4      8.4      8.3     -1.9    911.7  35.7  94.94  -0.07  1.86  -1317.3 0.20000 
1083.700     82.6  77.1     -0.8      8.4      7.9     -3.1    896.0  36.3  94.85  0.07  1.86  -1317.6 0.20000 
1083.800     85.8  77.1      1.7      8.2      7.6     -0.0    903.9  37.0  87.95  -0.03  1.87  -1317.6 0.20000 
1083.900     91.6  77.1      1.8      8.0      7.7     -0.1    892.9  37.4  87.15  0.04  1.83  -1317.6 0.20000 
1084.000     96.3  77.1      0.6      7.8      8.2     -1.8    875.7  38.2  87.15  -0.07  1.83  -1317.6 0.20000 
1084.100    107.5  77.1     -1.2      7.6      8.2     -3.9    819.4  38.4  86.86  -0.01  1.83  -1317.5 0.20000 
1084.200    114.9  77.1      0.9      7.4      8.8     -1.2    822.5  39.6  81.19  0.05  1.85  -1317.5 0.20000 
1084.300    120.2  77.1      1.5      7.3      8.9     -1.0    800.6  40.6  78.31  -0.04  1.78  -1317.5 0.20000 
1084.400    123.9  77.1      0.1      7.4      8.8     -3.0    767.8  41.8  78.31  -0.02  1.78  -1317.5 0.20000 
1084.500    126.0  77.1     -2.9      7.6     10.2     -6.8    756.9  43.3  78.22  0.04  1.78  -1317.4 0.20000 
1084.600    126.5  77.1     -0.9      7.6     10.1     -3.7    763.1  44.7  53.00  -0.04  1.78  -1317.4 0.20000 
1084.700    132.3  77.2     -0.3      7.7      9.6     -2.3    761.6  46.1  35.99  0.02  1.77  -1317.4 0.20000 
1084.800    136.0  77.2     -0.5      7.9      9.2     -2.5    708.4  47.8  35.69  -0.04  1.74  -1317.4 0.10000 
1084.900    142.4  77.2     -2.5      8.2      9.5     -5.6    694.3  51.0  35.53  -0.04  1.74  -1317.4 0.20000 
1085.000    142.9  77.2     -0.2      8.6      9.5     -2.9    650.5  54.1  19.75  0.01  1.74  -1317.4 0.20000 
1085.100    141.9  77.2      0.5      8.9      9.6     -2.1    611.4  56.2  13.84  0.01  1.69  -1317.4 0.20000 
1085.200    143.5  77.2      0.0      9.3      9.5     -2.8    550.4  57.9  13.21  0.08  1.63  -1317.4 0.20000 
1085.300    148.2  77.2     -1.4     10.0      9.8     -4.6    547.3  61.6  13.21  -0.07  1.63  -1317.5 0.20000 
1085.400    146.6  77.2      0.6     10.9     10.0     -2.3    519.2  64.5  335.84 0.00  1.63  -1317.5 0.20000 
1085.500    146.6  77.2      1.4     11.8      9.4     -1.5    484.8  66.9  338.57 -0.04  1.59  -1317.5 0.20000 
1085.600    141.9  77.2      1.0     12.3      9.9     -2.3    453.5  67.8  337.81 0.02  1.54  -1317.5 0.20000 
1085.700    133.9  77.2     -1.0     12.7     10.0     -5.8    441.0  68.2  337.80 0.01  1.54  -1317.4 0.20000 
1085.800    123.9  77.2     -0.3     12.8      9.5     -4.9    426.9  68.3  338.60 -0.05  1.54  -1317.4 0.20000 
1085.900    112.2  77.2      2.9     12.7      9.4     -1.5    398.8  68.4  333.82 0.09  1.55  -1317.4 0.20000 
1086.000    103.2  77.2      1.2     12.6      9.8     -4.5    400.3  69.2  333.24 -0.07  1.52  -1317.4 0.20000 
1086.100     94.8  77.2     -0.7     12.4      9.4     -8.0    405.0  68.1  333.10 0.05  1.52  -1317.4 0.20000 
1086.200     86.8  77.2     -0.7     12.2      9.5     -7.3    431.6  67.3  333.63 -0.03  1.52  -1317.4 0.20000 
1086.300     81.5  77.2      1.8     12.0      9.5     -2.2    439.4  65.9  327.96 0.04  1.48  -1317.4 0.20000 
1086.400     73.1  77.2      1.5     11.8      9.5     -2.2    492.6  62.8  326.35 -0.13  1.42  -1317.4 0.20000 
1086.500     63.5  77.2     -0.2     11.5      9.8     -3.3    520.7  60.0  326.35 0.05  1.42  -1317.4 0.20000 
1086.600     60.3  77.3     -0.7     11.2      9.1     -3.4    528.6  57.7  335.70 -0.04  1.42  -1317.5 0.20000 
1086.700     56.1  77.3      1.2     10.6      9.3     -0.5    556.7  56.4  347.40 0.03  1.43  -1317.5 0.20000 
1086.800     57.7  77.3      1.9      9.9      8.7      0.9    595.8  52.2  343.71 -0.01  1.33  -1317.5 0.20000 
1086.900     56.1  77.3     -0.8      8.9      9.6     -3.2    625.5  49.6  343.71 0.07  1.33  -1317.5 0.10000 
1087.000     57.7  77.3     -0.5      8.2      9.0     -3.1    670.9  47.1  336.68 -0.10  1.33  -1317.5 0.20000 
