~Version Information
VERS.                      2.0: CWLS Log ASCII Standard - VERSION 2.0
WRAP.                       NO: One line per depth step
~Well Information Block
STRT.FT               -19.0000: 
STOP.FT              1343.5000: 
STEP.FT                 0.5000: 
NULL.                -999.2500: 
COMP.          Evergreen Operating Corporation: COMPANY
WELL.            Trigger 13-35: WELL
FLD.           Purgatorie River: FIELD
LOC.           2245' FSL & 594' FWL: LOCATION
PROV.                 Colorado: PROVINCE
CNTY.               Las Animas: COUNTRY
SRVC.                         : SERVICE COMPANY
DATE.          Mon Jun 23 12:06:52 2003: LOG DATE
UWI.           05-071-07838-00: UNIQUE WELL ID
~Curve Information Block
DEPT.FT            0 000 00 00: Depth
TT3.usec                      : CBL 3' Travel Time
AMP3.mV                       : CBL 3' Amplitude
GR.GAPI                       : Gamma Ray
CCL.                          : Casing Collar Locator
~Parameter Information Block
~A  Depth       TT3         AMP3         GR         CCL     
# ...
   316.0000    778.9708      2.6967    147.8504      0.0000
   316.5000    778.9644      2.8001    142.9610      0.0000
   317.0000    779.2269      2.7946    142.2937      0.0000
   317.5000    779.1755      2.8140    141.4368      0.0000
   318.0000    778.2178      2.8307    134.5935      0.0000
   318.5000    777.0978      2.8558    125.6600      0.0000
   319.0000    776.7708      2.8443    117.5970      0.0000
   319.5000    777.3420      2.8145    107.5695      0.0000
   320.0000    777.0739      2.7461    100.9226      0.0000
   320.5000    776.1957      2.7603    104.4463      0.0000
   321.0000    775.8272      2.8532    109.4467      0.0000
   321.5000    775.8113      2.9980    110.2243      0.0000
   322.0000    776.8494      3.1100    106.9923      0.0000
   322.5000    778.4286      3.2171    103.2691      0.0000
   323.0000    777.8763      3.3672    103.6447      0.0000
   323.5000    776.3504      3.4495    108.0499      0.0000
   324.0000    775.4250      3.4595    109.6758      0.0000
   324.5000    775.2456      3.3788    109.7720      0.0000
   325.0000    776.0404      3.2139    114.4817      0.0000
   325.5000    777.1395      3.1113    122.1421      0.0000
   326.0000    778.1339      3.0299    122.7697      0.0000
   326.5000    778.6850      3.0681    120.7413      0.0000
   327.0000    778.2289      3.1535    124.7282      0.0000
   327.5000    778.1652      3.1908    131.6410      0.0000
   328.0000    777.8552      3.1283    137.0870      0.0000
   328.5000    777.6393      3.0011    140.7434      0.0000
   329.0000    778.2560      2.8240    147.8584      0.0000
   329.5000    778.7520      2.6606    154.4306      0.0000
   330.0000    777.9786      2.6597    152.8591      0.0000
   330.5000    777.0541      2.7618    146.5849      0.0000
   331.0000    775.7609      2.7375    137.8183      0.0000
   331.5000    772.9158      2.6380    120.0673      0.0000
   332.0000    768.8425      2.5104     95.0190      0.0000
   332.5000    777.0926      2.5266     80.1251      0.0000
   333.0000    791.5407      2.5176     79.6173      0.0000
   333.5000    791.3143      2.4587     86.0152      0.0000
   334.0000    792.7203      2.4849     97.5522      0.0000
   334.5000    798.1706      2.5244     99.8024      0.0000
   335.0000    773.0322      2.4193     91.9232      0.0000
   335.5000    742.0480      2.3007     83.4634      0.0000
   336.0000    752.1805      2.2390     77.4466      0.0000
   336.5000    767.1620      2.3235     70.1915      0.0000
   337.0000    747.9664      2.3595     64.9460      0.0000
   337.5000    763.3223      2.4061     68.2508      0.0000
   338.0000    787.8929      2.4716     71.1930      0.0000
   338.5000    784.7350      2.4929     72.6070      0.0000
   339.0000    778.0889      2.5492     77.8924      0.0000
   339.5000    776.6640      2.6515     80.2723      0.0000
   340.0000    776.1465      2.7632     73.9372      0.0000
   340.5000    775.9091      2.7890     68.7958      0.0000
   341.0000    775.9167      2.7954     78.6654      0.0000
   341.5000    776.6370      2.7028     97.9744      0.0000
   342.0000    777.0847      2.6277    106.1321      0.0000
   342.5000    777.7714      2.5315    105.7499      0.0000
   343.0000    778.1606      2.4413    102.1265      0.0000
   343.5000    777.9989      2.4727     92.5262      0.0000
   344.0000    777.7958      2.5211     85.0792      0.0000
   344.5000    777.9040      2.5309     90.8947      0.0000
   345.0000    778.3364      2.5507    112.8542      0.0000
   345.5000    778.2955      2.4662    136.5161      0.0000
   346.0000    778.8922      2.3365    138.4970      0.0000
   346.5000    795.2281      2.0826    125.8657      0.0000
   347.0000    822.3673      1.8207    109.6186      0.0000
   347.5000    807.3839      1.7065     89.8335      5.0000
   348.0000    804.5707      1.6103     81.9668     -5.0000
   348.5000    792.9889      1.5661     94.8988      0.0000
   349.0000    769.6199      1.7520    115.8710      0.0000
   349.5000    774.7930      2.3395    124.9010      0.0000
   350.0000    777.4281      2.7801    123.3169      0.0000
   350.5000    777.6756      2.9980    128.9225      0.0000
   351.0000    775.1729      3.1781    144.3247      0.0000
   351.5000    757.1200      3.1854    150.1573      0.0000
   352.0000    747.1787      3.0477    144.3856      0.0000
   352.5000    768.9861      2.9375    136.1580      0.0000
   353.0000    782.6362      2.9775    130.0755      0.0000
   353.5000    794.0067      3.0039    132.0795      0.0000
   354.0000    788.9777      2.8966    138.5747      0.0000
   354.5000    779.4596      2.8582    141.4186      0.0000
   355.0000    777.3172      2.7537    140.1688      0.0000
   355.5000    778.1454      2.5982    136.1032      0.0000
   356.0000    788.5402      2.5823    141.1350      0.0000
   356.5000    795.8242      2.6250    151.0880      0.0000
   357.0000    771.8690      2.6292    151.5431      0.0000
   357.5000    751.8738      2.7312    147.8357      0.0000
   358.0000    747.8002      2.8178    144.4848      0.0000
   358.5000    754.2827      2.9263    142.1254      0.0000
   359.0000    773.8120      2.9320    135.3394      0.0000
   359.5000    794.5758      2.8652    123.3755      0.0000
   360.0000    807.8203      2.9116    123.4004      0.0000
   360.5000    807.2208      2.8061    136.5455      0.0000
   361.0000    799.6033      2.7582    144.2776      0.0000
   361.5000    790.0520      2.8638    136.4050      0.0000
   362.0000    780.6093      2.8072    121.4940      0.0000
   362.5000    776.2260      2.7436    110.3681      0.0000
   363.0000    774.6801      2.8315    105.7496      0.0000
   363.5000    774.7029      2.8490    109.4311      0.0000
   364.0000    775.7563      2.8089    116.1328      0.0000
   364.5000    776.7244      2.8408    122.9249      0.0000
   365.0000    776.8314      2.8318    128.3169      0.0000
   365.5000    777.2942      2.8803    121.1820      0.0000
   366.0000    776.7919      2.9258    100.1718      0.0000
   366.5000    775.5383      2.8675     80.3957      0.0000
   367.0000    775.0306      2.8490     74.1052      0.0000
   367.5000    775.5959      2.7402     76.3292      0.0000
   368.0000    775.8311      2.6907     85.0177      0.0000
   368.5000    775.1414      2.7214     98.1479      0.0000
   369.0000    774.8391      2.6131    106.6653      0.0000
   369.5000    775.8786      2.6571    105.3562      0.0000
   370.0000    777.0442      2.7730     99.7632      0.0000
   370.5000    777.5785      2.7567    101.1889      0.0000
   371.0000    775.0720      2.7533    105.5936      0.0000
   371.5000    763.2066      2.7590    111.1335      0.0000
   372.0000    744.7773      2.7768    124.7525      0.0000
   372.5000    725.3858      2.8415    140.1097      0.0000
   373.0000    735.2321      2.8057    145.7907      0.0000
   373.5000    766.2558      2.7227    142.1435      0.0000
   374.0000    784.6160      2.8121    129.7690      0.0000
   374.5000    781.0034      2.8186    121.7996      0.0000
   375.0000    778.0128      2.7988    127.0058      0.0000
   375.5000    778.2001      2.9219    130.1565      0.0000
   376.0000    778.3484      2.9283    124.4467      0.0000
   376.5000    778.0972      2.8082    122.5719      0.0000
   377.0000    777.5590      2.8408    122.1182      0.0000
   377.5000    777.7094      2.8318    118.1525      0.0000
   378.0000    778.1201      2.6863    117.6499      0.0000
   378.5000    777.4511      2.6705    121.0567      0.0000
   379.0000    770.5666      2.7845    125.1730      0.0000
   379.5000    760.1917      2.7662    125.5658      0.0000
   380.0000    760.0800      2.7126    122.2346      0.0000
   380.5000    773.0608      2.7801    116.6807      0.0000
   381.0000    777.7039      2.8098    110.2703      0.0000
   381.5000    776.9258      2.7911    111.9865      0.0000
   382.0000    776.0244      2.8821    125.9328      0.0000
   382.5000    776.6697      2.8271    143.1786      0.0000
