~Version Information
VERS.                      2.0: CWLS Log ASCII Standard - VERSION 2.0
WRAP.                       NO: One line per depth step
~Well Information Block
STRT.FT                -9.7500: 
STOP.FT              2158.2500: 
STEP.FT                 0.2500: 
NULL.                -999.2500: 
COMP.          Petrogulf Corporation: COMPANY
WELL.             State 16-41V: WELL
FLD.           Purgatoire River: FIELD
LOC.           335' FNL & 823' FEL--: LOCATION
PROV.                 Colorado: PROVINCE
CNTY.               Las Animas: COUNTRY
SRVC.                Patterson: SERVICE COMPANY
DATE.          Wed Aug 17 12:15:10 2005: LOG DATE
UWI.           05 071 08344 00: UNIQUE WELL ID
~Curve Information Block
DEPT.FT            0 000 00 00: Depth
CCL.                          : Casing Collar Locator
TT3.usec                      : CBL 3' Travel Time
AMP3.mV                       : CBL 3' Amplitude
GR.GAPI                       : Gamma Ray
~Parameter Information Block
~A  Depth       CCL         TT3         AMP3         GR     
# ...
   995.2500      0.0000    262.4495     80.0757    101.1558
   995.5000      0.0000    262.4435     79.6478    101.0535
   995.7500      0.0000    262.4353     79.2444    102.1124
   996.0000      0.0000    262.4262     78.7512    103.1848
   996.2500      0.0000    262.4203     77.9715    103.9420
   996.5000      0.0000    262.4267     76.7196    104.3174
   996.7500      0.0000    262.4571     74.9471    103.5357
   997.0000      0.0000    262.5186     72.8121    100.4146
   997.2500      0.0000    262.6090     70.6130     94.6761
   997.5000      0.0000    262.7181     68.6232     87.3477
   997.7500      0.0000    262.8307     66.9453     79.9030
   998.0000      0.0000    262.9350     65.4790     73.5027
   998.2500      0.0000    263.0331     64.0105     68.8108
   998.5000      0.0000    263.1491     62.3633     65.8986
   998.7500      0.0000    263.3487     60.5095     64.3482
   999.0000      0.0000    263.8074     58.5773     63.8135
   999.2500      0.0000    264.9395     56.7621     64.4121
   999.5000      0.0000    267.4429     55.2056     66.3041
   999.7500      0.0000    271.9861     53.9150     68.9391
  1000.0000      0.0000    278.5364     52.7720     71.0591
  1000.2500      0.0000    285.9644     51.6135     71.5849
  1000.5000      0.0000    292.5901     50.3141     70.2920
  1000.7500      0.0000    297.2772     48.8529     67.5436
  1001.0000      0.0000    299.9607     47.3731     63.6685
  1001.2500      0.0000    301.2464     46.1707     58.9314
  1001.5000      0.0000    301.7606     45.5465     53.9785
  1001.7500      0.0000    301.8688     45.6109     49.9049
  1002.0000      0.0000    301.7090     46.2293     47.7004
  1002.2500      0.0000    301.2252     47.1565     47.6747
  1002.5000      0.0000    300.0723     48.2142     49.3416
  1002.7500      0.0000    297.5748     49.3653     51.7317
  1003.0000      0.0000    293.0495     50.6617     53.9280
  1003.2500      0.0000    286.5073     52.1240     55.6038
  1003.5000      0.0000    279.0840     53.6440     57.3917
  1003.7500      0.0000    272.5489     54.9963     60.9009
  1004.0000      0.0000    268.2737     55.9491     68.0534
  1004.2500      0.0000    266.7805     56.3559     79.7944
  1004.5000      0.0000    268.1427     56.1506     95.0844
  1004.7500      0.0000    272.3404     55.3045    111.2161
  1005.0000      0.0000    278.9240     53.8245    125.2751
  1005.2500      0.0000    286.5834     51.7872    135.4215
  1005.5000      0.0000    293.5730     49.3509    141.1342
  1005.7500      0.0000    298.8116     46.7169    142.8730
  1006.0000      0.0000    302.5493     44.0513    141.7725
  1006.2500      0.0000    306.0914     41.4232    139.2098
  1006.5000      0.0000    311.0139     38.8098    136.2254
  1006.7500      0.0000    318.7735     36.1519    133.3277
  1007.0000      0.0000    331.3940     33.4063    130.5706
  1007.2500      0.0000    353.1615     30.5685    127.4841
  1007.5000      0.0000    391.3178     27.6812    123.2994
  1007.7500      0.0000    452.6168     24.8361    117.7675
  1008.0000      0.0000    536.1525     22.1645    111.6615
  1008.2500      0.0000    629.2730     19.8059    106.1446
  1008.5000      0.0000    712.8278     17.8611    101.7204
  1008.7500      0.0000    772.3453     16.3593     98.1619
  1009.0000      0.0000    805.2836     15.2662     95.3941
  1009.2500      0.0000    819.5494     14.5213     94.0154
  1009.5000      0.0000    825.7081     14.0671     94.8389
  1009.7500      0.0000    829.0750     13.8532     98.0684
  1010.0000      0.0000    828.4645     13.8361    102.9060
  1010.2500      0.0000    822.3102     13.9800    107.9689
  1010.5000      0.0000    814.4808     14.2504    112.3842
  1010.7500      0.0000    812.7347     14.6037    116.5666
  1011.0000      0.0000    821.3024     14.9896    121.4336
  1011.2500      0.0000    835.4131     15.3609    126.7461
  1011.5000      0.0000    843.9634     15.6782    130.9285
  1011.7500      0.0000    838.9572     15.9080    132.7183
  1012.0000      0.0000    822.4810     16.0250    132.2001
  1012.2500      0.0000    803.4926     16.0233    129.9465
  1012.5000      0.0000    788.9173     15.9236    126.0149
  1012.7500      0.0000    779.9791     15.7737    120.4392
  1013.0000      0.0000    775.6952     15.6385    114.3412
  1013.2500      0.0000    776.1849     15.5919    109.9060
  1013.5000      0.0000    780.5491     15.7194    108.8434
  1013.7500      0.0000    782.0790     16.1267    110.7509
  1014.0000      0.0000    767.6455     16.9174    113.2822
  1014.2500      0.0000    726.2521     18.1093    114.1786
  1014.5000      0.0000    662.2131     19.5385    112.9856
  1014.7500      0.0000    597.6421     20.8606    110.7035
  1015.0000      0.0000    555.7418     21.7154    108.1489
  1015.2500      0.0000    540.5594     21.9711    105.1288
  1015.5000      0.0000    537.6213     21.8398    101.1238
  1015.7500      0.0000    534.5045     21.7017     96.3498
  1016.0000      0.0000    535.2729     21.7644     91.9838
  1016.2500     -2.0000    552.3021     21.9138     89.5928
  1016.5000      2.0000    587.6380     21.9083     90.5176
  1016.7500      0.0000    625.2168     21.6496     95.4166
  1017.0000     -2.0000    640.3937     21.2604    103.7130
  1017.2500      0.0000    619.2610     20.9820    113.2826
  1017.5000      0.0000    572.3067     20.9977    121.1202
  1017.7500      0.0000    526.9525     21.2894    124.9306
  1018.0000      0.0000    504.5915     21.6827    124.4433
  1018.2500      0.0000    508.9073     22.0493    121.3726
  1018.5000      0.0000    535.4749     22.3592    118.1649
  1018.7500      0.0000    580.8900     22.5105    116.6087
  1019.0000      0.0000    636.2436     22.2922    117.2186
  1019.2500      0.0000    681.7780     21.6023    119.4922
  1019.5000      0.0000    699.7138     20.5736    122.6299
  1019.7500      0.0000    691.6539     19.4354    126.3594
  1020.0000      0.0000    677.2559     18.3370    131.2199
  1020.2500      0.0000    674.6501     17.3174    137.5688
  1020.5000      0.0000    685.7238     16.3621    144.0112
  1020.7500      0.0000    700.5809     15.4649    147.4022
  1021.0000      0.0000    710.7153     14.6841    145.0726
  1021.2500      0.0000    715.0197     14.1476    137.2028
  1021.5000      0.0000    716.6785     13.9696    127.0422
  1021.7500      0.0000    718.1661     14.1528    118.8088
  1022.0000      0.0000    718.5790     14.6113    115.0324
  1022.2500      0.0000    712.8719     15.3086    115.4892
  1022.5000      0.0000    692.8876     16.3474    118.4522
  1022.7500      0.0000    651.3821     17.8995    122.6445
  1023.0000      0.0000    588.2067     20.0659    127.7652
  1023.2500      0.0000    513.4034     22.8065    133.4531
  1023.5000      0.0000    442.2673     25.9529    138.3643
  1023.7500      0.0000    386.1356     29.2378    140.6018
  1024.0000      0.0000    347.9351     32.3280    139.2339
  1024.2500      0.0000    324.7961     34.9047    135.4593
  1024.5000      0.0000    312.2905     36.7812    131.9939
  1024.7500      0.0000    306.4405     37.9772    131.0852
  1025.0000      0.0000    304.1770     38.6846    133.1235
  1025.2500      0.0000    303.4811     39.1460    136.7832
  1025.5000      0.0000    303.3088     39.5340    139.8204
  1025.7500      0.0000    303.2514     39.9113    140.0635
  1026.0000      0.0000    303.2061     40.2741    136.7762
  1026.2500      0.0000    303.1566     40.5996    131.4298
  1026.5000      0.0000    303.1002     40.8481    126.6606
  1026.7500      0.0000    303.0436     40.9643    124.2141
  1027.0000      0.0000    303.0033     40.9046    124.0246
  1027.2500      0.0000    303.0078     40.6454    125.1986
  1027.5000      0.0000    303.0944     40.1503    127.4797
  1027.7500      0.0000    303.2887     39.3722    131.4196
  1028.0000      0.0000    303.5708     38.3342    137.4096
  1028.2500      0.0000    303.8602     37.1972    144.8780
  1028.5000      0.0000    304.0543     36.1882    152.1619
