~Version Information
VERS.                      2.0: CWLS Log ASCII Standard - VERSION 2.0
WRAP.                       NO: One line per depth step
~Well Information Block
STRT.FT                 5.0000: 
STOP.FT              1874.2500: 
STEP.FT                 0.2500: 
NULL.                -999.2500: 
COMP.          Pioneer Natural Resources: COMPANY
WELL.           Stampede 42-18: WELL
FLD.           Purgatoire River: FIELD
LOC.           2479' FNL & 160' FEL--: LOCATION
CNTY.               Las Animas: COUNTY
SRVC.          Superior Well Services: SERVICE COMPANY
DATE.          Mon Jun 25 12:19:16 2007: LOG DATE
UWI.                          : UNIQUE WELL ID
STAT.                 Colorado: STATE
~Curve Information Block
DEPT.FT            0 000 00 00: Depth
GR.GAPI                       : Gamma Ray
CCL.                          : Casing Collar Locator
TT3.usec                      : CBL 3' Travel Time
AMP3.mV                       : CBL 3' Amplitude
AMP5.mV                       : CBL 5' Amplitude
~Parameter Information Block
~A  Depth        GR         CCL         TT3         AMP3        AMP5    
# ...
  1489.0000    134.2166      0.0000    449.0983      5.2389      2.7787
  1489.2500    136.1913      0.0000    450.7170      5.2733      2.7683
  1489.5000    136.4635      0.0000    450.8439      5.2982      2.7474
  1489.7500    136.8421      0.0000    448.9262      5.3042      2.7206
  1490.0000    139.2159      0.0000    446.8116      5.2931      2.6946
  1490.2500    144.0271      0.0000    446.4266      5.2726      2.6753
  1490.5000    150.0923      0.0000    447.6243      5.2496      2.6641
  1490.7500    155.6532      0.0000    448.5418      5.2259      2.6588
  1491.0000    159.2276      0.0000    447.7577      5.1990      2.6553
  1491.2500    159.8148      0.0000    445.6143      5.1684      2.6489
  1491.5000    157.1003      0.0000    443.4332      5.1384      2.6362
  1491.7500    151.7619      0.0000    442.0454      5.1153      2.6173
  1492.0000    145.4090      0.0000    441.3913      5.1020      2.5947
  1492.2500    140.0353      0.0000    441.1303      5.0985      2.5721
  1492.5000    137.1316      0.0000    441.3111      5.1029      2.5540
  1492.7500    136.7403      0.0000    442.7926      5.1083      2.5446
  1493.0000    137.5073      0.0000    447.7528      5.1031      2.5454
  1493.2500    138.0580      0.0000    459.9266      5.0778      2.5531
  1493.5000    138.1601      0.0000    483.1836      5.0333      2.5638
  1493.7500    138.4880      0.0000    517.7728      4.9815      2.5753
  1494.0000    139.7883      0.0000    557.1415      4.9360      2.5858
  1494.2500    142.2478      0.0000    590.1164      4.9017      2.5928
  1494.5000    145.1032      0.0000    608.4224      4.8766      2.5936
  1494.7500    146.9409      0.0000    612.5457      4.8610      2.5868
  1495.0000    146.8415      0.0000    609.9691      4.8598      2.5718
  1495.2500    145.1352      0.0000    608.3052      4.8717      2.5501
  1495.5000    142.8027      0.0000    610.4656      4.8830      2.5255
  1495.7500    140.4933      0.0000    615.0651      4.8756      2.5021
  1496.0000    138.4305      0.0000    619.5981      4.8405      2.4825
  1496.2500    136.8139      0.0000    622.7653      4.7808      2.4687
  1496.5000    135.6945      0.0000    624.7709      4.7082      2.4607
  1496.7500    134.4983      0.0000    626.6098      4.6394      2.4552
  1497.0000    132.2370      0.0000    629.4001      4.5910      2.4484
  1497.2500    128.3786      0.0000    633.7277      4.5709      2.4417
  1497.5000    123.3024      0.0000    638.9770      4.5741      2.4396
  1497.7500    117.8844      0.0000    643.4871      4.5881      2.4412
  1498.0000    112.7630      0.0000    646.1584      4.5988      2.4403
  1498.2500    107.9100      0.0000    647.9827      4.5943      2.4339
  1498.5000    102.9761      0.0000    651.3823      4.5717      2.4259
  1498.7500     98.1890      0.0000    657.8853      4.5456      2.4205
  1499.0000     94.5908      0.0000    666.7532      4.5440      2.4180
  1499.2500     93.2562      0.0000    675.5909      4.5870      2.4179
  1499.5000     94.6336      0.0000    681.8057      4.6721      2.4212
  1499.7500     98.5963      0.0000    683.9717      4.7782      2.4284
  1500.0000    104.6997      0.0000    682.5294      4.8799      2.4367
  1500.2500    112.3401      0.0000    679.1842      4.9575      2.4412
  1500.5000    120.8318      0.0000    675.5472      5.0014      2.4381
  1500.7500    129.3170      0.0000    672.6647      5.0118      2.4266
  1501.0000    136.5886      0.0000    671.4956      4.9943      2.4114
  1501.2500    141.3335      0.0000    672.6757      4.9555      2.4008
  1501.5000    143.1466      0.0000    675.5015      4.9028      2.3999
  1501.7500    143.4818      0.0000    677.9410      4.8438      2.4057
  1502.0000    144.7885      0.0000    678.0413      4.7786      2.4113
  1502.2500    147.7997      0.0000    675.0895      4.6996      2.4133
  1502.5000    149.9893      0.0000    669.5757      4.6053      2.4133
  1502.7500    147.9659      0.0000    662.4509      4.5138      2.4148
  1503.0000    141.7466      0.0000    654.3867      4.4531      2.4206
  1503.2500    135.8040      0.0000    645.6968      4.4368      2.4312
  1503.5000    135.2367      0.0000    637.0460      4.4539      2.4430
  1503.7500    141.2217      0.0000    629.8329      4.4797      2.4514
  1504.0000    150.3991      0.0000    625.4982      4.4949      2.4550
  1504.2500    158.0204      0.0000    624.6471      4.4943      2.4569
  1504.5000    161.2771      0.0000    626.8510      4.4825      2.4596
  1504.7500    160.2188      0.0000    630.8845      4.4654      2.4626
  1505.0000    156.5193      0.0000    635.0160      4.4465      2.4645
  1505.2500    152.0950      0.0000    637.2482      4.4303      2.4651
  1505.5000    148.6974      0.0000    635.0441      4.4252      2.4649
  1505.7500    147.5476      0.0000    624.9088      4.4384      2.4662
  1506.0000    148.3695      0.0000    603.9976      4.4660      2.4739
  1506.2500    149.2266      0.0000    574.7356      4.4944      2.4902
  1506.5000    148.0557      0.0000    548.0339      4.5115      2.5096
  1506.7500    144.2723      0.0000    538.5571      4.5148      2.5234
  1507.0000    138.7423      0.0000    553.4729      4.5099      2.5289
  1507.2500    132.8709      0.0000    585.8139      4.5058      2.5308
  1507.5000    128.0119      0.0000    620.1594      4.5101      2.5350
  1507.7500    125.1159      0.0000    644.5102      4.5267      2.5445
  1508.0000    124.4348      0.0000    656.1204      4.5547      2.5596
  1508.2500    125.6559      0.0000    657.8865      4.5891      2.5777
  1508.5000    128.3150      0.0000    652.4115      4.6233      2.5940
  1508.7500    131.9882      0.0000    640.3187      4.6504      2.6068
  1509.0000    136.2046      0.0000    621.9617      4.6656      2.6167
  1509.2500    140.4160      0.0000    598.4426      4.6664      2.6204
  1509.5000    144.1617      0.0000    571.5792      4.6510      2.6099
  1509.7500    147.0421      0.0000    544.9495      4.6178      2.5837
  1510.0000    148.4232      0.0000    523.8928      4.5664      2.5552
  1510.2500    147.6815      0.0000    510.8058      4.5018      2.5440
  1510.5000    144.9755      0.0000    500.2212      4.4368      2.5598
  1510.7500    141.0445      0.0000    482.5596      4.3924      2.5960
  1511.0000    136.0241      0.0000    454.2066      4.3926      2.6371
  1511.2500    129.3848      0.0000    421.3263      4.4482      2.6682
  1511.5000    121.1535      0.0000    393.3067      4.5417      2.6801
  1511.7500    112.2999      0.0000    375.0164      4.6331      2.6724
  1512.0000    103.9093     -0.6943    365.7671      4.6883      2.6537
  1512.2500     96.6326      0.0000    363.2157      4.6994      2.6375
  1512.5000     90.8684      0.0000    366.8996      4.6845      2.6312
  1512.7500     87.2183      0.0000    378.5501      4.6731      2.6296
  1513.0000     86.7271      0.0000    398.7076      4.6902      2.6210
  1513.2500     90.1802      0.0000    422.0687      4.7414      2.5987
  1513.5000     96.6456      0.0000    437.6022      4.8088      2.5660
  1513.7500    103.2436      0.0000    436.3851      4.8674      2.5312
  1514.0000    107.0778      0.0000    419.7591      4.9041      2.5002
  1514.2500    107.2303      0.0000    397.8618      4.9185      2.4732
  1514.5000    104.7283      0.0000    380.4816      4.9113      2.4477
  1514.7500    101.0831      0.0000    370.9947      4.8816      2.4242
  1515.0000     97.1849      0.0000    367.9298      4.8329      2.4072
  1515.2500     93.3156      0.0000    369.5921      4.7730      2.3994
  1515.5000     89.7414      0.0000    376.8625      4.7080      2.3968
  1515.7500     86.8907      0.0000    393.0193      4.6414      2.3944
  1516.0000     84.9026      0.0000    421.0322      4.5774      2.3940
  1516.2500     83.3208      0.0000    459.8755      4.5227      2.4017
  1516.5000     81.3995      0.0000    503.3203      4.4838      2.4177
  1516.7500     78.5629      0.0000    543.2347      4.4611      2.4331
