~Version Information
VERS.                      2.0: CWLS Log ASCII Standard - VERSION 2.0
WRAP.                       NO: One line per depth step
~Well Information Block
STRT.FT               430.0000: 
STOP.FT              2827.0000: 
STEP.FT                 0.1000: 
NULL.                -999.2500: 
COMP.          Pioneer Natural Resources: COMPANY
WELL.           Ei-ei-oh 31-24: WELL
FLD.           Purgatoire River: FIELD
LOC.           235' FNL & 2001' FEL--: LOCATION
PROV.                 Colorado: PROVINCE
CNTY.               Las Animas: COUNTRY
SRVC.                Patterson: SERVICE COMPANY
DATE.          Thu Jun 16 07:14:41 2005: LOG DATE
UWI.           05 071 08403 00: UNIQUE WELL ID
~Curve Information Block
DEPT.FT            0 000 00 00: Depth
DCAL.in                       : CDL Caliper
DPOR.pu                       : CDL Density Porosity
NPOR.pu                       : Neutron Porosity
RHOB.g/cc                     : CDL Bulk Density
RHOC.g/cc                     : CDL Density Correction
GR.GAPI                       : Gamma Ray
~Parameter Information Block
~A  Depth       DCAL        DPOR        NPOR        RHOB        RHOC         GR     
# ...
  1034.8000      7.9924      3.5277     18.1163      2.5918      0.0416     80.8469
  1034.9000      7.9924      3.9140     18.3175      2.5854      0.0024     75.2755
  1035.0000      7.9919      3.6891     18.5951      2.5891      0.0285     70.8169
  1035.1000      7.9919      3.4494     18.8582      2.5931      0.0706     71.6707
  1035.2000      7.9919      3.9065     19.1219      2.5855      0.0629     76.3418
  1035.3000      7.9917      4.7854     19.4297      2.5710     -0.0023     80.6465
  1035.4000      7.9917      5.5244     19.5791      2.5588      0.0507     83.7684
  1035.5000      7.9917      6.0580     19.2771      2.5500      0.0356     84.8993
  1035.6000      7.9917      6.1690     18.7804      2.5482      0.0488     82.4983
  1035.7000      7.9917      5.8451     18.6444      2.5536      0.0684     79.6203
  1035.8000      7.9913      5.4699     18.6935      2.5597      0.0855     78.8160
  1035.9000      7.9913      5.5158     18.2692      2.5590      0.1130     78.0261
  1036.0000      7.9907      6.2754     17.4443      2.5465      0.0608     75.9512
  1036.1000      7.9907      6.9706     16.8423      2.5350      0.0520     74.1004
  1036.2000      7.9907      6.8797     16.6595      2.5365      0.0867     71.9092
  1036.3000      7.9908      6.5845     16.6073      2.5414      0.0703     66.5561
  1036.4000      7.9908      6.8874     16.7920      2.5364      0.0864     57.9544
  1036.5000      7.9916      7.6353     17.4317      2.5240      0.0617     49.9482
  1036.6000      7.9916      7.8042     18.0457      2.5212      0.0460     46.5280
  1036.7000      7.9916      6.9381     18.0684      2.5355      0.0602     48.2357
  1036.8000      7.9928      6.0953     17.8285      2.5494      0.0981     52.5333
  1036.9000      7.9928      6.0884     17.8770      2.5495      0.0262     56.2817
  1037.0000      7.9946      6.3928     17.8660      2.5445      0.0625     58.5506
  1037.1000      7.9946      6.4821     17.4971      2.5430      0.0410     59.4262
  1037.2000      7.9946      6.3854     17.0881      2.5446      0.0573     58.4984
  1037.3000      7.9972      6.3610     16.7946      2.5450      0.0438     56.6629
  1037.4000      7.9972      6.2219     16.7812      2.5473      0.0515     55.7861
  1037.5000      8.0036      5.9614     17.1639      2.5516      0.0676     56.6964
  1037.6000      8.0036      6.3033     17.7884      2.5460      0.0571     58.8538
  1037.7000      8.0036      7.3532     18.4226      2.5287      0.0306     61.2715
  1037.8000      8.0109      8.2899     18.4761      2.5132      0.0074     63.7335
  1037.9000      8.0109      8.3217     17.7298      2.5127      0.0446     66.1734
  1038.0000      8.0131      7.3314     17.2310      2.5290      0.0555     69.9028
  1038.1000      8.0131      6.0272     17.6648      2.5506      0.0741     73.8248
  1038.2000      8.0131      5.6721     18.2472      2.5564      0.0977     70.9955
  1038.3000      8.0117      6.5031     18.2787      2.5427      0.0328     62.7534
  1038.4000      8.0117      7.4235     18.0870      2.5275      0.0371     56.8491
  1038.5000      8.0120      7.8462     18.0718      2.5205      0.0319     54.5056
  1038.6000      8.0120      7.7171     18.2775      2.5227      0.0332     54.4120
  1038.7000      8.0120      7.0356     18.4236      2.5339      0.0430     56.2801
  1038.8000      8.0153      6.1027     18.2535      2.5493      0.0418     60.7580
  1038.9000      8.0153      5.4902     17.6947      2.5594      0.0662     66.6250
  1039.0000      8.0175      5.3876     16.9484      2.5611      0.0271     70.0715
  1039.1000      8.0175      5.1005     16.3878      2.5658      0.0212     70.1131
  1039.2000      8.0175      4.4529     15.8402      2.5765      0.0472     67.6938
  1039.3000      8.0160      4.3133     15.2166      2.5788      0.0364     63.2271
  1039.4000      8.0160      5.0235     14.9356      2.5671      0.0144     58.6562
  1039.5000      8.0119      5.7938     15.2894      2.5544     -0.0032     57.2052
  1039.6000      8.0119      5.6234     16.0536      2.5572      0.0086     58.7288
  1039.7000      8.0119      4.7927     16.5484      2.5709      0.0424     59.1708
  1039.8000      8.0096      4.7532     16.3873      2.5716      0.0920     56.5832
  1039.9000      8.0096      5.4069     16.2517      2.5608      0.0065     55.0973
  1040.0000      8.0130      5.1355     16.8226      2.5653      0.0322     59.8253
  1040.1000      8.0130      3.8600     17.6508      2.5863      0.0217     65.7249
  1040.2000      8.0130      2.8238     18.3181      2.6034      0.0788     63.0340
  1040.3000      8.0173      2.6692     19.3952      2.6060      0.0372     53.9080
  1040.4000      8.0173      2.9562     20.9054      2.6012      0.0608     46.9078
  1040.5000      8.0181      3.0699     21.8444      2.5993      0.0644     45.3583
  1040.6000      8.0181      2.6037     22.0258      2.6070      0.0665     48.9956
  1040.7000      8.0181      1.1600     22.1202      2.6309      0.0503     56.9593
  1040.8000      8.0177     -1.1476     22.4985      2.6689      0.0576     66.4831
  1040.9000      8.0177     -3.1123     23.3507      2.7014      0.0896     71.6448
  1041.0000      8.0187     -3.1743     24.3253      2.7024      0.1226     70.3470
  1041.1000      8.0187     -1.2186     24.7154      2.6701      0.0409     70.1888
  1041.2000      8.0187      1.2345     24.3173      2.6296      0.0126     77.8596
  1041.3000      8.0201      2.8079     23.4956      2.6037      0.0453     87.9666
  1041.4000      8.0201      2.8039     22.8764      2.6037      0.0340     92.1643
  1041.5000      8.0207      1.6578     22.6085      2.6226      0.0928     92.1364
  1041.6000      8.0207      0.9193     22.4603      2.6348      0.0940     93.7159
  1041.7000      8.0207      0.8686     22.4857      2.6357      0.0437     96.7843
  1041.8000      8.0202      0.6518     22.7648      2.6392      0.0953     96.6324
  1041.9000      8.0202      0.3737     23.1809      2.6438      0.0717     90.4316
  1042.0000      8.0196      0.7515     23.6617      2.6376      0.0796     83.2507
  1042.1000      8.0196      2.1318     23.8636      2.6148      0.0500     84.7932
  1042.2000      8.0196      3.7250     23.6453      2.5885      0.0279     95.9383
  1042.3000      8.0192      4.2881     23.3837      2.5792      0.0437    105.5165
  1042.4000      8.0192      3.6241     23.1775      2.5902      0.0345    105.0310
  1042.5000      8.0193      2.5912     22.9862      2.6072      0.1000    100.9358
  1042.6000      8.0193      1.8883     23.1031      2.6188      0.0844    102.8601
  1042.7000      8.0193      1.2788     23.5867      2.6289      0.0748    106.9976
  1042.8000      8.0206      0.9257     23.8779      2.6347      0.1213    105.0281
  1042.9000      8.0206      1.5121     23.6841      2.6250      0.0445     98.4745
  1043.0000      8.0230      2.2022     23.7171      2.6137      0.0358     96.4450
  1043.1000      8.0230      1.8038     24.5191      2.6202      0.0638    101.4135
  1043.2000      8.0230      0.9132     25.3190      2.6349      0.0856    106.4114
  1043.3000      8.0247      0.9298     25.3428      2.6347      0.0940    108.9469
  1043.4000      8.0247      1.9510     24.5806      2.6178      0.0344    110.1159
  1043.5000      8.0275      2.8283     23.6089      2.6033      0.0665    107.7233
  1043.6000      8.0275      2.8374     22.9961      2.6032      0.0435    102.5357
  1043.7000      8.0275      2.4545     22.5905      2.6095      0.0402     97.9250
  1043.8000      8.0314      2.9059     22.3764      2.6021      0.0623     94.2062
  1043.9000      8.0314      4.1541     22.1054      2.5815     -0.0226     92.0790
  1044.0000      8.0348      4.8798     21.3256      2.5695      0.0320     93.1358
  1044.1000      8.0348      4.8053     20.6271      2.5707      0.0292     96.4772
  1044.2000      8.0348      4.3318     20.6045      2.5785     -0.0016     99.9070
  1044.3000      8.0373      3.6700     20.9435      2.5894      0.0395    104.0587
