~Version Information
VERS.                      2.0: CWLS Log ASCII Standard - VERSION 2.0
WRAP.                       NO: One line per depth step
~Well Information Block
STRT.FT               765.6000: 
STOP.FT              2431.0000: 
STEP.FT                 0.1000: 
NULL.                -999.2500: 
COMP.          Petrogulf Corporation: COMPANY
WELL.             Norton 9-14V: WELL
FLD.           Purgatorie River: FIELD
LOC.           230' FSL & 225' FWL: LOCATION
CNTY.               Las Animas: COUNTY
SRVC.                         : SERVICE COMPANY
DATE.          Thu Oct 28 06:20:25 2004: LOG DATE
UWI.           05 071 07891 00: UNIQUE WELL ID
STAT.                 Colorado: STATE
~Curve Information Block
DEPT.FT            0 000 00 00: Depth
DCAL.in                       : CDL Caliper
RHOB.g/cc                     : CDL Bulk Density
RHOC.g/cc                     : CDL Density Correction
DPOR.pu                       : CDL Density Porosity
GR.GAPI                       : Gamma Ray
NPOR.pu                       : Neutron Porosity
~Parameter Information Block
~A  Depth       DCAL        RHOB        RHOC        DPOR         GR         NPOR    
# ...
  1216.8000      8.1958      2.0406      0.1014     36.9340    137.3432     21.8067
  1216.9000      8.1958      2.0674      0.1423     35.3112    139.2826     21.5386
  1217.0000      8.2002      2.0629      0.1284     35.5844    137.5870     21.0871
  1217.1000      8.2002      2.0299      0.1159     37.5817    133.5475     20.4597
  1217.2000      8.2002      1.9792      0.0408     40.6522    128.8194     19.6130
  1217.3000      8.2042      1.9299     -0.0392     43.6450    122.8296     18.5859
  1217.4000      8.2042      1.9000     -0.0422     45.4552    119.3801     17.1300
  1217.5000      8.2080      1.8994     -0.0006     45.4899    122.0122     15.5220
  1217.6000      8.2080      1.9483     -0.0285     42.5274    128.3805     14.4054
  1217.7000      8.2080      2.0737      0.0931     34.9291    134.2310     13.7897
  1217.8000      8.2243      2.2558      0.3331     23.8935    135.5727     13.4545
  1217.9000      8.2243      2.4193      0.5612     13.9814    133.6721     13.2636
  1218.0000      8.2490      2.5027      0.6404      8.9267    133.2773     13.1556
  1218.1000      8.2490      2.4986      0.5791      9.1745    132.6921     13.4105
  1218.2000      8.2490      2.4356      0.4380     12.9921    129.7299     14.2609
  1218.3000      8.2915      2.3598      0.2408     17.5879    126.8686     15.5917
  1218.4000      8.2915      2.3114      0.1384     20.5234    125.5851     17.2296
  1218.5000      8.2393      2.2923      0.1779     21.6765    126.6397     19.0401
  1218.6000      8.2393      2.2828      0.0937     22.2558    130.8303     20.5058
  1218.7000      8.2393      2.2781      0.1102     22.5415    134.7391     21.2165
  1218.8000      8.2132      2.2818      0.1470     22.3135    134.1781     21.7654
  1218.9000      8.2132      2.2970      0.1018     21.3929    131.0260     22.8052
  1219.0000      8.1880      2.3286      0.0714     19.4788    129.9011     23.9941
  1219.1000      8.1880      2.3796      0.0807     16.3859    130.1523     24.6912
  1219.2000      8.1880      2.4417      0.1197     12.6249    129.6719     24.8095
  1219.3000      8.1828      2.4939      0.1328      9.4621    131.6825     24.5814
  1219.4000      8.1828      2.5236      0.1261      7.6623    136.7544     24.3829
  1219.5000      8.1999      2.5282      0.1429      7.3840    139.1664     24.4939
  1219.6000      8.1999      2.5143      0.0673      8.2265    137.5896     24.5701
  1219.7000      8.1999      2.5029      0.0581      8.9173    135.9631     24.3846
  1219.8000      8.2098      2.5045      0.0428      8.8193    134.5775     24.1629
  1219.9000      8.2098      2.5143     -0.0194      8.2265    130.9058     23.9515
  1220.0000      8.1980      2.5319      0.0486      7.1581    126.0901     23.7372
  1220.1000      8.1980      2.5577      0.0542      5.5951    124.6123     23.5428
  1220.2000      8.1980      2.5853      0.0610      3.9185    127.6522     23.2862
  1220.3000      8.1992      2.5988      0.0830      3.1049    130.8640     22.9968
  1220.4000      8.1992      2.5834      0.0530      4.0392    130.5791     22.7203
  1220.5000      8.2046      2.5506      0.0292      6.0221    127.4532     22.3190
  1220.6000      8.2046      2.5282      0.0056      7.3843    123.5485     21.8107
  1220.7000      8.2046      2.5233      0.0451      7.6806    120.8047     21.6859
  1220.8000      8.2130      2.5246     -0.0168      7.6002    118.9935     22.3586
  1220.9000      8.2130      2.5333      0.0352      7.0707    116.2835     23.4931
  1221.0000      8.2344      2.5552      0.0442      5.7467    113.9911     24.3563
  1221.1000      8.2344      2.5840      0.0474      3.9994    115.6979     24.6262
  1221.2000      8.2344      2.6076      0.0861      2.5689    119.4878     24.6572
  1221.3000      8.2424      2.6168      0.0945      2.0132    117.6816     24.6723
  1221.4000      8.2424      2.6132      0.0692      2.2316    108.7882     24.4557
  1221.5000      8.1964      2.6077      0.1053      2.5619    101.4731     24.1768
  1221.6000      8.1964      2.6083      0.0897      2.5259    100.4711     24.0320
  1221.7000      8.1964      2.6128      0.1171      2.2526    104.1771     23.8127
  1221.8000      8.1149      2.6250      0.0903      1.5146    111.9239     23.0144
  1221.9000      8.1149      2.6454      0.1510      0.2802    118.9420     21.6445
  1222.0000      8.0864      2.6528      0.1811     -0.1671    119.9959     20.5132
  1222.1000      8.0864      2.6369      0.1525      0.7958    116.2089     20.1401
  1222.2000      8.0864      2.6140      0.1155      2.1823    110.6179     20.3287
  1222.3000      8.0853      2.5953      0.1406      3.3153    107.5166     20.3128
  1222.4000      8.0853      2.5689      0.0881      4.9128    108.8479     19.5511
  1222.5000      8.0857      2.5299      0.0832      7.2787    114.9624     18.4608
  1222.6000      8.0857      2.4974      0.1173      9.2493    125.8428     17.7465
  1222.7000      8.0857      2.4935      0.0897      9.4833    134.5198     17.4025
  1222.8000      8.0878      2.5111      0.1552      8.4152    133.4917     17.0463
  1222.9000      8.0878      2.5199      0.1725      7.8827    128.3819     16.7722
  1223.0000      8.0931      2.5133      0.1752      8.2846    128.4632     16.7976
  1223.1000      8.0931      2.5153      0.1305      8.1661    130.8036     17.1594
  1223.2000      8.0931      2.5333      0.2450      7.0710    130.7213     17.8177
  1223.3000      8.0951      2.5313      0.3052      7.1949    132.3795     18.4185
  1223.4000      8.0951      2.4837      0.2707     10.0813    135.9396     18.9084
  1223.5000      8.0884      2.4206      0.1246     13.9016    134.6912     19.6817
  1223.6000      8.0884      2.3748      0.1696     16.6814    129.3057     20.5459
  1223.7000      8.0884      2.3396      0.1066     18.8145    126.5071     21.0044
  1223.8000      8.0912      2.3104      0.0705     20.5815    128.9643     20.9204
  1223.9000      8.0912      2.3010      0.0347     21.1533    135.1317     20.6451
  1224.0000      8.0849      2.3152      0.1325     20.2882    139.3851     20.9028
  1224.1000      8.0849      2.3420      0.1008     18.6672    136.1530     22.1032
  1224.2000      8.0849      2.3680      0.1557     17.0893    127.9150     23.6377
  1224.3000      8.0857      2.3889      0.1617     15.8244    120.7619     24.5263
  1224.4000      8.0857      2.4160      0.1535     14.1823    117.4527     24.9190
  1224.5000      8.0843      2.4511      0.1725     12.0550    117.9167     25.6239
  1224.6000      8.0843      2.4821      0.1693     10.1741    120.7311     26.4712
  1224.7000      8.0843      2.5097      0.1074      8.5051    124.6372     26.7612
  1224.8000      8.0794      2.5326      0.1897      7.1148    127.8455     26.4810
  1224.9000      8.0794      2.5403      0.1250      6.6496    127.9422     26.2628
  1225.0000      8.0787      2.5474      0.0713      6.2195    125.2025     26.4186
  1225.1000      8.0787      2.5706      0.0932      4.8130    121.2884     26.5699
  1225.2000      8.0787      2.5917      0.1537      3.5336    118.0913     26.5979
  1225.3000      8.0770      2.5934      0.1230      3.4317    115.5659     26.7002
  1225.4000      8.0770      2.5846      0.1235      3.9643    112.1702     26.5821
  1225.5000      8.0685      2.5821      0.1145      4.1156    108.8095     26.1513
  1225.6000      8.0685      2.6006      0.1135      2.9913    107.6525     25.9020
  1225.7000      8.0685      2.6311      0.1115      1.1460    107.6436     25.8719
  1225.8000      8.0689      2.6439      0.1345      0.3697    104.6533     25.7273
  1225.9000      8.0689      2.6366      0.0728      0.8146    100.3298     25.4687
  1226.0000      8.0693      2.6320      0.0619      1.0910    101.2269     25.1057
  1226.1000      8.0693      2.6276      0.0593      1.3565    105.3811     24.3956
  1226.2000      8.0693      2.6005      0.1005      2.9990    105.3297     23.4775
  1226.3000      8.0677      2.5581      0.0030      5.5670    100.0546     22.6473
