~Version Information
VERS.                      2.0: CWLS Log ASCII Standard - VERSION 2.0
WRAP.                       NO: One line per depth step
~Well Information Block
STRT.FT               258.0000: 
STOP.FT               998.2000: 
STEP.FT                 0.1000: 
NULL.                -999.2500: 
COMP.          Pioneer Natural Resources: COMPANY
WELL.          Piggyback 33-25: WELL
FLD.           Purgatoire River: FIELD
LOC.           1600' FSL & 1800' FEL: LOCATION
PROV.                 Colorado: PROVINCE
CNTY.               Las Animas: COUNTRY
SRVC.                Patterson: SERVICE COMPANY
DATE.          Fri Apr 29 16:11:48 2005: LOG DATE
UWI.           05 071 08233 00: UNIQUE WELL ID
~Curve Information Block
DEPT.FT            0 000 00 00: Depth
DCAL.in                       : CDL Caliper
RHOB.g/cc                     : CDL Bulk Density
RHOC.g/cc                     : CDL Density Correction
DPOR.pu                       : CDL Density Porosity
GR.GAPI                       : Gamma Ray
NPOR.pu                       : Neutron Porosity
~Parameter Information Block
~A  Depth       DCAL        RHOB        RHOC        DPOR         GR         NPOR    
# ...
   891.6000      7.8301      2.5560      0.0160      5.6980     52.9126     16.4855
   891.7000      7.8301      2.5257      0.0216      7.5319     52.8016     17.2507
   891.8000      7.8265      2.4994      0.0006      9.1253     52.1633     18.8233
   891.9000      7.8265      2.4735      0.0329     10.6951     51.1379     20.4440
   892.0000      7.8362      2.4493     -0.0509     12.1660     50.9766     21.5582
   892.1000      7.8362      2.4391     -0.0113     12.7796     53.4038     22.2873
   892.2000      7.8362      2.4410      0.0340     12.6695     57.0122     22.5897
   892.3000      7.8385      2.4423      0.0179     12.5883     59.3941     22.2254
   892.4000      7.8385      2.4406      0.0366     12.6935     62.3504     21.6013
   892.5000      7.8378      2.4418      0.0396     12.6177     67.2188     21.3538
   892.6000      7.8378      2.4623      0.0190     11.3772     70.5265     21.7529
   892.7000      7.8378      2.5004      0.1203      9.0656     71.2021     22.5784
   892.8000      7.8352      2.5210      0.1493      7.8156     70.7921     23.4969
   892.9000      7.8352      2.5121      0.0653      8.3577     70.0764     24.3486
   893.0000      7.8361      2.4973      0.0964      9.2541     70.2735     24.9626
   893.1000      7.8361      2.4859      0.1162      9.9442     70.8862     25.0579
   893.2000      7.8361      2.4765      0.0861     10.5150     70.3111     24.7106
   893.3000      7.8298      2.4731      0.0861     10.7199     70.0421     24.2593
   893.4000      7.8298      2.4736      0.0738     10.6918     71.6887     23.6855
   893.5000      7.8404      2.4726      0.0145     10.7526     73.4903     23.1602
   893.6000      7.8404      2.4686      0.0317     10.9929     73.2850     22.9441
   893.7000      7.8404      2.4648      0.0494     11.2227     71.6795     23.0193
   893.8000      7.8512      2.4715      0.0117     10.8191     71.0047     23.1174
   893.9000      7.8512      2.4883      0.0561      9.8027     70.2886     22.5949
   894.0000      7.8492      2.4925      0.1125      9.5437     67.9642     21.7949
   894.1000      7.8492      2.4721      0.0731     10.7840     65.8366     21.7680
   894.2000      7.8492      2.4446      0.0491     12.4508     62.9549     22.5627
   894.3000      7.8520      2.4361      0.0253     12.9658     59.0909     23.2502
   894.4000      7.8520      2.4514      0.0755     12.0371     57.0990     23.3430
   894.5000      7.8472      2.4661      0.0804     11.1439     57.9691     23.3876
   894.6000      7.8472      2.4595      0.0530     11.5439     61.4687     23.7426
   894.7000      7.8472      2.4440      0.0219     12.4831     65.0736     23.7219
   894.8000      7.8306      2.4465     -0.0073     12.3350     65.8721     23.0571
   894.9000      7.8306      2.4762      0.0525     10.5328     67.2996     22.5184
   895.0000      7.8196      2.5141      0.1205      8.2351     72.8611     22.6684
   895.1000      7.8196      2.5327      0.0930      7.1102     79.1713     23.2627
   895.2000      7.8196      2.5350      0.0336      6.9679     82.1391     23.9054
   895.3000      7.8187      2.5478      0.0712      6.1951     84.8228     24.6010
   895.4000      7.8187      2.5667      0.1273      5.0456     90.1318     25.0567
   895.5000      7.8202      2.5622      0.0854      5.3220     93.5920     25.2434
   895.6000      7.8202      2.5351      0.0623      6.9651     94.3727     25.5918
   895.7000      7.8202      2.5092      0.0769      8.5345     95.1411     25.3254
   895.8000      7.8162      2.4985      0.0559      9.1799     95.8304     23.8962
   895.9000      7.8162      2.5064      0.0409      8.7012     97.3899     22.8978
   896.0000      7.8096      2.5246      0.0727      7.6008     99.2625     23.3251
   896.1000      7.8096      2.5395      0.0559      6.6953     99.7492     24.4464
   896.2000      7.8096      2.5430      0.0942      6.4842    101.3276     25.2785
   896.3000      7.8377      2.5310      0.1106      7.2137    103.1476     25.5371
   896.4000      7.8377      2.5130      0.0752      8.3050    101.7988     25.5859
   896.5000      7.8341      2.5060      0.0820      8.7254    100.9045     25.4091
   896.6000      7.8341      2.5051      0.1177      8.7842    104.6207     24.7846
   896.7000      7.8341      2.5027      0.0400      8.9251    108.0923     24.2378
   896.8000      7.8058      2.5089      0.0617      8.5534    107.4279     24.4435
   896.9000      7.8058      2.5262      0.0672      7.5006    107.6888     25.0943
   897.0000      7.8080      2.5494      0.1308      6.0994    110.7151     25.8273
   897.1000      7.8080      2.5669      0.1462      5.0355    111.5083     26.7589
   897.2000      7.8080      2.5717      0.1202      4.7476    109.2541     27.7212
   897.3000      7.8141      2.5754      0.1204      4.5194    106.7561     28.2853
   897.4000      7.8141      2.5860      0.1143      3.8777    102.9453     28.3639
   897.5000      7.8261      2.5860      0.1599      3.8781     98.4743     28.2694
   897.6000      7.8261      2.5583      0.1077      5.5568    100.4291     28.1620
   897.7000      7.8261      2.5227      0.1143      7.7181    109.0266     27.9122
   897.8000      7.8303      2.5092      0.0976      8.5333    113.6319     27.7297
   897.9000      7.8303      2.5159      0.0712      8.1251    109.7530     27.8604
   898.0000      7.8371      2.5202      0.1358      7.8659    106.0087     28.0985
   898.1000      7.8371      2.5195      0.0356      7.9099    108.4966     28.4150
   898.2000      7.8371      2.5257      0.0957      7.5343    113.1278     28.7076
   898.3000      7.8412      2.5312      0.0929      7.1971    115.9753     28.7941
   898.4000      7.8412      2.5300      0.0782      7.2754    116.1176     28.0577
   898.5000      7.8392      2.5345      0.0554      6.9981    112.5042     26.3662
   898.6000      7.8392      2.5442      0.1264      6.4095    106.8078     25.1718
   898.7000      7.8392      2.5419      0.0732      6.5505    101.9643     25.2443
   898.8000      7.8230      2.5260      0.0894      7.5157     99.4414     26.0638
   898.9000      7.8230      2.5107      0.0624      8.4450     98.9078     26.7626
   899.0000      7.8107      2.5119      0.0549      8.3685     97.9096     26.6627
   899.1000      7.8107      2.5320      0.1106      7.1541     94.8246     26.3847
   899.2000      7.8107      2.5556      0.0899      5.7192     92.0788     26.5358
   899.3000      7.8136      2.5729      0.1022      4.6736     91.9352     26.4768
   899.4000      7.8136      2.5846      0.1158      3.9627     92.0863     25.5819
   899.5000      7.8019      2.5932      0.1092      3.4409     90.7612     24.5278
   899.6000      7.8019      2.6037      0.0944      2.8072     88.0347     24.4143
   899.7000      7.8019      2.6180      0.1019      1.9386     84.2199     25.0159
   899.8000      7.8175      2.6260      0.1631      1.4524     81.3830     25.3239
   899.9000      7.8175      2.6206      0.1495      1.7819     79.9287     25.1525
   900.0000      7.7934      2.6048      0.1957      2.7402     77.6670     24.9726
   900.1000      7.7934      2.5796      0.1383      4.2673     76.1848     25.0246
   900.2000      7.7934      2.5534      0.1015      5.8544     78.0127     25.1385
   900.3000      7.7753      2.5364      0.0696      6.8869     82.9828     25.0199
   900.4000      7.7753      2.5274      0.0724      7.4304     89.6721     24.5834
   900.5000      7.7867      2.5254      0.0928      7.5488     94.3255     24.1834
   900.6000      7.7867      2.5363      0.1070      6.8936     94.2202     24.0530
   900.7000      7.7867      2.5576      0.0846      5.6023     91.7936     24.0354
   900.8000      7.8247      2.5699      0.1169      4.8555     87.8643     24.3406
   900.9000      7.8247      2.5651      0.0753      5.1475     82.7493     24.8125
   901.0000      7.8450      2.5576      0.1124      5.5976     78.6219     24.7402
   901.1000      7.8450      2.5533      0.1292      5.8583     74.5222     24.2673
