~Version Information
VERS.                      2.0: CWLS Log ASCII Standard - VERSION 2.0
WRAP.                       NO: One line per depth step
~Well Information Block
STRT.FT               298.0000: 
STOP.FT              1325.5000: 
STEP.FT                 0.2500: 
NULL.                -999.2500: 
COMP.          Pioneer Natural Resources: COMPANY
WELL.          Santa Fe 43-27 Tr: WELL
FLD.           Purgatoire River: FIELD
LOC.           2018' FSL & 534' FEL: LOCATION
PROV.                 Colorado: PROVINCE
CNTY.               Las Animas: COUNTRY
SRVC.                Patterson: SERVICE COMPANY
DATE.          Tue Mar 08 10:44:11 2005: LOG DATE
UWI.           05 071 08303 00: UNIQUE WELL ID
~Curve Information Block
DEPT.FT            0 000 00 00: Depth
SN.Ohm-m                      : IEL Short Normal
SP.mV                         : IEL Spontaneous Potential
DIR.Ohm-m                     : IEL Induction Resistivity
GR.GAPI                       : Gamma Ray
~Parameter Information Block
~A  Depth        SN          SP         DIR          GR     
# ...
  1236.0000     10.8334     51.9614      9.8052    144.2053
  1236.2500     10.7942     52.2613      9.8598    142.5491
  1236.5000     10.7434     52.5498      9.9348    139.4177
  1236.7500     10.7618     52.7961     10.0353    137.6416
  1237.0000     10.9112     52.9824     10.1695    135.4161
  1237.2500     11.1634     53.1074     10.3477    133.5340
  1237.5000     11.4573     53.1840     10.5817    129.1763
  1237.7500     11.7873     53.2321     10.8821    125.3715
  1238.0000     12.2012     53.2659     11.2563    119.1117
  1238.2500     12.7446     53.2851     11.7064    114.7673
  1238.5000     13.4326     53.2759     12.2293    107.6340
  1238.7500     14.2735     53.2209     12.8205    102.2158
  1239.0000     15.2947     53.1111     13.4756     93.2152
  1239.2500     16.5011     52.9457     14.1877     86.9688
  1239.5000     17.8409     52.7225     14.9448     77.6593
  1239.7500     19.2960     52.4289     15.7319     71.4891
  1240.0000     20.9464     52.0464     16.5389     62.2672
  1240.2500     22.8146     51.5653     17.3671     56.4354
  1240.5000     24.7260     51.0016     18.2250     49.1563
  1240.7500     26.4545     50.4027     19.1177     45.8649
  1241.0000     27.8963     49.8338     20.0362     43.7711
  1241.2500     29.0372     49.3534     20.9559     44.1227
  1241.5000     29.8734     48.9912     21.8452     46.2687
  1241.7500     30.4031     48.7418     22.6754     48.0010
  1242.0000     30.6326     48.5745     23.4230     50.1879
  1242.2500     30.5820     48.4490     24.0613     51.3704
  1242.5000     30.3075     48.3336     24.5492     53.1558
  1242.7500     29.9009     48.2155     24.8271     54.4138
  1243.0000     29.4500     48.1033     24.8267     55.8663
  1243.2500     29.0054     48.0175     24.4892     56.0245
  1243.5000     28.5718     47.9774     23.7930     54.3207
  1243.7500     28.1172     47.9885     22.7747     51.8185
  1244.0000     27.5820     48.0388     21.5325     46.8020
  1244.2500     26.8770     48.1051     20.1996     43.6282
  1244.5000     25.8990     48.1673     18.9027     41.5738
  1244.7500     24.5793     48.2171     17.7275     43.5580
  1245.0000     22.9335     48.2584     16.7080     53.4216
  1245.2500     21.0768     48.2991     15.8340     64.4976
  1245.5000     19.1932     48.3448     15.0700     85.0232
  1245.7500     17.4591     48.3958     14.3742     98.6300
  1246.0000     15.9647     48.4482     13.7134    114.8690
  1246.2500     14.7078     48.4976     13.0707    121.9191
  1246.5000     13.6502     48.5421     12.4466    127.5261
  1246.7500     12.7671     48.5807     11.8554    128.9756
  1247.0000     12.0567     48.6107     11.3169    129.1409
  1247.2500     11.5167     48.6261     10.8476    128.3279
  1247.5000     11.1252     48.6198     10.4542    126.0604
  1247.7500     10.8522     48.5867     10.1331    124.1150
  1248.0000     10.6720     48.5240      9.8739    121.4259
  1248.2500     10.5631     48.4274      9.6654    120.3769
  1248.5000     10.5059     48.2900      9.4994    120.2858
  1248.7500     10.4806     48.1083      9.3721    120.8189
  1249.0000     10.4567     47.8897      9.2816    121.2482
  1249.2500     10.3918     47.6552      9.2249    120.7478
  1249.5000     10.2662     47.4337      9.1968    119.0705
  1249.7500     10.1114     47.2519      9.1909    118.2009
  1250.0000      9.9774     47.1244      9.2013    118.9508
  1250.2500      9.8916     47.0476      9.2225    121.1146
  1250.5000      9.8515     47.0033      9.2486    125.7559
  1250.7500      9.8348     46.9692      9.2745    128.7811
  1251.0000      9.8193     46.9308      9.2992    132.2563
  1251.2500      9.7958     46.8902      9.3279    133.8792
  1251.5000      9.7634     46.8665      9.3705    135.4684
  1251.7500      9.7293     46.8886      9.4348    135.8191
  1252.0000      9.7102     46.9826      9.5218    134.7994
  1252.2500      9.7214     47.1587      9.6237    133.0283
  1252.5000      9.7665     47.4023      9.7286    129.2618
  1252.7500      9.8463     47.6761      9.8268    126.4620
  1253.0000      9.9724     47.9373      9.9149    122.2803
  1253.2500     10.1527     48.1610      9.9954    119.5949
  1253.5000     10.3681     48.3512     10.0715    116.0245
  1253.7500     10.5911     48.5329     10.1443    114.1698
  1254.0000     10.8069     48.7308     10.2119    112.0154
  1254.2500     11.0016     48.9515     10.2730    110.6303
  1254.5000     11.1587     49.1800     10.3283    108.5707
  1254.7500     11.2728     49.3919     10.3812    107.7995
  1255.0000     11.3497     49.5693     10.4374    108.7973
  1255.2500     11.3962     49.7103     10.5027    111.1603
  1255.5000     11.4173     49.8264     10.5796    116.6864
  1255.7500     11.4094     49.9317     10.6639    121.0224
  1256.0000     11.3577     50.0306     10.7443    127.3177
  1256.2500     11.2577     50.1127     10.8075    130.9132
  1256.5000     11.1285     50.1594     10.8451    135.1990
  1256.7500     10.9914     50.1556     10.8570    137.3305
  1257.0000     10.8583     50.1011     10.8475    139.1441
  1257.2500     10.7453     50.0155     10.8194    139.0895
  1257.5000     10.6784     49.9338     10.7730    136.8731
  1257.7500     10.6808     49.8964     10.7110    134.3079
  1258.0000     10.7594     49.9296     10.6438    130.1253
  1258.2500     10.8973     50.0244     10.5884    128.0113
  1258.5000     11.0516     50.1328     10.5635    127.0357
  1258.7500     11.1631     50.1881     10.5837    128.0595
  1259.0000     11.1982     50.1341     10.6569    131.4156
  1259.2500     11.1769     49.9433     10.7835    134.0245
  1259.5000     11.1369     49.6219     10.9563    137.0231
  1259.7500     11.1058     49.2078     11.1626    137.8771
  1260.0000     11.1316     48.7550     11.3903    137.1312
  1260.2500     11.2880     48.3087     11.6326    135.2877
  1260.5000     11.6237     47.8889     11.8904    130.6976
  1260.7500     12.1303     47.4964     12.1694    126.6834
  1261.0000     12.7527     47.1279     12.4729    119.7107
  1261.2500     13.4150     46.7799     12.7968    114.4465
  1261.5000     14.0541     46.4471     13.1290    105.1530
  1261.7500     14.6449     46.1260     13.4572     97.8103
  1262.0000     15.1820     45.8204     13.7770     85.4094
  1262.2500     15.6553     45.5399     14.0943     76.7814
  1262.5000     16.0721     45.2930     14.4194     64.4740
  1262.7500     16.4759     45.0823     14.7576     57.3504
  1263.0000     16.8992     44.9045     15.1072     49.2413
  1263.2500     17.3158     44.7520     15.4638     45.9095
  1263.5000     17.6634     44.6153     15.8256     44.0253
  1263.7500     17.9029     44.4863     16.1912     44.3708
  1264.0000     18.0408     44.3605     16.5541     45.7772
  1264.2500     18.1048     44.2355     16.8975     46.3578
  1264.5000     18.1267     44.1041     17.1957     45.7721
  1264.7500     18.1412     43.9515     17.4216     44.4721
  1265.0000     18.1697     43.7635     17.5572     41.9171
  1265.2500     18.2156     43.5434     17.6025     40.2521
  1265.5000     18.2814     43.3192     17.5786     38.1072
  1265.7500     18.3676     43.1287     17.5192     36.8448
  1266.0000     18.4662     42.9985     17.4553     35.0439
  1266.2500     18.5670     42.9344     17.4025     33.9379
  1266.5000     18.6639     42.9275     17.3613     32.6739
  1266.7500     18.7531     42.9641     17.3292     32.2324
  1267.0000     18.8254     43.0309     17.3134     32.1700
  1267.2500     18.8653     43.1165     17.3316     32.3858
  1267.5000     18.8552     43.2113     17.4028     32.8563
  1267.7500     18.7748     43.3099     17.5336     33.2610
  1268.0000     18.6350     43.4145     17.7111     34.1428
  1268.2500     18.5193     43.5401     17.9062     34.9260
  1268.5000     18.5119     43.7088     18.0843     36.1869
  1268.7500     18.5955     43.9331     18.2165     36.9354
  1269.0000     18.6995     44.2028     18.2847     37.8188
  1269.2500     18.7893     44.4874     18.2871     38.2878
