~Version Information
VERS.                      2.0: CWLS Log ASCII Standard - VERSION 2.0
WRAP.                       NO: One line per depth step
~Well Information Block
STRT.FT               454.0000: 
STOP.FT              1389.0000: 
STEP.FT                 0.1000: 
NULL.                -999.2500: 
COMP.          Pioneer Natural Resources: COMPANY
WELL.          Lorencito 6-3-34-66: WELL
FLD.           Purgatoire River: FIELD
LOC.           2545' FNL & 1914' FWL: LOCATION
STAT.                 Colorado: State
CNTY.               Las Animas: COUNTY
CTRY. USA : Country
SECT. 3 : Section
TOWN. 34S : Township
RANG. 66W : Range
SRVC.                Patterson: SERVICE COMPANY
DATE.          Mon Sep 12 07:20:37 2005: LOG DATE
API.        05 071 08369 00: UNIQUE WELL ID
~Curve Information Block
DEPT.FT            0 000 00 00: Depth
DCAL.in                       : CDL Caliper
RHOB.g/cc                     : CDL Bulk Density
RHOC.g/cc                     : CDL Density Correction
DPOR.pu                       : CDL Density Porosity
GR.GAPI                       : Gamma Ray
NPOR.pu                       : Neutron Porosity
~Parameter Information Block
~A  Depth       DCAL        RHOB        RHOC        DPOR         GR         NPOR    
# ...
  1126.0000      8.0398      2.0405      0.0127     36.9411    108.1850     28.9917
  1126.1000      8.0398      2.0758      0.0571     34.7986    100.8262     29.2645
  1126.2000      8.0398      2.1214      0.0799     32.0339     95.0457     29.6181
  1126.3000      8.0243      2.1712      0.1319     29.0184     92.7751     30.5898
  1126.4000      8.0243      2.2227      0.1087     25.8971     93.6961     31.5269
  1126.5000      8.0694      2.2727      0.1822     22.8668     97.7882     31.2884
  1126.6000      8.0694      2.3154      0.1234     20.2791    104.1430     29.8673
  1126.7000      8.0694      2.3569      0.0978     17.7663    109.8871     28.4668
  1126.8000      8.1001      2.3968      0.1292     15.3455    113.3586     28.2313
  1126.9000      8.1001      2.4139      0.1548     14.3110    113.7757     28.8445
  1127.0000      8.0325      2.4017      0.0880     15.0465    111.9519     29.2502
  1127.1000      8.0325      2.3765      0.1000     16.5740    112.4713     29.3568
  1127.2000      8.0325      2.3445      0.0747     18.5129    118.9201     29.1823
  1127.3000      7.9509      2.3021      0.0785     21.0829    124.0502     28.7139
  1127.4000      7.9509      2.2537      0.0055     24.0196    120.9853     28.3554
  1127.5000      7.9637      2.2158      0.0120     26.3136    117.3004     28.1074
  1127.6000      7.9637      2.1963      0.0092     27.4943    120.8725     27.8645
  1127.7000      7.9637      2.1859      0.0219     28.1255    125.7072     27.2545
  1127.8000      8.0202      2.1776      0.0323     28.6333    124.1338     26.1918
  1127.9000      8.0202      2.1851     -0.0284     28.1788    118.7908     25.6855
  1128.0000      8.1091      2.2280      0.0190     25.5779    117.7649     26.1995
  1128.1000      8.1091      2.2956      0.0976     21.4770    121.4350     27.2103
  1128.2000      8.1091      2.3624      0.1115     17.4330    123.2753     27.9574
  1128.3000      8.0580      2.4161      0.1451     14.1748    120.0034     27.6416
  1128.4000      8.0580      2.4495      0.1462     12.1531    111.0771     26.5079
  1128.5000      8.0621      2.4633      0.0960     11.3147     99.5732     25.6176
  1128.6000      8.0621      2.4725      0.0750     10.7546     94.6870     25.2413
  1128.7000      8.0621      2.4845      0.0397     10.0332    100.4246     25.1709
  1128.8000      8.0868      2.4926      0.0742      9.5366    107.6185     25.3776
  1128.9000      8.0868      2.4970      0.0300      9.2717    108.2150     25.3800
  1129.0000      8.0627      2.5017      0.0551      8.9891    107.0618     24.8263
  1129.1000      8.0627      2.5015      0.0188      8.9972    109.3626     24.1726
  1129.2000      8.0627      2.4941      0.0243      9.4514    112.5152     23.9634
  1129.3000      8.1323      2.4866      0.0172      9.9048    111.5167     24.1273
  1129.4000      8.1323      2.4904      0.0283      9.6740    106.6744     24.2894
  1129.5000      8.1336      2.5119      0.0296      8.3709    101.6912     24.0250
  1129.6000      8.1336      2.5417      0.0605      6.5648     96.1710     23.3537
  1129.7000      8.1336      2.5596      0.0967      5.4796     89.3010     23.3498
  1129.8000      8.0621      2.5579      0.0783      5.5823     86.4396     24.5334
  1129.9000      8.0621      2.5483      0.0597      6.1655     90.3873     25.6168
  1130.0000      8.0529      2.5470      0.0703      6.2447     93.5402     25.7411
  1130.1000      8.0529      2.5563      0.0959      5.6812     90.5467     25.3383
  1130.2000      8.0529      2.5578      0.1067      5.5891     86.9801     24.6555
  1130.3000      8.0430      2.5432      0.0635      6.4743     90.2430     24.2950
  1130.4000      8.0430      2.5284      0.0855      7.3683     99.7260     24.9505
  1130.5000      7.9879      2.5198      0.0883      7.8882    107.9801     26.1150
  1130.6000      7.9879      2.5128      0.0700      8.3140    108.9347     26.6083
  1130.7000      7.9879      2.5174      0.0429      8.0389    103.9420     26.1765
  1130.8000      7.9457      2.5418      0.1289      6.5598    100.0970     25.2890
  1130.9000      7.9457      2.5671      0.1295      5.0231     99.2807     24.1617
  1131.0000      7.9608      2.5685      0.1257      4.9389     97.5384     23.4101
  1131.1000      7.9608      2.5439      0.0572      6.4307     94.4112     23.9480
  1131.2000      7.9608      2.5132      0.0484      8.2888     92.8609     25.7375
  1131.3000      7.8887      2.4956      0.0434      9.3600     96.6581     27.0070
  1131.4000      7.8887      2.4938      0.0972      9.4667    105.9831     26.7118
  1131.5000      7.9708      2.4984      0.0710      9.1905    114.5423     26.3912
  1131.6000      7.9708      2.4995      0.0354      9.1188    116.3795     26.4688
  1131.7000      7.9708      2.4885      0.0650      9.7900    112.9881     26.2016
  1131.8000      8.0271      2.4610      0.0626     11.4543    108.2584     26.0330
  1131.9000      8.0271      2.4280      0.0238     13.4530    102.0916     26.1965
  1132.0000      8.0001      2.4080     -0.0469     14.6662     94.8044     26.2675
  1132.1000      8.0001      2.4065     -0.0053     14.7598     90.7639     26.1611
  1132.2000      8.0001      2.4046      0.0488     14.8719     92.0176     26.1553
  1132.3000      8.0303      2.3938     -0.0243     15.5248     95.3190     26.3596
  1132.4000      8.0303      2.3884      0.0163     15.8567     99.1934     26.3394
  1132.5000      8.0189      2.3915      0.0088     15.6647    105.1273     26.0766
  1132.6000      8.0189      2.3970     -0.0044     15.3328    110.3716     26.1013
  1132.7000      8.0189      2.4068      0.0281     14.7401    112.4660     26.4351
  1132.8000      8.0607      2.4285      0.0043     13.4218    113.3753     26.6690
  1132.9000      8.0607      2.4583      0.0335     11.6205    112.2664     26.4488
  1133.0000      8.0730      2.4741      0.0911     10.6600    107.4229     25.9157
  1133.1000      8.0730      2.4651      0.0491     11.2057     97.8697     25.2712
  1133.2000      8.0730      2.4490      0.0475     12.1822     87.1435     24.4973
  1133.3000      8.0836      2.4423      0.0274     12.5882     82.1607     23.9355
  1133.4000      8.0836      2.4430      0.0443     12.5424     80.0551     23.4907
  1133.5000      8.1149      2.4475      0.0369     12.2721     73.9325     22.6941
  1133.6000      8.1149      2.4558      0.0529     11.7687     67.4709     22.1256
  1133.7000      8.1149      2.4663      0.0679     11.1338     67.5095     22.4427
  1133.8000      8.0639      2.4839      0.0552     10.0667     71.6552     23.0628
  1133.9000      8.0639      2.5159      0.0548      8.1273     73.1907     23.3039
  1134.0000      8.0595      2.5534      0.1128      5.8562     71.2717     23.3209
  1134.1000      8.0595      2.5746      0.1077      4.5669     69.5488     23.5324
  1134.2000      8.0595      2.5733      0.0879      4.6481     68.5513     23.9097
  1134.3000      7.9975      2.5678      0.0316      4.9812     65.8785     23.8011
  1134.4000      7.9975      2.5716      0.0334      4.7486     63.6136     22.8839
  1134.5000      7.9516      2.5766      0.0133      4.4467     64.1974     21.6249
  1134.6000      7.9516      2.5723      0.0427      4.7095     65.2307     20.6180
  1134.7000      7.9516      2.5615      0.0199      5.3621     64.7579     20.2149
  1134.8000      7.9535      2.5555      0.0227      5.7280     64.0749     20.0732
  1134.9000      7.9535      2.5527      0.0499      5.8969     63.3183     19.3909
  1135.0000      7.9414      2.5494      0.0300      6.0954     60.2683     18.5921
  1135.1000      7.9414      2.5560      0.0802      5.6945     55.9849     18.3652
  1135.2000      7.9414      2.5749      0.0588      4.5527     53.8774     18.6157
  1135.3000      7.9804      2.5983      0.0870      3.1347     54.9320     19.0903
  1135.4000      7.9804      2.6232      0.0557      1.6222     57.6793     19.3605
  1135.5000      7.9742      2.6384      0.1341      0.7016     59.8173     18.8985
