~Version Information
VERS.                      2.0: CWLS Log ASCII Standard - VERSION 2.0
WRAP.                       NO: One line per depth step
~Well Information Block
STRT.FT                -3.5000: 
STOP.FT              1841.0000: 
STEP.FT                 0.2500: 
NULL.                -999.2500: 
COMP.          Pioneer Natural Resources: COMPANY
WELL.          Corkscrew 33-12 Tr: WELL
FLD.           Purgatorie River: FIELD
LOC.           1870' FSL  & 1706' FEL--------: LOCATION
PROV.                       CO: PROVINCE
CNTY.               Las Animas: COUNTRY
SRVC.          Patterson Wireline: SERVICE COMPANY
DATE.          Mon Apr 04 10:07:45 2005: LOG DATE
UWI.           05 071 08295 00: UNIQUE WELL ID
~Curve Information Block
DEPT.FT            0 000 00 00: Depth
CCL.                          : Casing Collar Locator
TT3.usec                      : CBL 3' Travel Time
AMP3.mV                       : CBL 3' Amplitude
GR.GAPI                       : Gamma Ray
~Parameter Information Block
~A  Depth       CCL         TT3         AMP3         GR     
# ...
   733.5000      0.0000    757.5812      7.1506    136.5815
   733.7500      0.0000    754.8506      7.1899    141.9087
   734.0000      0.0000    754.5550      7.2413    139.7597
   734.2500      0.0000    757.4741      7.2896    132.2290
   734.5000      0.0000    763.3399      7.3174    122.9489
   734.7500      0.0000    770.3107      7.3126    115.4596
   735.0000      0.0000    775.9392      7.2770    112.0661
   735.2500      0.0000    778.6824      7.2222    113.0518
   735.5000      0.0000    778.4600      7.1588    116.7271
   735.7500      0.0000    775.9917      7.0925    120.6422
   736.0000      0.0000    772.2531      7.0327    123.0506
   736.2500      0.0000    768.8862      6.9974    123.5235
   736.5000      0.0000    768.2011      7.0024    122.8125
   736.7500      0.0000    771.5667      7.0427    122.3755
   737.0000      0.0000    777.9077      7.0930    123.5504
   737.2500      0.0000    784.4905      7.1236    126.6112
   737.5000      0.0000    789.1296      7.1203    130.5769
   737.7500      0.0000    791.3692      7.0933    133.9854
   738.0000      0.0000    791.9633      7.0653    135.7549
   738.2500      0.0000    791.8342      7.0496    135.5981
   738.5000      0.0000    791.5373      7.0418    134.1770
   738.7500      0.0000    791.2769      7.0354    132.9375
   739.0000      0.0000    791.1248      7.0378    133.3195
   739.2500      0.0000    791.1575      7.0606    135.6566
   739.5000      0.0000    791.4895      7.0982    138.8202
   739.7500      0.0000    792.3038      7.1308    141.2111
   740.0000      0.0000    793.8569      7.1442    142.1529
   740.2500      0.0000    796.2849      7.1388    142.0206
   740.5000      0.0000    799.3721      7.1236    141.1057
   740.7500      0.0000    802.7582      7.1086    139.1075
   741.0000      0.0000    806.4418      7.1010    136.1298
   741.2500      0.0000    810.6146      7.1068    133.5270
   741.5000      0.0000    814.8430      7.1341    133.1221
   741.7500      0.0000    818.0854      7.1890    135.5925
   742.0000      0.0000    819.9227      7.2606    139.7213
   742.2500      0.0000    821.1927      7.3151    143.3225
   742.5000      0.0000    822.9696      7.3204    145.0966
   742.7500      0.0000    825.3546      7.2787    145.5148
   743.0000      0.0000    827.6208      7.2251    145.7027
   743.2500      0.0000    829.1532      7.1930    145.8533
   743.5000      0.0000    829.8797      7.1909    145.1326
   743.7500      0.0000    830.0411      7.2130    142.7598
   744.0000      0.0000    829.8985      7.2542    138.9192
   744.2500      0.0000    829.6625      7.3063    134.8685
   744.5000      0.0000    829.5011      7.3540    132.1435
   744.7500      0.0000    829.4919      7.3871    131.4403
   745.0000      0.0000    829.5938      7.4148    132.3077
   745.2500      0.0000    829.6951      7.4540    133.5896
   745.5000      0.0000    829.6940      7.5033    133.8620
   745.7500      0.0000    829.5362      7.5415    132.1765
   746.0000      0.0000    829.2311      7.5524    129.1837
   746.2500      0.0000    828.8682      7.5403    127.0317
   746.5000      0.0000    828.6016      7.5192    127.4520
   746.7500      0.0000    828.5703      7.4971    130.3903
   747.0000      0.0000    828.7999      7.4791    134.7137
   747.2500      0.0000    829.1829      7.4718    139.2881
   747.5000      0.0000    829.5640      7.4757    142.8558
   747.7500      0.0000    829.8406      7.4846    143.8613
   748.0000      0.0000    829.9745      7.4961    141.4235
   748.2500      0.0000    829.9498      7.5165    136.5550
   748.5000      0.0000    829.7792      7.5464    132.0814
   748.7500      0.0000    829.5641      7.5694    130.9497
   749.0000      0.0000    829.5302      7.5681    134.0388
   749.2500      0.0000    830.0151      7.5449    139.3368
   749.5000      0.0000    831.4857      7.5163    143.6845
   749.7500      0.0000    834.5318      7.4902    145.7188
   750.0000      0.0000    839.5660      7.4596    146.7411
   750.2500      0.0000    846.1711      7.4181    148.4046
   750.5000      0.0000    852.6766      7.3717    150.2885
   750.7500      0.0000    856.7028      7.3351    150.4295
   751.0000      0.0000    856.5686      7.3182    147.8007
   751.2500      0.0000    852.5434      7.3155    143.6785
   751.5000      0.0000    846.9673      7.3102    140.6719
   751.7500      0.0000    843.0051      7.2897    140.5946
   752.0000      0.0000    842.7314      7.2531    143.1055
   752.2500      0.0000    845.7761      7.2024    146.1503
   752.5000      0.0000    849.5006      7.1295    147.6452
   752.7500      0.0000    850.7513      7.0249    146.8436
   753.0000      0.0000    848.0555      6.8975    144.1517
   753.2500      0.0000    842.5490      6.7774    139.9282
   753.5000      0.0000    836.8864      6.6936    134.0770
   753.7500      0.0000    833.2940      6.6487    126.8719
   754.0000      0.0000    832.4722      6.6248    119.4226
   754.2500      0.0000    833.7072      6.6088    112.9410
   754.5000      0.0000    835.4899      6.6068    108.0977
   754.7500      0.0000    836.3589      6.6313    105.3662
   755.0000      0.0000    835.8958      6.6814    105.4020
   755.2500      0.0000    834.9497      6.7411    108.4730
   755.5000      0.0000    834.3586      6.7943    113.6426
   755.7500      0.0000    833.2914      6.8387    119.0290
   756.0000      0.0000    829.1942      6.8858    123.2719
   756.2500      0.0000    819.7635      6.9478    126.5211
   756.5000      0.0000    805.1893      7.0260    129.6354
   756.7500      0.0000    788.5781      7.1099    132.8782
   757.0000      0.0000    774.1050      7.1862    135.9837
   757.2500      0.0000    764.5273      7.2482    138.8394
   757.5000      0.0000    760.1729      7.2937    141.3480
   757.7500      0.0000    759.7924      7.3141    143.1546
   758.0000      0.0000    761.7738      7.2956    144.1873
   758.2500      0.0000    764.5145      7.2392    145.0451
   758.5000      0.0000    766.3990      7.1715    146.2851
   758.7500      0.0000    766.2060      7.1270    147.5472
   759.0000      0.0000    763.6800      7.1189    147.7150
   759.2500      0.0000    759.4066      7.1299    145.9079
   759.5000      0.0000    754.1082      7.1289    142.2832
   759.7500      0.0000    748.2145      7.0975    138.1457
   760.0000      0.0000    741.9440      7.0450    135.3935
   760.2500      0.0000    735.4490      7.0001    135.4055
   760.5000      0.0000    728.8583      6.9879    137.8758
   760.7500      0.0000    722.3630      7.0167    140.7506
   761.0000      0.0000    716.3344      7.0776    141.7424
   761.2500      0.0000    711.5486      7.1479    140.0228
   761.5000      0.0000    709.2933      7.1993    136.3538
   761.7500      0.0000    710.8132      7.2125    131.9871
   762.0000      0.0000    716.2794      7.1869    128.0537
   762.2500      0.0000    724.4323      7.1356    125.7113
   762.5000      0.0000    733.5306      7.0846    125.7490
   762.7500      0.0000    742.5300      7.0802    127.6196
   763.0000      0.0000    751.0392      7.1730    129.5035
   763.2500      0.0000    758.3245      7.3691    129.8836
   763.5000      0.0000    763.0577      7.6082    128.9009
   763.7500      0.0000    764.4532      7.8141    128.0348
   764.0000      0.0000    763.5510      7.9526    128.4851
   764.2500      0.0000    762.9773      8.0348    129.7857
   764.5000      0.0000    764.8746      8.0913    129.8811
   764.7500      0.0000    768.8737      8.1598    126.5417
   765.0000      0.0000    772.5028      8.2787    118.8835
   765.2500      0.0000    773.7064      8.4672    108.0064
   765.5000      0.0000    772.3837      8.7107     96.5555
   765.7500      0.0000    769.5966      8.9679     87.5836
   766.0000      0.0000    766.3738      9.1852     83.3292
   766.2500      0.0000    763.4441      9.3102     84.4001
   766.5000      0.0000    761.0788      9.3097     89.7403
   766.7500      0.0000    758.8160      9.1897     97.5624
