~Version Information
VERS.                      2.0: CWLS Log ASCII Standard - VERSION 2.0
WRAP.                       NO: One line per depth step
~Well Information Block
STRT.FT               -12.5000: 
STOP.FT              1613.0000: 
STEP.FT                 0.2500: 
NULL.                -999.2500: 
COMP.          Pioneer Natural Resources: COMPANY
WELL.          Peregrine 12-20: WELL
FLD.           Purgatorie River: FIELD
LOC.           1722' FNL & 999' FWL--: LOCATION
PROV.                       CO: PROVINCE
CNTY.               Las Animas: COUNTRY
SRVC.          Patterson Wireline: SERVICE COMPANY
DATE.          Fri Jul 22 12:50:00 2005: LOG DATE
UWI.           05 071 08428 00: UNIQUE WELL ID
~Curve Information Block
DEPT.FT            0 000 00 00: Depth
CCL.                          : Casing Collar Locator
TT3.usec                      : CBL 3' Travel Time
AMP3.mV                       : CBL 3' Amplitude
GR.GAPI                       : Gamma Ray
~Parameter Information Block
~A  Depth       CCL         TT3         AMP3         GR     
   -12.5000   -999.2500   -999.2500   -999.2500    110.0409
   -12.2500   -999.2500   -999.2500   -999.2500    107.8830
   -12.0000   -999.2500   -999.2500   -999.2500    104.5172
   -11.7500   -999.2500   -999.2500   -999.2500    101.2834
   -11.5000   -999.2500   -999.2500   -999.2500     99.8458
   -11.2500   -999.2500   -999.2500   -999.2500    100.8423
   -11.0000   -999.2500   -999.2500   -999.2500    103.4177
   -10.7500   -999.2500   -999.2500   -999.2500    106.1297
   -10.5000   -999.2500   -999.2500   -999.2500    107.8637
   -10.2500   -999.2500   -999.2500   -999.2500    107.7944
   -10.0000   -999.2500   -999.2500   -999.2500    105.4023
    -9.7500   -999.2500   -999.2500   -999.2500    101.1435
    -9.5000   -999.2500   -999.2500   -999.2500     96.6372
    -9.2500   -999.2500   -999.2500   -999.2500     93.7864
    -9.0000   -999.2500   -999.2500   -999.2500     93.7508
    -8.7500   -999.2500   -999.2500   -999.2500     96.5691
    -8.5000   -999.2500   -999.2500   -999.2500    101.2230
    -8.2500   -999.2500   -999.2500   -999.2500    105.8842
    -8.0000   -999.2500   -999.2500   -999.2500    108.6869
    -7.7500   -999.2500   -999.2500   -999.2500    108.9481
    -7.5000   -999.2500   1170.0000      0.7929    107.7317
    -7.2500   -999.2500   1170.0000      0.7820    106.9203
    -7.0000   -999.2500   1170.0000      0.7777    107.6683
    -6.7500   -999.2500   1170.0000      0.7861    109.7296
    -6.5000   -999.2500   1170.0000      0.8036    112.0179
    -6.2500   -999.2500   1170.0000      0.8196    113.5864
    -6.0000   -999.2500   1170.0000      0.8258    114.1799
    -5.7500   -999.2500   1170.0000      0.8227    114.0903
    -5.5000   -999.2500   1170.0000      0.8179    113.8320
    -5.2500   -999.2500   1170.0000      0.8184    114.0999
    -5.0000   -999.2500   1170.0000      0.8261    115.3644
    -4.7500   -999.2500   1170.0000      0.8366    117.0146
    -4.5000   -999.2500   1170.0000      0.8429    117.5906
    -4.2500   -999.2500   1170.0000      0.8398    116.4375
    -4.0000   -999.2500   1170.0000      0.8280    114.4382
    -3.7500   -999.2500   1170.0000      0.8132    112.6754
    -3.5000   -999.2500   1170.0000      0.8016    111.1747
    -3.2500   -999.2500   1170.0000      0.7948    109.4368
    -3.0000   -999.2500   1170.0000      0.7893    107.5154
    -2.7500   -999.2500   1170.0000      0.7800    105.9332
    -2.5000   -999.2500   1170.0000      0.7672    104.8471
    -2.2500   -999.2500   1170.0000      0.7575    103.8790
    -2.0000      0.0000   1170.0000      0.7570    102.8988
    -1.7500      0.0000   1170.0000      0.7651    102.4508
    -1.5000      0.0000   1170.0000      0.7752    103.1589
    -1.2500      0.0000   1170.0000      0.7813    105.1487
    -1.0000      0.0000   1170.0000      0.7822    108.2608
    -0.7500      0.0000   1170.0000      0.7801    112.2228
    -0.5000      0.0000   1170.0000      0.7768    115.9374
    -0.2500      0.0000   1170.0000      0.7718    116.9248
     0.0000      0.0000   1170.0000      0.7635    112.3845
     0.2500      0.0000   1170.0000      0.7442     85.7972
     0.5000     -2.0000   1170.0000      0.7411     69.3619
     0.7500     -2.0000   1170.0000      0.7427     55.2998
     1.0000      2.0000   1170.0000      0.7451     45.3043
     1.2500     -2.0000   1170.0000      0.7455     39.6766
     1.5000      0.0000   1170.0000      0.7450     37.8492
     1.7500      0.0000   1170.0000      0.7462     38.8539
     2.0000      0.0000   1170.0000      0.7506     41.8002
     2.2500      0.0000   1170.0000      0.7583     46.0664
     2.5000      0.0000   1170.0000      0.7679     50.8862
     2.7500      0.0000   1170.0000      0.7773     54.9126
     3.0000      0.0000   1170.0000      0.7843     56.7989
     3.2500      0.0000   1170.0000      0.7877     56.5361
     3.5000      0.0000   1170.0000      0.7876     55.8723
     3.7500      0.0000   1170.0000      0.7857     56.8608
     4.0000      0.0000   1170.0000      0.7824     60.0961
     4.2500      0.0000   1170.0000      0.7769     64.6367
     4.5000      0.0000   1170.0000      0.7698     69.5712
     4.7500      0.0000   1170.0000      0.7644     75.3284
     5.0000      0.0000   1170.0000      0.7637     83.1414
     5.2500      0.0000   1170.0000      0.7677     93.1000
     5.5000      0.0000   1170.0000      0.7744    103.1067
     5.7500      0.0000   1170.0000      0.7836    110.0395
     6.0000      0.0000   1170.0000      0.7961    111.7461
     6.2500      0.0000   1170.0000      0.8106    108.0397
     6.5000      0.0000   1170.0000      0.8228    100.5511
     6.7500      0.0000   1170.0000      0.8297     91.9688
     7.0000      0.0000   1170.0000      0.8308     85.0141
     7.2500      0.0000   1170.0000      0.8266     81.4051
     7.5000      0.0000   1170.0000      0.8161     81.2006
     7.7500      0.0000   1170.0000      0.7995     82.9830
     8.0000      0.0000   1170.0000      0.7808     84.9327
     8.2500      0.0000   1170.0000      0.7644     85.9115
     8.5000      0.0000   1170.0000      0.7513     85.6337
     8.7500      0.0000   1170.0000      0.7419     84.1100
     9.0000      0.0000   1170.0000      0.7386     81.4566
     9.2500      0.0000   1170.0000      0.7431     78.4520
     9.5000      0.0000   1170.0000      0.7520     76.9131
     9.7500      0.0000   1170.0000      0.7591     78.7516
    10.0000      0.0000   1170.0000      0.7630     84.1651
    10.2500      0.0000   1170.0000      0.7676     90.8687
    10.5000      0.0000   1170.0000      0.7772     95.4867
    10.7500      0.0000   1170.0000      0.7917     95.8783
    11.0000      0.0000   1170.0000      0.8095     92.2134
    11.2500      0.0000   1170.0000      0.8276     86.1478
    11.5000      0.0000   1170.0000      0.8401     79.4044
    11.7500      0.0000   1170.0000      0.8402     73.2135
    12.0000      0.0000   1170.0000      0.8277     68.6322
    12.2500      0.0000   1170.0000      0.8108     66.7353
    12.5000      0.0000   1170.0000      0.7988     68.2322
    12.7500      0.0000   1170.0000      0.7944     73.1088
    13.0000      0.0000   1170.0000      0.7947     80.7979
    13.2500      0.0000   1170.0000      0.7962     90.6185
    13.5000      0.0000   1170.0000      0.7971    101.8559
    13.7500      0.0000   1170.0000      0.7974    113.3061
    14.0000      0.0000   1170.0000      0.7990    122.9982
    14.2500      0.0000   1170.0000      0.8036    128.6716
    14.5000      0.0000   1170.0000      0.8095    128.6051
    14.7500      0.0000   1170.0000      0.8106    122.2985
    15.0000      0.0000   1170.0000      0.8025    110.9464
    15.2500      0.0000   1170.0000      0.7889     97.2995
    15.5000      0.0000   1170.0000      0.7796     84.4782
    15.7500      0.0000   1170.0000      0.7814     74.4731
    16.0000      0.0000   1170.0000      0.7929     67.7105
    16.2500      0.0000   1170.0000      0.8071     63.8344
    16.5000      0.0000   1170.0000      0.8171     62.5120
    16.7500      0.0000   1170.0000      0.8196     63.3579
    17.0000      0.0000   1170.0000      0.8145     65.4089
    17.2500      0.0000   1170.0000      0.8053     67.0886
    17.5000      0.0000   1170.0000      0.7966     66.9713
    17.7500      0.0000   1170.0000      0.7905     64.7931
    18.0000      0.0000   1170.0000      0.7872     61.6470
    18.2500      0.0000   1170.0000      0.7889     58.8488
    18.5000      0.0000   1170.0000      0.7979     56.6820
    18.7500      0.0000   1170.0000      0.8110     54.5716
    19.0000      0.0000   1170.0000      0.8210     52.1905
    19.2500      0.0000   1170.0000      0.8243     49.9025
    19.5000      0.0000   1170.0000      0.8255     48.4218
    19.7500      0.0000   1170.0000      0.8305     48.4280
    20.0000      0.0000   1170.0000      0.8396     50.0685
    20.2500      0.0000   1170.0000      0.8488     52.3981
    20.5000      0.0000   1170.0000      0.8551     53.8016
    20.7500      0.0000   1170.0000      0.8574     53.5247
