~Version Information
VERS.                      2.0: CWLS Log ASCII Standard - VERSION 2.0
WRAP.                       NO: One line per depth step
~Well Information Block
STRT.FT               823.7000: 
STOP.FT              2444.0000: 
STEP.FT                 0.1000: 
NULL.                -999.2500: 
COMP.          Petrogulf Corporation: COMPANY
WELL.            Kraft 17-23 V: WELL
FLD.           Purgatorie River: FIELD
LOC.           1500' FSL & 1773' FWL: LOCATION
CNTY.               Las Animas: COUNTY
SRVC.                         : SERVICE COMPANY
DATE.          Thu Nov 20 07:09:00 2003: LOG DATE
UWI.                          : UNIQUE WELL ID
STAT.                 Colorado: STATE
~Curve Information Block
DEPT.FT            0 000 00 00: Depth
DCAL.in                       : CDL Caliper
RHOB.g/cc                     : CDL Bulk Density
RHOC.g/cc                     : CDL Density Correction
DPOR.pu                       : CDL Density Porosity
GR.GAPI                       : Gamma Ray
NPOR.pu                       : Neutron Porosity
~Parameter Information Block
~A  Depth       DCAL        RHOB        RHOC        DPOR         GR         NPOR    
# ...
   948.5000      8.2575      2.2397      0.1147     24.8642    126.8578     31.3060
   948.6000      8.2575      2.2683      0.0977     23.1339    121.1222     31.4761
   948.7000      8.2575      2.3125      0.1063     20.4550    120.3064     31.4750
   948.8000      8.2681      2.3586      0.2132     17.6622    122.3035     31.1331
   948.9000      8.2681      2.3809      0.1728     16.3063    120.8222     30.2366
   949.0000      8.2441      2.3869      0.1429     15.9426    115.3784     29.1945
   949.1000      8.2441      2.4015      0.1013     15.0610    108.8471     28.5512
   949.2000      8.2441      2.4307      0.1477     13.2904    104.4084     28.1996
   949.3000      8.1436      2.4613      0.1852     11.4380    103.1748     28.0104
   949.4000      8.1436      2.4709      0.1613     10.8527    101.2547     28.2800
   949.5000      8.0825      2.4540      0.0329     11.8796    100.3167     28.9172
   949.6000      8.0825      2.4313      0.0278     13.2554    104.4572     29.2099
   949.7000      8.0825      2.4217     -0.0404     13.8391    109.5859     28.8674
   949.8000      8.1815      2.4234     -0.0090     13.7337    112.3408     28.6308
   949.9000      8.1815      2.4265     -0.0195     13.5472    114.6968     28.8607
   950.0000      8.2569      2.4328      0.0296     13.1613    121.4336     28.8775
   950.1000      8.2569      2.4461      0.0736     12.3605    131.9660     28.2978
   950.2000      8.2569      2.4605      0.1309     11.4832    139.3183     27.8926
   950.3000      8.2578      2.4698      0.1481     10.9238    138.7868     28.3137
   950.4000      8.2578      2.4775      0.0824     10.4561    133.7666     28.9717
   950.5000      8.2573      2.4956      0.1141      9.3547    134.4586     29.1080
   950.6000      8.2573      2.5291      0.0699      7.3291    144.0352     28.6885
   950.7000      8.2573      2.5621      0.1093      5.3265    154.1669     28.3524
   950.8000      8.2716      2.5679      0.1180      4.9773    159.2125     28.6664
   950.9000      8.2716      2.5483      0.0394      6.1643    162.0995     29.4605
   951.0000      8.2882      2.5251      0.0844      7.5682    162.2463     30.0394
   951.1000      8.2882      2.5033      0.0265      8.8932    155.9583     30.2363
   951.2000      8.2882      2.4775      0.0194     10.4542    147.8792     30.7023
   951.3000      8.2961      2.4461      0.0377     12.3576    146.6675     31.5331
   951.4000      8.2961      2.4207     -0.0084     13.8980    150.6173     31.9288
   951.5000      8.2884      2.4198      0.0232     13.9500    150.8571     31.5304
   951.6000      8.2884      2.4419      0.0361     12.6094    146.9565     30.8254
   951.7000      8.2884      2.4684      0.0175     11.0075    144.4050     30.2086
   951.8000      8.2903      2.4845      0.0472     10.0322    146.5816     29.6860
   951.9000      8.2903      2.4886      0.0281      9.7792    151.7820     29.1647
   952.0000      8.3121      2.4820      0.0992     10.1839    155.0816     28.4380
   952.1000      8.3121      2.4680     -0.0336     11.0315    156.7189     27.4315
   952.2000      8.3121      2.4660      0.0343     11.1526    159.2466     26.3004
   952.3000      8.3340      2.4750      0.1121     10.6080    165.0410     25.1844
   952.4000      8.3340      2.4705      0.0646     10.8798    172.7822     24.2808
   952.5000      8.3371      2.4434      0.0096     12.5184    172.1696     23.5551
   952.6000      8.3371      2.3939      0.0048     15.5236    160.2043     22.6035
   952.7000      8.3371      2.3370     -0.0751     18.9677    148.6340     21.2841
   952.8000      8.3247      2.3191     -0.1219     20.0539    141.7645     19.8788
   952.9000      8.3247      2.3574     -0.0336     17.7315    136.4631     18.8011
   953.0000      8.2526      2.4054      0.0735     14.8253    133.2836     18.2601
   953.1000      8.2526      2.4278      0.0021     13.4697    130.2650     18.4117
   953.2000      8.2526      2.4367      0.1024     12.9282    127.2749     19.1076
   953.3000      8.1667      2.4355      0.1392     13.0021    126.7714     20.0193
   953.4000      8.1667      2.4087      0.1358     14.6252    125.5070     21.4667
   953.5000      8.1818      2.3477      0.1415     18.3189    121.8891     23.6050
   953.6000      8.1818      2.2558      0.1661     23.8925    118.6430     25.7161
   953.7000      8.1818      2.1388      0.1239     30.9794    114.4659     27.1688
   953.8000      8.3008      2.0063      0.0236     39.0142    110.0393     27.9648
   953.9000      8.3008      1.8930     -0.1843     45.8777    109.8908     28.5667
   954.0000      8.3825      1.8436     -0.1367     48.8712    110.6995     29.3865
   954.1000      8.3825      1.8573     -0.0358     48.0437    109.1886     30.3878
   954.2000      8.3825      1.9051     -0.0169     45.1478    106.8944     31.1034
   954.3000      8.3661      1.9776      0.0759     40.7542    104.1785     31.0420
   954.4000      8.3661      2.0833      0.1381     34.3436    103.1049     30.3407
   954.5000      8.3479      2.2272      0.2494     25.6214    106.3236     29.3995
   954.6000      8.3479      2.3798      0.3122     16.3750    110.5078     28.1055
   954.7000      8.3479      2.4827      0.3682     10.1399    109.6099     26.4561
   954.8000      8.3513      2.5152      0.2203      8.1690    105.8495     25.0945
   954.9000      8.3513      2.5128      0.0991      8.3129    104.9524     24.4586
   955.0000      8.3148      2.4979      0.0555      9.2188    105.6193     24.6458
   955.1000      8.3148      2.4677     -0.0220     11.0487    107.4462     25.5581
   955.2000      8.3148      2.4453     -0.0654     12.4045    114.1303     26.7122
   955.3000      8.2616      2.4533      0.0248     11.9211    123.8798     27.6012
   955.4000      8.2616      2.4659      0.0610     11.1560    131.2382     28.1385
   955.5000      8.2067      2.4467      0.0962     12.3214    131.9967     28.5703
   955.6000      8.2067      2.4042     -0.0171     14.8997    127.3069     29.2304
   955.7000      8.2067      2.3741     -0.0181     16.7235    124.6856     30.0561
   955.8000      8.1725      2.3611      0.0092     17.5074    129.0278     30.6605
   955.9000      8.1725      2.3497     -0.0441     18.1974    136.5247     30.9898
   956.0000      8.1874      2.3500     -0.0479     18.1842    140.5645     31.1454
   956.1000      8.1874      2.3746      0.0652     16.6890    138.1592     31.2662
   956.2000      8.1874      2.4046      0.0821     14.8754    130.9841     31.3797
   956.3000      8.1969      2.4234      0.1003     13.7317    126.2904     31.3113
   956.4000      8.1969      2.4440      0.1084     12.4867    131.5920     31.2377
   956.5000      8.1908      2.4740      0.1069     10.6639    143.1347     31.3716
   956.6000      8.1908      2.4916      0.1409      9.5983    148.4347     31.4011
   956.7000      8.1908      2.4873      0.0722      9.8576    143.8654     31.0773
   956.8000      8.2003      2.4825      0.0472     10.1489    138.4104     30.6058
   956.9000      8.2003      2.4801      0.0657     10.2962    136.6745     30.3384
   957.0000      8.2212      2.4687      0.0141     10.9909    132.0061     30.4043
   957.1000      8.2212      2.4555     -0.0128     11.7852    124.5190     30.8180
   957.2000      8.2212      2.4556     -0.0089     11.7815    122.6051     31.4667
   957.3000      8.2206      2.4788     -0.0072     10.3773    124.6222     32.1552
   957.4000      8.2206      2.5114      0.0467      8.3987    125.0953     32.9166
   957.5000      8.1669      2.5246      0.0230      7.5977    123.3165     33.7381
   957.6000      8.1669      2.5183      0.0146      7.9812    119.5392     34.3021
   957.7000      8.1669      2.5123      0.0073      8.3462    119.0973     34.4015
   957.8000      8.1146      2.5003      0.0815      9.0715    122.9075     34.1960
   957.9000      8.1146      2.4653      0.0032     11.1926    118.7522     33.8792
   958.0000      8.1281      2.4161     -0.0222     14.1765    106.4200     33.3211
