~Version Information
VERS.                      2.0: CWLS Log ASCII Standard - VERSION 2.0
WRAP.                       NO: One line per depth step
~Well Information Block
STRT.FT               430.0000: 
STOP.FT              1910.2000: 
STEP.FT                 0.1000: 
NULL.                -999.2500: 
COMP.          Pioneer Natural Resources: COMPANY
WELL.          Formula 23-11 Tr: WELL
FLD.           Purgatoire River: FIELD
LOC.           1976' FSL & 1935' FWL--: LOCATION
PROV.                 Colorado: PROVINCE
CNTY.               Las Animas: COUNTRY
SRVC.                Patterson: SERVICE COMPANY
DATE.          Mon Jun 13 07:32:15 2005: LOG DATE
UWI.           05 071 08399 00: UNIQUE WELL ID
~Curve Information Block
DEPT.FT            0 000 00 00: Depth
DCAL.in                       : CDL Caliper
RHOB.g/cc                     : CDL Bulk Density
RHOC.g/cc                     : CDL Density Correction
DPOR.pu                       : CDL Density Porosity
NPOR.pu                       : Neutron Porosity
GR.GAPI                       : Gamma Ray
~Parameter Information Block
~A  Depth       DCAL        RHOB        RHOC        DPOR        NPOR         GR     
# ...
  1207.6000      8.0352      2.5803      0.0370      4.2223     26.0786    105.1889
  1207.7000      8.0352      2.5993      0.0408      3.0732     26.8240    103.4550
  1207.8000      8.0348      2.6177      0.0903      1.9556     27.3491    102.7603
  1207.9000      8.0348      2.6288      0.0893      1.2867     27.5722    106.2999
  1208.0000      8.0325      2.6308      0.0759      1.1614     27.7924    107.6569
  1208.1000      8.0325      2.6356      0.0619      0.8726     27.9300    103.1592
  1208.2000      8.0325      2.6558      0.0957     -0.3508     27.9595    100.8853
  1208.3000      8.0315      2.6922      0.0952     -2.5563     27.9252    105.5591
  1208.4000      8.0315      2.7388      0.0899     -5.3790     27.5543    109.7319
  1208.5000      8.0323      2.7867      0.1233     -8.2827     27.0797    106.9942
  1208.6000      8.0323      2.8252      0.1394    -10.6203     27.1787    102.1864
  1208.7000      8.0323      2.8447      0.1251    -11.8030     27.8942     99.7420
  1208.8000      8.0324      2.8410      0.1570    -11.5744     28.5758     98.5019
  1208.9000      8.0324      2.8196      0.1034    -10.2758     28.7250     98.3512
  1209.0000      8.0317      2.7980      0.0493     -8.9685     28.5129     98.5711
  1209.1000      8.0317      2.7867      0.0420     -8.2828     28.4103    100.7450
  1209.2000      8.0317      2.7764      0.0275     -7.6587     28.6104    106.5655
  1209.3000      8.0350      2.7583      0.0299     -6.5611     29.1091    110.2212
  1209.4000      8.0350      2.7377      0.0300     -5.3136     29.4498    108.5334
  1209.5000      8.0487      2.7137      0.0405     -3.8603     28.9388    107.4771
  1209.6000      8.0487      2.6779      0.0409     -1.6930     28.0769    109.5032
  1209.7000      8.0487      2.6359      0.0898      0.8529     27.9171    111.5221
  1209.8000      8.0696      2.5986      0.0389      3.1147     28.2493    110.8308
  1209.9000      8.0696      2.5748      0.0471      4.5549     28.2962    108.8749
  1210.0000      8.0846      2.5668      0.0542      5.0418     28.3375    108.5675
  1210.1000      8.0846      2.5693      0.0435      4.8930     28.9153    109.8651
  1210.2000      8.0846      2.5781      0.0558      4.3569     29.4940    113.4260
  1210.3000      8.0947      2.5823      0.0843      4.1060     29.2853    115.9981
  1210.4000      8.0947      2.5693      0.0698      4.8923     28.7666    113.0544
  1210.5000      8.1036      2.5521      0.0162      5.9330     29.0095    110.5597
  1210.6000      8.1036      2.5561      0.0525      5.6938     29.5626    112.3683
  1210.7000      8.1036      2.5821      0.0766      4.1133     29.4331    113.6559
  1210.8000      8.1092      2.6070      0.1128      2.6034     29.1583    112.7924
  1210.9000      8.1092      2.6087      0.1090      2.5059     29.5389    113.2165
  1211.0000      8.1115      2.5869      0.0441      3.8267     29.9230    118.0987
  1211.1000      8.1115      2.5597      0.0373      5.4741     29.6027    124.8797
  1211.2000      8.1115      2.5377      0.0712      6.8059     28.9345    128.2501
  1211.3000      8.1127      2.5230      0.0366      7.6953     28.2446    126.0993
  1211.4000      8.1127      2.5234      0.0275      7.6723     27.4469    120.3026
  1211.5000      8.1117      2.5424      0.0432      6.5205     26.6813    115.5655
  1211.6000      8.1117      2.5694      0.0640      4.8859     26.2833    113.2706
  1211.7000      8.1117      2.5909      0.0887      3.5824     26.3508    109.3227
  1211.8000      8.1088      2.6017      0.0854      2.9277     26.4579    102.9587
  1211.9000      8.1088      2.6014      0.0996      2.9431     26.5091    100.3743
  1212.0000      8.1070      2.5873      0.1100      3.8000     26.7801    104.1511
  1212.1000      8.1070      2.5667      0.0529      5.0477     27.1495    109.1277
  1212.2000      8.1070      2.5610      0.0239      5.3927     27.5777    112.3811
  1212.3000      8.1072      2.5678      0.0771      4.9790     28.0845    117.7517
  1212.4000      8.1072      2.5642      0.0589      5.1991     28.3947    124.4703
  1212.5000      8.1089      2.5492      0.0482      6.1096     28.3381    126.2146
  1212.6000      8.1089      2.5385      0.0363      6.7547     28.1776    122.4980
  1212.7000      8.1089      2.5420      0.0115      6.5459     28.2386    122.0972
  1212.8000      8.1107      2.5556      0.0604      5.7237     28.6491    130.2884
  1212.9000      8.1107      2.5639      0.0704      5.2209     29.1168    137.6364
  1213.0000      8.1128      2.5562      0.0871      5.6832     29.4157    133.7513
  1213.1000      8.1128      2.5349      0.0457      6.9783     30.0058    123.6773
  1213.2000      8.1128      2.5121      0.0332      8.3569     31.0485    118.7925
  1213.3000      8.1210      2.4988      0.0257      9.1666     31.8666    124.7669
  1213.4000      8.1210      2.4867      0.0238      9.8966     31.9447    136.7771
  1213.5000      8.1364      2.4609      0.0212     11.4605     31.6711    143.0883
  1213.6000      8.1364      2.4202      0.0014     13.9276     31.6982    138.3075
  1213.7000      8.1364      2.3607      0.0186     17.5321     32.2562    127.8173
  1213.8000      8.1538      2.2732     -0.0139     22.8394     32.8777    119.1892
  1213.9000      8.1538      2.1730     -0.0633     28.9098     33.0733    113.5147
  1214.0000      8.1769      2.0809     -0.0692     34.4892     33.3059    107.6123
  1214.1000      8.1769      1.9921     -0.0700     39.8701     34.1877    100.2133
  1214.2000      8.1769      1.8974     -0.0696     45.6130     35.3386     94.8647
  1214.3000      8.2080      1.8037     -0.1129     51.2911     36.1194     94.5100
  1214.4000      8.2080      1.7251     -0.1169     56.0545     36.3983     96.1318
  1214.5000      8.2367      1.6675     -0.0613     59.5449     36.2521     95.4527
  1214.6000      8.2367      1.6329     -0.0651     61.6416     35.9872     93.3288
  1214.7000      8.2367      1.6231      0.0078     62.2361     36.2236     93.4671
  1214.8000      8.2522      1.6307      0.0858     61.7784     37.0464     97.3980
  1214.9000      8.2522      1.6483      0.1152     60.7067     37.4906    102.2620
  1215.0000      8.2393      1.6746      0.1216     59.1139     37.0172    102.6434
  1215.1000      8.2393      1.7043      0.1103     57.3178     36.2864    100.4280
  1215.2000      8.2393      1.7393      0.0748     55.1921     35.8895    103.4489
  1215.3000      8.1998      1.7927      0.1291     51.9548     35.8396    108.4460
  1215.4000      8.1998      1.8624      0.1612     47.7324     35.7761    106.4257
  1215.5000      8.1704      1.9294      0.1533     43.6734     35.4377    101.0140
  1215.6000      8.1704      1.9789      0.1552     40.6748     35.1670     98.1410
  1215.7000      8.1704      2.0102      0.1375     38.7761     35.0060     95.2144
  1215.8000      8.1620      2.0346      0.1357     37.2972     34.7084     91.7635
  1215.9000      8.1620      2.0569      0.1607     35.9430     34.5790     92.4878
  1216.0000      8.1641      2.0668      0.1460     35.3438     34.8719     97.2419
  1216.1000      8.1641      2.0557      0.1036     36.0190     35.3165    101.4859
  1216.2000      8.1641      2.0251      0.0479     37.8702     35.9803    103.0255
  1216.3000      8.1820      1.9770      0.0274     40.7898     36.8710    101.4769
  1216.4000      8.1820      1.9101     -0.0024     44.8444     37.3794     97.4002
  1216.5000      8.2288      1.8264     -0.0004     49.9133     37.1835     91.6195
  1216.6000      8.2288      1.7339     -0.0421     55.5207     36.7247     83.7637
  1216.7000      8.2288      1.6472     -0.0708     60.7747     36.5773     76.6168
  1216.8000      8.3006      1.5760     -0.0268     65.0885     37.0807     72.6066
  1216.9000      8.3006      1.5169     -0.0180     68.6756     37.9506     69.3746
  1217.0000      8.3924      1.4626     -0.0251     71.9639     38.4496     64.7384
  1217.1000      8.3924      1.4128     -0.0364     74.9827     38.2636     59.8835
