~Version Information
 VERS.                                  2.0 : CWLS LAS VERSION
 WRAP.                                   NO : WRAPING MODE
 SWARE .                 MController 2.5.0J : SOFTWARE VERSION
~Well Information
 WELL.                         Leier 17-24R : WELL
 COMP.                Petrogulf Corporation : COMPANY
 FLD.                      Purgatoire River : FIELD
 LOC.                SE/NE Sec 17 T33S R67W : LOCATION
 DATE.                          10/17-18/05 : DATE(S) LOGGED
 SRVC.       BLANCO Geological Services LLC : SERVICE COMPANY
 STAT.                                   CO : STATE
 CNTY.                           Las Animas : COUNTY
 CTRY.                                  USA : COUNTRY
 API.                       05-071-08410-00 : API NUMBER
 STRT.FT                              31.00 : START DEPTH
 STOP.FT                            1390.00 : STOP DEPTH
 STEP.FT                               1.00 : DEPTH INCREMENT
 NULL.                                -9999 : NULL VALUE
~Curve information
 DEPTH.FT                                   :
 ROP.MIN/FT                                 :
 GAS.UNITS                                  :
~ASCII Log data
# ...
      1031.0         0.40         11.7 
      1032.0         0.20         11.7 
      1033.0         0.20         11.5 
      1034.0         0.23         10.8 
      1035.0         0.28         10.0 
      1036.0         0.27         10.0 
      1037.0         0.23         10.0 
      1038.0         0.20          9.1 
      1039.0         0.23          9.4 
      1040.0         0.27          9.2 
      1041.0         0.23          9.6 
      1042.0         0.27          9.9 
      1043.0         0.27          9.8 
      1044.0         0.33          9.1 
      1045.0         0.33          7.7 
      1046.0         2.28         62.7 
      1047.0         0.47         18.4 
      1048.0         0.33         12.1 
      1049.0         0.42          9.7 
      1050.0         0.33          9.9 
      1051.0         0.37          9.0 
      1052.0         0.33          9.2 
      1053.0         0.30          8.2 
      1054.0         0.27          7.9 
      1055.0         0.30          7.6 
      1056.0         0.27          7.3 
      1057.0         0.33          8.7 
      1058.0         0.22          9.5 
      1059.0         0.17          9.3 
      1060.0         0.20          9.4 
      1061.0         0.17          9.1 
      1062.0         0.20          9.4 
      1063.0         0.20          9.3 
      1064.0         0.33          9.9 
      1065.0         0.33         11.9 
      1066.0         0.20         12.4 
      1067.0         0.20         12.2 
      1068.0         0.17         11.4 
      1069.0         0.20         10.7 
      1070.0         0.17         10.5 
      1071.0         0.20         10.3 
      1072.0         0.20          9.1 
      1073.0         0.25          8.5 
      1074.0         0.20          8.0 
      1075.0         0.23         13.8 
      1076.0         1.83         82.8 
      1077.0         0.40         31.8 
      1078.0         0.32         18.6 
      1079.0         0.27         12.7 
      1080.0         0.27         11.4 
      1081.0         0.40         10.8 
      1082.0         0.30         10.3 
      1083.0         0.23          9.5 
      1084.0         0.17          9.6 
      1085.0         0.20          9.2 
      1086.0         0.23          8.5 
      1087.0         0.30          8.2 
      1088.0         0.23          8.2 
      1089.0         0.27          8.0 
      1090.0         0.23          7.8 
      1091.0         0.22          7.6 
      1092.0         0.27          7.7 
      1093.0         0.20          7.7 
      1094.0         0.23          7.6 
      1095.0         0.20          8.1 
      1096.0         0.37          7.8 
      1097.0         0.20          7.7 
      1098.0         0.20          8.0 
      1099.0         0.27          8.0 
      1100.0         0.27          7.7 
      1101.0         0.30          7.5 
      1102.0         0.23          7.3 
      1103.0         0.27          7.3 
      1104.0         0.25          6.1 
      1105.0         0.33          6.4 
      1106.0         3.58         73.4 
      1107.0         0.33          9.1 
      1108.0         0.33          9.4 
      1109.0         0.40          9.0 
      1110.0         0.33          8.4 
      1111.0         0.30          8.1 
      1112.0         0.33          8.2 
      1113.0         0.43          7.7 
      1114.0         0.28          7.5 
      1115.0         0.33          7.0 
      1116.0         0.30          7.0 
      1117.0         0.27          7.0 
      1118.0         0.30          6.6 
      1119.0         0.27          7.2 
      1120.0         0.30          6.8 
      1121.0         0.33          7.4 
      1122.0         0.33          7.3 
      1123.0         0.33          7.4 
      1124.0         0.42          7.7 
      1125.0         0.37          7.1 
      1126.0         0.30          7.4 
      1127.0         0.40          7.6 
      1128.0         0.23          7.6 
      1129.0         0.27          7.8 
      1130.0         0.27          7.5 
      1131.0         0.27          7.5 
      1132.0         0.30          7.3 
      1133.0         0.30          6.4 
      1134.0         0.20          5.6 
      1135.0         0.25         10.0 
      1136.0         2.13         91.2 
      1137.0         0.27         36.7 
      1138.0         0.40         25.3 
      1139.0         0.38         14.6 
      1140.0         0.33          9.4 
      1141.0         0.33          8.8 
      1142.0         0.37          8.1 
      1143.0         0.30          7.5 
      1144.0         0.27          7.2 
      1145.0         0.27          8.4 
      1146.0         0.23         12.1 
      1147.0         0.20         15.6 
      1148.0         0.17         17.1 
      1149.0         0.13         19.9 
      1150.0         0.17         22.0 
      1151.0         0.17         23.6 
      1152.0         0.18         23.6 
      1153.0         0.17         22.9 
      1154.0         0.17         20.3 
      1155.0         0.20         19.7 
      1156.0         0.17         20.5 
      1157.0         0.17         22.7 
      1158.0         0.17         24.1 
      1159.0         0.13         25.5 
      1160.0         0.17         27.5 
      1161.0         0.13         30.0 
      1162.0         0.17         32.4 
      1163.0         0.13         32.7 
      1164.0         0.17         31.8 
      1165.0         0.13         29.0 
      1166.0         2.35         34.7 
      1167.0         0.20         22.6 
      1168.0         0.27         20.6 
      1169.0         0.20         18.6 
      1170.0         0.17         18.6 
      1171.0         0.20         18.9 
      1172.0         0.17         19.1 
      1173.0         0.17         19.1 
      1174.0         0.13         18.9 
      1175.0         0.18         17.8 
      1176.0         0.17         17.2 
      1177.0         0.17         16.1 
      1178.0         0.20         15.8 
      1179.0         0.23         14.2 
      1180.0         0.23         14.0 
      1181.0         0.23         13.0 
      1182.0         0.23         12.5 
      1183.0         0.20         11.2 
      1184.0         0.23         11.0 
      1185.0         0.20         10.6 
      1186.0         0.20          9.7 
      1187.0         0.23         11.9 
      1188.0         0.20         13.2 
      1189.0         0.20         14.4 
      1190.0         0.13         13.8 
      1191.0         0.15         13.9 
      1192.0         0.17         13.5 
      1193.0         0.13         12.3 
      1194.0         0.17         10.1 
      1195.0         0.17          8.9 
      1196.0         2.03         40.0 
      1197.0         0.30         22.6 
      1198.0         0.28         16.6 
      1199.0         0.23         12.1 
      1200.0         0.20         11.5 
      1201.0         0.20         10.7 
      1202.0         0.20         11.2 
      1203.0         0.20         11.6 
      1204.0         0.23         10.8 
      1205.0         0.23         10.6 
      1206.0         0.23         10.0 
      1207.0         0.23          9.4 
      1208.0         0.20          9.4 
      1209.0         0.27          9.1 
      1210.0         0.20          8.2 
      1211.0         0.20          8.4 
      1212.0         0.17          8.2 
      1213.0         0.22          8.1 
      1214.0         0.20         10.3 
      1215.0         0.17         11.5 
      1216.0         0.17         12.2 
      1217.0         0.13         12.1 
      1218.0         0.17         11.5 
      1219.0         0.13         11.6 
      1220.0         0.17         11.4 
      1221.0         0.13         11.1 
      1222.0         0.17         10.1 
      1223.0         0.17          8.5 
      1224.0         0.17          8.0 
      1225.0         0.20          9.4 
      1226.0         2.25         38.0 
      1227.0         0.30         12.9 
      1228.0         0.27         11.8 
      1229.0         0.27         12.3 
      1230.0         0.20         12.7 
