~Version Information
VERS.                      2.0: CWLS Log ASCII Standard - VERSION 2.0
WRAP.                       NO: One line per depth step
~Well Information Block
STRT.FT               850.0000: 
STOP.FT              1609.7000: 
STEP.FT                 0.1000: 
NULL.                -999.2500: 
COMP.          Petrogulf Corporation: COMPANY
WELL.          Great Plains 22-21R: WELL
FLD.           Purgatorie River: FIELD
LOC.           73' FNL & 1992' FWL: LOCATION
PROV.                 Colorado: PROVINCE
CNTY.               Las Animas: COUNTRY
SRVC.                Patterson: SERVICE COMPANY
DATE.          Wed Sep 14 12:10:29 2005: LOG DATE
UWI.                          : UNIQUE WELL ID
~Curve Information Block
DEPT.FT            0 000 00 00: Depth
NPOR.pu                       : Neutron Porosity
GR.GAPI                       : Gamma Ray
CCL.                          : Casing Collar Locator
~Parameter Information Block
~A  Depth       NPOR         GR         CCL     
# ...
  1200.7000     25.8629    130.3498      0.0000
  1200.8000     26.3289    134.8874      0.0000
  1200.9000     26.3289    134.8874      0.0000
  1201.0000     26.7134    138.1817      0.0000
  1201.1000     26.7134    138.1817      0.0000
  1201.2000     26.7134    138.1817      0.0000
  1201.3000     26.9315    140.5817      0.0000
  1201.4000     26.9315    140.5817      0.0000
  1201.5000     26.9165    141.4270      0.0000
  1201.6000     26.9165    141.4270      0.0000
  1201.7000     26.9165    141.4270      0.0000
  1201.8000     26.6608    139.3830      0.0000
  1201.9000     26.6608    139.3830      0.0000
  1202.0000     26.2110    133.9945      0.0000
  1202.1000     26.2110    133.9945      0.0000
  1202.2000     26.2110    133.9945      0.0000
  1202.3000     25.6502    126.6464      0.0000
  1202.4000     25.6502    126.6464      0.0000
  1202.5000     25.0831    119.4925      0.0000
  1202.6000     25.0831    119.4925      0.0000
  1202.7000     25.0831    119.4925      0.0000
  1202.8000     24.6087    113.5617      0.0000
  1202.9000     24.6087    113.5617      0.0000
  1203.0000     24.2836    108.3091      0.0000
  1203.1000     24.2836    108.3091      0.0000
  1203.2000     24.2836    108.3091      0.0000
  1203.3000     24.0930    102.9363      0.0000
  1203.4000     24.0930    102.9363      0.0000
  1203.5000     23.9653     97.6320      0.0000
  1203.6000     23.9653     97.6320      0.0000
  1203.7000     23.9653     97.6320      0.0000
  1203.8000     23.8362     93.3351      0.0000
  1203.9000     23.8362     93.3351      0.0000
  1204.0000     23.7057     90.6844      0.0000
  1204.1000     23.7057     90.6844      0.0000
  1204.2000     23.7057     90.6844      0.0000
  1204.3000     23.6236     89.5775      0.0000
  1204.4000     23.6236     89.5775      0.0000
  1204.5000     23.6388     89.7635      0.0000
  1204.6000     23.6388     89.7635      0.0000
  1204.7000     23.6388     89.7635      0.0000
  1204.8000     23.7764     91.6956      0.0000
  1204.9000     23.7764     91.6956      0.0000
  1205.0000     24.0475     96.4842      0.0000
  1205.1000     24.0475     96.4842      0.0000
  1205.2000     24.0475     96.4842      0.0000
  1205.3000     24.4483    104.6288      0.0000
  1205.4000     24.4483    104.6288      0.0000
  1205.5000     24.9382    114.9957      0.0000
  1205.6000     24.9382    114.9957      0.0000
  1205.7000     24.9382    114.9957      0.0000
  1205.8000     25.4292    125.5556      0.0000
  1205.9000     25.4292    125.5556      0.0000
  1206.0000     25.8143    134.7014      0.0000
  1206.1000     25.8143    134.7014      0.0000
  1206.2000     25.8143    134.7014      0.0000
  1206.3000     26.0263    141.1954      0.0000
  1206.4000     26.0263    141.1954      0.0000
  1206.5000     26.0801    143.7034      0.0000
  1206.6000     26.0801    143.7034      0.0000
  1206.7000     26.0801    143.7034      0.0000
  1206.8000     26.0586    141.7791      0.0000
  1206.9000     26.0586    141.7791      0.0000
  1207.0000     26.0528    137.0851      0.0000
  1207.1000     26.0528    137.0851      0.0000
  1207.2000     26.0528    137.0851      0.0000
  1207.3000     26.1150    132.5451      0.0000
  1207.4000     26.1150    132.5451      0.0000
  1207.5000     26.2519    130.1242      0.0000
  1207.6000     26.2519    130.1242      0.0000
  1207.7000     26.2519    130.1242      0.0000
  1207.8000     26.4516    129.9726      0.0000
  1207.9000     26.4516    129.9726      0.0000
  1208.0000     26.7005    131.5459      0.0000
  1208.1000     26.7005    131.5459      0.0000
  1208.2000     26.7005    131.5459      0.0000
  1208.3000     26.9681    134.5032      0.0000
  1208.4000     26.9681    134.5032      0.0000
  1208.5000     27.1955    138.1763      0.0000
  1208.6000     27.1955    138.1763      0.0000
  1208.7000     27.1955    138.1763      0.0000
  1208.8000     27.3307    141.2359      0.0000
  1208.9000     27.3307    141.2359      0.0000
  1209.0000     27.3751    142.8949      0.0000
  1209.1000     27.3751    142.8949      0.0000
  1209.2000     27.3751    142.8949      0.0000
  1209.3000     27.3724    144.0306      0.0000
  1209.4000     27.3724    144.0306      0.0000
  1209.5000     27.3532    146.2506      0.0000
  1209.6000     27.3532    146.2506      0.0000
  1209.7000     27.3532    146.2506      0.0000
  1209.8000     27.3107    149.8058      0.0000
  1209.9000     27.3107    149.8058      0.0000
  1210.0000     27.2368    152.9169      0.0000
  1210.1000     27.2368    152.9169      0.0000
  1210.2000     27.2368    152.9169      0.0000
  1210.3000     27.1530    153.4287      0.0000
  1210.4000     27.1530    153.4287      0.0000
  1210.5000     27.0909    151.1057      0.0000
  1210.6000     27.0909    151.1057      0.0000
  1210.7000     27.0909    151.1057      0.0000
  1210.8000     27.0559    148.1588      0.0000
  1210.9000     27.0559    148.1588      0.0000
  1211.0000     27.0402    147.4252      0.0000
  1211.1000     27.0402    147.4252      0.0000
  1211.2000     27.0402    147.4252      0.0000
  1211.3000     27.0626    150.0665      0.0000
  1211.4000     27.0626    150.0665      0.0000
  1211.5000     27.1482    154.8989      0.0000
  1211.6000     27.1482    154.8989      0.0000
  1211.7000     27.1482    154.8989      0.0000
  1211.8000     27.2628    159.4679      0.0000
  1211.9000     27.2628    159.4679      0.0000
  1212.0000     27.3120    161.4721      0.0000
  1212.1000     27.3120    161.4721      0.0000
  1212.2000     27.3120    161.4721      0.0000
  1212.3000     27.2293    159.7895      0.0000
  1212.4000     27.2293    159.7895      0.0000
  1212.5000     27.0431    155.1292      0.0000
  1212.6000     27.0431    155.1292      0.0000
  1212.7000     27.0431    155.1292      0.0000
  1212.8000     26.8438    149.8069      0.0000
  1212.9000     26.8438    149.8069      0.0000
  1213.0000     26.7042    146.2598      0.0000
  1213.1000     26.7042    146.2598      0.0000
  1213.2000     26.7042    146.2598      0.0000
  1213.3000     26.6409    145.3792      0.0000
  1213.4000     26.6409    145.3792      0.0000
  1213.5000     26.6303    146.2125      0.0000
  1213.6000     26.6303    146.2125      0.0000
  1213.7000     26.6303    146.2125      0.0000
  1213.8000     26.6441    147.1990      0.0000
  1213.9000     26.6441    147.1990      0.0000
  1214.0000     26.6777    147.6587      0.0000
  1214.1000     26.6777    147.6587      0.0000
  1214.2000     26.6777    147.6587      0.0000
  1214.3000     26.7480    148.1397      0.0000
  1214.4000     26.7480    148.1397      0.0000
  1214.5000     26.8564    149.3286      0.0000
  1214.6000     26.8564    149.3286      0.0000
  1214.7000     26.8564    149.3286      0.0000
  1214.8000     26.9649    150.7118      0.0000
  1214.9000     26.9649    150.7118      0.0000
  1215.0000     27.0329    150.7440      0.0000
  1215.1000     27.0329    150.7440      0.0000
  1215.2000     27.0329    150.7440      0.0000
  1215.3000     27.0649    148.7104      0.0000
  1215.4000     27.0649    148.7104      0.0000
  1215.5000     27.0956    146.0118      0.0000
  1215.6000     27.0956    146.0118      0.0000
  1215.7000     27.0956    146.0118      0.0000
  1215.8000     27.1380    144.8908      0.0000
  1215.9000     27.1380    144.8908      0.0000
  1216.0000     27.1692    146.0092      0.0000
  1216.1000     27.1692    146.0092      0.0000
  1216.2000     27.1692    146.0092      0.0000
  1216.3000     27.1614    147.9128      0.0000
  1216.4000     27.1614    147.9128      0.0000
  1216.5000     27.1069    148.8202      0.0000
  1216.6000     27.1069    148.8202      0.0000
  1216.7000     27.1069    148.8202      0.0000
  1216.8000     27.0252    148.3969      0.0000
  1216.9000     27.0252    148.3969      0.0000
  1217.0000     26.9748    147.7109      0.0000
  1217.1000     26.9748    147.7109      0.0000
  1217.2000     26.9748    147.7109      0.0000
  1217.3000     27.0532    147.9029      0.0000
