~Version Information
VERS.                      2.0: CWLS Log ASCII Standard - VERSION 2.0
WRAP.                       NO: One line per depth step
~Well Information Block
STRT.FT               500.0000: 
STOP.FT              2760.5000: 
STEP.FT                 0.1000: 
NULL.                -999.2500: 
COMP.          Petrogulf Corporation: COMPANY
WELL.              Silva 1-43V: WELL
FLD.           Purgatorie River: FIELD
LOC.           2010' FSL & 614' FEL: LOCATION
PROV.                 Colorado: PROVINCE
CNTY.               Las Animas: COUNTRY
SRVC.                Patterson: SERVICE COMPANY
DATE.          Mon Aug 29 08:02:37 2005: LOG DATE
UWI.                          : UNIQUE WELL ID
~Curve Information Block
DEPT.FT            0 000 00 00: Depth
DCAL.in                       : CDL Caliper
RHOB.g/cc                     : CDL Bulk Density
RHOC.g/cc                     : CDL Density Correction
DPOR.pu                       : CDL Density Porosity
GR.GAPI                       : Gamma Ray
NPOR.pu                       : Neutron Porosity
~Parameter Information Block
~A  Depth       DCAL        RHOB        RHOC        DPOR         GR         NPOR    
# ...
  1997.6000      7.9216      2.5262      0.0116      7.5014    136.6739     28.0518
  1997.7000      7.9216      2.5264      0.0418      7.4923    135.1849     27.6014
  1997.8000      8.0080      2.5264      0.0126      7.4915    134.4467     27.4223
  1997.9000      8.0080      2.5304      0.0403      7.2496    132.4395     27.3653
  1998.0000      8.0101      2.5406      0.0511      6.6301    128.7277     27.3441
  1998.1000      8.0101      2.5536      0.0796      5.8449    126.0919     27.3211
  1998.2000      8.0101      2.5685      0.0520      4.9416    123.6483     27.1502
  1998.3000      8.0041      2.5891      0.0813      3.6935    119.7729     26.8976
  1998.4000      8.0041      2.6195      0.0746      1.8463    115.9070     26.5196
  1998.5000      7.9437      2.6564      0.1624     -0.3881    113.7009     25.8962
  1998.6000      7.9437      2.6838      0.1929     -2.0471    111.8276     25.3535
  1998.7000      7.9437      2.6924      0.1771     -2.5691    107.7049     25.0456
  1998.8000      7.8891      2.6844      0.1687     -2.0826    101.5713     24.9178
  1998.9000      7.8891      2.6638      0.1550     -0.8358     95.3465     25.0202
  1999.0000      7.8433      2.6436      0.0903      0.3889     90.6690     25.1276
  1999.1000      7.8433      2.6388      0.0904      0.6772     87.8558     25.0137
  1999.2000      7.8433      2.6438      0.1024      0.3756     87.1357     24.8136
  1999.3000      7.8339      2.6398      0.1254      0.6196     89.8200     24.8434
  1999.4000      7.8339      2.6216      0.0595      1.7187     94.4754     25.1620
  1999.5000      7.9300      2.6026      0.0399      2.8723     96.5675     25.4593
  1999.6000      7.9300      2.5915      0.0700      3.5447     95.4492     25.6299
  1999.7000      7.9300      2.5812      0.0684      4.1668     95.1254     25.8669
  1999.8000      8.0438      2.5617      0.0641      5.3488     96.8340     26.0957
  1999.9000      8.0438      2.5346      0.0075      6.9939     98.5105     26.3348
  2000.0000      8.1048      2.5186      0.0014      7.9643     98.7060     26.7050
  2000.1000      8.1048      2.5268      0.0330      7.4663     96.6324     26.9025
  2000.2000      8.1048      2.5463      0.0807      6.2853     91.6945     26.7161
  2000.3000      8.0998      2.5577      0.0819      5.5934     85.1673     26.3643
  2000.4000      8.0998      2.5586      0.0877      5.5385     78.9847     25.9559
  2000.5000      8.0447      2.5576      0.0829      5.5981     73.6749     25.4848
  2000.6000      8.0447      2.5577      0.1028      5.5926     71.5302     25.2407
  2000.7000      8.0447      2.5577      0.1165      5.5963     74.1535     25.2955
  2000.8000      8.0379      2.5605      0.0792      5.4246     79.0164     25.3450
  2000.9000      8.0379      2.5659      0.0895      5.0951     81.5383     25.2616
  2001.0000      7.9454      2.5627      0.1553      5.2933     81.1489     24.9835
  2001.1000      7.9454      2.5478      0.0795      6.1968     80.5345     24.5902
  2001.2000      7.9454      2.5356      0.0973      6.9360     78.5877     24.4108
  2001.3000      7.9085      2.5276      0.1193      7.4195     73.9012     24.5876
  2001.4000      7.9085      2.5114      0.1042      8.3971     68.5053     24.7928
  2001.5000      7.9288      2.4904      0.0729      9.6752     63.3751     24.7490
  2001.6000      7.9288      2.4798      0.0403     10.3177     59.1365     24.6211
  2001.7000      7.9288      2.4788      0.0736     10.3734     57.7728     24.6182
  2001.8000      7.9597      2.4732      0.0706     10.7124     57.3763     24.5126
  2001.9000      7.9597      2.4631      0.0416     11.3292     54.1481     24.0982
  2002.0000      8.0096      2.4613      0.0473     11.4337     49.7440     23.5941
  2002.1000      8.0096      2.4699      0.0978     10.9169     47.2458     23.1751
  2002.2000      8.0096      2.4761      0.0719     10.5398     46.7475     22.8519
  2002.3000      8.0470      2.4681      0.1006     11.0223     46.2101     22.8522
  2002.4000      8.0470      2.4491      0.0348     12.1770     44.6841     23.2385
  2002.5000      8.0896      2.4381      0.0209     12.8420     43.7558     23.5120
  2002.6000      8.0896      2.4418      0.0754     12.6211     43.4935     23.2227
  2002.7000      8.0896      2.4469      0.0883     12.3076     42.4340     22.5866
  2002.8000      8.0853      2.4471      0.0438     12.2960     40.7055     21.9634
  2002.9000      8.0853      2.4446      0.0742     12.4505     39.5415     21.3430
  2003.0000      8.0355      2.4371      0.0563     12.9032     39.5448     20.7273
  2003.1000      8.0355      2.4239      0.0501     13.7040     39.6411     20.3270
  2003.2000      8.0355      2.4159     -0.0152     14.1883     38.0256     20.2171
  2003.3000      8.0386      2.4236      0.0535     13.7192     36.4047     20.4360
  2003.4000      8.0386      2.4413      0.0518     12.6494     36.7297     20.9847
  2003.5000      8.0268      2.4604      0.0954     11.4899     36.4412     21.5044
  2003.6000      8.0268      2.4747      0.1066     10.6241     33.9912     21.6912
  2003.7000      8.0268      2.4783      0.0895     10.4073     31.6613     21.7454
  2003.8000      8.0239      2.4703      0.1067     10.8888     31.2063     21.9833
  2003.9000      8.0239      2.4552      0.0614     11.8089     32.3591     22.3099
  2004.0000      8.0254      2.4428      0.0632     12.5569     33.8610     22.3517
  2004.1000      8.0254      2.4437      0.0268     12.5053     34.5457     22.2228
  2004.2000      8.0254      2.4582      0.0549     11.6254     33.9679     22.2259
  2004.3000      8.0311      2.4739      0.1055     10.6741     32.5742     22.0180
  2004.4000      8.0311      2.4793      0.1160     10.3480     32.3459     21.4548
  2004.5000      8.0490      2.4763      0.1043     10.5288     34.7668     20.9759
  2004.6000      8.0490      2.4754      0.0962     10.5821     37.2156     20.7815
  2004.7000      8.0490      2.4814      0.0496     10.2169     36.7362     20.8860
  2004.8000      8.0270      2.4840      0.1002     10.0603     35.1932     21.2015
  2004.9000      8.0270      2.4703      0.0639     10.8898     34.5539     21.4713
  2005.0000      8.0245      2.4484      0.0515     12.2198     33.7263     21.5128
  2005.1000      8.0245      2.4340      0.0307     13.0912     32.3441     21.3579
  2005.2000      8.0245      2.4317      0.0581     13.2309     31.6443     21.0405
  2005.3000      8.0317      2.4382      0.0513     12.8340     32.9108     20.5481
  2005.4000      8.0317      2.4514      0.0436     12.0384     34.6808     20.1443
  2005.5000      8.0391      2.4677      0.0740     11.0481     33.8110     20.1083
  2005.6000      8.0391      2.4801      0.0895     10.2987     32.0067     20.3713
  2005.7000      8.0391      2.4907      0.0520      9.6529     32.8104     20.6916
  2005.8000      8.0513      2.5087      0.0931      8.5644     34.3462     20.9583
  2005.9000      8.0513      2.5359      0.0928      6.9176     35.2218     21.1001
  2006.0000      8.0652      2.5674      0.0978      5.0063     37.2106     21.1249
  2006.1000      8.0652      2.5908      0.1119      3.5849     40.3430     21.1655
  2006.2000      8.0652      2.5993      0.0836      3.0713     44.1438     21.2737
  2006.3000      8.0333      2.5996      0.0933      3.0564     48.9838     21.5830
  2006.4000      8.0333      2.5965      0.0853      3.2422     55.5738     22.1841
  2006.5000      8.0184      2.5893      0.0972      3.6803     64.3060     22.8758
  2006.6000      8.0184      2.5764      0.0691      4.4588     73.6415     23.5954
  2006.7000      8.0184      2.5601      0.0640      5.4473     82.1910     24.4201
  2006.8000      8.0173      2.5496      0.0231      6.0845     91.4931     25.2432
  2006.9000      8.0173      2.5559      0.0502      5.7038    103.4596     25.8232
  2007.0000      8.0233      2.5777      0.0608      4.3815    116.5043     26.1788
  2007.1000      8.0233      2.5969      0.1767      3.2196    124.8391     26.8618
