~Version Information
VERS.                      2.0: CWLS Log ASCII Standard - VERSION 2.0
WRAP.                       NO: One line per depth step
~Well Information Block
STRT.FT                15.0000: 
STOP.FT              2565.5000: 
STEP.FT                 0.2500: 
NULL.                -999.2500: 
COMP.          Pioneer Natural Resources: COMPANY
WELL.           Costello 44-24: WELL
FLD.           Purgatoire River: FIELD
LOC.           327' FSL & 378' FEL: LOCATION
PROV.                 Colorado: PROVINCE
CNTY.               Las Animas: COUNTRY
SRVC.                Patterson: SERVICE COMPANY
DATE.          Mon Jul 25 10:15:19 2005: LOG DATE
UWI.           05 071 08413 00: UNIQUE WELL ID
~Curve Information Block
DEPT.FT            0 000 00 00: Depth
GR.GAPI                       : Gamma Ray
CCL.                          : Casing Collar Locator
TT3.usec                      : CBL 3' Travel Time
AMP3.mV                       : CBL 3' Amplitude
~Parameter Information Block
~A  Depth        GR         CCL         TT3         AMP3    
# ...
   350.0000    122.9555      0.0000    736.2697      6.4577
   350.2500    125.1682      0.0000    735.6282      6.3583
   350.5000    127.4363      0.0000    735.4415      6.2895
   350.7500    130.6292      0.0000    735.5834      6.2591
   351.0000    135.6794      0.0000    736.1677      6.2663
   351.2500    142.5001      0.0000    737.1788      6.3034
   351.5000    149.9660      0.0000    737.7889      6.3575
   351.7500    156.5183      0.0000    736.0005      6.4138
   352.0000    160.5700      0.0000    729.8628      6.4594
   352.2500    160.8530      0.0000    719.8702      6.4849
   352.5000    157.0448      0.0000    709.4676      6.4852
   352.7500    150.0728      0.0000    702.1625      6.4605
   353.0000    141.7572      0.0000    698.7228      6.4198
   353.2500    134.2802      0.0000    697.8990      6.3809
   353.5000    129.6170      0.0000    698.7380      6.3643
   353.7500    128.6975      0.0000    701.4910      6.3811
   354.0000    130.8297      0.0000    707.2380      6.4227
   354.2500    134.0830      0.0000    716.6721      6.4642
   354.5000    136.3137      0.0000    728.5939      6.4787
   354.7500    136.1539      0.0000    740.4193      6.4515
   355.0000    133.7418      0.0000    750.4822      6.3867
   355.2500    130.7149      0.0000    758.4271      6.3019
   355.5000    128.9153      0.0000    763.4197      6.2187
   355.7500    128.7927      0.0000    763.7725      6.1551
   356.0000    129.3371      0.0000    758.6970      6.1231
   356.2500    129.5552      0.0000    749.2544      6.1264
   356.5000    129.5600      0.0000    737.2863      6.1573
   356.7500    130.0447      0.0000    724.4029      6.2015
   357.0000    130.9553      0.0000    712.6537      6.2460
   357.2500    131.0430      0.0000    705.2304      6.2844
   357.5000    128.8905      0.0000    704.7796      6.3134
   357.7500    124.3174      0.0000    710.7120      6.3300
   358.0000    118.7110      0.0000    719.2751      6.3382
   358.2500    114.0841      0.0000    726.6867      6.3539
   358.5000    111.8815      0.0000    731.6860      6.3968
   358.7500    112.3666      0.0000    735.3950      6.4750
   359.0000    114.5238      0.0000    739.7395      6.5802
   359.2500    116.4171      0.0000    745.9962      6.6920
   359.5000    116.2028      0.0000    753.7556      6.7858
   359.7500    113.4055      0.0000    760.7040      6.8437
   360.0000    109.3840      0.0000    764.0599      6.8634
   360.2500    106.3114      0.0000    763.1465      6.8600
   360.5000    105.3094      0.0000    760.7104      6.8532
   360.7500    105.4191      0.0000    761.3287      6.8538
   361.0000    104.4855      0.0000    768.1251      6.8603
   361.2500    101.1871      0.0000    780.6024      6.8660
   361.5000     96.2145      0.0000    795.0957      6.8661
   361.7500     91.5205      0.0000    807.1780      6.8594
   362.0000     88.5861      0.0000    814.1001      6.8418
   362.2500     87.4560      0.0000    815.5081      6.7950
   362.5000     87.2219      0.0000    812.0858      6.6828
   362.7500     87.1856      0.0000    804.1964      6.4764
   363.0000     87.4888      0.0000    792.8383      6.2036
   363.2500     88.6063      0.0000    781.8887      5.9614
   363.5000     90.3900      0.0000    777.5370      5.8377
   363.7500     91.9963      0.0000    783.6674      5.8204
   364.0000     92.7662      0.0000    798.0895      5.8255
   364.2500     92.8201      0.0000    814.3765      5.8074
   364.5000     92.9412      0.0000    827.1168      5.7918
   364.7500     94.3084      0.0000    834.9661      5.8089
   365.0000     97.9710      3.0000    839.6436      5.8455
   365.2500    104.0313      1.9633    843.2639      5.8700
   365.5000    111.6230      0.0000    846.4156      5.8803
   365.7500    119.9538      0.0000    847.6917      5.9211
   366.0000    128.7351      0.0000    844.9518      6.0513
   366.2500    137.2304      0.0000    837.6486      6.2837
   366.5000    143.7544      0.0000    827.7654      6.5580
   366.7500    146.8561      0.0000    818.3494      6.7932
   367.0000    146.5357      0.0000    811.6060      6.9596
   367.2500    143.7945      0.0000    808.3069      7.0796
   367.5000    139.5531      0.0000    808.0105      7.1752
   367.7500    134.6534      0.0000    809.4625      7.2428
   368.0000    130.3651      0.0000    811.3020      7.2722
   368.2500    128.0060      0.0000    812.7245      7.2690
   368.5000    128.0802      0.0000    813.5464      7.2527
   368.7500    130.0703      0.0000    813.7684      7.2392
   369.0000    133.0018      0.0000    813.1145      7.2296
   369.2500    136.2322      0.0000    810.7401      7.2147
   369.5000    139.8806      0.0000    805.4286      7.1857
   369.7500    144.5142      0.0000    796.6343      7.1385
   370.0000    150.3533      0.0000    785.5337      7.0745
   370.2500    156.7102      0.0000    774.3385      7.0010
   370.5000    162.0263      0.0000    764.1668      6.9283
   370.7500    164.5311      0.0000    754.4268      6.8643
   371.0000    163.4716      0.0000    744.7958      6.8135
   371.2500    159.9860      0.0000    736.9657      6.7811
   371.5000    156.3215      0.0000    733.7107      6.7756
   371.7500    153.9748      0.0000    736.1349      6.8039
   372.0000    152.7651      0.0000    741.9763      6.8633
   372.2500    151.4042      0.0000    747.3619      6.9394
   372.5000    148.4011      0.0000    750.5980      7.0132
   372.7500    142.6867      0.0000    753.4087      7.0682
   373.0000    134.3091      0.0000    758.1497      7.0956
   373.2500    124.8745      0.0000    764.7479      7.0944
   373.5000    116.9443      0.0000    770.8257      7.0704
   373.7500    112.6034      0.0000    774.0538      7.0342
   374.0000    112.4277      0.0000    773.9095      6.9988
   374.2500    115.5198      0.0000    771.6364      6.9774
   374.5000    120.2453      0.0000    768.9187      6.9797
   374.7500    124.9299      0.0000    766.4999      7.0052
   375.0000    128.2123      0.0000    764.0077      7.0423
   375.2500    129.2323      0.0000    761.0963      7.0737
   375.5000    127.8477      0.0000    758.5237      7.0870
   375.7500    124.6980      0.0000    757.9387      7.0792
   376.0000    120.8217      0.0000    760.4684      7.0551
   376.2500    117.1208      0.0000    765.3548      7.0229
   376.5000    114.2187      0.0000    770.0604      6.9923
   376.7500    112.5675      0.0000    771.9034      6.9720
   377.0000    112.2803      0.0000    769.7642      6.9686
   377.2500    112.8481      0.0000    764.6472      6.9852
   377.5000    113.3937      0.0000    758.9015      7.0216
   377.7500    113.3714      0.0000    754.7028      7.0744
   378.0000    112.8586      0.0000    753.0996      7.1381
   378.2500    112.2362      0.0000    754.2939      7.2094
   378.5000    111.9488      0.0000    757.9978      7.2893
   378.7500    112.4880      0.0000    762.9035      7.3813
   379.0000    114.0589      0.0000    766.5651      7.4878
   379.2500    116.1386      0.0000    766.9528      7.6072
   379.5000    117.9216      0.0000    764.4066      7.7315
   379.7500    119.4780      0.0000    761.7001      7.8476
   380.0000    121.9593      0.0000    761.7639      7.9429
   380.2500    126.2224      0.0000    765.2374      8.0102
   380.5000    131.5872      0.0000    770.3051      8.0434
   380.7500    136.4424      0.0000    774.5946      8.0338
   381.0000    139.8132      0.0000    776.7225      7.9766
   381.2500    141.7892      0.0000    776.3480      7.8790
   381.5000    142.7892      0.0000    773.7864      7.7587
   381.7500    143.2356      0.0000    770.1003      7.6340
   382.0000    143.7612      0.0000    767.1559      7.5180
   382.2500    144.8681      0.0000    766.8489      7.4206
   382.5000    146.2109      0.0000    769.8487      7.3487
   382.7500    146.7885      0.0000    774.9617      7.3007
   383.0000    146.0928      0.0000    779.9231      7.2605
   383.2500    144.8819      0.0000    782.9744      7.2038
