~Version Information
VERS.                      2.0: CWLS Log ASCII Standard - VERSION 2.0
WRAP.                       NO: One line per depth step
~Well Information Block
STRT.FT                -6.5000: 
STOP.FT              2698.5000: 
STEP.FT                 0.2500: 
NULL.                -999.2500: 
COMP.          Pioneer Natural Resources: COMPANY
WELL.              Cluck 21-25: WELL
FLD.           Purgatorie River: FIELD
LOC.           91' FNL & 1834' FWL--: LOCATION
PROV.                       CO: PROVINCE
CNTY.               Las Animas: COUNTRY
SRVC.          Patterson Wireline: SERVICE COMPANY
DATE.          Mon Jun 13 14:54:35 2005: LOG DATE
UWI.           05 071 08397 00: UNIQUE WELL ID
~Curve Information Block
DEPT.FT            0 000 00 00: Depth
CCL.                          : Casing Collar Locator
TT3.usec                      : CBL 3' Travel Time
AMP3.mV                       : CBL 3' Amplitude
GR.GAPI                       : Gamma Ray
~Parameter Information Block
~A  Depth       CCL         TT3         AMP3         GR     
# ...
  1233.0000      0.0000    861.2714      4.4819    117.0270
  1233.2500      0.0000    861.6053      4.4502    120.0517
  1233.5000      0.0000    861.9153      4.4118    122.0630
  1233.7500      0.0000    862.1094      4.3810    123.7682
  1234.0000      0.0000    862.1430      4.3906    126.7457
  1234.2500      0.0000    862.0438      4.4352    132.1798
  1234.5000      0.0000    861.8926      4.4701    139.5093
  1234.7500      0.0000    861.7672      4.4652    146.3388
  1235.0000      0.0000    861.7052      4.4226    150.0014
  1235.2500      0.0000    861.7141      4.3423    149.3910
  1235.5000      0.0000    861.7516      4.2142    145.5624
  1235.7500      0.0000    861.6177      4.0523    141.0047
  1236.0000      0.0000    860.8057      3.9026    138.0353
  1236.2500      0.0000    858.5039      3.8066    137.0930
  1236.5000      0.0000    853.9753      3.7805    136.6088
  1236.7500      0.0000    847.2825      3.8252    134.9423
  1237.0000      0.0000    839.7346      3.9184    131.9838
  1237.2500      0.0000    833.4156      4.0002    128.5555
  1237.5000      0.0000    830.0550      4.0118    125.0361
  1237.7500      0.0000    830.1854      3.9595    121.4102
  1238.0000      0.0000    833.0712      3.9083    118.3070
  1238.2500      0.0000    837.1603      3.9046    117.0470
  1238.5000      0.0000    840.6459      3.9383    118.4332
  1238.7500      0.0000    841.9705      3.9912    121.9198
  1239.0000      0.0000    840.3915      4.0813    126.1613
  1239.2500      0.0000    836.4863      4.2234    130.1236
  1239.5000      0.0000    831.9672      4.3779    133.4672
  1239.7500      0.0000    828.7394      4.4841    136.0509
  1240.0000      0.0000    828.0384      4.5338    137.5371
  1240.2500      0.0000    830.0303      4.5684    137.8125
  1240.5000      0.0000    833.5511      4.6075    137.5900
  1240.7500      0.0000    836.3271      4.6286    138.0552
  1241.0000      0.0000    836.2896      4.6241    139.7308
  1241.2500      0.0000    833.0920      4.6297    141.8268
  1241.5000      0.0000    828.0011      4.6721    142.4196
  1241.7500      0.0000    822.3837      4.7305    139.2890
  1242.0000      0.0000    816.8743      4.7794    131.5435
  1242.2500      0.0000    812.0383      4.8307    121.0270
  1242.5000      0.0000    809.0504      4.8998    111.4950
  1242.7500      0.0000    808.9508      4.9657    105.9554
  1243.0000      0.0000    811.3260      5.0030    105.0631
  1243.2500      0.0000    814.3831      5.0223    107.8166
  1243.5000      0.0000    816.7576      5.0352    112.7910
  1243.7500      0.0000    818.9812      4.9998    118.5071
  1244.0000      0.0000    822.7609      4.8512    123.3471
  1244.2500      0.0000    828.8300      4.5871    125.6663
  1244.5000      0.0000    835.3795      4.2811    124.1184
  1244.7500      0.0000    838.3607      3.9974    118.1735
  1245.0000      0.0000    833.8451      3.7222    108.6255
  1245.2500      0.0000    821.0834      3.4075     97.4140
  1245.5000      0.0000    803.6973      3.0635     86.5695
  1245.7500      0.0000    787.7164      2.7696     77.2028
  1246.0000      0.0000    778.1118      2.5846     69.3710
  1246.2500      0.0000    776.4465      2.4800     62.8369
  1246.5000      0.0000    780.4686      2.3894     58.1841
  1246.7500      0.0000    785.3636      2.3042     57.0854
  1247.0000      0.0000    786.7403      2.2819     60.9658
  1247.2500      0.0000    783.7569      2.3634     69.3934
  1247.5000      0.0000    779.1932      2.5238     80.2490
  1247.7500      0.0000    776.2098      2.7220     91.5027
  1248.0000      0.0000    775.9695      2.9600    102.3106
  1248.2500      0.0000    778.5390      3.2600    112.4388
  1248.5000      0.0000    784.3869      3.6055    121.2255
  1248.7500      0.0000    793.8066      3.9460    127.3157
  1249.0000      0.0000    805.6802      4.2612    129.3908
  1249.2500      0.0000    817.7718      4.5748    127.4457
  1249.5000      0.0000    827.9772      4.8854    123.2316
  1249.7500      0.0000    835.1210      5.1167    118.9411
  1250.0000      0.0000    839.0637      5.1726    115.6530
  1250.2500      0.0000    840.3497      5.0393    113.5365
  1250.5000      0.0000    839.8552      4.8195    112.9459
  1250.7500      0.0000    838.6962      4.6623    114.2795
  1251.0000      0.0000    837.7813      4.6568    117.1552
  1251.2500      0.0000    836.7225      4.7822    120.7204
  1251.5000      0.0000    833.2542      4.9500    124.4722
  1251.7500      0.0000    824.2867      5.0855    127.9415
  1252.0000      0.0000    808.3723      5.1720    129.9450
  1252.2500      0.0000    787.7924      5.2356    129.1378
  1252.5000      0.0000    768.0168      5.3001    125.5319
  1252.7500      0.0000    754.3878      5.3491    120.9014
  1253.0000      0.0000    749.0001      5.3334    117.3130
  1253.2500      0.0000    750.3876      5.2298    115.4108
  1253.5000      0.0000    755.3033      5.0936    114.1263
  1253.7500      0.0000    760.6807      5.0370    111.6805
  1254.0000      0.0000    765.3275      5.1399    106.9438
  1254.2500      0.0000    770.8091      5.3732    100.4561
  1254.5000      0.0000    779.7479      5.6065     94.4173
  1254.7500      0.0000    792.3904      5.6947     91.3808
  1255.0000      0.0000    805.7045      5.5806     92.5027
  1255.2500      0.0000    816.3967      5.3416     96.7530
  1255.5000      0.0000    823.8233      5.1409    101.7473
  1255.7500      0.0000    829.3732      5.1048    105.4861
  1256.0000      0.0000    833.7686      5.2204    107.4429
  1256.2500      0.0000    835.9371      5.3561    108.1163
  1256.5000      0.0000    834.7311      5.3845    107.8748
  1256.7500      0.0000    831.0563      5.2733    106.5841
  1257.0000      0.0000    827.0536      5.0687    104.2533
  1257.2500      0.0000    822.9261      4.8362    101.5239
  1257.5000      0.0000    816.3656      4.6367     99.1094
  1257.7500      0.0000    806.4026      4.5189     96.9803
  1258.0000      0.0000    796.2969      4.4861     94.6133
  1258.2500      0.0000    790.5427      4.4808     92.0398
  1258.5000      0.0000    790.1882      4.4274     90.0691
  1258.7500      0.0000    793.3204      4.2997     89.3509
  1259.0000      0.0000    799.1389      4.1478     89.7816
  1259.2500     -2.0000    808.9092      4.0615     91.0222
  1259.5000      0.0000    822.7005      4.0993     93.1532
  1259.7500      0.0000    837.2032      4.2446     96.5018
  1260.0000      0.0000    847.8682      4.4262    100.8980
  1260.2500      0.0000    852.5248      4.5700    105.3028
  1260.5000      0.0000    852.4521      4.6290    108.2371
  1260.7500      0.0000    850.7385      4.5998    108.6211
  1261.0000      0.0000    850.0653      4.5456    106.2716
  1261.2500      0.0000    851.3446      4.5785    101.8867
  1261.5000      0.0000    853.5613      4.7685     97.0065
  1261.7500      0.0000    854.4709      5.0627     94.0512
  1262.0000      0.0000    851.4089      5.3191     95.5469
  1262.2500      0.0000    841.8576      5.4113    102.4078
  1262.5000      0.0000    824.5313      5.2983    112.9296
  1262.7500      0.0000    801.0655      5.0258    123.9967
  1263.0000      0.0000    776.4923      4.6973    133.4062
  1263.2500      0.0000    756.9867      4.4345    140.7527
  1263.5000      0.0000    746.3209      4.3261    146.0999
  1263.7500      0.0000    743.9392      4.3840    148.3980
  1264.0000      0.0000    745.7603      4.5492    146.0370
  1264.2500      0.0000    746.9034      4.7438    139.0221
  1264.5000      0.0000    744.7200      4.9144    129.8696
  1264.7500      0.0000    739.9429      5.0404    122.0722
  1265.0000      0.0000    735.0375      5.1316    117.9792
  1265.2500      0.0000    731.7379      5.2170    117.9784
  1265.5000      0.0000    730.2063      5.3153    120.9993
  1265.7500      0.0000    729.8170      5.4090    125.5171
  1266.0000      0.0000    730.0995      5.4522    130.1610
  1266.2500      0.0000    731.1375      5.4126    133.6121
