~Version Information
VERS.                      2.0: CWLS Log ASCII Standard - VERSION 2.0
WRAP.                       NO: One line per depth step
~Well Information Block
STRT.FT               -14.0000: 
STOP.FT              2565.5000: 
STEP.FT                 0.5000: 
NULL.                -999.2500: 
COMP.          Pioneer Natural Resources: COMPANY
WELL.             Carbon 34-21: WELL
FLD.           Purgatorie River: FIELD
LOC.           56' FSL & 2304' FEL: LOCATION
PROV.                 Colorado: PROVINCE
CNTY.               Las Animas: COUNTRY
SRVC.          Patterson Wireline: SERVICE COMPANY
DATE.          Mon Nov 08 08:55:10 2004: LOG DATE
UWI.           05-071-08117-00: UNIQUE WELL ID
~Curve Information Block
DEPT.FT            0 000 00 00: Depth
TT3.usec                      : CBL 3' Travel Time
AMP3.mV                       : CBL 3' Amplitude
GR.GAPI                       : Gamma Ray
CCL.                          : Casing Collar Locator
~Parameter Information Block
~A  Depth       TT3         AMP3         GR         CCL     
# ...
  1326.0000    283.4167     62.4077    111.7491      0.0000
  1326.5000    283.7003     59.4894    104.1813      0.0000
  1327.0000    284.0137     56.2514    107.2940      0.0000
  1327.5000    284.2103     53.6166    115.3908      0.0000
  1328.0000    284.2328     52.3768    115.7174      0.0000
  1328.5000    284.2627     51.6188    109.8249      0.0000
  1329.0000    284.4382     50.7673    105.3528      0.0000
  1329.5000    284.6040     50.7842    100.5968      0.0000
  1330.0000    284.6509     51.9394     92.8378      0.0000
  1330.5000    284.6333     52.8570     83.1754      0.0000
  1331.0000    284.5008     54.1854     76.7425      0.0000
  1331.5000    284.2302     56.7298     69.6706      0.0000
  1332.0000    284.0117     59.7243     62.1049      0.0000
  1332.5000    283.8503     63.6359     61.0944      0.0000
  1333.0000    283.7039     67.7391     70.6618      0.0000
  1333.5000    283.5735     71.1007     89.7781      0.0000
  1334.0000    283.5111     73.2995    111.2834      0.0000
  1334.5000    283.5506     74.2397    126.6884      0.0000
  1335.0000    283.5534     74.7724    139.2164      0.0000
  1335.5000    283.4853     75.5715    150.5973      0.0000
  1336.0000    283.4744     76.1718    150.2415      0.0000
  1336.5000    283.5164     76.2717    139.7458      0.0000
  1337.0000    283.5541     76.4113    125.3493      0.0000
  1337.5000    283.5499     76.8615    115.2761      0.0000
  1338.0000    283.5270     76.8670    114.6835      0.0000
  1338.5000    283.5447     76.4467    119.0350      0.0000
  1339.0000    283.5450     77.1115    125.1544      0.0000
  1339.5000    283.5312     78.2843    129.7377      0.0000
  1340.0000    283.5850     78.6545    133.6512      0.0000
  1340.5000    283.6851     78.5231    139.4939      0.0000
  1341.0000    283.7230     78.6200    143.5800      0.0000
  1341.5000    283.7004     78.6564    139.6005      0.0000
  1342.0000    283.7693     78.1146    133.9762      0.0000
  1342.5000    283.8564     77.4613    132.9240      0.0000
  1343.0000    283.8087     77.4813    131.5117      0.0000
  1343.5000    283.7098     78.0400    125.5540      0.0000
  1344.0000    283.6685     78.5993    127.2337      0.0000
  1344.5000    283.6880     78.4501    137.4697      0.0000
  1345.0000    283.8353     77.6855    136.5206      0.0000
  1345.5000    284.4385     74.2581    126.2077      0.0000
  1346.0000    286.3418     65.7748    120.7504      0.0000
  1346.5000    289.6627     57.4755    116.2637      0.0000
  1347.0000    291.9500     53.9829    104.3388      0.0000
  1347.5000    292.2719     54.2701     91.4421      0.0000
  1348.0000    292.3053     54.9306     90.1080      2.9315
  1348.5000    292.6553     55.0815     97.1927      0.0000
  1349.0000    291.6480     57.6577    101.7614      0.0000
  1349.5000    288.0188     65.5617    104.2036      0.0000
  1350.0000    284.9509     75.0131    109.5385      0.0000
  1350.5000    283.9691     81.1397    116.9950      0.0000
  1351.0000    283.8404     83.0778    118.3334      0.0000
  1351.5000    283.7965     83.1884    106.0934      0.0000
  1352.0000    283.7514     81.9233     90.5787      0.0000
  1352.5000    283.8165     79.2798     91.5797      0.0000
  1353.0000    283.9704     77.2593    103.6146      0.0000
  1353.5000    284.0852     76.9642    109.9909      0.0000
  1354.0000    284.1021     78.0992    110.1867      0.0000
  1354.5000    284.0391     79.2083    110.6322      0.0000
  1355.0000    283.9672     79.0674    117.0337      0.0000
  1355.5000    283.9832     78.2152    122.6279      0.0000
  1356.0000    284.0544     77.6990    121.0376      0.0000
  1356.5000    284.1294     77.2357    122.3296      0.0000
  1357.0000    284.1801     76.8898    127.2077      0.0000
  1357.5000    284.1808     77.5040    126.3417      0.0000
  1358.0000    284.1479     79.3241    125.8272      0.0000
  1358.5000    284.0875     81.5667    125.8703      0.0000
  1359.0000    284.0222     82.4641    123.0436      0.0000
  1359.5000    283.9796     81.8077    129.4320      0.0000
  1360.0000    283.9778     80.7492    147.7390      0.0000
  1360.5000    284.0500     80.2009    161.0742      0.0000
  1361.0000    284.1493     79.8979    163.8230      0.0000
  1361.5000    284.1967     79.7081    154.0084      0.0000
  1362.0000    284.2391     79.6187    131.4765      0.0000
  1362.5000    284.2834     79.3487    118.4243      0.0000
  1363.0000    284.2326     78.6896    119.1891      0.0000
  1363.5000    284.1037     77.6872    118.2962      0.0000
  1364.0000    284.0334     76.9210    115.2824      0.0000
  1364.5000    284.0362     76.9837    118.7090      0.0000
  1365.0000    284.0846     77.2581    127.1454      0.0000
  1365.5000    284.2111     76.9335    134.7405      0.0000
  1366.0000    284.3146     76.0416    143.3161      0.0000
  1366.5000    284.2720     74.8444    147.4988      0.0000
  1367.0000    284.1748     73.5993    143.2387      0.0000
  1367.5000    284.1519     72.9644    135.9671      0.0000
  1368.0000    284.1790     72.6295    128.9157      0.0000
  1368.5000    284.2550     71.6103    127.0701      0.0000
  1369.0000    284.3251     70.3269    131.4168      0.0000
  1369.5000    284.3334     70.3187    133.3536      0.0000
  1370.0000    284.3393     70.8593    124.5707      0.0000
  1370.5000    284.3443     71.0760    117.8210      0.0000
  1371.0000    284.2728     72.1848    120.6739      0.0000
  1371.5000    284.1613     73.4859    122.1679      0.0000
  1372.0000    284.0845     74.2237    119.0876      0.0000
  1372.5000    284.0145     74.6702    120.7554      0.0000
  1373.0000    283.9535     75.4577    130.1684      0.0000
  1373.5000    283.9192     77.1260    139.0951      0.0000
  1374.0000    283.8916     78.3832    143.6102      0.0000
  1374.5000    283.9092     78.3843    142.5899      0.0000
  1375.0000    283.9749     77.6756    136.6423      0.0000
  1375.5000    284.0369     77.4928    125.7655      0.0000
  1376.0000    284.0879     78.9499    115.9313      0.0000
  1376.5000    284.1126     80.4527    111.4046      0.0000
  1377.0000    284.1541     79.5752    112.8708      0.0000
  1377.5000    284.1843     76.5740    121.0596      0.0000
  1378.0000    284.1090     73.8768    125.1386      0.0000
  1378.5000    284.0391     73.2234    127.7359      0.0000
  1379.0000    284.0251     73.8882    128.9024      0.0000
  1379.5000    284.0236     75.2828    125.1427      0.0000
  1380.0000    284.0353     77.5950    118.8512      0.0000
  1380.5000    284.0179     78.9518    111.3296      0.0000
  1381.0000    283.9888     77.9219    106.9251      0.0000
  1381.5000    283.9953     76.8679    109.4582      0.0000
  1382.0000    283.9897     77.5046    112.6161      0.0000
  1382.5000    283.9700     78.7329    103.1890      0.0000
  1383.0000    283.9376     80.4616     89.9955      0.0000
  1383.5000    283.9041     81.7650     83.7713      0.0000
  1384.0000    283.8745     81.3107     80.9223      0.0000
  1384.5000    283.8635     80.8315     79.3447      0.0000
  1385.0000    283.9188     81.8209     79.3056      0.0000
  1385.5000    284.0041     83.1262     73.1543      0.0000
  1386.0000    284.0595     83.3614     66.4871      0.0000
  1386.5000    284.0593     83.1378     72.5432      0.0000
  1387.0000    284.0067     82.8929     87.2491      0.0000
  1387.5000    283.9502     82.2398    105.4848      0.0000
  1388.0000    283.9518     81.6557    121.6669      0.0000
  1388.5000    284.0387     80.8384    132.1808      0.0000
  1389.0000    284.5177     76.5916    139.9954      0.0000
  1389.5000    286.1980     68.8580    139.2192      0.0000
  1390.0000    289.1383     62.1624    132.6555      0.0000
  1390.5000    291.3225     57.4763    125.9143      0.0000
  1391.0000    291.9633     55.2767    121.0497      0.0000
  1391.5000    292.1881     54.7093    122.9436      2.9334
  1392.0000    292.2404     55.2291    124.9366      0.0000
  1392.5000    291.1872     58.9124    117.5133      0.0000
