~Version Information
VERS.                      2.0: CWLS Log ASCII Standard - VERSION 2.0
WRAP.                       NO: One line per depth step
~Well Information Block
STRT.FT                -7.5000: 
STOP.FT               978.5000: 
STEP.FT                 0.2500: 
NULL.                -999.2500: 
COMP.          Pioneer Natural Resources: COMPANY
WELL.          Piggyback 33-25: WELL
FLD.           Purgatoire River: FIELD
LOC.           1600' FSL & 1800' FEL: LOCATION
PROV.                 Colorado: PROVINCE
CNTY.               Las Animas: COUNTRY
SRVC.                Patterson: SERVICE COMPANY
DATE.          Mon May 09 09:22:28 2005: LOG DATE
UWI.           05 071 08233 00: UNIQUE WELL ID
~Curve Information Block
DEPT.FT            0 000 00 00: Depth
CCL.                          : Casing Collar Locator
TT3.usec                      : CBL 3' Travel Time
AMP3.mV                       : CBL 3' Amplitude
GR.GAPI                       : Gamma Ray
~Parameter Information Block
~A  Depth       CCL         TT3         AMP3         GR     
    -7.5000   -999.2500   -999.2500   -999.2500   -999.2500
    -7.2500   -999.2500   -999.2500   -999.2500     75.4818
    -7.0000   -999.2500   -999.2500   -999.2500     78.3444
    -6.7500   -999.2500   -999.2500   -999.2500     80.9907
    -6.5000   -999.2500   -999.2500   -999.2500     82.7819
    -6.2500   -999.2500   -999.2500   -999.2500     83.7453
    -6.0000   -999.2500   -999.2500   -999.2500     84.1555
    -5.7500   -999.2500   -999.2500   -999.2500     84.2071
    -5.5000   -999.2500   -999.2500   -999.2500     83.9028
    -5.2500   -999.2500   -999.2500   -999.2500     83.0358
    -5.0000   -999.2500   -999.2500   -999.2500     81.3749
    -4.7500   -999.2500   -999.2500   -999.2500     79.0487
    -4.5000   -999.2500   -999.2500   -999.2500     76.7395
    -4.2500   -999.2500   -999.2500   -999.2500     75.4148
    -4.0000   -999.2500   -999.2500   -999.2500     75.7116
    -3.7500   -999.2500   -999.2500   -999.2500     77.3320
    -3.5000   -999.2500   -999.2500   -999.2500     78.9746
    -3.2500   -999.2500   -999.2500   -999.2500     79.1869
    -3.0000   -999.2500   -999.2500   -999.2500     77.5786
    -2.7500   -999.2500   -999.2500   -999.2500     75.0702
    -2.5000   -999.2500   -999.2500   -999.2500     72.8705
    -2.2500   -999.2500   -999.2500   -999.2500     71.4147
    -2.0000   -999.2500   1428.0000     -1.1841     70.3793
    -1.7500   -999.2500   1428.0000     -1.0788     69.4458
    -1.5000   -999.2500   1428.0000     -1.0061     68.7903
    -1.2500   -999.2500   1428.0000     -0.9988     68.8689
    -1.0000   -999.2500   1428.0000     -1.0526     69.8824
    -0.7500   -999.2500   1428.0000     -1.1386     71.4946
    -0.5000   -999.2500   1428.0000     -1.2278     72.9879
    -0.2500   -999.2500   1428.0000     -1.3035     73.5251
     0.0000   -999.2500   1428.0000     -1.3591     72.2269
     0.2500   -999.2500   1428.0000     -1.4060     68.4219
     0.5000   -999.2500   1428.0000     -1.4050     62.2743
     0.7500   -999.2500   1428.0000     -1.3984     55.1121
     1.0000   -999.2500   1428.0000     -1.3911     48.7580
     1.2500   -999.2500   1428.0000     -1.3820     44.3559
     1.5000   -999.2500   1428.0000     -1.3702     41.8469
     1.7500   -999.2500   1428.0000     -1.3595     40.4441
     2.0000   -999.2500   1428.0000     -1.3556     39.4634
     2.2500   -999.2500   1428.0000     -1.3600     38.8135
     2.5000   -999.2500   1428.0000     -1.3693     38.8893
     2.7500   -999.2500   1428.0000     -1.3786     40.0038
     3.0000   -999.2500   1428.0000     -1.3846     41.9389
     3.2500      0.0000   1428.0000     -1.3873     44.1345
     3.5000      0.0000   1428.0000     -1.3895     46.2732
     3.7500      0.0000   1428.0000     -1.3939     48.5237
     4.0000      0.0000   1428.0000     -1.4013     51.2553
     4.2500      0.0000   1428.0000     -1.4113     54.6747
     4.5000      0.0000   1428.0000     -1.4233     58.6449
     4.7500      0.0000   1428.0000     -1.4348     62.6419
     5.0000      0.0000   1428.0000     -1.4407     65.9341
     5.2500      0.0000   1428.0000     -1.4370     68.0175
     5.5000      0.0000   1428.0000     -1.4244     68.9948
     5.7500      0.0000   1428.0000     -1.4075     69.5704
     6.0000      0.0000   1428.0000     -1.3923     70.6188
     6.2500      0.0000   1428.0000     -1.3824     72.5677
     6.5000      0.0000   1428.0000     -1.3760     75.0734
     6.7500      0.0000   1428.0000     -1.3634     77.2483
     7.0000      0.0000   1428.0000     -1.3311     78.2600
     7.2500      0.0000   1428.0000     -1.2703     77.8983
     7.5000      0.0000   1428.0000     -1.1876     76.6886
     7.7500      0.0000   1428.0000     -1.1128     75.4258
     8.0000      0.0000   1428.0000     -1.0858     74.6441
     8.2500      0.0000   1428.0000     -1.1240     74.5811
     8.5000      0.0000   1428.0000     -1.2042     75.4387
     8.7500      0.0000   1428.0000     -1.2843     77.3724
     9.0000      0.0000   1428.0000     -1.3390     80.3084
     9.2500      0.0000   1428.0000     -1.3698     83.9982
     9.5000      0.0000   1428.0000     -1.3883     88.0142
     9.7500      0.0000   1428.0000     -1.3999     91.4021
    10.0000      0.0000   1428.0000     -1.4041     92.7334
    10.2500      0.0000   1428.0000     -1.4015     91.1024
    10.5000      0.0000   1428.0000     -1.3968     87.0343
    10.7500      0.0000   1428.0000     -1.3956     82.0574
    11.0000      0.0000   1428.0000     -1.4002     77.4019
    11.2500      0.0000   1428.0000     -1.4068     73.2060
    11.5000      0.0000   1428.0000     -1.4018     68.8661
    11.7500      0.0000   1428.0000     -1.3534     64.0472
    12.0000      0.0000   1428.0000     -1.1912     59.1810
    12.2500      0.0000   1428.0000     -0.7932     54.8948
    12.5000      0.0000   1428.0000     -0.0327     51.3376
    12.7500      0.0000   1428.0000      1.1059     48.3735
    13.0000      0.0000   1428.0000      2.4473     46.0985
    13.2500      0.0000   1428.0000      3.7088     44.7694
    13.5000      0.0000   1428.0000      4.6895     44.3228
    13.7500      0.0000   1428.0000      5.3696     44.1637
    14.0000      0.0000   1428.0000      5.8439     43.4632
    14.2500      0.0000   1428.0000      6.2104     41.8018
    14.5000      0.0000   1428.0000      6.5249     39.6468
    14.7500      0.0000   1428.0000      6.8157     38.0407
    15.0000      0.0000   1428.0000      7.0980     37.7212
    15.2500      0.0000   1428.0000      7.3707     38.6862
    15.5000      0.0000   1428.0000      7.6182     40.5298
    15.7500      0.0000   1428.0000      7.8266     42.8613
    16.0000      0.0000   1428.0000      7.9957     45.3426
    16.2500      0.0000   1428.0000      8.1356     47.5564
    16.5000      0.0000   1428.0000      8.2600     48.9848
    16.7500      0.0000   1428.0000      8.3844     49.1533
    17.0000      0.0000   1428.0000      8.5217     47.8798
    17.2500      0.0000   1427.9617      8.6767     45.5309
    17.5000      0.0000   1427.7115      8.8437     42.9648
    17.7500      0.0000   1426.4796      9.0121     40.9216
    18.0000      0.0000   1421.6672      9.1723     39.4830
    18.2500      0.0000   1407.2106      9.3194     38.4072
    18.5000      0.0000   1373.8333      9.4542     37.7662
    18.7500      0.0000   1314.9008      9.5821     37.8099
    19.0000      0.0000   1235.5598      9.7076     38.4635
    19.2500      0.0000   1153.2731      9.8254     39.3773
    19.5000      0.0000   1083.6078      9.9215     40.2169
    19.7500      0.0000   1027.2056      9.9860     40.6864
    20.0000      0.0000    975.9282     10.0274     40.6136
    20.2500      0.0000    927.7485     10.0695     40.2406
    20.5000      0.0000    888.5679     10.1259     40.2150
    20.7500      0.0000    862.7480     10.1764     41.0262
    21.0000      0.0000    848.4437     10.1769     42.3740
    21.2500      0.0000    840.7742     10.1014     43.3014
    21.5000      0.0000    835.4111      9.9689     43.1670
    21.7500      0.0000    829.7048      9.8269     42.3046
    22.0000      0.0000    823.0865      9.7160     41.4667
    22.2500      0.0000    816.8363      9.6493     40.9597
    22.5000      0.0000    812.7354      9.6140     40.7223
    22.7500      0.0000    811.8296      9.5880     40.8699
    23.0000      0.0000    814.0964      9.5603     41.6335
    23.2500      0.0000    818.6440      9.5366     42.9112
    23.5000      0.0000    823.9208      9.5284     44.1941
    23.7500      0.0000    828.0369      9.5385     44.9141
    24.0000      0.0000    829.3056      9.5579     44.8710
    24.2500      0.0000    826.9824      9.5721     44.4472
    24.5000      0.0000    821.8496      9.5729     44.3335
    24.7500      0.0000    815.8545      9.5680     44.9549
    25.0000      0.0000    810.8090      9.5773     46.1781
    25.2500      0.0000    807.4271      9.6168     47.4341
    25.5000      0.0000    805.4804      9.6841     47.9829
    25.7500      0.0000    804.4667      9.7603     47.3352
