~Version Information
 VERS.                                  2.0 : CWLS LAS VERSION
 WRAP.                                   NO : WRAPING MODE
 SWARE .                 MController 2.5.0E : SOFTWARE VERSION
~Well Information
 WELL.                         STATE 16-32R : WELL
 COMP.                      Petrogulf Corp. : COMPANY
 FLD.                      Purgatorie River : FIELD
 LOC.                SW/NE Sec 16 T33S R67W : LOCATION
 DATE.                      5/12/04-5/13/04 : DATE(S) LOGGED
 SRVC.       Blanco Geological Services LLC : SERVICE COMPANY
 STAT.                                   CO : STATE
 CNTY.                           Las Animas : COUNTY
 CTRY.                                  USA : COUNTRY
 API.                       05-071-08033-00 : API NUMBER
 STRT.FT                             167.00 : START DEPTH
 STOP.FT                            1918.00 : STOP DEPTH
 STEP.FT                               1.00 : DEPTH INCREMENT
 NULL.                                -9999 : NULL VALUE
~Curve information
 DEPTH.FT                                   :
 ROP.MIN/FT                                 :
 GAS.UNITS                                  :
~ASCII Log data
# ...
     1767.00        0.400         31.5 
     1768.00        0.467         28.7 
     1769.00        0.367         28.0 
     1770.00        0.467         27.4 
     1771.00        0.233         26.6 
     1772.00        0.333         25.9 
     1773.00        0.367         26.3 
     1774.00        0.417         26.2 
     1775.00        0.333         25.4 
     1776.00        0.300         26.0 
     1777.00        0.300         25.6 
     1778.00        0.300         25.6 
     1779.00        0.267         25.7 
     1780.00        0.300         27.9 
     1781.00        0.367         26.9 
     1782.00        0.300         25.1 
     1783.00        0.300         22.7 
     1784.00        0.317         22.3 
     1785.00        0.267         20.0 
     1786.00        0.333         20.4 
     1787.00        0.367         22.1 
     1788.00        0.333         23.3 
     1789.00        0.433         23.6 
     1790.00        0.333         29.4 
     1791.00        0.333         38.2 
     1792.00        0.300         46.7 
     1793.00        0.267         66.4 
     1794.00        0.350         82.9 
     1795.00        0.300         79.8 
     1796.00        5.183         78.0 
     1797.00        0.333         32.8 
     1798.00        0.367         31.4 
     1799.00        0.350         30.7 
     1800.00        0.500         30.1 
     1801.00        0.433         29.6 
     1802.00        0.367         29.5 
     1803.00        0.367         30.7 
     1804.00        0.333         30.6 
     1805.00        0.367         30.8 
     1806.00        0.367         29.9 
     1807.00        0.333         31.0 
     1808.00        0.350         31.4 
     1809.00        0.333         29.1 
     1810.00        0.300         27.6 
     1811.00        0.300         25.7 
     1812.00        0.300         22.7 
     1813.00        0.300         20.4 
     1814.00        0.333         20.7 
     1815.00        0.233         21.2 
     1816.00        0.300         21.3 
     1817.00        0.300         21.9 
     1818.00        0.350         22.5 
     1819.00        0.267         24.2 
     1820.00        0.233         29.6 
     1821.00        0.233         38.8 
     1822.00        0.233         48.3 
     1823.00        0.233         50.4 
     1824.00        0.333         55.9 
     1825.00        0.333         54.4 
     1826.00        4.483         72.8 
     1827.00        0.883         35.7 
     1828.00        0.433         32.4 
     1829.00        0.400         30.5 
     1830.00        0.333         32.2 
     1831.00        0.400         33.9 
     1832.00        0.367         33.9 
     1833.00        0.367         32.3 
     1834.00        0.367         31.1 
     1835.00        0.383         30.3 
     1836.00        0.367         30.5 
     1837.00        0.367         31.1 
     1838.00        0.333         30.5 
     1839.00        0.367         29.9 
     1840.00        0.333         28.1 
     1841.00        0.300         25.2 
     1842.00        0.167         22.5 
     1843.00        0.233         21.1 
     1844.00        0.267         20.8 
     1845.00        0.383         20.6 
     1846.00        0.400         21.9 
     1847.00        0.333         22.3 
     1848.00        0.300         22.1 
     1849.00        0.267         21.6 
     1850.00        0.300         23.9 
     1851.00        0.300         30.4 
     1852.00        0.233         41.9 
     1853.00        0.333         56.0 
     1854.00        0.300         71.7 
     1855.00        0.300         81.9 
     1856.00        6.267         82.9 
     1857.00        0.333         36.8 
     1858.00        0.450         35.3 
     1859.00        0.400         33.0 
     1860.00        0.367         30.4 
     1861.00        0.333         28.9 
     1862.00        0.367         28.3 
     1863.00        0.300         28.2 
     1864.00        0.267         27.6 
     1865.00        0.267         26.7 
     1866.00        0.300         29.9 
     1867.00        0.333         30.3 
     1868.00        0.317         30.0 
     1869.00        0.333         29.7 
     1870.00        0.267         28.2 
     1871.00        0.300         26.9 
     1872.00        0.300         24.8 
     1873.00        0.267         23.9 
     1874.00        0.267         21.1 
     1875.00        0.300         19.6 
     1876.00        0.333         20.8 
     1877.00        0.300         22.0 
     1878.00        0.300         22.6 
     1879.00        0.233         22.6 
     1880.00        0.283         26.0 
     1881.00        0.233         31.5 
     1882.00        0.267         40.1 
     1883.00        0.333         53.2 
     1884.00        0.367         71.8 
     1885.00        0.367         91.3 
     1886.00        5.600         98.8 
     1887.00        0.333         34.6 
     1888.00        0.433         32.8 
     1889.00        0.367         31.3 
     1890.00        0.567         30.2 
     1891.00        0.433         28.9 
     1892.00        0.400         34.0 
     1893.00        0.383         28.2 
     1894.00        0.367         27.2 
     1895.00        0.267         26.5 
     1896.00        0.300         26.1 
     1897.00        0.367         26.4 
     1898.00        0.333         25.7 
     1899.00        0.333         31.4 
     1900.00        0.300         39.1 
     1901.00        0.300         46.7 
     1902.00        0.267         49.1 
     1903.00        0.300         43.5 
     1904.00        0.350         41.9 
     1905.00        0.300         30.7 
     1906.00        0.333         27.8 
     1907.00        0.300         27.4 
     1908.00        0.333         28.9 
     1909.00        0.333         33.2 
     1910.00        0.333         38.2 
     1911.00        0.300         46.4 
     1912.00        0.300         59.8 
     1913.00        0.200         77.8 
     1914.00        0.200         95.9 
     1915.00        0.217        113.3 
     1916.00        0.200        131.7 
     1917.00        0.267        136.9 
     1918.00        0.300        117.8 
