~Version Information
VERS.                      2.0: CWLS Log ASCII Standard - VERSION 2.0
WRAP.                       NO: One line per depth step
~Well Information Block
STRT.FT                -4.7500: 
STOP.FT              2809.5000: 
STEP.FT                 0.2500: 
NULL.                -999.2500: 
COMP.          Pioneer Natural Resources: COMPANY
WELL.              Lynch 43-30: WELL
FLD.           Purgatorie River: FIELD
LOC.           1438' FSL & 429' FEL--: LOCATION
PROV.                       CO: PROVINCE
CNTY.               Las Animas: COUNTRY
SRVC.                         : SERVICE COMPANY
DATE.          Sat Oct 30 09:52:34 2004: LOG DATE
UWI.          005 071 08170   : UNIQUE WELL ID
~Curve Information Block
DEPT.FT            0 000 00 00: Depth
GR.GAPI                       : Gamma Ray
CCL.                          : Casing Collar Locator
TT3.usec                      : CBL 3' Travel Time
AMP3.mV                       : CBL 3' Amplitude
~Parameter Information Block
~A  Depth        GR         CCL         TT3         AMP3    
# ...
  2574.7500    102.6956      0.0000    455.2429      4.4750
  2575.0000    101.9239      0.0000    474.4426      4.5105
  2575.2500    100.9028      0.0000    507.2130      4.5017
  2575.5000     98.1009      0.0000    539.3342      4.4628
  2575.7500     92.8294      0.0000    555.9955      4.4141
  2576.0000     86.7670      0.0000    553.4789      4.3812
  2576.2500     83.1851      0.0000    542.4599      4.3836
  2576.5000     84.4747      0.0000    535.3018      4.4266
  2576.7500     90.0510      0.0000    531.3711      4.5019
  2577.0000     96.6224      0.0000    519.6232      4.5922
  2577.2500    100.8622      0.0000    494.2758      4.6767
  2577.5000    101.9118      0.0000    461.8719      4.7406
  2577.7500    101.2356      0.0000    433.0756      4.7776
  2578.0000    100.4531      0.0000    413.1341      4.7855
  2578.2500     99.8542      0.0000    401.1156      4.7625
  2578.5000     98.7692      0.0000    393.9655      4.7100
  2578.7500     96.6605      0.0000    389.2917      4.6365
  2579.0000     93.5376      0.0000    386.2776      4.5579
  2579.2500     89.5880      0.0000    385.4654      4.4919
  2579.5000     84.9511      0.0000    387.4293      4.4501
  2579.7500     80.2323      0.0000    391.4822      4.4340
  2580.0000     76.7195      0.0000    395.9149      4.4363
  2580.2500     75.3834      0.0000    399.2867      4.4462
  2580.5000     75.8347      0.0000    401.1769      4.4568
  2580.7500     76.7072      0.0000    401.9722      4.4722
  2581.0000     76.9441      0.0000    402.5600      4.5033
  2581.2500     76.5727      0.0000    404.4326      4.5511
  2581.5000     76.3589      0.0000    409.6935      4.6002
  2581.7500     76.7800      0.0000    420.0043      4.6362
  2582.0000     77.3913      0.0000    434.7112      4.6641
  2582.2500     77.2791      0.0000    450.5028      4.7040
  2582.5000     76.0150      0.0000    464.1815      4.7718
  2582.7500     73.9455      0.0000    475.5678      4.8693
  2583.0000     71.6303      0.0000    486.2748      4.9879
  2583.2500     69.2681      0.0000    496.1636      5.1117
  2583.5000     66.7047      0.0000    503.1509      5.2178
  2583.7500     63.8417      0.0000    506.9864      5.2869
  2584.0000     61.0306      0.0000    511.8110      5.3207
  2584.2500     59.1255      0.0000    523.8768      5.3421
  2584.5000     58.9168      0.0000    546.3190      5.3699
  2584.7500     60.2587      0.0000    576.0330      5.3948
  2585.0000     61.8924      0.0000    605.7539      5.3890
  2585.2500     62.4233      0.0000    629.1411      5.3348
  2585.5000     61.5556      0.0000    644.0247      5.2370
  2585.7500     60.2568      0.0000    651.8608      5.1086
  2586.0000     59.6361      0.0000    655.3975      4.9609
  2586.2500     59.6770      0.0000    656.9143      4.8116
  2586.5000     59.3080      0.0000    657.7125      4.6919
  2586.7500     57.8736      0.0000    658.3946      4.6324
  2587.0000     56.2565      0.0000    659.3146      4.6405
  2587.2500     56.1039      0.0000    660.7655      4.6959
  2587.5000     57.9948      0.0000    662.7234      4.7695
  2587.7500     60.7647      0.0000    664.5128      4.8480
  2588.0000     62.6325      0.0000    665.0403      4.9406
  2588.2500     62.5776      0.0000    663.6832      5.0630
  2588.5000     60.7153      0.0000    660.8251      5.2141
  2588.7500     58.0409      0.0000    657.3828      5.3693
  2589.0000     56.1456      0.0000    654.1329      5.4940
  2589.2500     56.6390      0.0000    651.7032      5.5622
  2589.5000     60.1341      0.0000    650.7130      5.5695
  2589.7500     65.5125      0.0000    651.3746      5.5346
  2590.0000     70.3540      0.0000    653.1165      5.4876
  2590.2500     72.5108      0.0000    654.9733      5.4475
  2590.5000     71.6983      0.0000    656.3124      5.4106
  2590.7500     69.7041      0.0000    657.0566      5.3609
  2591.0000     68.9375      0.0000    657.4081      5.2889
  2591.2500     70.5646      0.0000    657.5673      5.1999
  2591.5000     73.7270      0.0000    657.6662      5.1164
  2591.7500     76.3521      0.0000    657.7887      5.0814
  2592.0000     76.7940      0.0000    657.9716      5.1418
  2592.2500     74.9304      0.0000    658.2114      5.3074
  2592.5000     71.8825      0.0000    658.4829      5.5261
  2592.7500     68.7901      0.0000    658.7513      5.7135
  2593.0000     65.8856      0.0000    658.9713      5.8118
  2593.2500     62.6711      0.0000    659.0995      5.8165
  2593.5000     58.9046      0.0000    659.1120      5.7601
  2593.7500     55.3125      0.0000    659.0060      5.6774
  2594.0000     53.2318      0.0000    658.8005      5.5857
  2594.2500     53.5779      0.0000    658.5423      5.4865
  2594.5000     56.1526      0.0000    658.2957      5.3809
  2594.7500     59.8423      0.0000    658.1049      5.2819
  2595.0000     63.3454      0.0000    657.9730      5.2129
  2595.2500     65.7490      0.0000    657.8888      5.1932
  2595.5000     66.7379      0.0000    657.8720      5.2268
  2595.7500     66.6044      0.0000    657.9783      5.3045
  2596.0000     66.0529      0.0000    658.2473      5.4138
  2596.2500     65.9173      0.0000    658.6408      5.5391
  2596.5000     66.9244      0.0000    659.0369      5.6586
  2596.7500     69.3260      0.0000    659.2985      5.7491
  2597.0000     72.4142      0.0000    659.3610      5.7982
  2597.2500     74.6360      0.0000    659.2593      5.8044
  2597.5000     74.6015      0.0000    659.0756      5.7656
  2597.7500     72.1059      0.0000    658.8693      5.6774
  2598.0000     68.1864      0.0000    658.6779      5.5472
  2598.2500     64.2949      0.0000    658.6020      5.3993
  2598.5000     61.3677      0.0000    658.8867      5.2533
  2598.7500     59.5690      0.0000    659.8481      5.0990
  2599.0000     58.6962      0.0000    661.4193      4.8976
  2599.2500     58.4657      0.0000    662.6125      4.6159
  2599.5000     58.4313      0.0000    661.4650      4.2634
  2599.7500     58.1643      0.0000    655.9370      3.8981
  2600.0000     57.7177      0.0000    645.4336      3.5877
  2600.2500     57.6283      0.0000    632.1606      3.3584
  2600.5000     58.4152      0.0000    620.9556      3.1954
  2600.7500     60.2223      0.0000    616.6685      3.1010
  2601.0000     62.7070      0.0000    620.4119      3.1321
  2601.2500     65.0030      0.0000    628.3563      3.3446
  2601.5000     65.9523      0.0000    635.3452      3.7055
  2601.7500     64.8241      2.0000    639.9011      4.0807
  2602.0000     62.0083      0.0000    643.8610      4.3082
  2602.2500     58.8947      0.0000    646.2006      4.2877
  2602.5000     56.8576      0.0000    640.1110      4.0410
  2602.7500     56.3527      0.0000    619.2094      3.7211
  2603.0000     56.9839      0.0000    586.6535      3.5453
  2603.2500     58.1151      0.0000    556.6546      3.6836
  2603.5000     59.1673      0.0000    545.6081      4.1836
  2603.7500     59.6751      0.0000    560.3622      4.9616
  2604.0000     59.5525      0.0000    593.8357      5.8334
  2604.2500     59.2903      0.0000    631.3914      6.5827
  2604.5000     59.6012      0.0000    661.2097      7.0576
  2604.7500     60.8845      0.0000    679.5214      7.2286
  2605.0000     63.1512      0.0000    688.5988      7.1624
  2605.2500     66.2005      0.0000    692.3286      6.9563
  2605.5000     69.4724      0.0000    693.6109      6.6991
  2605.7500     71.8170      0.0000    693.9864      6.4627
  2606.0000     71.9128      0.0000    694.1367      6.2963
  2606.2500     69.4506      0.0000    694.2944      6.2154
  2606.5000     66.0279      0.0000    694.4836      6.2017
  2606.7500     64.4514      0.0000    694.6376      6.2198
  2607.0000     66.6706      0.0000    694.6749      6.2287
  2607.2500     72.3859      0.0000    694.4662      6.1819
  2607.5000     79.6397      0.0000    693.7782      6.0422
  2607.7500     86.3717      0.0000    692.3802      5.8217
  2608.0000     91.3094      0.0000    690.4056      5.5987
