~Version Information
VERS.                      2.0: CWLS Log ASCII Standard - VERSION 2.0
WRAP.                       NO: One line per depth step
~Well Information Block
STRT.FT                -7.0000: 
STOP.FT              1863.5000: 
STEP.FT                 0.2500: 
NULL.                -999.2500: 
COMP.          Pioneer Natural Resources: COMPANY
WELL.            Formula 23-11: WELL
FLD.           Purgatorie River: FIELD
LOC.           1976' FSL & 1935' FWL--: LOCATION
PROV.                       CO: PROVINCE
CNTY.               Las Animas: COUNTRY
SRVC.          Patterson Wireline: SERVICE COMPANY
DATE.          Wed Jun 15 14:44:40 2005: LOG DATE
UWI.           05 071 08399 00: UNIQUE WELL ID
~Curve Information Block
DEPT.FT            0 000 00 00: Depth
CCL.                          : Casing Collar Locator
TT3.usec                      : CBL 3' Travel Time
AMP3.mV                       : CBL 3' Amplitude
GR.GAPI                       : Gamma Ray
~Parameter Information Block
~A  Depth       CCL         TT3         AMP3         GR     
# ...
  1232.5000      0.0000    813.6666      4.8332     95.4057
  1232.7500      0.0000    804.7806      4.8478     95.8933
  1233.0000      0.0000    799.5052      4.8762     98.2405
  1233.2500      0.0000    798.6344      4.8967    101.5192
  1233.5000      0.0000    799.4193      4.8958    103.7168
  1233.7500      0.0000    798.8224      4.8801    102.3949
  1234.0000      0.0000    796.1454      4.8595     96.3215
  1234.2500      0.0000    792.6633      4.8260     86.8431
  1234.5000      0.0000    790.0077      4.7653     77.3961
  1234.7500      0.0000    789.2665      4.6866     71.1675
  1235.0000      0.0000    790.6042      4.6260     69.2214
  1235.2500      0.0000    792.9221      4.6160     70.8517
  1235.5000      0.0000    793.8486      4.6567     75.0559
  1235.7500      0.0000    790.6038      4.7245     80.9235
  1236.0000      0.0000    781.7276      4.8029     86.8555
  1236.2500      0.0000    768.9070      4.8912     90.5081
  1236.5000      0.0000    756.8605      4.9841     90.2029
  1236.7500      0.0000    750.0959      5.0594     86.2956
  1237.0000      0.0000    748.9691      5.0949     80.9818
  1237.2500      0.0000    749.6609      5.0919     76.7374
  1237.5000      0.0000    748.9139      5.0723     74.8083
  1237.7500      0.0000    748.4948      5.0570     74.8946
  1238.0000      0.0000    753.7955      5.0559     76.0268
  1238.2500      0.0000    767.6754      5.0748     77.5979
  1238.5000      0.0000    787.0053      5.1183     79.6230
  1238.7500      0.0000    805.9278      5.1779     82.3659
  1239.0000      0.0000    820.7043      5.2267     85.9572
  1239.2500      0.0000    830.1017      5.2385     90.1046
  1239.5000      0.0000    832.9600      5.2088     93.8667
  1239.7500      0.0000    828.3334      5.1606     95.9253
  1240.0000      0.0000    818.6597      5.1308     95.4825
  1240.2500      0.0000    810.8265      5.1451     92.9048
  1240.5000      0.0000    811.6359      5.1955     89.2637
  1240.7500      0.0000    821.9160      5.2449     85.3534
  1241.0000      0.0000    836.1834      5.2616     81.5141
  1241.2500      0.0000    847.9360      5.2456     78.2358
  1241.5000      0.0000    853.9278      5.2215     76.2549
  1241.7500      0.0000    853.7967      5.2154     75.9259
  1242.0000      0.0000    847.6196      5.2397     77.0353
  1242.2500      0.0000    835.0195      5.2891     79.2468
  1242.5000      0.0000    816.3860      5.3500     82.1598
  1242.7500      0.0000    794.6876      5.4122     84.9969
  1243.0000      0.0000    775.8152      5.4688     86.9236
  1243.2500      0.0000    766.2261      5.5105     87.6927
  1243.5000      0.0000    769.1902      5.5291     87.5388
  1243.7500      0.0000    783.0591      5.5219     86.6017
  1244.0000      0.0000    802.9756      5.4860     84.8423
  1244.2500      0.0000    823.6629      5.4176     82.4736
  1244.5000      0.0000    840.9958      5.3254     80.2725
  1244.7500      0.0000    852.6700      5.2380     79.3037
  1245.0000      0.0000    858.3820      5.1846     80.0520
  1245.2500      0.0000    859.2430      5.1647     81.7556
  1245.5000      0.0000    857.0483      5.1510     83.0183
  1245.7500      0.0000    854.0869      5.1249     83.1624
  1246.0000      0.0000    852.6768      5.0930     82.6917
  1246.2500      0.0000    853.9111      5.0646     82.5936
  1246.5000      0.0000    856.9366      5.0375     83.4468
  1246.7500      0.0000    859.9691      5.0116     84.8698
  1247.0000      0.0000    861.8436      4.9965     85.6446
  1247.2500      0.0000    862.4915      5.0008     84.7413
  1247.5000      0.0000    862.3931      5.0255     82.3917
  1247.7500      0.0000    862.0098      5.0647     80.0132
  1248.0000      0.0000    861.5967      5.1091     79.0518
  1248.2500      0.0000    861.1909      5.1526     80.0406
  1248.5000      0.0000    860.5594      5.1908     82.6974
  1248.7500      0.0000    859.0679      5.2119     86.4715
  1249.0000      0.0000    855.6160      5.2022     90.6201
  1249.2500      0.0000    849.0305      5.1666     94.0571
  1249.5000      0.0000    839.0313      5.1328     95.7391
  1249.7500      0.0000    826.8461      5.1312     95.3490
  1250.0000      0.0000    814.4810      5.1699     93.6250
  1250.2500      0.0000    803.2964      5.2292     92.1304
  1250.5000      0.0000    793.8385      5.2712     92.3703
  1250.7500      0.0000    787.2634      5.2466     94.5820
  1251.0000      0.0000    786.0855      5.1108     97.4537
  1251.2500      0.0000    792.3295      4.8637     99.3037
  1251.5000      0.0000    804.8168      4.5756     99.1406
  1251.7500      0.0000    819.3956      4.3557     96.3846
  1252.0000      0.0000    832.2736      4.2778     90.5212
  1252.2500      0.0000    842.2969      4.3275     82.0588
  1252.5000      2.0000    850.1354      4.4259     73.4927
  1252.7500      2.0000    856.4556      4.5001     68.2929
  1253.0000      0.0000    860.7892      4.5261     68.5777
  1253.2500      0.0000    861.1464      4.5227     73.8833
  1253.5000      0.0000    855.0239      4.5312     81.9810
  1253.7500      0.0000    842.1044      4.5934     90.5425
  1254.0000      0.0000    826.2097      4.7201     98.1592
  1254.2500      0.0000    813.4667      4.8846    104.2876
  1254.5000      0.0000    807.8426      5.0516    108.6730
  1254.7500      0.0000    808.8641      5.1931    111.1553
  1255.0000      0.0000    813.8771      5.2836    112.0885
  1255.2500      0.0000    821.4453      5.3026    112.4622
  1255.5000      0.0000    831.6007      5.2389    112.9991
  1255.7500      0.0000    843.4962      5.0895    113.1787
  1256.0000      0.0000    854.2030      4.8657    111.4699
  1256.2500      0.0000    860.3829      4.5986    106.5486
  1256.5000      0.0000    860.9003      4.3282     98.2967
  1256.7500      0.0000    857.2651      4.0877     87.7985
  1257.0000      0.0000    851.4465      3.8897     76.6057
  1257.2500      0.0000    844.2603      3.7228     66.2350
  1257.5000      0.0000    836.5593      3.5730     58.3343
  1257.7500      0.0000    830.7452      3.4469     54.7015
  1258.0000      0.0000    829.5722      3.3598     56.5031
  1258.2500      0.0000    833.6257      3.3143     63.4140
  1258.5000      0.0000    840.6122      3.3069     73.6176
  1258.7500      0.0000    846.9645      3.3373     84.5994
  1259.0000      0.0000    849.9503      3.3972     94.1115
  1259.2500      0.0000    848.9014      3.4616    100.8535
  1259.5000      0.0000    845.4204      3.5018    104.5549
  1259.7500      0.0000    842.5310      3.5085    105.5321
  1260.0000      0.0000    842.7271      3.4963    104.2972
  1260.2500      0.0000    846.1767      3.4863    101.5919
  1260.5000      0.0000    850.8809      3.4951     98.6263
  1260.7500      0.0000    854.5391      3.5407     97.1324
  1261.0000      0.0000    855.9201      3.6368     98.8571
  1261.2500      0.0000    854.7533      3.7789    104.3906
  1261.5000      0.0000    851.1702      3.9503    112.3033
  1261.7500      0.0000    845.5854      4.1344    120.0114
  1262.0000      0.0000    838.7083      4.3170    125.8839
  1262.2500      0.0000    831.3905      4.4924    130.3741
  1262.5000      0.0000    824.6268      4.6689    135.0189
  1262.7500      0.0000    819.6243      4.8554    140.3276
  1263.0000      0.0000    817.3149      5.0511    144.8027
  1263.2500      0.0000    817.4014      5.2536    146.4250
  1263.5000      0.0000    818.0018      5.4577    144.9563
  1263.7500      0.0000    816.7840      5.6461    142.0867
  1264.0000      0.0000    812.8864      5.8000    139.3748
  1264.2500      0.0000    807.5908      5.9173    136.9211
  1264.5000      0.0000    802.8268      6.0061    134.1447
  1264.7500      0.0000    799.2471      6.0732    130.9864
  1265.0000      0.0000    795.8537      6.1250    127.9709
  1265.2500      0.0000    791.2388      6.1653    125.7138
  1265.5000      0.0000    785.2174      6.1882    124.9620
  1265.7500      0.0000    779.4694      6.1799    126.7386
