~Version Information
VERS.                      2.0: CWLS Log ASCII Standard - VERSION 2.0
WRAP.                       NO: One line per depth step
~Well Information Block
STRT.FT                39.7500: 
STOP.FT              1484.0000: 
STEP.FT                 0.2500: 
NULL.                -999.2500: 
COMP.          Evergreen Operating Corporation: COMPANY
WELL.              Chase 21-10: WELL
FLD.           Purgatoire River: FIELD
LOC.           1122' FNL & 1544' FWL: LOCATION
PROV.                       CO: PROVINCE
CNTY.               Las Animas: COUNTRY
SRVC.                         : SERVICE COMPANY
DATE.          Fri May 28 15:54:16 2004: LOG DATE
UWI.           05 071 08006 00: UNIQUE WELL ID
~Curve Information Block
DEPT.FT            0 000 00 00: Depth
TT3.usec                      : CBL 3' Travel Time
AMP3.mV                       : CBL 3' Amplitude
GR.GAPI                       : Gamma Ray
CCL.                          : Casing Collar Locator
~Parameter Information Block
~A  Depth       TT3         AMP3         GR         CCL     
    39.7500   -999.2500   -999.2500   -999.2500   -999.2500
    40.0000   -999.2500   -999.2500   -999.2500      0.0000
    40.2500   -999.2500   -999.2500   -999.2500      0.0000
    40.5000   -999.2500   -999.2500   -999.2500      0.0000
    40.7500   -999.2500   -999.2500   -999.2500      0.0000
    41.0000   -999.2500   -999.2500   -999.2500      0.0000
    41.2500   -999.2500   -999.2500   -999.2500      0.0000
    41.5000   -999.2500   -999.2500   -999.2500      0.0000
    41.7500   -999.2500   -999.2500   -999.2500      0.0000
    42.0000   -999.2500   -999.2500   -999.2500      0.0000
    42.2500   -999.2500   -999.2500   -999.2500      0.0000
    42.5000   -999.2500   -999.2500   -999.2500      0.0000
    42.7500   -999.2500   -999.2500   -999.2500      0.0000
    43.0000   -999.2500   -999.2500   -999.2500      0.0000
    43.2500   -999.2500   -999.2500   -999.2500      0.0000
    43.5000   -999.2500   -999.2500   -999.2500      0.0000
    43.7500   -999.2500   -999.2500   -999.2500      0.0000
    44.0000   -999.2500   -999.2500   -999.2500      0.0000
    44.2500   -999.2500   -999.2500   -999.2500      0.0000
    44.5000   -999.2500   -999.2500   -999.2500      0.0000
    44.7500   -999.2500   -999.2500     67.4887      0.0000
    45.0000   -999.2500   -999.2500     67.0817      0.0000
    45.2500   -999.2500   -999.2500     67.7462     -3.0000
    45.5000   -999.2500   -999.2500     68.4409      3.0000
    45.7500   -999.2500   -999.2500     68.1209      3.0000
    46.0000   -999.2500   -999.2500     66.1760      0.0000
    46.2500   -999.2500   -999.2500     62.8544      0.0000
    46.5000   -999.2500   -999.2500     59.2145      0.0000
    46.7500   -999.2500   -999.2500     56.2822      0.0000
    47.0000   -999.2500   -999.2500     54.1328      0.0000
    47.2500   -999.2500   -999.2500     52.0181      0.0000
    47.5000   -999.2500   -999.2500     49.2699      0.0000
    47.7500   -999.2500   -999.2500     45.7718      0.0000
    48.0000   -999.2500   -999.2500     41.7953      0.0000
    48.2500   -999.2500   -999.2500     37.8713      0.0000
    48.5000   -999.2500   -999.2500     34.7245      0.0000
    48.7500   -999.2500   -999.2500     33.0192      0.0000
    49.0000   -999.2500   -999.2500     33.1992      0.0000
    49.2500   -999.2500   -999.2500     35.5717      0.0000
    49.5000   -999.2500   -999.2500     40.2120      0.0000
    49.7500   -999.2500   -999.2500     46.5373      0.0000
    50.0000   -999.2500   -999.2500     53.3042      0.0000
    50.2500   -999.2500   -999.2500     59.6103      0.0000
    50.5000   -999.2500   -999.2500     65.9243      0.0000
    50.7500   -999.2500   -999.2500     73.3859      0.0000
    51.0000   -999.2500   -999.2500     81.7695      0.0000
    51.2500   -999.2500   -999.2500     88.8837      0.0000
    51.5000   -999.2500   -999.2500     92.5113      0.0000
    51.7500   -999.2500   -999.2500     92.3704      0.0000
    52.0000   -999.2500   -999.2500     89.7489      0.0000
    52.2500   -999.2500   -999.2500     85.8809      0.0000
    52.5000   -999.2500   -999.2500     81.2830      0.0000
    52.7500   -999.2500   -999.2500     76.3885      0.0000
    53.0000   -999.2500   -999.2500     72.2578      0.0000
    53.2500   -999.2500   -999.2500     70.3799      0.0000
    53.5000   -999.2500   -999.2500     71.6735      0.0000
    53.7500   -999.2500   -999.2500     75.5970      0.0000
    54.0000    768.0000      2.3831     80.2446      0.0000
    54.2500    768.0000      2.3840     83.4702      0.0000
    54.5000    768.0000      2.3889     84.3158      0.0000
    54.7500    768.0000      2.3957     83.6784      0.0000
    55.0000    768.0000      2.4023     83.5209      0.0000
    55.2500    768.0000      2.4076     85.1251      0.0000
    55.5000    768.0000      2.4115     87.9902      0.0000
    55.7500    768.0000      2.4145     90.4576      0.0000
    56.0000    768.0000      2.4175     91.3302      0.0000
    56.2500    768.0000      2.4220     90.7736      0.0000
    56.5000    768.0000      2.4301     89.7383      0.0000
    56.7500    768.0000      2.4440     88.8317      0.0000
    57.0000    768.0000      2.4630     88.0027      0.0000
    57.2500    768.0000      2.4816     87.0221      0.0000
    57.5000    768.0000      2.4938     85.7963      0.0000
    57.7500    768.0000      2.4969     84.3050      0.0000
    58.0000    768.0000      2.4926     82.5416      0.0000
    58.2500    768.0000      2.4851     80.5016      0.0000
    58.5000    768.0000      2.4802     78.1695      0.0000
    58.7500    768.0000      2.4810     75.5781      0.0000
    59.0000    768.0000      2.4858     72.9811      0.0000
    59.2500    768.0000      2.4904     70.9356      0.0000
    59.5000    768.0000      2.4934     70.0447      0.0000
    59.7500    768.0000      2.4964     70.6225      0.0000
    60.0000    768.0000      2.5012     72.6859      0.0000
    60.2500    768.0000      2.5084     75.9991      0.0000
    60.5000    768.0000      2.5187     79.8801      0.0000
    60.7500    768.0000      2.5318     83.1620      0.0000
    61.0000    768.0000      2.5448     84.7338      0.0000
    61.2500    768.0000      2.5541     84.2816      0.0000
    61.5000    768.0000      2.5582     82.5019      0.0000
    61.7500    768.0000      2.5581     80.5301      0.0000
    62.0000    768.0000      2.5554     79.0122      0.0000
    62.2500    768.0000      2.5527     77.5219      0.0000
    62.5000    768.0000      2.5541     74.9410      0.0000
    62.7500    768.0000      2.5635     70.6711      0.0000
    63.0000    768.0000      2.5792     65.4421      0.0000
    63.2500    768.0000      2.5934     60.7952      0.0000
    63.5000    768.0000      2.5960     58.0476      0.0000
    63.7500    768.0000      2.5813     57.9398      0.0000
    64.0000    768.0000      2.5510     60.7339      0.0000
    64.2500    768.0000      2.5114     65.8783      0.0000
    64.5000    768.0000      2.4701     71.5336      0.0000
    64.7500    768.0000      2.4344     75.1531      0.0000
    65.0000    768.0000      2.4102     75.1971      0.0000
    65.2500    768.0000      2.4010     72.3203      0.0000
    65.5000    768.0000      2.4077     68.6685      0.0000
    65.7500    768.0000      2.4371     66.0315      0.0000
    66.0000    768.0000      2.5253     64.7586      0.0000
    66.2500    768.0000      2.7724     64.2524      0.0000
    66.5000    767.9984      3.3469     64.1217      0.0000
    66.7500    767.9895      4.4021     64.6618      0.0000
    67.0000    767.9467      5.9157     66.3890      0.0000
    67.2500    767.7892      7.6064     69.3738      0.0000
    67.5000    767.3508      9.0730     72.9824      0.0000
    67.7500    766.4426     10.0536     75.9861      0.0000
    68.0000    765.0905     10.5458     76.8870      0.0000
    68.2500    763.7667     10.7117     74.5592      0.0000
    68.5000    763.2030     10.7214     69.0612      0.0000
    68.7500    763.7667     10.6780     61.9228      0.0000
    69.0000    765.0905     10.6265     55.3770      0.0000
    69.2500    766.4426     10.5858     51.0195      0.0000
    69.5000    767.3508     10.5635     49.1405      0.0000
    69.7500    767.7892     10.5553     49.2206      0.0000
    70.0000    767.9467     10.5498     50.6290      0.0000
    70.2500    767.9895     10.5399     52.6528      0.0000
    70.5000    767.9984     10.5291     54.3760      0.0000
    70.7500    768.0000     10.5249     55.1363      0.0000
    71.0000    768.0000     10.5324     55.0285      0.0000
    71.2500    768.0000     10.5499     54.6528      0.0000
    71.5000    768.0000     10.5671     54.4836      0.0000
    71.7500    768.0000     10.5694     54.6295      0.0000
    72.0000    768.0000     10.5502     54.9362      0.0000
    72.2500    768.0000     10.5199     55.1281      0.0000
    72.5000    768.0000     10.4972     54.9892      0.0000
    72.7500    768.0000     10.4905     54.5045      0.0000
    73.0000    768.0000     10.4882     53.8053      0.0000
