~Version Information
VERS.                      2.0: CWLS Log ASCII Standard - VERSION 2.0
WRAP.                       NO: One line per depth step
~Well Information Block
STRT.FT               700.0000: 
STOP.FT              1869.5000: 
STEP.FT                 0.2500: 
NULL.                -999.2500: 
COMP.          Petrogulf Corporation: COMPANY
WELL.             State 16-24R: WELL
FLD.           Purgatorie River: FIELD
LOC.           541' FSL & 2371' FWL: LOCATION
PROV.                 Colorado: PROVINCE
CNTY.               Las Animas: COUNTRY
SRVC.                Patterson: SERVICE COMPANY
DATE.          Fri Aug 12 09:07:22 2005: LOG DATE
UWI.                071-08312 : UNIQUE WELL ID
~Curve Information Block
DEPT.FT            0 000 00 00: Depth
SP.mV                         : DIL Spontaneous Potential
RILD.Ohm-m                    : DIL Deep Resistivity
RILM.Ohm-m                    : DIL Medium Resistivity
RLL3.Ohm-m                    : DIL Shallow Resistivity
GR.GAPI                       : Gamma Ray
~Parameter Information Block
~A  Depth        SP         RILD        RILM        RLL3         GR     
# ...
   840.0000     69.2336      8.5140     10.9432     14.3907    101.8977
   840.2500     68.3925      8.4362     10.7047     13.8993     93.4899
   840.5000     67.4037      8.3316     10.5888     13.3370    103.1438
   840.7500     66.2648      8.2597     10.4840     13.0212    103.8096
   841.0000     65.0518      8.1504     10.2766     12.9551     98.0723
   841.2500     64.3765      8.1599     10.0922     13.1456     96.5504
   841.5000     63.3008      8.1677     10.1323     13.2780     97.4181
   841.7500     62.6664      7.9834      9.9368     13.3294     96.9586
   842.0000     61.6912      7.7790      9.7505     13.2088     98.0425
   842.2500     61.8852      7.8252      9.7157     13.0491     94.8529
   842.5000     62.6893      7.8452      9.6113     12.8935     88.1602
   842.7500     60.7822      7.8125      9.5620     13.0137     95.4801
   843.0000     55.4203      7.8022      9.6171     13.3065     98.9175
   843.2500     51.1034      7.7111      9.4355     13.4499     91.2224
   843.5000     50.0005      7.7591      9.4117     13.2859     88.7297
   843.7500     53.8479      7.8637      9.3246     12.9480     86.2398
   844.0000     54.1027      7.8549      9.3448     12.9403     89.6737
   844.2500     53.7589      7.8277      9.4097     12.9101     90.4961
   844.5000     53.2563      8.0534      9.6745     12.8384     95.0714
   844.7500     53.1919      8.1239      9.8540     13.0026     98.6416
   845.0000     50.4335      8.3048     10.0700     13.3404     91.1993
   845.2500     48.8156      8.6098     10.3294     13.6975     99.8911
   845.5000     47.8733      8.7739     10.9277     14.2510    103.7355
   845.7500     47.1579      8.9137     11.3667     14.4939     91.6577
   846.0000     45.9173      9.1242     11.5085     14.7356    101.2950
   846.2500     44.8041      9.2772     11.6497     15.0480    102.4189
   846.5000     42.3918      9.4794     11.7911     15.0501    100.3978
   846.7500     40.8590      9.7535     11.9813     14.7401     96.6847
   847.0000     39.6700      9.9119     12.3043     14.4389     89.4904
   847.2500     38.6369     10.3163     12.7159     14.6337     87.4220
   847.5000     38.0478     10.2079     13.1432     15.5402     82.9462
   847.7500     37.3472     10.7524     13.5228     16.7439     89.1002
   848.0000     36.7018     11.0241     14.0019     17.1226     90.4420
   848.2500     35.6511     10.9892     13.8152     16.6916     89.2649
   848.5000     34.3641     11.0500     14.0630     16.0571     97.8411
   848.7500     33.3719     11.3284     14.1041     15.8807     99.9688
   849.0000     32.5941     11.7913     14.1267     15.9169     96.4937
   849.2500     30.6345     12.0303     14.1038     16.2780     96.2206
   849.5000     28.6814     12.5253     14.3880     16.5263    107.8325
   849.7500     27.0089     12.7139     14.7457     16.3844    106.5538
   850.0000     25.5526     13.1625     15.0336     16.2260     98.1139
   850.2500     23.8086     13.4383     15.6432     16.3450     95.7593
   850.5000     22.2126     13.7317     15.9756     17.2499     92.0919
   850.7500     21.0714     14.3227     17.2333     18.4348     93.7208
   851.0000     19.6485     15.2386     17.8302     19.3147     85.4396
   851.2500     19.2775     15.9102     19.0584     20.2705     83.4617
   851.5000     17.6869     17.0684     20.2791     22.2918     82.5536
   851.7500     16.1747     17.5583     21.7065     27.4774     69.1041
   852.0000     15.4066     18.0558     24.0520     34.2371     57.6543
   852.2500     14.6681     18.5614     27.0890     43.9347     52.8422
   852.5000     13.5136     19.3280     28.2767     54.7425     52.9722
   852.7500     13.4381     20.4683     29.8196     56.8673     58.6183
   853.0000     13.3821     22.0772     31.6729     52.6478     62.1146
   853.2500     13.2953     23.4234     32.5668     49.3759     61.9565
   853.5000     14.9383     23.8529     34.5997     51.8045     64.1987
   853.7500     16.9318     22.5961     35.6444     56.5644     68.7981
   854.0000     17.4239     24.6957     36.0610     56.4684     75.9483
   854.2500     17.9411     24.5009     36.6672     47.3205     81.2484
   854.5000     16.9233     25.5429     35.3264     36.4882     81.5183
   854.7500     17.3270     25.1992     34.1715     29.1493     80.3100
   855.0000     18.0524     26.2728     33.2183     26.1120     77.0013
   855.2500     18.5500     25.3466     31.6201     25.3589     75.7859
   855.5000     18.6396     25.3867     32.5777     26.4914     79.4680
   855.7500     18.7885     24.5882     32.3919     28.4584     78.4093
   856.0000     19.1889     25.1998     32.5397     30.6057     75.3664
   856.2500     19.9383     23.9059     32.5421     30.8304     76.1034
   856.5000     20.5343     23.3559     31.9104     31.5587     74.0670
   856.7500     21.7466     22.2508     30.1566     34.7695     69.7696
   857.0000     25.1246     22.4970     29.6797     36.0175     74.0205
   857.2500     24.5694     20.6219     29.3531     34.9614     75.7544
   857.5000     25.4964     21.3850     31.2314     31.6080     87.8082
   857.7500     27.4880     21.7315     28.5563     29.1605     80.5521
   858.0000     27.8242     21.9594     27.5592     26.4989     80.0507
   858.2500     28.1142     21.7288     26.7811     24.5842     77.9603
   858.5000     29.0416     21.0981     26.2098     23.0168     80.0843
   858.7500     30.4424     20.2449     24.8358     21.4245     83.1744
   859.0000     30.9087     19.9364     25.3074     21.1656     90.4483
   859.2500     31.9168     19.7648     24.8510     22.3808     91.1343
   859.5000     33.4282     17.8917     24.4786     23.1774     94.4447
   859.7500     35.0360     17.6950     23.2580     22.5806     95.9965
   860.0000     36.8422     16.9294     23.4457     21.6151     88.2253
   860.2500     39.6155     16.3528     21.9160     20.7772     83.5060
   860.5000     39.6278     16.1737     20.7761     19.9004     89.5805
   860.7500     39.3348     16.0307     19.6847     18.9592     87.3994
   861.0000     40.1422     15.0293     19.2514     18.1843     84.8100
   861.2500     41.0922     14.3854     18.1827     17.5810     87.8372
   861.5000     41.7647     14.4011     17.0327     17.0889     85.6359
   861.7500     42.6956     14.1758     16.6496     16.6040     85.6443
   862.0000     42.9965     14.0633     15.8041     16.2061     92.6708
   862.2500     43.0748     13.8574     15.4792     15.7897     87.0742
   862.5000     43.1647     13.5922     15.3623     15.5269     88.5686
   862.7500     42.3420     13.2848     15.0842     16.0081     96.1189
   863.0000     41.0917     13.4640     15.0218     17.3950     99.4471
   863.2500     39.6680     13.5861     15.5145     17.0521    101.7477
   863.5000     37.5158     13.6134     15.2903     16.1012     90.0572
   863.7500     32.9454     14.3245     15.7164     15.6421     89.9218
   864.0000     23.4049     14.3950     16.3121     15.6696     78.2446
   864.2500     10.5079     14.6033     17.0186     17.3160     65.3790
   864.5000     -4.1400     14.1542     18.1356     20.5743     60.3653
   864.7500    -12.8814     14.6825     20.2516     25.0626     60.8204
   865.0000    -16.3426     14.6009     21.6480     29.2504     66.9553
   865.2500    -16.3695     14.2103     21.6711     30.5261     69.1845
   865.5000    -13.1572     14.0933     21.1288     28.2242     75.3787
   865.7500     -7.0558     14.0263     19.8785     23.1177     80.3352
   866.0000      1.8276     14.1963     18.6988     19.9582     84.3574
   866.2500     13.7717     14.2049     17.5620     18.4654     92.7473
   866.5000     28.4075     14.0184     17.1896     17.1697     99.8542
   866.7500     44.4254     14.0937     16.7460     14.7372    107.0086
   867.0000     57.5887     13.9391     16.1953     14.0904    113.1341
   867.2500     67.1975     13.6751     16.0460     13.9918    110.6683
   867.5000     73.8257     12.8962     15.5187     14.2809    112.6368
   867.7500     77.6129     12.5915     15.6519     14.9807    111.1557
