~Version Information
VERS.                      2.0: CWLS Log ASCII Standard - VERSION 2.0
WRAP.                       NO: One line per depth step
~Well Information Block
STRT.FT                 0.0000: 
STOP.FT              2025.0000: 
STEP.FT                 0.2500: 
NULL.                -999.2500: 
COMP.          Petrogulf Corporation: COMPANY
WELL.          Robinson 15-12V: WELL
FLD.           Purgatorie River: FIELD
LOC.           1788' FNL & 466' FWL: LOCATION
PROV.                 Colorado: PROVINCE
CNTY.               Las Animas: COUNTRY
SRVC.                Patterson: SERVICE COMPANY
DATE.          Tue Oct 04 11:57:31 2005: LOG DATE
UWI.                          : UNIQUE WELL ID
~Curve Information Block
DEPT.FT            0 000 00 00: Depth
GR.GAPI                       : Gamma Ray
CCL.                          : Casing Collar Locator
TT3.usec                      : CBL 3' Travel Time
AMP3.mV                       : CBL 3' Amplitude
~Parameter Information Block
~A  Depth        GR         CCL         TT3         AMP3    
# ...
  1306.5000     99.9708      0.0000    705.7249      8.4101
  1306.7500    102.6202      0.0000    705.5267      8.4431
  1307.0000    104.9716      0.0000    701.3274      8.4518
  1307.2500    106.9350      0.0000    692.3272      8.5164
  1307.5000    108.6766      0.0000    683.2487      8.6409
  1307.7500    110.1357      0.0000    679.7862      8.7644
  1308.0000    110.5699      0.0000    685.3207      8.8278
  1308.2500    108.9353      0.0000    700.0104      8.7982
  1308.5000    104.8606      0.0000    717.3801      8.6784
  1308.7500     99.2714      0.0000    726.2420      8.5100
  1309.0000     94.0526      0.0000    722.7159      8.3440
  1309.2500     90.8849      0.0000    717.3409      8.2068
  1309.5000     90.0665      0.0000    723.6301      8.1147
  1309.7500     90.2902      0.0000    740.3695      8.1032
  1310.0000     89.7290      0.0000    753.5367      8.2047
  1310.2500     87.6148      0.0000    752.9057      8.4046
  1310.5000     84.7830      0.0000    740.1253      8.6434
  1310.7500     82.4445      0.0000    725.0264      8.8614
  1311.0000     80.5759      0.0000    715.0763      9.0419
  1311.2500     77.9745      0.0000    709.0848      9.2103
  1311.5000     73.8264      0.0000    701.9943      9.3829
  1311.7500     68.6976      0.0000    692.2469      9.5183
  1312.0000     64.0262      0.0000    684.8037      9.5494
  1312.2500     61.2327      0.0000    686.6969      9.4650
  1312.5000     61.4530      0.0000    699.5651      9.3132
  1312.7500     65.4052      0.0000    716.0464      9.1372
  1313.0000     72.7112      0.0000    724.2081      8.9428
  1313.2500     81.3762      0.0000    719.1587      8.7209
  1313.5000     88.5678      0.0000    709.0585      8.4869
  1313.7500     92.2841      0.0000    706.1603      8.2895
  1314.0000     92.3475      0.0000    714.8221      8.1866
  1314.2500     90.0165      0.0000    732.0218      8.2141
  1314.5000     86.9263      0.0000    750.9841      8.3565
  1314.7500     84.2333      0.0000    761.7643      8.5409
  1315.0000     82.2138      0.0000    757.6545      8.6903
  1315.2500     80.3626      0.0000    740.0499      8.7880
  1315.5000     78.0899      0.0000    718.8704      8.8648
  1315.7500     75.5041      0.0000    710.1642      8.9320
  1316.0000     73.3524      0.0000    723.2943      8.9599
  1316.2500     72.1905      0.0000    749.9922      8.9203
  1316.5000     71.9247      0.0000    772.8722      8.8262
  1316.7500     72.2312      0.0000    781.3221      8.7187
  1317.0000     73.0457      0.0000    773.6985      8.6280
  1317.2500     74.4362      0.0000    754.0874      8.5593
  1317.5000     76.2360      0.0000    736.0155      8.5002
  1317.7500     78.0830      0.0000    735.9753      8.4344
  1318.0000     79.7666      0.0000    754.1292      8.3570
  1318.2500     81.3273      0.0000    774.6416      8.2756
  1318.5000     82.8438      0.0000    786.4009      8.2031
  1318.7500     84.3765      0.0000    790.4727      8.1605
  1319.0000     86.2061      0.0000    791.4535      8.1594
  1319.2500     88.8317      0.0000    791.6451      8.1798
  1319.5000     92.4968      0.0000    791.5511      8.1833
  1319.7500     96.7422      0.0000    791.3177      8.1431
  1320.0000    100.4256      0.0000    791.1649      8.0607
  1320.2500    102.1737      0.0000    791.2128      7.9439
  1320.5000    101.2562      0.0000    791.2928      7.7784
  1320.7500     98.4955      0.0000    791.2401      7.5584
  1321.0000     96.2894      0.0000    791.2521      7.3328
  1321.2500     97.3837      0.0000    791.6028      7.1878
  1321.5000    103.1277      0.0000    792.2236      7.1838
  1321.7500    112.3462      0.0000    792.7487      7.3105
  1322.0000    121.8452      0.0000    792.4443      7.5165
  1322.2500    128.6095      0.0000    789.1307      7.7583
  1322.5000    131.9183      0.0000    778.3517      7.9405
  1322.7500    133.3436      0.0000    757.7272      7.8617
  1323.0000    134.8872      0.0000    735.7168      7.4738
  1323.2500    137.3214      0.0000    729.1757      7.0732
  1323.5000    140.1046      0.0000    744.9141      6.9221
  1323.7500    142.3325      0.0000    771.7662      6.9770
  1324.0000    143.3600      2.0000    795.8445      7.1155
  1324.2500    142.5317      0.0000    813.5272      7.2983
  1324.5000    138.9054      0.0000    826.8421      7.4791
  1324.7500    132.0061      0.0000    833.9703      7.5743
  1325.0000    123.0646      0.0000    829.1407      7.6137
  1325.2500    114.9558      0.0000    811.2274      7.7625
  1325.5000    110.3413      0.0000    790.1252      8.0415
  1325.7500    109.6257      0.0000    781.8409      8.2796
  1326.0000    110.7142      0.0000    790.3000      8.4377
  1326.2500    110.8238      0.0000    801.2198      8.6071
  1326.5000    108.5495      0.0000    803.1061      8.7615
  1326.7500    104.2818      0.0000    799.3461      8.8259
  1327.0000     99.1345      0.0000    797.0460      8.8288
  1327.2500     93.8406      0.0000    798.6456      8.8370
  1327.5000     88.4268      0.0000    802.7547      8.8634
  1327.7500     82.5886      0.0000    806.0283      8.8773
  1328.0000     76.4395      0.0000    806.8970      8.8606
  1328.2500     71.0053      0.0000    806.9481      8.8275
  1328.5000     67.8184      0.0000    805.9291      8.7905
  1328.7500     67.8635      0.0000    801.0408      8.7574
  1329.0000     71.0333      0.0000    791.3752      8.7661
  1329.2500     76.6411      0.0000    778.3934      8.8479
  1329.5000     84.1145      0.0000    765.9501      8.9691
  1329.7500     92.7658      0.0000    760.0395      9.0638
  1330.0000    101.0129      0.0000    763.2650      9.1035
  1330.2500    106.5420      0.0000    772.1023      9.1098
  1330.5000    107.9090      0.0000    787.2654      9.1250
  1330.7500    106.0708      0.0000    825.1185      9.1827
  1331.0000    104.0354      0.0000    898.3452      9.2899
  1331.2500    104.7286      0.0000    978.8586      9.4347
  1331.5000    109.0285      0.0000   1012.0353      9.6134
  1331.7500    115.5930      0.0000    975.6454      9.8158
  1332.0000    122.2669      0.0000    898.1252      9.9746
  1332.2500    127.6398      0.0000    824.8223     10.0002
  1332.5000    131.5301      0.0000    782.2921      9.8645
  1332.7500    134.0953      0.0000    768.4354      9.6173
  1333.0000    134.4806      0.0000    768.7016      9.3539
  1333.2500    130.8046      0.0000    776.6422      9.1601
  1333.5000    121.9217      0.0000    791.2903      9.0720
  1333.7500    108.8445      0.0000    806.9333      9.0896
  1334.0000     93.9946      0.0000    820.5585      9.1967
  1334.2500     79.6297      0.0000    835.0493      9.3554
  1334.5000     67.5855      0.0000    849.5718      9.5161
  1334.7500     59.7918      0.0000    859.5994      9.6444
  1335.0000     57.6674      0.0000    862.4136      9.7431
  1335.2500     60.6463      0.0000    856.3841      9.8576
  1335.5000     65.8627      0.0000    840.6306     10.0220
  1335.7500     69.7873      0.0000    814.0501     10.2046
  1336.0000     70.3428      0.0000    775.5144     10.3502
  1336.2500     67.6457      0.0000    732.1017     10.4407
  1336.5000     63.1585      0.0000    698.4940     10.4780
  1336.7500     58.5202      0.0000    682.2977     10.4643
  1337.0000     54.9249      0.0000    681.0859     10.4198
  1337.2500     52.8800      0.0000    691.5773     10.3779
  1337.5000     52.1346      0.0000    707.9434     10.3441
  1337.7500     51.9989      0.0000    716.0448     10.2773
  1338.0000     51.9599      0.0000    706.8261     10.1352
  1338.2500     52.0033      0.0000    689.5229      9.9373
  1338.5000     52.3519      0.0000    677.5311      9.7475
  1338.7500     53.1652      0.0000    674.0964      9.5960
  1339.0000     54.5879      0.0000    678.9214      9.4594
  1339.2500     56.7268      0.0000    696.5881      9.3137
  1339.5000     59.3438      0.0000    731.1744      9.1787
  1339.7500     61.8460      0.0000    774.3553      9.0981
