~Version Information
VERS.                      2.0: CWLS Log ASCII Standard - VERSION 2.0
WRAP.                       NO: One line per depth step
~Well Information Block
STRT.FT              2983.0000: 
STOP.FT              3214.7500: 
STEP.FT                 0.0500: 
NULL.                -999.2500: 
COMP.          Pioner Natural Resources: COMPANY
WELL.              Vespar 43-7: WELL
FLD.           Purgatoire River: FIELD
LOC.           2338' FSL & 1141' FEL------: LOCATION
PROV.                 Colorado: PROVINCE
CNTY.               Las Animas: COUNTRY
SRVC.                         : SERVICE COMPANY
DATE.          Fri Apr 15 15:31:19 2005: LOG DATE
UWI.                          : UNIQUE WELL ID
~Curve Information Block
DEPT.FT            0 000 00 00: Depth
GR.GAPI                       : Gamma Ray
CCL.                          : Casing Collar Locator
TT3.usec                      : CBL 3' Travel Time
AMP3.mV                       : CBL 3' Amplitude
AMP5.mV                       : CBL 5' Amplitude
~Parameter Information Block
~A  Depth        GR         CCL         TT3         AMP3        AMP5    
# ...
  3111.8000     86.3828      0.0000    432.9575     13.1430      2.4073
  3111.8500     86.3828      0.0000    432.9575     13.1430      2.4073
  3111.9000     86.3828      0.0000    432.9575     13.1430      2.4073
  3111.9500     86.3828      0.0000    432.9575     13.1430      2.4073
  3112.0000     84.7690      0.0000    438.9011     12.9681      2.1150
  3112.0500     84.7690      0.0000    438.9011     12.9681      2.1150
  3112.1000     84.7690      0.0000    438.9011     12.9681      2.1150
  3112.1500     84.7690      0.0000    438.9011     12.9681      2.1150
  3112.2000     84.7690      0.0000    438.9011     12.9681      2.1150
  3112.2500     86.1182      0.0000    426.3306     12.7909      1.8622
  3112.3000     86.1182      0.0000    426.3306     12.7909      1.8622
  3112.3500     86.1182      0.0000    426.3306     12.7909      1.8622
  3112.4000     86.1182      0.0000    426.3306     12.7909      1.8622
  3112.4500     86.1182      0.0000    426.3306     12.7909      1.8622
  3112.5000     90.3949      0.0000    403.3551     12.4986      1.6489
  3112.5500     90.3949      0.0000    403.3551     12.4986      1.6489
  3112.6000     90.3949      0.0000    403.3551     12.4986      1.6489
  3112.6500     90.3949      0.0000    403.3551     12.4986      1.6489
  3112.7000     90.3949      0.0000    403.3551     12.4986      1.6489
  3112.7500     95.7607      0.0000    382.0130     11.9892      1.4637
  3112.8000     95.7607      0.0000    382.0130     11.9892      1.4637
  3112.8500     95.7607      0.0000    382.0130     11.9892      1.4637
  3112.9000     95.7607      0.0000    382.0130     11.9892      1.4637
  3112.9500     95.7607      0.0000    382.0130     11.9892      1.4637
  3113.0000     99.3281      0.0000    368.1279     11.2622      1.2974
  3113.0500     99.3281      0.0000    368.1279     11.2622      1.2974
  3113.1000     99.3281      0.0000    368.1279     11.2622      1.2974
  3113.1500     99.3281      0.0000    368.1279     11.2622      1.2974
  3113.2000     99.3281      0.0000    368.1279     11.2622      1.2974
  3113.2500     98.7453      0.0000    360.4088     10.4186      1.1459
  3113.3000     98.7453      0.0000    360.4088     10.4186      1.1459
  3113.3500     98.7453      0.0000    360.4088     10.4186      1.1459
  3113.4000     98.7453      0.0000    360.4088     10.4186      1.1459
  3113.4500     98.7453      0.0000    360.4088     10.4186      1.1459
  3113.5000     93.5983      0.0000    355.7397      9.5734      1.0036
  3113.5500     93.5983      0.0000    355.7397      9.5734      1.0036
  3113.6000     93.5983      0.0000    355.7397      9.5734      1.0036
  3113.6500     93.5983      0.0000    355.7397      9.5734      1.0036
  3113.7000     93.5983      0.0000    355.7397      9.5734      1.0036
  3113.7500     85.8645      0.0000    352.5148      8.7925      0.8632
  3113.8000     85.8645      0.0000    352.5148      8.7925      0.8632
  3113.8500     85.8645      0.0000    352.5148      8.7925      0.8632
  3113.9000     85.8645      0.0000    352.5148      8.7925      0.8632
  3113.9500     85.8645      0.0000    352.5148      8.7925      0.8632
  3114.0000     78.7749      0.0000    350.2958      8.1037      0.7197
  3114.0500     78.7749      0.0000    350.2958      8.1037      0.7197
  3114.1000     78.7749      0.0000    350.2958      8.1037      0.7197
  3114.1500     78.7749      0.0000    350.2958      8.1037      0.7197
  3114.2000     78.7749      0.0000    350.2958      8.1037      0.7197
  3114.2500     74.6871      0.0000    348.7181      7.5298      0.5693
  3114.3000     74.6871      0.0000    348.7181      7.5298      0.5693
  3114.3500     74.6871      0.0000    348.7181      7.5298      0.5693
  3114.4000     74.6871      0.0000    348.7181      7.5298      0.5693
  3114.4500     74.6871      0.0000    348.7181      7.5298      0.5693
  3114.5000     73.7658      0.0000    347.2880      7.0936      0.4093
  3114.5500     73.7658      0.0000    347.2880      7.0936      0.4093
  3114.6000     73.7658      0.0000    347.2880      7.0936      0.4093
  3114.6500     73.7658      0.0000    347.2880      7.0936      0.4093
  3114.7000     73.7658      0.0000    347.2880      7.0936      0.4093
  3114.7500     74.4302      0.0000    345.6545      6.8083      0.2458
  3114.8000     74.4302      0.0000    345.6545      6.8083      0.2458
  3114.8500     74.4302      0.0000    345.6545      6.8083      0.2458
  3114.9000     74.4302      0.0000    345.6545      6.8083      0.2458
  3114.9500     74.4302      0.0000    345.6545      6.8083      0.2458
  3115.0000     74.8595      0.0000    343.8252      6.6770      0.0981
  3115.0500     74.8595      0.0000    343.8252      6.6770      0.0981
  3115.1000     74.8595      0.0000    343.8252      6.6770      0.0981
  3115.1500     74.8595      0.0000    343.8252      6.6770      0.0981
  3115.2000     74.8595      0.0000    343.8252      6.6770      0.0981
  3115.2500     74.1907      0.0000    342.0772      6.6899     -0.0085
  3115.3000     74.1907      0.0000    342.0772      6.6899     -0.0085
  3115.3500     74.1907      0.0000    342.0772      6.6899     -0.0085
  3115.4000     74.1907      0.0000    342.0772      6.6899     -0.0085
  3115.4500     74.1907      0.0000    342.0772      6.6899     -0.0085
  3115.5000     72.7355      0.0000    340.7145      6.8142     -0.0593
  3115.5500     72.7355      0.0000    340.7145      6.8142     -0.0593
  3115.6000     72.7355      0.0000    340.7145      6.8142     -0.0593
  3115.6500     72.7355      0.0000    340.7145      6.8142     -0.0593
  3115.7000     72.7355      0.0000    340.7145      6.8142     -0.0593
  3115.7500     71.4998      0.0000    339.8522      6.9891     -0.0617
  3115.8000     71.4998      0.0000    339.8522      6.9891     -0.0617
  3115.8500     71.4998      0.0000    339.8522      6.9891     -0.0617
  3115.9000     71.4998      0.0000    339.8522      6.9891     -0.0617
  3115.9500     71.4998      0.0000    339.8522      6.9891     -0.0617
  3116.0000     71.5237      0.0000    339.3948      7.1417     -0.0419
  3116.0500     71.5237      0.0000    339.3948      7.1417     -0.0419
  3116.1000     71.5237      0.0000    339.3948      7.1417     -0.0419
  3116.1500     71.5237      0.0000    339.3948      7.1417     -0.0419
  3116.2000     71.5237      0.0000    339.3948      7.1417     -0.0419
  3116.2500     73.1497      0.0000    339.1633      7.2166     -0.0288
  3116.3000     73.1497      0.0000    339.1633      7.2166     -0.0288
  3116.3500     73.1497      0.0000    339.1633      7.2166     -0.0288
  3116.4000     73.1497      0.0000    339.1633      7.2166     -0.0288
  3116.4500     73.1497      0.0000    339.1633      7.2166     -0.0288
  3116.5000     75.6636      0.0000    339.0253      7.1953     -0.0365
  3116.5500     75.6636      0.0000    339.0253      7.1953     -0.0365
  3116.6000     75.6636      0.0000    339.0253      7.1953     -0.0365
  3116.6500     75.6636      0.0000    339.0253      7.1953     -0.0365
  3116.7000     75.6636      0.0000    339.0253      7.1953     -0.0365
  3116.7500     78.0392      0.0000    338.9281      7.0960     -0.0607
  3116.8000     78.0392      0.0000    338.9281      7.0960     -0.0607
  3116.8500     78.0392      0.0000    338.9281      7.0960     -0.0607
  3116.9000     78.0392      0.0000    338.9281      7.0960     -0.0607
  3116.9500     78.0392      0.0000    338.9281      7.0960     -0.0607
  3117.0000     80.0708      0.0000    338.8639      6.9562     -0.0866
  3117.0500     80.0708      0.0000    338.8639      6.9562     -0.0866
  3117.1000     80.0708      0.0000    338.8639      6.9562     -0.0866
  3117.1500     80.0708      0.0000    338.8639      6.9562     -0.0866
  3117.2000     80.0708      0.0000    338.8639      6.9562     -0.0866
  3117.2500     82.1142      0.0000    338.8401      6.8106     -0.1028
  3117.3000     82.1142      0.0000    338.8401      6.8106     -0.1028
  3117.3500     82.1142      0.0000    338.8401      6.8106     -0.1028
