~Version Information
VERS.                      2.0: CWLS Log ASCII Standard - VERSION 2.0
WRAP.                       NO: One line per depth step
~Well Information Block
STRT.FT               507.5000: 
STOP.FT              2145.0000: 
STEP.FT                 0.2500: 
NULL.                -999.2500: 
COMP.          Petrogulf Corporation: COMPANY
WELL.            Montoya 1-44R: WELL
FLD.           Purgatorie River: FIELD
LOC.           658' FSL & 1052' FWL: LOCATION
CNTY.               Las Animas: COUNTY
SRVC.                         : SERVICE COMPANY
DATE.          Tue Nov 16 02:59:24 2004: LOG DATE
UWI.           05 071 08239 00: UNIQUE WELL ID
STAT.                 Colorado: STATE
~Curve Information Block
DEPT.FT            0 000 00 00: Depth
SP.mV                         : DIL Spontaneous Potential
RILD.Ohm-m                    : DIL Deep Resistivity
RILM.Ohm-m                    : DIL Medium Resistivity
RLL3.Ohm-m                    : DIL Shallow Resistivity
GR.GAPI                       : Gamma Ray
~Parameter Information Block
~A  Depth        SP         RILD        RILM        RLL3         GR     
# ...
   647.5000   2000.0000     21.7282     22.0171   2000.0000    191.8182
   647.7500   2000.0000     21.2621     21.2181   2000.0000    191.4804
   648.0000   2000.0000     20.9057     20.5918   2000.0000    188.9870
   648.2500   2000.0000     20.6415     20.1212   2000.0000    186.8308
   648.5000   2000.0000     20.4525     19.7910   2000.0000    184.0374
   648.7500   2000.0000     20.3241     19.5878   2000.0000    183.0678
   649.0000   2000.0000     20.2456     19.4994   2000.0000    183.6015
   649.2500   2000.0000     20.2110     19.5154   2000.0000    185.0658
   649.5000   2000.0000     20.2192     19.6277   2000.0000    187.2596
   649.7500   2000.0000     20.2731     19.8294   2000.0000    187.5323
   650.0000   2000.0000     20.3767     20.1145   2000.0000    185.3239
   650.2500   2000.0000     20.5332     20.4764   2000.0000    182.6190
   650.5000   2000.0000     20.7426     20.9065   2000.0000    178.3272
   650.7500   2000.0000     21.0000     21.3933   2000.0000    175.8718
   651.0000   2000.0000     21.2949     21.9220   2000.0000    172.5306
   651.2500   2000.0000     21.6120     22.4755   2000.0000    170.1293
   651.5000   2000.0000     21.9328     23.0356   2000.0000    166.4294
   651.7500   2000.0000     22.2379     23.5850   2000.0000    164.4469
   652.0000   2000.0000     22.5088     24.1080   2000.0000    162.6069
   652.2500   2000.0000     22.7301     24.5909   2000.0000    161.7998
   652.5000   2000.0000     22.8892     25.0196   2000.0000    160.7438
   652.7500   2000.0000     22.9758     25.3789   2000.0000    160.3891
   653.0000   2000.0000     22.9823     25.6503   2000.0000    161.0533
   653.2500   2000.0000     22.9030     25.8128   2000.0000    162.2573
   653.5000   2000.0000     22.7364     25.8476   2000.0000    164.2961
   653.7500   2000.0000     22.4878     25.7426   2000.0000    165.1487
   654.0000   2000.0000     22.1703     25.4990   2000.0000    164.8452
   654.2500   2000.0000     21.8054     25.1318   2000.0000    163.3780
   654.5000   2000.0000     21.4196     24.6700   2000.0000    159.3999
   654.7500   2000.0000     21.0404     24.1495   2000.0000    155.8939
   655.0000   2000.0000     20.6914     23.6056   2000.0000    150.1956
   655.2500   2000.0000     20.3879     23.0674   2000.0000    146.6169
   655.5000   2000.0000     20.1355     22.5543   2000.0000    142.3564
   655.7500   2000.0000     19.9291     22.0750   2000.0000    140.6109
   656.0000   2000.0000     19.7555     21.6302   2000.0000    139.9459
   656.2500   2000.0000     19.5969     21.2155   2000.0000    140.7228
   656.5000   2000.0000     19.4351     20.8247   2000.0000    143.0837
   656.7500   2000.0000     19.2563     20.4527   2000.0000    144.8857
   657.0000   2000.0000     19.0533     20.0968   2000.0000    146.9718
   657.2500   2000.0000     18.8272     19.7565   2000.0000    147.5716
   657.5000   2000.0000     18.5852     19.4324   2000.0000    147.0652
   657.7500   2000.0000     18.3381     19.1259   2000.0000    145.9161
   658.0000   2000.0000     18.0967     18.8369   2000.0000    143.5412
   658.2500   2000.0000     17.8706     18.5651   2000.0000    141.9367
   658.5000   2000.0000     17.6661     18.3094   2000.0000    140.1479
   658.7500   2000.0000     17.4872     18.0696   2000.0000    139.6877
   659.0000   2000.0000     17.3366     17.8473   2000.0000    140.3112
   659.2500   2000.0000     17.2164     17.6468   2000.0000    141.3723
   659.5000   2000.0000     17.1295     17.4748   2000.0000    143.1019
   659.7500   2000.0000     17.0794     17.3397   2000.0000    143.8949
   660.0000   2000.0000     17.0699     17.2500   2000.0000    143.9572
   660.2500   2000.0000     17.1049     17.2123   2000.0000    142.8810
   660.5000   2000.0000     17.1868     17.2307   2000.0000    139.1808
   660.7500   2000.0000     17.3163     17.3058   2000.0000    135.6696
   661.0000   2000.0000     17.4923     17.4350   2000.0000    130.7596
   661.2500   2000.0000     17.7124     17.6134   2000.0000    129.0830
   661.5000   2000.0000     17.9733     17.8351   2000.0000    130.0491
   661.7500   2000.0000     18.2723     18.0948   2000.0000    132.4749
   662.0000   2000.0000     18.6073     18.3882   2000.0000    136.6798
   662.2500   2000.0000     18.9774     18.7138   2000.0000    138.9034
   662.5000   2000.0000     19.3819     19.0721   2000.0000    141.4318
   662.7500   2000.0000     19.8192     19.4654   2000.0000    143.5004
   663.0000   2000.0000     20.2851     19.8985   2000.0000    149.0195
   663.2500   2000.0000     20.7712     20.3777   2000.0000    154.7506
   663.5000   2000.0000     21.2638     20.9113   2000.0000    165.2554
   663.7500   2000.0000     21.7451     21.5085   2000.0000    171.8568
   664.0000   2000.0000     22.1939     22.1786   2000.0000    177.9117
   664.2500   2000.0000     22.5890     22.9285   2000.0000    178.1482
   664.5000   2000.0000     22.9119     23.7580   2000.0000    172.5797
   664.7500   2000.0000     23.1490     24.6531   2000.0000    165.5478
   665.0000   2000.0000     23.2932     25.5776   2000.0000    151.1138
   665.2500   2000.0000     23.3410     26.4646   2000.0000    139.2691
   665.5000   2000.0000     23.2915     27.2122   2000.0000    119.1333
   665.7500   2000.0000     23.1437     27.6926   2000.0000    105.3855
   666.0000   2000.0000     22.8944     27.7778   2000.0000     87.2050
   666.2500   2000.0000     22.5404     27.3804   2000.0000     78.1497
   666.5000   2000.0000     22.0799     26.4934   2000.0000     70.4204
   666.7500   2000.0000     21.5161     25.1980   2000.0000     69.2915
   667.0000   2000.0000     20.8596     23.6373   2000.0000     73.0720
   667.2500   2000.0000     20.1287     21.9696   2000.0000     78.5310
   667.5000   2000.0000     19.3483     20.3277   2000.0000     89.5428
   667.7500   2000.0000     18.5468     18.8008   2000.0000     97.8925
   668.0000   2000.0000     17.7530     17.4360   2000.0000    110.7465
   668.2500   2000.0000     16.9929     16.2489   2000.0000    118.8668
   668.5000   2000.0000     16.2880     15.2359   2000.0000    128.8666
   668.7500   2000.0000     15.6548     14.3850   2000.0000    133.1228
   669.0000   2000.0000     15.1045     13.6809   2000.0000    135.0977
   669.2500   2000.0000     14.6429     13.1095   2000.0000    133.9551
   669.5000   2000.0000     14.2725     12.6585   2000.0000    130.8149
   669.7500   2000.0000     13.9922     12.3180   2000.0000    129.2604
   670.0000   2000.0000     13.7993     12.0798   2000.0000    129.1367
   670.2500   2000.0000     13.6906     11.9372   2000.0000    130.3722
   670.5000   2000.0000     13.6627     11.8843   2000.0000    132.9710
   670.7500   2000.0000     13.7134     11.9166   2000.0000    134.5372
   671.0000   2000.0000     13.8407     12.0299   2000.0000    136.1328
   671.2500   2000.0000     14.0436     12.2212   2000.0000    136.6341
   671.5000   2000.0000     14.3201     12.4884   2000.0000    136.5190
   671.7500   2000.0000     14.6665     12.8294   2000.0000    135.9173
   672.0000   2000.0000     15.0765     13.2420   2000.0000    134.4761
   672.2500   2000.0000     15.5405     13.7225   2000.0000    133.2252
   672.5000   2000.0000     16.0454     14.2652   2000.0000    130.6792
   672.7500   2000.0000     16.5757     14.8613   2000.0000    128.4306
   673.0000   2000.0000     17.1144     15.4990   2000.0000    124.7690
   673.2500   2000.0000     17.6454     16.1642   2000.0000    122.8733
   673.5000   2000.0000     18.1552     16.8421   2000.0000    122.1463
   673.7500   2000.0000     18.6349     17.5196   2000.0000    123.4122
   674.0000   2000.0000     19.0807     18.1863   2000.0000    127.2056
   674.2500   2000.0000     19.4944     18.8360   2000.0000    129.8054
   674.5000   2000.0000     19.8827     19.4654   2000.0000    131.6124
   674.7500   2000.0000     20.2554     20.0731   2000.0000    130.9624
   675.0000   2000.0000     20.6232     20.6567   2000.0000    128.2377
   675.2500   2000.0000     20.9948     21.2116   2000.0000    126.1895
