~Version Information
VERS.                      2.0: CWLS Log ASCII Standard - VERSION 2.0
WRAP.                       NO: One line per depth step
~Well Information Block
STRT.FT                -5.5000: 
STOP.FT              1979.7500: 
STEP.FT                 0.2500: 
NULL.                -999.2500: 
COMP.          Pioneer Natural Resources: COMPANY
WELL.          Bucksnort 41-35: WELL
FLD.           Purgatorie River: FIELD
LOC.           117' FNL & 463' FEL: LOCATION
PROV.                 Colorado: PROVINCE
CNTY.               Las Animas: COUNTRY
SRVC.                Patterson: SERVICE COMPANY
DATE.          Fri Jul 29 10:31:46 2005: LOG DATE
UWI.                          : UNIQUE WELL ID
~Curve Information Block
DEPT.FT            0 000 00 00: Depth
GR.GAPI                       : Gamma Ray
CCL.                          : Casing Collar Locator
TT3.usec                      : CBL 3' Travel Time
AMP3.mV                       : CBL 3' Amplitude
~Parameter Information Block
~A  Depth        GR         CCL         TT3         AMP3    
# ...
  1167.0000    175.8638      0.0000    644.5607      8.5010
  1167.2500    175.6155      0.0000    645.3492      8.5350
  1167.5000    173.1954      0.0000    635.1470      8.6350
  1167.7500    170.0739      0.0000    611.1281      8.7911
  1168.0000    167.6540      0.0000    585.8221      8.9655
  1168.2500    166.5050      0.0000    567.9374      9.1149
  1168.5000    166.1080      0.0000    557.7789      9.2106
  1168.7500    165.4896      0.0000    553.6943      9.2502
  1169.0000    164.2449      0.0000    555.1109      9.2398
  1169.2500    162.8824      0.0000    562.6645      9.1875
  1169.5000    162.1809      0.0000    574.6650      9.1186
  1169.7500    162.2079      0.0000    585.3344      9.0534
  1170.0000    161.9599      0.0000    593.9748      8.9795
  1170.2500    160.2605      0.0000    608.5206      8.8888
  1170.5000    157.1628      0.0000    632.2559      8.8025
  1170.7500    154.1259      0.0000    661.3282      8.7280
  1171.0000    152.4981      0.0000    692.7366      8.6419
  1171.2500    151.9476      0.0000    721.1699      8.5289
  1171.5000    150.5963      0.0000    739.8016      8.4070
  1171.7500    146.7159      0.0000    748.1922      8.3082
  1172.0000    140.2531      0.0000    750.9070      8.2309
  1172.2500    132.7997      0.0000    751.6112      8.1392
  1172.5000    126.2536      0.0000    751.6880      8.0005
  1172.7500    121.6168      0.0000    751.4159      7.7821
  1173.0000    118.8550      0.0000    750.8541      7.4678
  1173.2500    117.2843      0.0000    750.2329      7.1124
  1173.5000    115.6988      0.0000    749.9330      6.8309
  1173.7500    112.7214      0.0000    750.1464      6.7168
  1174.0000    107.9005      0.0000    750.7140      6.7606
  1174.2500    102.4209      0.0000    751.3031      6.8656
  1174.5000     98.1442      0.0000    751.6926      6.9479
  1174.7500     96.0285      0.0000    751.8520      6.9828
  1175.0000     95.8208      0.0000    751.6643      6.9749
  1175.2500     96.9267      0.0000    750.7667      6.9489
  1175.5000     98.9108      0.0000    748.3398      6.9744
  1175.7500    101.1871      0.0000    742.5538      7.1327
  1176.0000    102.8930      0.0000    731.9907      7.4104
  1176.2500    103.6219      0.0000    719.2186      7.6945
  1176.5000    104.1996      0.0000    710.4699      7.9084
  1176.7500    106.1158      0.0000    710.4419      8.0572
  1177.0000    109.7670      0.0000    718.6199      8.1706
  1177.2500    113.6562      0.0000    728.6083      8.2837
  1177.5000    115.8491      0.0000    731.6213      8.4499
  1177.7500    115.9230      0.0000    725.4824      8.7263
  1178.0000    114.9801      0.0000    718.3284      9.1201
  1178.2500    113.9905      0.0000    718.6224      9.5627
  1178.5000    112.7330      0.0000    726.2242      9.9540
  1178.7500    110.4799      0.0000    735.3006     10.2209
  1179.0000    107.2716      0.0000    737.7119     10.3384
  1179.2500    104.0699      0.0000    725.0087     10.3229
  1179.5000    101.8282      0.0000    696.2578     10.2189
  1179.7500    101.0423      0.0000    663.7780     10.0591
  1180.0000    102.0745      0.0000    643.3613      9.8411
  1180.2500    105.0487      0.0000    641.8838      9.5775
  1180.5000    109.2875      0.0000    654.5154      9.3265
  1180.7500    113.4911      0.0000    662.9726      9.1516
  1181.0000    116.6192      0.0000    648.3997      9.0874
  1181.2500    118.4517      0.0000    615.6055      9.1225
  1181.5000    119.5678      0.0000    587.5751      9.1963
  1181.7500    120.9132      0.0000    576.3456      9.2488
  1182.0000    123.0351      0.0000    578.2321      9.2777
  1182.2500    125.6185      0.0000    589.3753      9.3155
  1182.5000    128.0171      0.0000    608.3812      9.3683
  1182.7500    130.0110      0.0000    629.8530      9.3910
  1183.0000    131.7706      0.0000    645.8784      9.3203
  1183.2500    133.5669      0.0000    649.5752      9.1427
  1183.5000    135.9441      0.0000    640.0614      8.9186
  1183.7500    139.6300      0.0000    630.2136      8.7247
  1184.0000    144.7637      0.0000    636.1073      8.5997
  1184.2500    150.4132      0.0000    655.5905      8.5285
  1184.5000    154.9932      0.0000    665.1564      8.4464
  1184.7500    157.0870      0.0000    645.8291      8.3037
  1185.0000    156.1054      0.0000    616.0604      8.1301
  1185.2500    152.5862      0.0000    614.7557      7.9957
  1185.5000    147.9821      0.0000    646.6940      7.9309
  1185.7500    144.0477      0.0000    681.7504      7.9141
  1186.0000    142.1486      0.0000    701.7936      7.9157
  1186.2500    142.7759      0.0000    711.0493      7.9328
  1186.5000    145.5782      0.0000    714.2015      7.9811
  1186.7500    149.9532      0.0000    711.4771      8.0639
  1187.0000    155.4940      0.0000    705.8702      8.1647
  1187.2500    161.6099      0.0000    701.4537      8.2694
  1187.5000    167.1191      0.0000    699.2230      8.3888
  1187.7500    170.8918      0.0000    698.3287      8.5480
  1188.0000    172.8728      0.0000    698.0641      8.7451
  1188.2500    174.0122      0.0000    698.0614      8.9343
  1188.5000    175.2927      0.0000    698.0964      9.0631
  1188.7500    176.9861      0.0000    697.9095      9.0881
  1189.0000    178.4927      0.0000    696.6396      8.9442
  1189.2500    178.7452      0.0000    692.6709      8.5729
  1189.5000    176.9917      0.0000    686.5684      8.0206
  1189.7500    172.9629      0.0000    685.6060      7.4294
  1190.0000    165.9965      0.0000    699.6918      6.9221
  1190.2500    154.7409      0.0000    728.3728      6.5739
  1190.5000    138.6642      0.0000    759.0294      6.4159
  1190.7500    119.5868      0.0000    781.5724      6.3968
  1191.0000    101.0682      0.0000    796.9561      6.4157
  1191.2500     86.3472      0.0000    808.6611      6.4069
  1191.5000     76.9217      0.0000    813.7115      6.3594
  1191.7500     72.5440      0.0000    808.0863      6.2897
  1192.0000     72.0804      0.0000    793.8480      6.2436
  1192.2500     74.2754      0.0000    774.7602      6.2963
  1192.5000     77.9102      0.0000    754.7824      6.5257
  1192.7500     81.7846      0.0000    741.2147      6.9652
  1193.0000     85.0957      0.0000    737.4550      7.5428
  1193.2500     87.8159      0.0000    736.7979      8.0981
  1193.5000     90.5476      0.0000    732.9968      8.5051
  1193.7500     94.1254      0.0000    730.4457      8.7458
  1194.0000     99.3653      0.0000    735.2478      8.8620
  1194.2500    106.7146      0.0000    744.0944      8.9007
  1194.5000    115.6089      0.0000    750.2341      8.9071
  1194.7500    124.1389      0.0000    750.9405      8.9161
  1195.0000    129.7853      0.0000    743.0244      8.9388
  1195.2500    130.8951      0.0000    718.2180      8.9822
  1195.5000    127.7706      0.0000    673.4612      9.0598
  1195.7500    122.5968      0.0000    628.9050      9.1646
  1196.0000    118.1556      0.0000    617.2021      9.2775
  1196.2500    115.9930      0.0000    642.6332      9.3997
  1196.5000    115.5334      0.0000    670.4297      9.5410
  1196.7500    115.2909      0.0000    667.4537      9.6905
  1197.0000    115.0157      0.0000    639.7581      9.8217
  1197.2500    116.1357      0.0000    621.4229      9.9032
  1197.5000    119.9977      0.0000    635.0103      9.9091
  1197.7500    126.3136      0.0000    671.7775      9.8519
  1198.0000    133.4855      0.0000    705.7992      9.8006
  1198.2500    139.5549      0.0000    722.0657      9.8273
  1198.5000    142.3438      0.0000    727.0323      9.9281
  1198.7500    139.6641      0.0000    729.3551      9.9832
  1199.0000    130.7604      0.0000    723.5350      9.7783
  1199.2500    117.6459      0.0000    706.3638      9.1971
  1199.5000    104.1953      0.0000    695.2251      8.5049
  1199.7500     93.5078      0.0000    707.5097      8.1061
  1200.0000     86.2876      0.0000    733.4797      7.9074
  1200.2500     81.5410      0.0000    752.5130      7.5662
