~Version Information
VERS.                      2.0: CWLS Log ASCII Standard - VERSION 2.0
WRAP.                       NO: One line per depth step
~Well Information Block
STRT.FT                -7.5000: 
STOP.FT              1702.2500: 
STEP.FT                 0.2500: 
NULL.                -999.2500: 
COMP.          Pioneer Natural Resources: COMPANY
WELL.          Warrior 33-1 Tr: WELL
FLD.           Purgatoire River: FIELD
LOC.           2648' FSL & 2341' FEL--: LOCATION
PROV.                 Colorado: PROVINCE
CNTY.               Las Animas: COUNTRY
SRVC.                Patterson: SERVICE COMPANY
DATE.          Wed Jun 22 12:18:08 2005: LOG DATE
UWI.           05 071 08412 00: UNIQUE WELL ID
~Curve Information Block
DEPT.FT            0 000 00 00: Depth
CCL.                          : Casing Collar Locator
TT3.usec                      : CBL 3' Travel Time
AMP3.mV                       : CBL 3' Amplitude
GR.GAPI                       : Gamma Ray
~Parameter Information Block
~A  Depth       CCL         TT3         AMP3         GR     
# ...
  1433.0000      0.0000    706.5226      6.7087     76.1830
  1433.2500      0.0000    703.4691      6.7348     77.3309
  1433.5000      0.0000    703.6537      6.7474     81.1415
  1433.7500      0.0000    709.8495      6.7422     87.3645
  1434.0000      0.0000    720.7071      6.7262     95.2343
  1434.2500      0.0000    731.4764      6.7094    104.4117
  1434.5000      0.0000    738.2229      6.7015    114.8204
  1434.7500      0.0000    740.3937      6.7124    125.8960
  1435.0000      0.0000    739.9332      6.7521    136.4667
  1435.2500      0.0000    739.0319      6.8302    145.2593
  1435.5000      0.0000    739.0012      6.9511    151.2202
  1435.7500      0.0000    740.4765      7.1082    153.6112
  1436.0000      0.0000    743.5638      7.2860    152.3835
  1436.2500      0.0000    747.5532      7.4700    148.5269
  1436.5000      0.0000    750.9080      7.6530    143.8277
  1436.7500      0.0000    751.7897      7.8315    140.2939
  1437.0000      0.0000    748.9297      7.9984    139.5447
  1437.2500      0.0000    742.6794      8.1444    141.6596
  1437.5000      0.0000    735.1518      8.2593    144.0625
  1437.7500      0.0000    728.6794      8.3306    142.5697
  1438.0000      0.0000    724.2411      8.3409    134.6539
  1438.2500      0.0000    721.7974      8.2735    121.7178
  1438.5000      0.0000    721.4514      8.1213    108.0432
  1438.7500      0.0000    723.3457      7.8944     97.6628
  1439.0000      0.0000    726.7210      7.6207     91.9703
  1439.2500      0.0000    729.7713      7.3369     89.6225
  1439.5000      0.0000    730.5051      7.0711     88.2205
  1439.7500      0.0000    727.9151      6.8336     86.1213
  1440.0000      0.0000    722.7927      6.6251     83.0174
  1440.2500      0.0000    717.4267      6.4496     79.2813
  1440.5000      0.0000    714.2632      6.3168     75.1781
  1440.7500      0.0000    714.8209      6.2319     70.7688
  1441.0000      0.0000    719.4545      6.1880     66.3303
  1441.2500      0.0000    727.3250      6.1696     62.6838
  1441.5000      0.0000    736.5623      6.1631     61.0182
  1441.7500      0.0000    745.2270      6.1623     62.1508
  1442.0000      0.0000    752.2502      6.1655     65.6639
  1442.2500      0.0000    756.9688      6.1724     69.8060
  1442.5000      0.0000    758.2895      6.1814     72.5543
  1442.7500      0.0000    755.4309      6.1885     72.9185
  1443.0000      0.0000    749.3535      6.1869     71.2318
  1443.2500      0.0000    742.5193      6.1714     68.4165
  1443.5000      0.0000    737.1116      6.1442     65.2508
  1443.7500      0.0000    733.8547      6.1145     62.2754
  1444.0000      0.0000    732.3475      6.0891     60.1128
  1444.2500      0.0000    731.9872      6.0661     59.4526
  1444.5000      0.0000    732.4142      6.0388     60.3641
  1444.7500      0.0000    733.2499      6.0072     61.8264
  1445.0000      0.0000    733.4039      5.9808     62.4963
  1445.2500      0.0000    731.0922      5.9690     61.9449
  1445.5000      0.0000    725.7744      5.9718     60.7969
  1445.7500      0.0000    720.6268      5.9819     59.8937
  1446.0000      0.0000    721.3445      5.9919     59.9064
  1446.2500      0.0000    730.6002      6.0023     61.6291
  1446.5000      0.0000    744.3306      6.0218     65.8636
  1446.7500      0.0000    754.7142      6.0584     72.6003
  1447.0000      0.0000    756.2674      6.1100     80.6055
  1447.2500      0.0000    748.9166      6.1659     88.1150
  1447.5000      0.0000    736.7926      6.2176     93.7997
  1447.7500      0.0000    725.0521      6.2644     96.9946
  1448.0000      0.0000    717.1834      6.3096     97.3967
  1448.2500      0.0000    714.1650      6.3549     94.9965
  1448.5000      0.0000    715.1447      6.3983     90.3742
  1448.7500      0.0000    718.1815      6.4340     84.8340
  1449.0000      0.0000    720.4521      6.4541     79.9851
  1449.2500      0.0000    718.4551      6.4510     76.8693
  1449.5000      0.0000    708.7069      6.4231     75.2897
  1449.7500      0.0000    689.2683      6.3791     74.0443
  1450.0000      0.0000    661.7182      6.3377     72.0762
  1450.2500      0.0000    631.6030      6.3212     69.4810
  1450.5000      0.0000    605.7228      6.3462     67.2601
  1450.7500      0.0000    588.1331      6.4150     66.0871
  1451.0000      0.0000    578.6135      6.5146     65.6369
  1451.2500      0.0000    574.4045      6.6228     65.2178
  1451.5000      0.0000    572.6068      6.7210     64.6799
  1451.7500      0.0000    571.1262      6.8029     64.4428
  1452.0000      0.0000    568.5475      6.8731     64.8786
  1452.2500      0.0000    564.2570      6.9393     65.9582
  1452.5000      0.0000    559.1190      7.0068     67.3902
  1452.7500      0.0000    555.4799      7.0827     68.8776
  1453.0000      0.0000    555.5526      7.1802     70.2991
  1453.2500      0.0000    559.4214      7.3111     71.7850
  1453.5000      0.0000    564.9692      7.4751     73.5893
  1453.7500      0.0000    569.7586      7.6580     75.7666
  1454.0000      0.0000    572.6449      7.8429     77.9439
  1454.2500      0.0000    573.8141      8.0182     79.4829
  1454.5000      0.0000    574.0233      8.1752     80.0795
  1454.7500      0.0000    574.1461      8.3032     80.1828
  1455.0000      0.0000    575.1990      8.3903     80.5388
  1455.2500      0.0000    578.4711      8.4281     81.2942
  1455.5000      0.0000    585.2639      8.4152     81.8244
  1455.7500      0.0000    596.1594      8.3494     81.4972
  1456.0000      0.0000    610.1893      8.2131     80.3488
  1456.2500      0.0000    624.4740      7.9711     78.8370
  1456.5000      0.0000    634.9235      7.6070     77.1528
  1456.7500      0.0000    638.4077      7.1762     75.1184
  1457.0000      0.0000    635.2347      6.7909     72.7203
  1457.2500      0.0000    629.0645      6.5106     70.4634
  1457.5000      0.0000    624.1780      6.2756     68.9879
  1457.7500      0.0000    623.6626      6.0000     68.3599
  1458.0000      0.0000    629.6669      5.6972     67.9654
  1458.2500      0.0000    642.8328      5.4537     67.1260
  1458.5000     -2.0000    660.6367      5.3168     65.6251
  1458.7500      2.0000    678.2845      5.2645     63.7801
  1459.0000      2.0000    692.1364      5.2674     62.4412
  1459.2500      0.0000    701.3969      5.3526     62.6539
  1459.5000      0.0000    707.1270      5.6075     64.5781
  1459.7500      0.0000    711.3460      6.0963     66.7776
  1460.0000      0.0000    716.0939      6.7386     67.2988
  1460.2500      0.0000    721.3231      7.3032     65.6409
  1460.5000      0.0000    724.5070      7.5866     63.3278
  1460.7500      0.0000    723.8005      7.5805     62.4727
  1461.0000      0.0000    720.5873      7.4311     63.8941
  1461.2500      0.0000    717.9230      7.2797     66.6092
  1461.5000      0.0000    717.4739      7.1789     69.1394
  1461.7500      0.0000    718.4753      7.1153     71.1449
  1462.0000      0.0000    719.0948      7.0563     73.3539
  1462.2500      0.0000    718.5336      6.9793     75.8850
  1462.5000      0.0000    718.1019      6.8822     77.4507
  1462.7500      0.0000    720.4158      6.7831     76.7389
  1463.0000      0.0000    727.2858      6.7103     74.0565
  1463.2500      0.0000    737.8757      6.6898     71.1824
  1463.5000      0.0000    748.6760      6.7284     69.9496
  1463.7500      0.0000    755.8375      6.8094     71.0925
  1464.0000      0.0000    757.9964      6.9050     74.1279
  1464.2500      0.0000    756.7473      6.9950     78.2702
  1464.5000      0.0000    754.5810      7.0731     83.6042
  1464.7500      0.0000    752.8358      7.1414     91.2823
  1465.0000      0.0000    751.3479      7.1979    102.2344
  1465.2500      0.0000    749.3060      7.2279    115.5102
  1465.5000      0.0000    746.3279      7.2068    128.2316
  1465.7500      0.0000    743.0731      7.1167    137.7408
  1466.0000      0.0000    740.8168      6.9653    143.6606
  1466.2500      0.0000    740.1640      6.7878    147.2712
