~Version Information
VERS.                      2.0: CWLS Log ASCII Standard - VERSION 2.0
WRAP.                       NO: One line per depth step
~Well Information Block
STRT.FT               554.1000: 
STOP.FT              2173.5000: 
STEP.FT                 0.1000: 
NULL.                -999.2500: 
COMP.          Petrogulf Corporation: COMPANY
WELL.            Montoya 6-14R: WELL
FLD.           Purgatorie River: FIELD
LOC.           867' FSL & 751' FWL: LOCATION
CNTY.               Las Animas: COUNTY
SRVC.                         : SERVICE COMPANY
DATE.          Mon Nov 15 06:14:10 2004: LOG DATE
UWI.           05 071 08242 00: UNIQUE WELL ID
STAT.                 Colorado: STATE
~Curve Information Block
DEPT.FT            0 000 00 00: Depth
DCAL.in                       : CDL Caliper
RHOB.g/cc                     : CDL Bulk Density
RHOC.g/cc                     : CDL Density Correction
DPOR.pu                       : CDL Density Porosity
GR.GAPI                       : Gamma Ray
NPOR.pu                       : Neutron Porosity
~Parameter Information Block
~A  Depth       DCAL        RHOB        RHOC        DPOR         GR         NPOR    
# ...
   890.1000      8.0954      2.5976      0.0063      3.1745    156.9569     25.5731
   890.2000      8.0954      2.5909      0.0095      3.5799    159.2335     25.0507
   890.3000      8.0958      2.5734      0.0183      4.6422    159.9811     25.4979
   890.4000      8.0958      2.5439      0.0069      6.4319    158.6546     26.2551
   890.5000      8.0962      2.5149     -0.0248      8.1858    155.8525     26.4440
   890.6000      8.0962      2.5042      0.0094      8.8375    155.1693     26.0804
   890.7000      8.0962      2.5101      0.0326      8.4795    159.8468     25.6926
   890.8000      8.0965      2.5178      0.0434      8.0142    162.1198     25.5194
   890.9000      8.0965      2.5200      0.0406      7.8793    156.3382     25.3898
   891.0000      8.0964      2.5227      0.0230      7.7155    149.8675     25.1444
   891.1000      8.0964      2.5281      0.0872      7.3880    147.2841     24.9962
   891.2000      8.0964      2.5307      0.0463      7.2323    146.2864     25.1803
   891.3000      8.0961      2.5382      0.0639      6.7787    144.8293     25.5902
   891.4000      8.0961      2.5529      0.0923      5.8823    143.4851     25.9923
   891.5000      8.0916      2.5595      0.0896      5.4852    141.4539     26.1858
   891.6000      8.0916      2.5575      0.0335      5.6076    138.1543     26.1659
   891.7000      8.0916      2.5576      0.1007      5.6023    136.8730     26.1545
   891.8000      8.0699      2.5601      0.0644      5.4512    137.7968     26.1007
   891.9000      8.0699      2.5675      0.0536      5.0012    137.5348     25.9002
   892.0000      8.0333      2.5784      0.0399      4.3396    138.3076     25.7045
   892.1000      8.0333      2.5789      0.0491      4.3100    144.8049     25.6193
   892.2000      8.0333      2.5623      0.0391      5.3126    151.5622     25.6465
   892.3000      8.0107      2.5358      0.0435      6.9239    150.9783     25.8070
   892.4000      8.0107      2.5105     -0.0056      8.4539    145.9882     26.0711
   892.5000      8.0053      2.5020     -0.0104      8.9723    143.9833     26.3049
   892.6000      8.0053      2.5118      0.0346      8.3757    147.2106     26.4751
   892.7000      8.0053      2.5208      0.0200      7.8282    151.2810     26.7592
   892.8000      8.0029      2.5172      0.0298      8.0488    152.3437     27.1886
   892.9000      8.0029      2.5073      0.0269      8.6462    150.5397     27.4792
   893.0000      8.0008      2.5039      0.0637      8.8545    146.0934     27.4570
   893.1000      8.0008      2.5112      0.0592      8.4116    140.0745     27.3319
   893.2000      8.0008      2.5251      0.0707      7.5714    135.2396     27.3737
   893.3000      8.0021      2.5344      0.0822      7.0032    132.1997     27.4448
   893.4000      8.0021      2.5309      0.0530      7.2207    130.2792     27.1643
   893.5000      8.0021      2.5220      0.0210      7.7582    124.7019     26.6011
   893.6000      8.0021      2.5222      0.0330      7.7480    115.5416     26.1406
   893.7000      8.0021      2.5366      0.0422      6.8704    109.7739     25.9289
   893.8000      7.9945      2.5589      0.0474      5.5209    108.3769     25.9953
   893.9000      7.9945      2.5773      0.0684      4.4034    107.7610     26.2423
   894.0000      7.9806      2.5843      0.0538      3.9830    106.0101     26.3823
   894.1000      7.9806      2.5778      0.0563      4.3741    102.8097     26.1791
   894.2000      7.9806      2.5564      0.0395      5.6742     98.1785     25.6125
   894.3000      7.9669      2.5271      0.0360      7.4470     94.7403     24.8619
   894.4000      7.9669      2.5064      0.0340      8.7040     94.9555     24.1786
   894.5000      7.9528      2.5013      0.0291      9.0103     99.0238     23.6634
   894.6000      7.9528      2.5072      0.0174      8.6546    105.3246     23.4077
   894.7000      7.9528      2.5165      0.0258      8.0891    110.7372     23.5824
   894.8000      7.9371      2.5284      0.0513      7.3697    113.5245     24.2177
   894.9000      7.9371      2.5546      0.0137      5.7838    113.6629     24.9342
   895.0000      7.9276      2.5991      0.0984      3.0868    111.1616     25.3494
   895.1000      7.9276      2.6422      0.1401      0.4729    108.2107     25.4979
   895.2000      7.9276      2.6677      0.1370     -1.0705    106.5058     25.4164
   895.3000      7.9300      2.6776      0.1471     -1.6701    106.9548     25.0488
   895.4000      7.9300      2.6781      0.1251     -1.7054    108.9910     24.6676
   895.5000      7.9511      2.6676      0.1150     -1.0686    111.7706     24.6963
   895.6000      7.9511      2.6388      0.0451      0.6769    114.7978     25.1847
   895.7000      7.9511      2.5880      0.0307      3.7551    117.0882     25.7886
   895.8000      7.9829      2.5232     -0.0484      7.6826    119.7473     26.2240
   895.9000      7.9829      2.4624     -0.0700     11.3702    124.7391     26.3483
   896.0000      8.0045      2.4048     -0.0794     14.8588    131.8669     26.0570
   896.1000      8.0045      2.3348     -0.0685     19.1003    138.7557     25.5890
   896.2000      8.0045      2.2566     -0.0966     23.8443    142.8705     25.3962
   896.3000      8.0211      2.1940     -0.0703     27.6346    143.3482     25.3882
   896.4000      8.0211      2.1627     -0.0127     29.5348    141.8805     25.0370
   896.5000      8.0493      2.1536     -0.0055     30.0846    140.3245     24.1365
   896.6000      8.0493      2.1479      0.0870     30.4296    138.8351     23.0693
   896.7000      8.0493      2.1379      0.2381     31.0350    139.3280     22.4284
   896.8000      8.0858      2.1279      0.2779     31.6445    144.0964     22.3276
   896.9000      8.0858      2.1180      0.3086     32.2438    148.8656     22.2374
   897.0000      8.1152      2.1005      0.4606     33.3036    146.7117     21.8660
   897.1000      8.1152      2.0807      0.4522     34.5057    138.5472     21.5641
   897.2000      8.1152      2.0949      0.4202     33.6449    130.9500     21.5290
   897.3000      8.1402      2.1809      0.4469     28.4318    126.3878     21.6286
   897.4000      8.1402      2.3086      0.5607     20.6925    124.6746     21.7876
   897.5000      8.1739      2.3940      0.5808     15.5134    127.8505     22.1290
   897.6000      8.1739      2.4178      0.4524     14.0735    134.1902     22.7519
   897.7000      8.1739      2.4350      0.4252     13.0322    137.3616     23.4814
   897.8000      8.2548      2.4672      0.4689     11.0793    137.4211     24.1823
   897.9000      8.2548      2.4831      0.4765     10.1170    137.8613     24.9647
   898.0000      8.3511      2.4809      0.1762     10.2502    138.0886     25.9566
   898.1000      8.3511      2.4946      0.1259      9.4194    138.6123     26.9182
   898.2000      8.3511      2.5209      0.1473      7.8256    140.8839     27.4796
   898.3000      8.3023      2.5327      0.1305      7.1113    142.9930     27.7991
   898.4000      8.3023      2.5320      0.0559      7.1530    142.8489     28.1260
   898.5000      8.1343      2.5394      0.0818      6.7028    139.8806     28.3223
   898.6000      8.1343      2.5694      0.0683      4.8819    134.8780     28.3899
   898.7000      8.1343      2.6232      0.1368      1.6269    131.7564     28.3567
   898.8000      8.0295      2.6744      0.2189     -1.4785    131.8257     28.1949
   898.9000      8.0295      2.6914      0.1986     -2.5091    132.1032     28.0809
   899.0000      8.0066      2.6746      0.1785     -1.4907    131.6656     28.1444
   899.1000      8.0066      2.6463      0.1172      0.2267    129.9959     28.5046
   899.2000      8.0066      2.6243      0.0630      1.5560    125.9389     29.0883
   899.3000      8.0052      2.6206      0.0563      1.7833    120.8255     29.4437
   899.4000      8.0052      2.6389      0.0800      0.6730    117.0185     29.4819
   899.5000      8.0052      2.6678      0.0537     -1.0796    115.3064     29.5585
   899.6000      8.0052      2.6945      0.0087     -2.6949    116.3265     29.7580
