~Version Information
 VERS.                2.0:  CWLS LOG ASCII STANDARD -VERSION 2.0
 WRAP.                 NO:  ONE LINE PER DEPTH STEP
~WELL INFORMATION BLOCK
#MNEM.UNIT       DATA		            DESCRIPTION OF MNEMONIC
#---------    -------------            ------------------------
 STRT.FT  0.500                          :START DEPTH
 STOP.FT  1812.700                       :STOP DEPTH
 STEP.FT  0.100                          :STEP    UP_HOLE  
 NULL.    -999.25                        :NULL VALUE
 COMP.              EL PASO PRODUCTIONS  :COMPANY
 WELL.                     COREHOLE #38  :WELL
 FLD .                 PURGATOIRE RIVER  :FIELD
 LOC .      15   35S   65W               :LOCATION
 CNTY.                           COLFAX  :COUNTY
 STAT.                     NM            :STATE
 CTRY.                                   :
 SRVC.     O'DRISCOLL                    :SERVICE COMPANY
 DATE.   04/28/05                        :LOG DATE
 API .                                   :API NUMBER
 LIC .                                   :LICENSE NUMBER
~Curve Information Block
#MNEM.UNIT      API CODE     Curve Description
#---------    -------------  ------------------------
 DEPT     .FT        00 001 00 00          :  1  DEPTH   
 GAMMA    .API-GR    00 310 00 00          :  2                GAMMA
 TEMP     .DEG F     00 660 00 00          :  3                 TEMP
 RES(16N) .OHM-M     00 040 00 00          :  4             RES(16N)
 RES(64N) .OHM-M     00 060 00 00          :  5             RES(64N)
 RES      .OHM       00 000 00 00          :  6                  RES
 LATERAL  .OHM-M     00 070 00 00          :  7              LATERAL
 NEUTRON  .API-N     00 000 00 00          :  8              NEUTRON
 POR(NEU) .PERCENT   00 330 00 00          :  9             POR(NEU)
 SANGB    .DEG       00 631 00 00          : 10                SANGB
 DEL_TEMP .DEG F     00 000 00 00          : 11             DEL_TEMP
 SANG     .DEG       00 620 00 00          : 12                 SANG
 SP       .MV        00 010 00 00          : 13                   SP
 TIME     .MINUTES   00 000 00 00          : 14                 TIME
~Parameter Information Block
#MNEM.UNIT   Information     Description
#---------- ---------------  ------------------------
 FILE.      ORIGINAL           :File Type
 FIID.      9057A              :File Type Identifier
 VERS.      3.58G              :System Version
 SER .      1                  :System Serial Number
 TRUK.      .498775            :Truck Calibration Number
 TOOL.        1061             :Tool Serial Number
 TIME.      1335               :Time    HrHrMinMin
 LAT .       36 59'            :Latitude
 LON .       104 39'           :Longitude
 LMF .            GL           :Log Measured From
 DMF .            GL           :Driller Measured From
 PD  .            GL           :Permanent Data
 PDEV.                         :Elevation Permanent Data
 EKB .M                        :Elevation Kelly Bushing
 ELEV.DF                       :Elevation DF
 EGL .M        7777            :Elevation Ground Level
 DRDP.          1825           :Driller's Depth
 CASD.       10.               :Casing Diameter
 CASB.           300           :Casing Bottom
 CASX.         STEEL           :Casing Type
 CAST.                         :Casing Thickness
 TNOC.                         :Time Circulation Stopped
 LOGU.        108              :Logging Unit
 RECB.           R.SIPES       :Recorded By
 OSR1.          9139           :Other Services
 OSR2.                         :Other Services
 OSR3.                         :Other Services
 BS  .MM         3.5           :Bit Size
 MST .                         :Mean Surface Temperature
 TGRD.                         :Temperature Gradiant
 MAGN.            12           :Magnetic Declination
 MDEN.       2.7               :Density Matrix
 MATR.      SANDSTONE          :Neutron Matrix
 DTMT.            54           :Delta T Matrix
 DTFL.                         :Delta T Fluid
 MUDS.                         :Mud Sample Source
 MRS .                         :Mud Resistivity
 MTP .                         :Mud Temperature
 MFRS.                         :Resistivity Mud Filtrate
 MFTP.                         :Temperature Mud Filtrate
 MCRS.                         :Resistivity Mud Cake
 MCTP.                         :Temperature Mud Cake
 FTYP.                         :Fluid Type
 FD  .K/M3                     :Fluid Density
 DFV .S                        :Fluid Viscosity
 FPH .                         :Fuild PH
 ELCO.       50000             :Electron Cutoff
~Other Information
#MNEM.UNIT  Information      Description
#---------- ---------------  ------------------------
# -------------------------- 
~A DEPTH  GAMMA    TEMP  RES(16N) RES(64N) RES      LATERAL  NEUTRON  POR(NEU) SANGB  DEL_TEMP SANG   SP    TIME    
# ...
   7.200     52.2  51.5      6.6     35.0     12.9     -3.2  -999.25  -999.25 310.76 -999.25  0.88  -1321.4 0.40000 
   7.300     53.0  51.6      4.9     35.1     12.9     -5.4  -999.25  -999.25 297.86 0.03  0.87  -1321.4 0.40000 
   7.400     56.2  51.6      5.8     35.3     13.2     -3.9  -999.25  -999.25 288.73 -0.05  0.86  -1321.4 0.40000 
   7.500     56.2  51.6      5.3     35.5     13.2     -4.6  -999.25  -999.25 268.07 0.01  0.88  -1321.4 0.40000 
   7.600     55.0  51.6      6.7     35.7     13.2     -3.2  -999.25  -999.25 271.11 -0.01  0.88  -1321.4 0.40000 
   7.700     55.2  51.6      5.6     35.9     13.3     -4.6  -999.25  -999.25 280.62 0.02  0.88  -1321.4 0.40000 
   7.800     52.5  51.6      7.1     36.2     13.9     -2.8  -999.25  -999.25 280.59 -0.03  0.87  -1321.3 0.40000 
   7.900     49.8  51.6      5.5     36.4     14.0     -4.6  -999.25  -999.25 283.07 0.01  0.88  -1321.1 0.40000 
   8.000     51.7  51.6      5.5     36.5     14.8     -4.6  -999.25  -999.25 281.90 -0.01  0.88  -1321.1 0.40000 
   8.100     50.8  51.6      5.9     36.7     14.7     -4.3  -999.25  -999.25 274.40 -0.02  0.89  -1321.1 0.30000 
   8.200     49.2  51.6      5.4     37.0     14.8     -4.9  -999.25  -999.25 274.78 -0.01  0.89  -1321.3 0.40000 
   8.300     44.3  51.6      6.1     37.3     15.0     -4.1  -999.25  -999.25 305.09 0.06  0.88  -1321.5 0.40000 
   8.400     42.5  51.6      6.3     37.5     15.6     -3.9  -999.25  -999.25 307.70 -0.07  0.87  -1321.5 0.40000 
   8.500     43.6  51.6      6.8     37.7     16.2     -3.4  -999.25  -999.25 299.47 0.02  0.87  -1321.5 0.40000 
   8.600     41.0  51.6      6.6     38.0     16.8     -3.8  -999.25  -999.25 318.24 -0.06  0.87  -1321.3 0.40000 
   8.700     40.2  51.6      7.4     38.2     17.9     -2.7  -999.25  -999.25 244.75 0.09  0.87  -1321.1 0.40000 
   8.800     40.8  51.6      6.8     38.6     17.7     -3.7  -999.25  -999.25 249.61 -0.05  0.87  -1321.1 0.40000 
   8.900     37.3  51.6      7.3     38.8     17.7     -3.5  -999.25  -999.25 245.71 -0.01  0.88  -1321.1 0.40000 
   9.000     36.1  51.6      5.9     39.1     16.8     -5.4  -999.25  -999.25 246.58 0.01  0.88  -1321.1 0.40000 
   9.100     35.8  51.6      8.3     39.5     15.8     -2.3  -999.25  -999.25 221.54 0.01  0.89  -1321.3 0.40000 
   9.200     37.1  51.6      5.6     39.9     15.0     -5.7  -999.25  -999.25 149.77 -0.05  0.90  -1321.3 0.30000 
   9.300     35.6  51.6      6.6     40.1     14.6     -4.4  -999.25  -999.25 152.26 0.03  0.90  -1321.3 0.40000 
   9.400     35.3  51.6      6.5     40.5     14.6     -4.8  -999.25  -999.25 151.03 0.01  0.90  -1321.3 0.40000 
   9.500     34.4  51.6      6.0     40.8     14.6     -5.6  -999.25  -999.25 173.06 -0.03  0.90  -1321.2 0.40000 
   9.600     36.5  51.7      8.2     41.1     14.1     -2.5  -999.25  -999.25 264.51 0.04  0.92  -1321.2 0.40000 
   9.700     36.0  51.7      7.7     41.4     12.5     -3.5  -999.25  -999.25 287.09 -0.10  0.92  -1321.2 0.40000 
   9.800     38.6  51.7      6.5     41.6     11.8     -5.4  -999.25  -999.25 299.27 0.06  0.92  -1321.2 0.40000 
   9.900     39.7  51.7      6.7     41.9     11.6     -5.1  -999.25  50.2  295.69 -0.07  0.93  -1321.4 0.30000 
  10.000     40.2  51.7      9.1     42.3     10.8     -1.9  -999.25  49.8  288.44 0.02  0.96  -1321.4 0.40000 
  10.100     40.8  51.7      7.9     42.8     10.7     -3.8  -999.25  52.1  296.49 -0.05  0.96  -1321.4 0.40000 
  10.200     42.9  51.7      6.3     43.2     10.7     -5.8  -999.25  50.2  331.56 0.03  0.98  -1321.4 0.40000 
  10.300     41.8  51.7      5.5     43.5     11.2     -7.0  -999.25  49.6  333.10 -0.05  0.98  -1321.2 0.40000 
  10.400     44.5  51.8      7.2     43.9     11.8     -4.8  -999.25  48.6  346.89 0.04  0.98  -1321.2 0.30000 
  10.500     42.9  51.8      6.7     44.3     11.3     -5.7    604.7  49.0  16.29  -0.06  1.01  -1321.2 0.40000 
  10.600     44.5  51.8      6.6     44.7     11.4     -6.1    611.2  48.8  16.71  0.02  1.01  -1321.2 0.30000 
  10.700     44.5  51.8      5.0     45.0     11.2     -8.6    582.1  48.3  14.16  -0.02  1.01  -1321.2 0.30000 
  10.800     42.9  51.8      5.8     45.4     11.4     -7.9    607.6  48.1  314.47 -0.02  1.03  -1321.2 0.30000 
  10.900     40.8  51.8      6.7     45.7     11.4     -6.4    616.6  48.1  314.18 -0.01  1.05  -1321.2 0.30000 
  11.000     40.2  51.8      8.1     46.1     11.4     -4.6    636.5  47.9  314.18 0.01  1.05  -1321.2 0.20000 
  11.100     40.2  51.8      6.8     46.5     12.5     -6.4    630.2  47.7  319.34 0.05  1.05  -1321.2 0.20000 
  11.200     43.4  51.8      9.4     46.9     11.8     -3.0    654.4  47.3  317.40 -0.09  1.05  -1321.2 0.20000 
  11.300     43.4  51.8      9.8     47.3     11.8     -2.7    656.8  47.3  317.11 0.10  1.06  -1321.2 0.20000 
  11.400     40.8  51.8      7.9     47.7     11.4     -5.3    656.8  46.8  316.70 -0.03  1.06  -1321.2 0.20000 
  11.500     39.2  51.8      6.7     48.0     11.6     -6.8    643.2  46.8  316.67 -0.04  1.06  -1321.2 0.20000 
  11.600     39.7  51.8      8.0     48.1     12.2     -5.2    659.6  45.8  314.69 0.07  1.06  -1321.2 0.10000 
  11.700     41.8  51.8      9.2     48.4     11.7     -3.8    665.1  45.8  315.02 -0.04  1.08  -1321.2 0.20000 
  11.800     43.4  51.8      7.6     48.8     11.8     -6.1    678.4  45.5  315.22 0.03  1.08  -1321.2 0.20000 
  11.900     43.9  51.8      6.3     49.2     11.8     -8.2    674.5  45.5  315.25 -0.09  1.08  -1321.3 0.20000 
  12.000     41.8  51.8      7.1     49.5     12.1     -7.3    695.1  44.8  307.75 0.02  1.08  -1321.4 0.20000 
  12.100     38.6  51.8      7.8     49.6     11.7     -6.2    684.9  44.4  307.48 0.05  1.18  -1321.4 0.20000 
  12.200     37.1  51.8      8.4     49.8     11.7     -5.5    696.7  44.5  307.29 -0.06  1.18  -1321.4 0.20000 
  12.300     38.6  51.8      7.7     50.2     11.7     -6.3    680.2  44.9  307.20 -0.02  1.18  -1321.4 0.20000 
  12.400     40.2  51.8      7.2     50.8     12.1     -7.0    700.6  44.9  275.48 0.03  1.18  -1321.4 0.20000 
  12.500     39.2  51.9      9.3     51.5     11.5     -4.7    695.9  44.8  273.98 0.01  1.09  -1321.4 0.20000 
  12.600     38.6  51.9      8.7     52.1     11.8     -6.1    723.5  44.5  273.17 -0.07  1.10  -1321.4 0.20000 
  12.700     39.7  51.8      8.4     52.8     11.8     -5.8    725.1  45.2  273.11 0.06  1.10  -1321.4 0.20000 
  12.800     40.8  51.9      8.0     53.4     11.6     -5.8    727.4  45.6  259.69 -0.01  1.10  -1321.1 0.20000 
  12.900     43.4  51.9      9.1     54.0     11.6     -4.8    692.2  45.9  254.74 -0.02  1.09  -1321.1 0.20000 
  13.000     42.3  51.9      9.0     54.6     10.9     -5.6    678.2  45.6  253.94 -0.05  1.09  -1321.1 0.20000 
  13.100     43.9  51.9      8.1     55.3     11.3     -7.9    662.3  46.0  253.94 -0.01  1.09  -1321.1 0.20000 
  13.200     43.9  51.9      8.3     56.0     11.6     -8.5    667.7  45.9  255.17 0.06  1.09  -1321.7 0.20000 
  13.300     41.3  51.9      9.9     56.6     12.3     -6.3    649.2  46.1  234.73 -0.04  1.11  -1321.7 0.20000 
  13.400     39.7  51.9     10.8     57.1     12.1     -5.4    646.9  46.6  235.74 0.00  1.12  -1321.7 0.10000 
  13.500     40.2  51.9      9.3     57.8     11.7     -7.4    648.4  46.6  235.74 0.04  1.12  -1321.7 0.20000 
  13.600     39.7  51.9      9.9     58.9     12.0     -6.6    647.7  47.2  229.50 -0.09  1.12  -1321.3 0.20000 
  13.700     37.6  51.9     12.4     60.0     12.2     -3.2    622.6  47.2  127.89 0.05  1.15  -1321.3 0.20000 
  13.800     36.0  51.9     12.1     61.0     11.3     -3.9    640.4  46.8  127.32 -0.06  1.18  -1321.3 0.20000 
  13.900     34.4  51.9     11.1     61.8     12.6     -5.1    667.7  47.0  127.32 -0.01  1.18  -1321.3 0.20000 
  14.000     32.8  51.9      9.8     62.4     12.0     -7.0    657.0  47.0  124.78 0.04  1.18  -1321.4 0.20000 
  14.100     33.9  51.9     11.9     63.1     12.8     -4.5    672.7  47.3  157.49 0.03  1.18  -1321.4 0.20000 
  14.200     34.4  51.9     12.5     63.8     11.8     -4.3    663.3  46.6  158.73 -0.06  1.18  -1321.4 0.20000 
