~Version Information
VERS.                      2.0: CWLS Log ASCII Standard - VERSION 2.0
WRAP.                       NO: One line per depth step
~Well Information Block
STRT.FT               630.0000: 
STOP.FT              1156.0000: 
STEP.FT                 0.2500: 
NULL.                -999.2500: 
COMP.          Pioneer Natural Resources: COMPANY
WELL.          Drewmeister 34-34: WELL
FLD.           Purgatoire River: FIELD
LOC.           958' FSL & 1857' FEL: LOCATION
STAT.                 Colorado: State
CNTY.               Las Animas: COUNTY
CTRY. USA : Country
SECT. 34 : Section
TOWN. 32S : Township
RANG. 65W : Range
SRVC.                Patterson: SERVICE COMPANY
DATE.          Mon Oct 03 23:24:37 2005: LOG DATE
API.           05 071 08131 00: UNIQUE WELL ID
~Curve Information Block
DEPT.FT            0 000 00 00: Depth
SN.Ohm-m                      : IEL Short Normal
SP.mV                         : IEL Spontaneous Potential
DIR.Ohm-m                     : IEL Induction Resistivity
GR.GAPI                       : Gamma Ray
~Parameter Information Block
~A  Depth        SN          SP         DIR          GR     
# ...
   864.5000    790.2709    585.1633     24.2342     75.2100
   864.7500    832.1638    609.1149     22.6122     69.8643
   865.0000    837.7155    642.5521     20.9795     63.3980
   865.2500    811.1965    680.8734     19.4876     61.1340
   865.5000    736.8547    718.4943     18.2517     61.8917
   865.7500    601.9963    750.2972     17.3216     65.3162
   866.0000    425.1222    773.3725     16.6792     73.9858
   866.2500    255.1368    787.6503     16.2569     81.2366
   866.5000    134.2144    795.1122     15.9679     93.0762
   866.7500     68.0609    798.3668     15.7366    101.1952
   867.0000     37.9206    799.5364     15.5171    112.9725
   867.2500     25.9024    799.8788     15.2944    119.8539
   867.5000     22.1744    799.9592     15.0713    127.3531
   867.7500     21.4904    799.9741     14.8554    130.0071
   868.0000     21.0672    799.9761     14.6547    130.7757
   868.2500     20.0537    799.9761     14.4805    129.8638
   868.5000     18.8029    799.9761     14.3495    127.7684
   868.7500     18.0439    799.9761     14.2794    126.3899
   869.0000     18.2355    799.9761     14.2800    124.3221
   869.2500     19.1899    799.9761     14.3466    122.6114
   869.5000     20.2769    799.9761     14.4611    119.1334
   869.7500     21.0984    799.9761     14.5975    116.1792
   870.0000     21.8362    799.9761     14.7274    110.8089
   870.2500     22.8073    799.9761     14.8201    106.6852
   870.5000     23.8654    799.9761     14.8457    100.5218
   870.7500     24.4769    799.9761     14.7843     97.3827
   871.0000     24.3188    799.9761     14.6394     95.8580
   871.2500     23.5493    799.9761     14.4402     97.4998
   871.5000     22.4751    799.9761     14.2276    103.5008
   871.7500     21.2852    799.9761     14.0336    108.9139
   872.0000     20.2063    799.9761     13.8712    117.1431
   872.2500     19.5362    799.9761     13.7385    121.6175
   872.5000     19.3023    799.9761     13.6299    125.2988
   872.7500     19.1753    799.9761     13.5438    125.3017
   873.0000     18.8305    799.9761     13.4845    122.0656
   873.2500     18.2254    799.9761     13.4621    118.4284
   873.5000     17.5466    799.9761     13.4930    111.8272
   873.7500     17.0241    799.9761     13.5999    107.1480
   874.0000     16.8119    799.9761     13.8094    100.3908
   874.2500     16.9555    799.9761     14.1458     96.3069
   874.5000     17.4378    799.9761     14.6246     91.0933
   874.7500     18.2662    799.9761     15.2492     88.4306
   875.0000     19.4696    799.9761     16.0136     85.7428
   875.2500     21.0139    799.9761     16.9075     84.4210
   875.5000     22.7067    799.9761     17.9189     81.8900
   875.7500     24.2114    799.9761     19.0262     79.3329
   876.0000     25.2937    799.9761     20.1840     74.5106
   876.2500     26.0336    799.9761     21.3106     71.3682
   876.5000     26.6805    799.9761     22.2920     67.9999
   876.7500     27.4186    799.9761     23.0120     67.0156
   877.0000     28.3157    799.9761     23.4001     67.3241
   877.2500     29.2848    799.9761     23.4661     68.2636
   877.5000     30.1854    799.9761     23.2916     69.5963
   877.7500     31.0681    799.9761     22.9874     69.9136
   878.0000     32.1245    799.9761     22.6512     69.6249
   878.2500     33.4230    799.9761     22.3472     69.5230
   878.5000     34.7738    799.9755     22.0986     70.6857
   878.7500     35.7136    799.9679     21.8860     72.7658
   879.0000     35.4732    799.9227     21.6554     78.1746
   879.2500     33.1741    799.7137     21.3374     83.4757
   879.5000     28.7712    798.9435     20.8719     94.1879
   879.7500     24.0287    796.6688     20.2261    102.9556
   880.0000     22.7619    791.2597     19.4045    116.8590
   880.2500     31.3440    780.7952     18.4499    124.7341
   880.5000     58.0094    764.0428     17.4328    130.6916
   880.7500    106.9419    741.2479     16.4321    129.5176
   881.0000    171.2650    714.0092     15.5151    121.2971
   881.2500    233.0279    684.8787     14.7304    113.8816
   881.5000    268.9190    657.7292     14.1096    104.1453
   881.7500    265.4343    638.0828     13.6739     99.9596
   882.0000    236.5353    631.5248     13.4366     97.1132
   882.2500    209.3621    640.5063     13.3984     96.6981
   882.5000    191.0530    662.3174     13.5347     97.0538
   882.7500    168.8484    690.2385     13.7839     97.5637
   883.0000    135.6199    717.0391     14.0510     97.9235
   883.2500    100.5649    738.1874     14.2401     96.9683
   883.5000     78.1168    752.8287     14.3004     92.2671
   883.7500     72.0066    762.7057     14.2486     87.0523
   884.0000     71.8030    770.3958     14.1466     78.3776
   884.2500     65.6204    777.7697     14.0622     73.8737
   884.5000     52.5312    785.1326     14.0466     71.3217
   884.7500     39.5550    791.5399     14.1335     72.7392
   885.0000     31.2843    796.0225     14.3425     78.5919
   885.2500     27.2833    798.4777     14.6793     84.0180
   885.5000     25.8102    799.5226     15.1284     92.7602
   885.7500     25.5534    799.8675     15.6482     98.1335
   886.0000     25.7152    799.9557     16.1724    104.5416
   886.2500     26.3761    799.9734     16.6246    107.5741
   886.5000     27.9536    799.9761     16.9418    110.4706
   886.7500     30.2342    799.9761     17.0987    111.3941
   887.0000     33.1243    799.9761     17.1153    111.3262
   887.2500     38.0756    799.9761     17.0425    110.4215
   887.5000     45.1616    799.9761     16.9346    108.1504
   887.7500     49.0600    799.9761     16.8267    106.3497
   888.0000     44.8645    799.9761     16.7315    103.9637
   888.2500     36.0250    799.9761     16.6549    102.9202
   888.5000     29.3315    799.9761     16.6155    101.9684
   888.7500     26.7639    799.9761     16.6484    101.1623
   889.0000     26.3598    799.9761     16.7845     98.7757
   889.2500     26.1805    799.9761     17.0230     96.3782
   889.5000     25.4317    799.9761     17.3209     92.4654
   889.7500     24.1121    799.9761     17.6115     90.3535
   890.0000     22.7658    799.9761     17.8400     88.8163
   890.2500     22.1558    799.9761     17.9911     89.1179
   890.5000     22.7103    799.9761     18.0888     91.6188
   890.7500     24.1006    799.9761     18.1744     94.5073
   891.0000     25.3678    799.9761     18.2836     99.9475
   891.2500     25.7071    799.9761     18.4300    103.5207
   891.5000     25.0704    799.9761     18.5985    107.1829
   891.7500     23.8905    799.9761     18.7479    107.9547
   892.0000     22.6572    799.9761     18.8272    107.2059
   892.2500     21.7796    799.9761     18.8020    106.4075
   892.5000     21.4219    799.9761     18.6748    105.9271
   892.7500     21.5290    799.9761     18.4848    105.8980
   893.0000     22.0696    799.9761     18.2867    105.0593
   893.2500     23.0227    799.9761     18.1281    103.5802
   893.5000     24.1528    799.9761     18.0367    100.7098
   893.7500     25.0845    799.9761     18.0175     99.1840
   894.0000     25.6164    799.9761     18.0555     98.1708
   894.2500     25.8019    799.9761     18.1214     98.0857
   894.5000     25.7841    799.9761     18.1824     98.1488
   894.7500     25.6856    799.9761     18.2144     98.3141
   895.0000     25.6029    799.9761     18.2103     99.3059
   895.2500     25.6067    799.9761     18.1792    100.5717
   895.5000     25.7353    799.9761     18.1416    102.7129
   895.7500     25.9500    799.9761     18.1257    103.7652
   896.0000     26.1290    799.9761     18.1672    104.5590
   896.2500     26.1715    799.9761     18.3067    105.0147
   896.5000     26.0393    799.9761     18.5811    106.7618
   896.7500     25.7225    799.9761     19.0090    108.8896
   897.0000     25.3105    799.9761     19.5745    112.3031
   897.2500     25.0844    799.9761     20.2198    113.3493
   897.5000     25.5091    799.9761     20.8605    111.3082
   897.7500     27.5157    799.9761     21.4232    107.5568
