~Version Information
 VERS.                                  2.0 : CWLS LAS VERSION
 WRAP.                                   NO : WRAPING MODE
 SWARE .                 MController 2.5.0E : SOFTWARE VERSION
~Well Information
 WELL.                         Burson 8-31r : WELL
 COMP.                      Petrogulf CORP. : COMPANY
 FLD.                       Purgatory River : FIELD
 LOC.                        NWNE 8 33S 67W : LOCATION
 DATE.                         4/28-4/29/04 : DATE(S) LOGGED
 SRVC.                                  BGS : SERVICE COMPANY
 STAT.                             Colorado : STATE
 CNTY.                           Las Animas : COUNTY
 CTRY.                        United States : COUNTRY
 API.                       05-071-08039-00 : API NUMBER
 STRT.FT                              41.00 : START DEPTH
 STOP.FT                            2225.00 : STOP DEPTH
 STEP.FT                               1.00 : DEPTH INCREMENT
 NULL.                                -9999 : NULL VALUE
~Curve information
 DEPTH.FT                                   :
 ROP.MIN/FT                                 :
 GAS.UNITS                                  :
~ASCII Log data
# ...
     1841.00        0.267         19.7 
     1842.00        0.333         19.5 
     1843.00        0.367         17.8 
     1844.00        0.400         15.9 
     1845.00        0.367         15.5 
     1846.00        0.317         14.5 
     1847.00        0.400         13.1 
     1848.00        0.300         13.0 
     1849.00        0.400         13.3 
     1850.00        0.533         12.6 
     1851.00        0.500         10.8 
     1852.00        0.267          8.0 
     1853.00        0.300          7.9 
     1854.00        0.300          9.3 
     1855.00        0.317          8.9 
     1856.00        5.817        199.4 
     1857.00        0.133         99.1 
     1858.00        0.467         98.5 
     1859.00        0.350         82.1 
     1860.00        0.367         70.5 
     1861.00        0.300         57.3 
     1862.00        0.333         50.8 
     1863.00        0.367         45.5 
     1864.00        0.367         37.9 
     1865.00        0.333         31.9 
     1866.00        0.267         27.3 
     1867.00        0.267         24.4 
     1868.00        0.300         22.4 
     1869.00        0.250         22.4 
     1870.00        0.267         24.6 
     1871.00        0.267         26.0 
     1872.00        0.333         28.8 
     1873.00        0.333         28.6 
     1874.00        0.367         28.4 
     1875.00        0.333         29.8 
     1876.00        0.333         29.9 
     1877.00        0.267         31.1 
     1878.00        0.300         31.4 
     1879.00        0.300         31.7 
     1880.00        0.283         31.5 
     1881.00        0.300         30.7 
     1882.00        0.267         30.9 
     1883.00        0.300         34.3 
     1884.00        0.300         35.8 
     1885.00        0.300         35.2 
     1886.00        6.900        202.3 
     1887.00        0.200        100.3 
     1888.00        0.300         97.6 
     1889.00        0.333         88.9 
     1890.00        0.333         77.6 
     1891.00        0.267         66.5 
     1892.00        0.350         58.7 
     1893.00        0.300         52.7 
     1894.00        0.300         49.0 
     1895.00        0.433         45.4 
     1896.00        0.333         39.6 
     1897.00        0.300         37.2 
     1898.00        0.367         33.2 
     1899.00        0.333         29.1 
     1900.00        0.300         26.5 
     1901.00        0.400         24.4 
     1902.00        0.383         21.7 
     1903.00        0.433         19.8 
     1904.00        0.400         18.1 
     1905.00        0.433         17.7 
     1906.00        0.467         16.8 
     1907.00        0.500         15.3 
     1908.00        0.300         14.7 
     1909.00        0.367         14.0 
     1910.00        0.450         14.1 
     1911.00        0.433         13.7 
     1912.00        0.433         11.7 
     1913.00        0.433         11.2 
     1914.00        0.467         11.4 
     1915.00        0.467         11.3 
     1916.00        5.267        274.2 
     1917.00        0.267        129.9 
     1918.00        0.700        115.1 
     1919.00        0.567         74.7 
     1920.00        0.533         52.0 
     1921.00        0.550         36.5 
     1922.00        0.433         30.0 
     1923.00        0.433         35.3 
     1924.00        0.400         45.0 
     1925.00        0.333         47.5 
     1926.00        0.400         49.5 
     1927.00        0.367         49.9 
     1928.00        0.367         51.4 
     1929.00        0.383         52.0 
     1930.00        0.333         51.6 
     1931.00        0.367         50.1 
     1932.00        0.367         48.2 
     1933.00        0.333         47.8 
     1934.00        0.300         49.8 
     1935.00        0.367         50.2 
     1936.00        0.333         48.6 
     1937.00        0.333         46.6 
     1938.00        0.367         44.9 
     1939.00        0.350         45.3 
     1940.00        0.367         46.9 
     1941.00        0.367         48.2 
     1942.00        0.400         46.4 
     1943.00        0.433         44.2 
     1944.00        0.433         43.5 
     1945.00        0.500         44.1 
     1946.00        4.967        216.0 
     1947.00        0.367        101.4 
     1948.00        0.467         87.1 
     1949.00        0.367         72.2 
     1950.00        0.333         60.2 
     1951.00        0.333         52.7 
     1952.00        0.267         49.5 
     1953.00        0.317         48.0 
     1954.00        0.333         44.7 
     1955.00        0.300         43.9 
     1956.00        0.267         43.6 
     1957.00        0.300         42.7 
     1958.00        0.300         42.1 
     1959.00        0.367         41.9 
     1960.00        0.333         37.9 
     1961.00        0.433         36.4 
     1962.00        0.333         31.9 
     1963.00        0.350         29.1 
     1964.00        0.333         26.3 
     1965.00        0.333         23.5 
     1966.00        0.333         22.3 
     1967.00        0.367         21.7 
     1968.00        0.367         20.1 
     1969.00        0.400         19.2 
     1970.00        0.333         17.7 
     1971.00        0.467         17.7 
     1972.00        0.333         19.0 
     1973.00        0.350         20.8 
     1974.00        0.267         20.7 
     1975.00        0.267         17.6 
     1976.00        5.417        219.2 
     1977.00        0.267         93.9 
     1978.00        0.617         84.9 
     1979.00        0.533         62.0 
     1980.00        0.333         48.0 
     1981.00        0.267         45.9 
     1982.00        0.267         44.2 
     1983.00        0.333         42.0 
     1984.00        0.367         38.8 
     1985.00        0.400         34.7 
     1986.00        0.450         31.2 
     1987.00        0.267         27.8 
     1988.00        0.267         24.8 
     1989.00        0.333         24.5 
     1990.00        0.300         21.6 
     1991.00        0.333         20.4 
     1992.00        0.333         19.4 
     1993.00        0.333         20.2 
     1994.00        0.300         20.4 
     1995.00        0.300         20.3 
     1996.00        0.433         17.8 
     1997.00        0.450         17.2 
     1998.00        0.467         19.9 
     1999.00        0.300         25.9 
     2000.00        0.333         31.8 
     2001.00        0.300         31.7 
     2002.00        0.233         29.5 
     2003.00        0.333         24.8 
     2004.00        0.300         21.3 
     2005.00        0.333         16.1 
     2006.00        6.767        449.9 
     2007.00        0.100         75.5 
     2008.00        0.350         72.4 
     2009.00        0.467         59.7 
     2010.00        0.367         43.8 
     2011.00        0.333         43.3 
     2012.00        0.300         45.3 
     2013.00        0.267         46.4 
     2014.00        0.267         44.9 
     2015.00        0.333         43.1 
     2016.00        0.300         42.4 
     2017.00        0.300         41.8 
     2018.00        0.283         40.4 
     2019.00        0.300         38.9 
     2020.00        0.267         35.0 
     2021.00        0.300         29.2 
     2022.00        0.300         23.5 
     2023.00        0.233         22.0 
     2024.00        0.267         23.0 
     2025.00        0.200         25.6 
     2026.00        0.200         27.5 
     2027.00        0.200         28.6 
     2028.00        0.233         28.2 
     2029.00        0.300         30.7 
     2030.00        0.267         34.8 
     2031.00        0.233         35.1 
     2032.00        0.250         32.5 
     2033.00        0.167         28.2 
     2034.00        0.200         28.5 
     2035.00        0.233         32.6 
     2036.00        4.317        234.7 
     2037.00        0.367         93.2 
     2038.00        0.167         79.4 
     2039.00        0.267         71.5 
     2040.00        0.333         59.2 
