~Version Information
 VERS.                                  2.0 : CWLS LAS VERSION
 WRAP.                                   NO : WRAPING MODE
 SWARE .                  MController 2.6.3 : SOFTWARE VERSION
~Well Information
 WELL.                        Chevron 13-13 : WELL
 COMP.    Pioneer Natural Resources USA Inc : COMPANY
 FLD.                      Purgatoire River : FIELD
 LOC.                NW/SW Sec 13 T32S R66W : LOCATION
 DATE.                         2/10-11/2007 : DATE(S) LOGGED
 SRVC.        Ismay Geological Services Ltd : SERVICE COMPANY
 STAT.                                   CO : STATE
 CNTY.                           Las Animas : COUNTY
 CTRY.                                  USA : COUNTRY
 API.                          05-071-08319 : API NUMBER
 STRT.FT                             985.00 : START DEPTH
 STOP.FT                            2410.00 : STOP DEPTH
 STEP.FT                               1.00 : DEPTH INCREMENT
 NULL.                                -9999 : NULL VALUE
~Curve information
 DEPTH.FT                                   :
 ROP.MIN/FT                                 :
 GAS.UNITS                                  :
~ASCII Log data
# ...
     1085.00         0.20         59.7 
     1086.00         0.20         59.1 
     1087.00         0.20         58.9 
     1088.00         0.20         58.9 
     1089.00         0.20         59.2 
     1090.00         0.20         59.5 
     1091.00         0.22         53.1 
     1092.00         0.17         53.1 
     1093.00         0.17         33.1 
     1094.00         0.17         33.0 
     1095.00         0.13         33.0 
     1096.00         0.13         37.3 
     1097.00         0.17         60.8 
     1098.00         0.17         85.9 
     1099.00         0.17         85.9 
     1100.00         0.17        109.8 
     1101.00         1.37        281.4 
     1102.00         0.58        149.0 
     1103.00         0.43         98.0 
     1104.00         0.20         77.5 
     1105.00         0.27         74.4 
     1106.00         0.20         69.8 
     1107.00         0.13         69.1 
     1108.00         0.10         67.2 
     1109.00         0.20         66.0 
     1110.00         0.20         63.6 
     1111.00         0.20         62.5 
     1112.00         0.17         61.2 
     1113.00         0.20         59.2 
     1114.00         0.20         57.9 
     1115.00         0.20         57.7 
     1116.00         0.17         57.8 
     1117.00         0.17         57.2 
     1118.00         0.13         57.2 
     1119.00         0.18         57.5 
     1120.00         0.13         57.3 
     1121.00         0.10         57.3 
     1122.00         0.17         55.4 
     1123.00         0.13         55.4 
     1124.00         0.20         36.6 
     1125.00         0.13         32.7 
     1126.00         0.20         42.8 
     1127.00         0.20         67.5 
     1128.00         0.23         67.5 
     1129.00         0.17         89.1 
     1130.00         0.20        132.2 
     1131.00         1.38        190.3 
     1132.00         0.57        131.4 
     1133.00         0.40         79.5 
     1134.00         0.30         92.0 
     1135.00         0.30         93.2 
     1136.00         0.23         88.5 
     1137.00         0.17         85.0 
     1138.00         0.13         81.6 
     1139.00         0.20         79.6 
     1140.00         0.17         76.6 
     1141.00         0.13         76.2 
     1142.00         0.20         73.7 
     1143.00         0.20         66.5 
     1144.00         0.17         41.3 
     1145.00         0.18         38.8 
     1146.00         0.17         25.8 
     1147.00         0.20         20.0 
     1148.00         0.13         19.4 
     1149.00         0.17         16.5 
     1150.00         0.17         14.8 
     1151.00         0.13         14.8 
     1152.00         0.17         13.9 
     1153.00         0.13         12.3 
     1154.00         0.10         12.3 
     1155.00         0.13         12.3 
     1156.00         0.13         10.8 
     1157.00         0.13          9.7 
     1158.00         0.17         10.6 
     1159.00         0.17          9.9 
     1160.00         0.37         12.8 
     1161.00         0.77         20.2 
     1162.00         0.35         27.4 
     1163.00         0.20         30.7 
     1164.00         0.33         31.4 
     1165.00         0.37         28.6 
     1166.00         0.13         26.4 
     1167.00         0.33         24.2 
     1168.00         0.23         17.3 
     1169.00         0.27         18.2 
     1170.00         0.20         15.1 
     1171.00         0.20         13.8 
     1172.00         0.20         12.4 
     1173.00         0.20         11.7 
     1174.00         0.17         10.7 
     1175.00         0.13          8.9 
     1176.00         0.18          8.9 
     1177.00         0.13          8.2 
     1178.00         0.20          8.5 
     1179.00         0.33          7.5 
     1180.00         0.13          7.2 
     1181.00         0.27          6.8 
     1182.00         0.13          5.8 
     1183.00         0.13          4.9 
     1184.00         0.17          4.8 
     1185.00         0.17          4.8 
     1186.00         0.13          3.0 
     1187.00         0.27          2.8 
     1188.00         0.10          2.6 
     1189.00         0.17          2.2 
     1190.00         0.27          4.1 
     1191.00         1.08          6.6 
     1192.00         0.23          8.2 
     1193.00         0.40         10.2 
     1194.00         0.33         10.1 
     1195.00         0.27         10.7 
     1196.00         0.17         10.2 
     1197.00         0.13         10.0 
     1198.00         0.20          9.6 
     1199.00         0.30         10.5 
     1200.00         0.17          9.9 
     1201.00         0.20          9.5 
     1202.00         0.17          9.0 
     1203.00         0.17          8.7 
     1204.00         0.17          7.5 
     1205.00         0.12          7.9 
     1206.00         0.10          7.6 
     1207.00         0.13          7.6 
     1208.00         0.13          8.0 
     1209.00         0.10          7.6 
     1210.00         0.13          7.8 
     1211.00         0.33          6.3 
     1212.00         0.40          6.8 
     1213.00         0.27          6.1 
     1214.00         0.17          6.1 
     1215.00         0.13          5.4 
     1216.00         0.17          4.8 
     1217.00         0.30          5.1 
     1218.00         0.17          4.6 
     1219.00         0.27          4.9 
     1220.00         0.27          4.8 
     1221.00         1.32         11.2 
     1222.00         0.47         13.0 
     1223.00         0.40         12.4 
     1224.00         0.23         10.8 
     1225.00         0.20         10.0 
     1226.00         0.20         11.1 
     1227.00         0.20         11.1 
     1228.00         0.23          9.6 
     1229.00         0.20          8.6 
     1230.00         0.25          8.6 
     1231.00         0.23          8.3 
     1232.00         0.20          7.9 
     1233.00         0.23          6.3 
     1234.00         0.20          7.4 
     1235.00         0.23          6.6 
     1236.00         0.23          5.7 
     1237.00         0.23          6.3 
     1238.00         0.20          6.1 
     1239.00         0.27          6.2 
     1240.00         0.37          6.2 
     1241.00         0.23          5.6 
     1242.00         0.23          5.6 
     1243.00         0.23          5.3 
     1244.00         0.22          5.1 
     1245.00         0.17          4.8 
     1246.00         0.20          3.9 
     1247.00         0.20          4.2 
     1248.00         0.23          3.6 
     1249.00         0.17          3.7 
     1250.00         0.20          4.3 
     1251.00         0.57          4.6 
     1252.00         1.58         11.0 
     1253.00         0.33         10.9 
     1254.00         0.30         10.5 
     1255.00         0.30         10.1 
     1256.00         0.30          9.0 
     1257.00         0.23          8.4 
     1258.00         0.20          9.0 
     1259.00         0.17          7.6 
     1260.00         0.20          7.6 
     1261.00         0.17          7.1 
     1262.00         0.17          6.7 
     1263.00         0.20          7.1 
     1264.00         0.17          7.0 
     1265.00         0.13          6.6 
     1266.00         0.17          6.6 
     1267.00         0.17          6.7 
     1268.00         0.22          7.4 
     1269.00         0.13          6.2 
     1270.00         0.20          6.2 
     1271.00         0.20          6.3 
     1272.00         0.17          6.3 
     1273.00         0.17          7.3 
     1274.00         0.17          7.3 
     1275.00         0.17          6.8 
     1276.00         0.17          6.8 
     1277.00         0.17          5.4 
     1278.00         0.17          4.7 
     1279.00         0.20          5.7 
     1280.00         0.20          7.1 
     1281.00         1.42         19.4 
     1282.00         0.57         21.8 
     1283.00         0.30         22.6 
     1284.00         0.27         22.0 
