~Version Information
VERS.                      2.0: CWLS Log ASCII Standard - VERSION 2.0
WRAP.                       NO: One line per depth step
~Well Information Block
STRT.FT               483.5000: 
STOP.FT              2348.7500: 
STEP.FT                 0.2500: 
NULL.                -999.2500: 
COMP.          Pioneer Natural Resources: COMPANY
WELL.          Hill Climb 22-2: WELL
FLD.           Purgatoire River: FIELD
LOC.           1820' FNL & 2193' FWL: LOCATION
PROV.                 Colorado: PROVINCE
CNTY.               Las Animas: COUNTRY
SRVC.                Patterson: SERVICE COMPANY
DATE.          Wed Oct 20 08:57:51 2004: LOG DATE
UWI.           05 071 08175 00: UNIQUE WELL ID
~Curve Information Block
DEPT.FT            0 000 00 00: Depth
DIR.Ohm-m                     : IEL Induction Resistivity
SN.Ohm-m                      : IEL Short Normal
SP.mV                         : IEL Spontaneous Potential
GR.GAPI                       : Gamma Ray
~Parameter Information Block
~A  Depth       DIR          SN          SP          GR     
# ...
  1957.5000      0.0000      0.0000      0.0000     95.9680
  1957.7500      0.0000      0.0000      0.0000     92.6888
  1958.0000      0.0000      0.0000      0.0000     87.6307
  1958.2500      0.0000      0.0000      0.0000     85.7075
  1958.5000      0.0000      0.0000      0.0000     86.0043
  1958.7500      0.0000      0.0000      0.0000     88.1047
  1959.0000      0.0000      0.0000      0.0000     93.6161
  1959.2500      0.0000      0.0000      0.0000     98.5723
  1959.5000      0.0000      0.0000      0.0000    106.4988
  1959.7500      0.0000      0.0000      0.0000    110.7414
  1960.0000      0.0000      0.0000      0.0000    113.6915
  1960.2500      0.0000      0.0000      0.0000    113.1202
  1960.5000      0.0000      0.0000      0.0000    109.0029
  1960.7500      0.0000      0.0000      0.0000    104.5805
  1961.0000      0.0000      0.0000      0.0000     96.7292
  1961.2500      0.0000      0.0000      0.0000     91.8174
  1961.5000      0.0000      0.0000      0.0000     86.6913
  1961.7500      0.0000      0.0000      0.0000     85.0322
  1962.0000      0.0000      0.0000      0.0000     84.2692
  1962.2500      0.0000      0.0000      0.0000     84.1246
  1962.5000      0.0000      0.0000      0.0000     83.4963
  1962.7500      0.0000      0.0000      0.0000     82.5943
  1963.0000      0.0000      0.0000      0.0000     80.5654
  1963.2500      0.0000      0.0000      0.0000     78.9056
  1963.5000      0.0000      0.0000      0.0000     76.3986
  1963.7500      0.0000      0.0000      0.0000     75.0820
  1964.0000      0.0000      0.0000      0.0000     74.0819
  1964.2500      0.0000      0.0000      0.0000     74.1187
  1964.5000      0.0000      0.0000      0.0000     75.4428
  1964.7500      0.0000      0.0000      0.0000     77.5850
  1965.0000      0.0000      0.0000      0.0000     83.3197
  1965.2500      0.0000      0.0000      0.0000     88.5739
  1965.5000      0.0000      0.0000      0.0000     96.8287
  1965.7500      0.0000      0.0000      0.0000    101.3334
  1966.0000      0.0000      0.0000      0.0000    105.5235
  1966.2500      0.0000      0.0000      0.0000    106.8198
  1966.5000      0.0000      0.0000      0.0000    107.5944
  1966.7500      0.0000      0.0000      0.0000    107.9207
  1967.0000      0.0000      0.0000      0.0000    108.6778
  1967.2500      0.0000      0.0000      0.0000    109.2194
  1967.5000      0.0000      0.0000      0.0000    108.8173
  1967.7500      0.0000      0.0000      0.0000    106.7254
  1968.0000      0.0000      0.0000      0.0000    100.0927
  1968.2500      0.0000      0.0000      0.0000     94.0508
  1968.5000      0.0000      0.0000      0.0000     85.6000
  1968.7500      0.0000      0.0000      0.0000     82.3342
  1969.0000      0.0000      0.0000      0.0000     82.4638
  1969.2500      0.0000      0.0000      0.0000     85.2960
  1969.5000      0.0000      0.0000      0.0000     91.8637
  1969.7500      0.0000      0.0000      0.0000     97.2737
  1970.0000      0.0000      0.0000      0.0000    106.4750
  1970.2500      0.0000      0.0000      0.0000    112.5062
  1970.5000      0.0000      0.0000      0.0000    119.2578
  1970.7500      0.0000      0.0000      0.0000    121.4773
  1971.0000      0.0000      0.0000      0.0000    121.7708
  1971.2500      0.0000      0.0000      0.0000    120.6857
  1971.5000      0.0000      0.0000      0.0000    118.3140
  1971.7500      0.0000      0.0000      0.0000    116.8358
  1972.0000      0.0000      0.0000      0.0000    115.6182
  1972.2500      0.0000      0.0000      0.0000    115.5618
  1972.5000      0.0000      0.0000      0.0000    115.9203
  1972.7500      0.0000      0.0000      0.0000    116.0226
  1973.0000      0.0000      0.0000      0.0000    116.0772
  1973.2500      0.0000      0.0000      0.0000    116.6575
  1973.5000      0.0000      0.0000      0.0000    119.5845
  1973.7500      0.0000      0.0000      0.0000    123.0867
  1974.0000      0.0000      0.0000      0.0000    129.0942
  1974.2500      0.0000      0.0000      0.0000    131.8518
  1974.5000      0.0000      0.0000      0.0000    131.6134
  1974.7500      0.0000      0.0000      0.0000    128.2018
  1975.0000      0.0000      0.0000      0.0000    119.6620
  1975.2500      0.0000      0.0000      0.0000    113.3554
  1975.5000      0.0000      0.0000      0.0000    106.3316
  1975.7500      0.0000      0.0000      0.0000    104.6651
  1976.0000      0.0000      0.0000      0.0000    106.5975
  1976.2500      0.0000      0.0000      0.0000    109.3726
  1976.5000      0.0000      0.0000      0.0000    112.7479
  1976.7500      0.0000      0.0000      0.0000    113.5209
  1977.0000      0.0000      0.0000      0.0000    112.6745
  1977.2500      0.0000      0.0000      0.0000    111.4035
  1977.5000      0.0000      0.0000      0.0000    109.4030
  1977.7500      0.0000      0.0000      0.0000    108.4589
  1978.0000      0.0000      0.0000      0.0000    108.2590
  1978.2500      0.0000      0.0000      0.0000    108.9712
  1978.5000      0.0000      0.0000      0.0000    110.6064
  1978.7500      0.0000      0.0000      0.0000    111.7032
  1979.0000      0.0000      0.0000      0.0000    113.7052
  1979.2500      0.0000      0.0000      0.0000    115.7308
  1979.5000      0.0000      0.0000      0.0000    119.4647
  1979.7500      0.0000      0.0000      0.0000    121.4834
  1980.0000      0.0000      0.0000      0.0000    122.7454
  1980.2500      0.0000      0.0000      0.0000    122.8672
  1980.5000      0.0000      0.0000      0.0000    123.4935
  1980.7500      0.0000      0.0000      0.0000    124.3017
  1981.0000      0.0000      0.0000      0.0000    124.3407
  1981.2500      0.0000      0.0000      0.0000    122.3300
  1981.5000      0.0000      0.0000      0.0000    115.6023
  1981.7500      0.0000      0.0000      0.0000    109.5532
  1982.0000      0.0000      0.0000      0.0000    100.9910
  1982.2500      0.0000      0.0000      0.0000     96.8132
  1982.5000      0.0000      0.0000      0.0000     92.5240
  1982.7500      0.0000      0.0000      0.0000     90.0002
  1983.0000      0.0000      0.0000      0.0000     85.9260
  1983.2500      0.0000      0.0000      0.0000     83.2541
  1983.5000      0.0000      0.0000      0.0000     79.5154
  1983.7500      0.0000      0.0000      0.0000     77.0084
  1984.0000      0.0000      0.0000      0.0000     73.4725
  1984.2500      0.0000      0.0000      0.0000     71.9503
  1984.5000      0.0000      0.0000      0.0000     71.8158
  1984.7500      0.0000      0.0000      0.0000     72.9790
  1985.0000      0.0000      0.0000      0.0000     75.3081
  1985.2500      0.0000      0.0000      0.0000     76.2506
  1985.5000      0.0000      0.0000      0.0000     75.3522
  1985.7500      0.0000      0.0000      0.0000     73.1859
  1986.0000      0.0000      0.0000      0.0000     69.1027
  1986.2500      0.0000      0.0000      0.0000     66.7046
  1986.5000      0.0000      0.0000      0.0000     63.6951
  1986.7500      0.0000      0.0000      0.0000     61.8532
  1987.0000      0.0000      0.0000      0.0000     59.9064
  1987.2500      0.0000      0.0000      0.0000     59.7131
  1987.5000      0.0000      0.0000      0.0000     60.8892
  1987.7500      0.0000      0.0000      0.0000     61.8517
  1988.0000      0.0000      0.0000      0.0000     62.3243
  1988.2500      0.0000      0.0000      0.0000     61.8758
  1988.5000      0.0000      0.0000      0.0000     60.8917
  1988.7500      0.0000      0.0000      0.0000     60.9698
  1989.0000      0.0000      0.0000      0.0000     64.3260
  1989.2500      0.0000      0.0000      0.0000     69.9002
  1989.5000      0.0000      0.0000      0.0000     83.6090
  1989.7500      0.0000      0.0000      0.0000     94.8288
  1990.0000      0.0000      0.0000      0.0000    110.2275
  1990.2500      0.0000      0.0000      0.0000    117.3231
  1990.5000      0.0000      0.0000      0.0000    122.5309
  1990.7500      0.0000      0.0000      0.0000    123.4906
