~Version Information
VERS.                      2.0: CWLS Log ASCII Standard - VERSION 2.0
WRAP.                       NO: One line per depth step
~Well Information Block
STRT.FT               236.5000: 
STOP.FT              2818.2500: 
STEP.FT                 0.2500: 
NULL.                -999.2500: 
COMP.          Pioneer Natural Resources: COMPANY
WELL.            Sebring 42-29: WELL
FLD.           Purgatorie River: FIELD
LOC.           1751' FNL & 584' FEL--: LOCATION
PROV.                       CO: PROVINCE
CNTY.               Las Animas: COUNTRY
SRVC.          Patterson Wireline: SERVICE COMPANY
DATE.          Fri Aug 26 09:14:13 2005: LOG DATE
UWI.           05 071 08293 00: UNIQUE WELL ID
~Curve Information Block
DEPT.FT            0 000 00 00: Depth
CCL.                          : Casing Collar Locator
TT3.usec                      : CBL 3' Travel Time
AMP3.mV                       : CBL 3' Amplitude
GR.GAPI                       : Gamma Ray
~Parameter Information Block
~A  Depth       CCL         TT3         AMP3         GR     
# ...
  1777.5000      0.0000    532.9905      7.5147    136.7609
  1777.7500      0.0000    541.7782      7.5236    138.8251
  1778.0000      0.0000    557.9970      7.5350    139.0301
  1778.2500      0.0000    578.5964      7.5557    136.9707
  1778.5000      0.0000    599.7720      7.5993    134.1065
  1778.7500      0.0000    618.7786      7.6757    132.1729
  1779.0000      0.0000    635.8447      7.7853    131.4207
  1779.2500      0.0000    653.7170      7.9208    130.6380
  1779.5000      0.0000    674.6337      8.0730    128.8228
  1779.7500      0.0000    697.6160      8.2324    126.6005
  1780.0000      0.0000    718.8398      8.3888    125.9699
  1780.2500      0.0000    734.2252      8.5316    128.6106
  1780.5000      0.0000    741.4941      8.6535    133.9988
  1780.7500      0.0000    740.4791      8.7527    139.0675
  1781.0000      0.0000    732.6871      8.8313    140.2692
  1781.2500      0.0000    721.5399      8.8912    136.3274
  1781.5000      0.0000    712.9334      8.9309    128.8352
  1781.7500      0.0000    713.3069      8.9482    120.4328
  1782.0000      0.0000    724.5084      8.9465    113.0723
  1782.2500      0.0000    740.4888      8.9354    108.0762
  1782.5000      0.0000    750.9213      8.9240    106.5832
  1782.7500      0.0000    749.2277      8.9140    108.7001
  1783.0000      0.0000    737.7719      8.9030    112.4652
  1783.2500      0.0000    725.8103      8.8896    114.7491
  1783.5000      0.0000    722.2966      8.8718    113.5159
  1783.7500      0.0000    730.0113      8.8411    108.9432
  1784.0000      0.0000    745.2833      8.7822    102.5980
  1784.2500      0.0000    761.5482      8.6848     96.1867
  1784.5000      0.0000    773.0670      8.5535     90.9225
  1784.7500      0.0000    776.8198      8.4058     87.2206
  1785.0000      0.0000    771.9315      8.2599     84.5366
  1785.2500      0.0000    757.5331      8.1292     81.7430
  1785.5000      0.0000    731.3544      8.0277     77.8902
  1785.7500      0.0000    690.5262      7.9774     72.6294
  1786.0000      0.0000    634.2595      7.9978     66.0929
  1786.2500      0.0000    567.0208      8.0788     58.6994
  1786.5000      0.0000    499.4106      8.1667     51.1361
  1786.7500      0.0000    443.8780      8.1915     44.3733
  1787.0000      0.0000    408.0400      8.1213     39.5157
  1787.2500      0.0000    392.6292      7.9888     37.4601
  1787.5000      0.0000    396.2636      7.8555     38.4892
  1787.7500      0.0000    420.7455      7.7550     42.1799
  1788.0000      0.0000    469.5321      7.6756     47.7390
  1788.2500      0.0000    539.4416      7.5902     54.4002
  1788.5000      0.0000    614.8537      7.4887     61.5021
  1788.7500      0.0000    673.5645      7.3829     68.4383
  1789.0000      0.0000    700.8865      7.2945     74.8774
  1789.2500      0.0000    698.4393      7.2405     80.9377
  1789.5000      0.0000    679.9517      7.2279     86.6990
  1789.7500      0.0000    659.3456      7.2566     91.4558
  1790.0000      0.0000    641.6690      7.3227     93.9810
  1790.2500      0.0000    623.4230      7.4145     93.7916
  1790.5000      0.0000    600.2490      7.5065     91.9003
  1790.7500      0.0000    573.4395      7.5672     90.2372
  1791.0000      0.0000    549.0925      7.5774     90.6020
  1791.2500      0.0000    532.5471      7.5439     94.1033
  1791.5000      0.0000    525.1899      7.4947    100.9865
  1791.7500      0.0000    526.0366      7.4591    110.5131
  1792.0000      0.0000    534.5760      7.4510    121.0331
  1792.2500      0.0000    550.8829      7.4753    130.4115
  1792.5000      0.0000    573.1035      7.5498    136.7079
  1792.7500      0.0000    596.2053      7.7108    138.9994
  1793.0000      0.0000    614.8547      7.9863    137.9163
  1793.2500      0.0000    627.5201      8.3598    135.2197
  1793.5000      0.0000    636.6293      8.7624    132.5366
  1793.7500      0.0000    644.9202      9.1067    130.3536
  1794.0000      0.0000    652.8976      9.3342    128.2361
  1794.2500      0.0000    659.6400      9.4388    125.9349
  1794.5000      0.0000    664.7582      9.4528    124.1246
  1794.7500      0.0000    669.0486      9.4169    123.8310
  1795.0000      0.0000    673.5256      9.3567    125.2331
  1795.2500      0.0000    677.8698      9.2678    127.4552
  1795.5000      0.0000    679.8218      9.1171    129.5128
  1795.7500      0.0000    676.3766      8.8663    130.8765
  1796.0000      0.0000    665.9858      8.5141    130.9715
  1796.2500      0.0000    650.1073      8.1189    128.8901
  1796.5000      0.0000    633.2802      7.7691    124.4239
  1796.7500      0.0000    621.3749      7.5228    119.2033
  1797.0000      0.0000    618.2677      7.3790    115.8632
  1797.2500      0.0000    623.2137      7.3018    115.6157
  1797.5000      0.0000    631.6103      7.2572    117.0967
  1797.7500      0.0000    638.6065      7.2222    118.0428
  1798.0000      0.0000    642.2755      7.1760    117.9191
  1798.2500      0.0000    643.8086      7.1003    118.5202
  1798.5000      0.0000    645.1917      6.9939    121.9192
  1798.7500      0.0000    646.6209      6.8798    128.0504
  1799.0000      0.0000    645.9384      6.7925    134.4390
  1799.2500      0.0000    640.9696      6.7556    138.0703
  1799.5000      0.0000    632.9619      6.7697    137.2452
  1799.7500      0.0000    626.8066      6.8184    131.9870
  1800.0000      0.0000    626.5776      6.8813    123.5393
  1800.2500      0.0000    631.4471      6.9435    113.7973
  1800.5000      0.0000    637.1486      6.9970    104.7503
  1800.7500      0.0000    640.4273      7.0388     97.8748
  1801.0000      0.0000    640.6484      7.0707     93.7543
  1801.2500      0.0000    638.0135      7.1002     92.1553
  1801.5000      0.0000    632.1342      7.1391     92.4905
  1801.7500      0.0000    622.7380      7.1956     94.4282
  1802.0000      0.0000    610.2659      7.2639     98.1949
  1802.2500      0.0000    594.4326      7.3224    104.2890
  1802.5000      0.0000    573.3779      7.3463    112.8902
  1802.7500      0.0000    546.7684      7.3256    123.4244
  1803.0000      0.0000    520.1726      7.2732    134.4337
  1803.2500      0.0000    503.5207      7.2192    143.8213
  1803.5000      0.0000    502.9741      7.2007    149.4717
  1803.7500      0.0000    514.8258      7.2543    150.0871
  1804.0000      0.0000    528.5366      7.4016    145.9481
  1804.2500      0.0000    535.6018      7.6142    138.9570
  1804.5000      0.0000    534.9775      7.7836    131.7403
  1804.7500      0.0000    530.8464      7.7643    126.4961
  1805.0000      0.0000    527.2336      7.4955    124.3490
  1805.2500      0.0000    525.5625      7.0763    125.0847
  1805.5000      0.0000    525.7489      6.6885    127.2137
  1805.7500      0.0000    528.0482      6.4470    128.9241
  1806.0000      0.0000    533.6412      6.3397    129.4601
  1806.2500      0.0000    543.5782      6.2865    129.4118
  1806.5000      0.0000    557.3473      6.2194    129.7284
  1806.7500      0.0000    573.4183      6.1187    130.7609
  1807.0000      0.0000    591.2551      6.0111    131.8739
  1807.2500      0.0000    610.2418      5.9521    131.4834
  1807.5000      0.0000    625.7200      6.0015    128.0730
  1807.7500      0.0000    629.9778      6.1917    122.1277
  1808.0000      0.0000    620.1008      6.4994    116.8777
  1808.2500      0.0000    602.4802      6.8425    116.1188
  1808.5000      0.0000    587.1849      7.1244    120.9339
  1808.7500      0.0000    579.2386      7.2926    128.8281
  1809.0000      0.0000    576.5001      7.3584    136.0837
  1809.2500      0.0000    574.2530      7.3669    140.4166
  1809.5000      0.0000    570.1541      7.3606    141.3369
  1809.7500      0.0000    565.4767      7.3606    139.1112
  1810.0000      0.0000    562.9872      7.3695    134.6270
  1810.2500      0.0000    563.8947      7.3808    129.9244
  1810.5000      0.0000    566.4682      7.3890    127.3188
  1810.7500      0.0000    567.2491      7.3964    127.4357
