~Version Information
VERS.                      2.0: CWLS Log ASCII Standard - VERSION 2.0
WRAP.                       NO: One line per depth step
~Well Information Block
STRT.FT               450.0000: 
STOP.FT              1739.2500: 
STEP.FT                 0.2500: 
NULL.                -999.2500: 
COMP.          Pioneer Natural Resources: COMPANY
WELL.            Harlee L 34-9: WELL
FLD.           Purgatoire River: FIELD
LOC.           600' FSL & 2125' FEL: LOCATION
PROV.                 Colorado: PROVINCE
CNTY.               Las Animas: COUNTRY
SRVC.                Patterson: SERVICE COMPANY
DATE.          Wed Jan 26 02:00:08 2005: LOG DATE
UWI.           05 071 08009 00: UNIQUE WELL ID
~Curve Information Block
DEPT.FT            0 000 00 00: Depth
SN.Ohm-m                      : IEL Short Normal
SP.mV                         : IEL Spontaneous Potential
DIR.Ohm-m                     : IEL Induction Resistivity
GR.GAPI                       : Gamma Ray
~Parameter Information Block
~A  Depth        SN          SP         DIR          GR     
# ...
  1354.5000     28.4540   -129.7335     27.1455     46.3670
  1354.7500     28.5224   -129.6564     27.2641     48.7325
  1355.0000     28.5767   -129.5309     27.2588     52.6177
  1355.2500     28.6060   -129.3648     27.1774     54.4173
  1355.5000     28.5975   -129.1711     27.0691     54.6315
  1355.7500     28.5461   -128.9677     26.9455     53.1742
  1356.0000     28.4623   -128.7744     26.7875     49.8066
  1356.2500     28.3688   -128.6071     26.5872     47.4090
  1356.5000     28.2895   -128.4743     26.3829     43.8375
  1356.7500     28.2351   -128.3732     26.2539     41.4993
  1357.0000     28.1979   -128.2910     26.2792     38.6970
  1357.2500     28.1620   -128.2083     26.4886     37.8772
  1357.5000     28.1158   -128.1043     26.8280     38.6276
  1357.7500     28.0526   -127.9631     27.1580     40.0759
  1358.0000     27.9648   -127.7775     27.3030     42.4489
  1358.2500     27.8428   -127.5500     27.1431     43.6664
  1358.5000     27.6805   -127.2900     26.6843     45.1798
  1358.7500     27.4803   -127.0083     26.0501     46.6027
  1359.0000     27.2526   -126.7118     25.4124     50.3954
  1359.2500     27.0123   -126.4001     24.9249     54.2999
  1359.5000     26.7702   -126.0655     24.6801     61.7970
  1359.7500     26.5261   -125.6968     24.6837     66.9983
  1360.0000     26.2692   -125.2840     24.8485     72.9529
  1360.2500     25.9864   -124.8227     25.0240     74.8361
  1360.5000     25.6711   -124.3165     25.0644     74.8254
  1360.7500     25.3278   -123.7773     24.9004     73.8981
  1361.0000     24.9717   -123.2237     24.5602     72.8323
  1361.2500     24.6245   -122.6790     24.1301     72.7670
  1361.5000     24.3114   -122.1683     23.6984     72.9907
  1361.7500     24.0543   -121.7137     23.3200     72.3666
  1362.0000     23.8647   -121.3298     23.0103     68.8274
  1362.2500     23.7369   -121.0192     22.7603     64.8378
  1362.5000     23.6505   -120.7724     22.5566     58.3092
  1362.7500     23.5796   -120.5712     22.3970     54.8348
  1363.0000     23.5029   -120.3964     22.2869     51.7543
  1363.2500     23.4126   -120.2344     22.2271     50.8665
  1363.5000     23.3194   -120.0823     22.2028     50.7756
  1363.7500     23.2487   -119.9471     22.1912     51.5398
  1364.0000     23.2284   -119.8429     22.1810     53.8578
  1364.2500     23.2750   -119.7864     22.1858     55.7610
  1364.5000     23.3835   -119.7927     22.2335     58.0801
  1364.7500     23.5257   -119.8704     22.3381     58.8666
  1365.0000     23.6596   -120.0178     22.4811     58.8177
  1365.2500     23.7464   -120.2199     22.6173     58.1098
  1365.5000     23.7657   -120.4499     22.7005     56.4737
  1365.7500     23.7169   -120.6743     22.7039     55.3869
  1366.0000     23.6113   -120.8614     22.6216     54.5243
  1366.2500     23.4624   -120.9889     22.4581     54.8749
  1366.5000     23.2799   -121.0465     22.2225     57.3549
  1366.7500     23.0657   -121.0301     21.9306     60.4641
  1367.0000     22.8112   -120.9311     21.6033     66.9548
  1367.2500     22.4980   -120.7259     21.2532     71.8812
  1367.5000     22.0998   -120.3734     20.8720     78.8354
  1367.7500     21.5853   -119.8234     20.4282     82.6225
  1368.0000     20.9267   -119.0350     19.8833     86.9401
  1368.2500     20.1134   -117.9954     19.2110     89.3249
  1368.5000     19.1674   -116.7307     18.4096     93.1113
  1368.7500     18.1472   -115.3028     17.5029     96.2721
  1369.0000     17.1317   -113.7948     16.5362    103.0494
  1369.2500     16.1885   -112.2920     15.5705    109.7614
  1369.5000     15.3482   -110.8653     14.6697    123.8530
  1369.7500     14.6056   -109.5637     13.8826    135.1760
  1370.0000     13.9441   -108.4134     13.2284    151.8315
  1370.2500     13.3576   -107.4227     12.6949    160.6219
  1370.5000     12.8536   -106.5877     12.2528    168.1616
  1370.7500     12.4435   -105.8974     11.8759    169.4109
  1371.0000     12.1366   -105.3370     11.5547    167.4107
  1371.2500     11.9364   -104.8910     11.2963    164.9997
  1371.5000     11.8392   -104.5460     11.1137    161.9810
  1371.7500     11.8310   -104.2928     11.0147    161.1111
  1372.0000     11.8908   -104.1284     10.9979    161.4466
  1372.2500     11.9983   -104.0555     11.0554    161.7633
  1372.5000     12.1413   -104.0799     11.1787    159.8220
  1372.7500     12.3196   -104.2062     11.3614    156.1256
  1373.0000     12.5413   -104.4324     11.5987    148.1721
  1373.2500     12.8180   -104.7467     11.8857    142.7239
  1373.5000     13.1598   -105.1273     12.2171    135.8002
  1373.7500     13.5705   -105.5467     12.5893    131.9213
  1374.0000     14.0438   -105.9786     13.0011    126.6469
  1374.2500     14.5622   -106.4048     13.4531    123.5768
  1374.5000     15.1005   -106.8192     13.9453    120.3283
  1374.7500     15.6336   -107.2268     14.4768    119.2149
  1375.0000     16.1454   -107.6368     15.0424    118.3138
  1375.2500     16.6327   -108.0523     15.6266    117.3696
  1375.5000     17.0987   -108.4610     16.1996    114.2954
  1375.7500     17.5429   -108.8308     16.7237    110.9361
  1376.0000     17.9546   -109.1141     17.1668    104.1037
  1376.2500     18.3132   -109.2608     17.5139     98.5505
  1376.5000     18.5891   -109.2344     17.7664     89.3839
  1376.7500     18.7501   -109.0253     17.9369     83.3258
  1377.0000     18.7792   -108.6553     18.0458     75.1099
  1377.2500     18.6998   -108.1715     18.1181     70.1851
  1377.5000     18.5806   -107.6344     18.1735     63.1895
  1377.7500     18.5070   -107.1046     18.2126     58.8213
  1378.0000     18.5363   -106.6331     18.2143     53.3680
  1378.2500     18.6728   -106.2579     18.1569     50.7644
  1378.5000     18.8737   -106.0042     18.0469     48.2524
  1378.7500     19.0788   -105.8873     17.9272     47.1495
  1379.0000     19.2456   -105.9143     17.8555     45.5988
  1379.2500     19.3709   -106.0858     17.8743     44.1335
  1379.5000     19.4899   -106.3954     17.9997     40.7126
  1379.7500     19.6587   -106.8310     18.2301     37.8400
  1380.0000     19.9289   -107.3745     18.5571     34.0449
  1380.2500     20.3242   -108.0047     18.9700     32.6747
  1380.5000     20.8274   -108.6984     19.4531     32.4947
  1380.7500     21.3899   -109.4321     19.9867     32.8903
  1381.0000     21.9615   -110.1816     20.5515     32.7066
  1381.2500     22.5141   -110.9199     21.1289     31.6710
  1381.5000     23.0451   -111.6171     21.6931     29.1324
  1381.7500     23.5640   -112.2428     22.2029     27.2102
  1382.0000     24.0786   -112.7715     22.6066     24.4553
  1382.2500     24.5818   -113.1910     22.8660     22.8768
  1382.5000     25.0472   -113.5075     22.9812     21.2236
  1382.7500     25.4393   -113.7464     22.9946     20.7838
  1383.0000     25.7314   -113.9457     22.9682     21.3810
  1383.2500     25.9114   -114.1429     22.9517     22.8008
  1383.5000     25.9725   -114.3578     22.9631     26.8944
  1383.7500     25.9006   -114.5761     22.9818     31.1990
  1384.0000     25.6717   -114.7391     22.9512     40.1558
  1384.2500     25.2540   -114.7478     22.7894     47.3883
  1384.5000     24.6088   -114.4817     22.4127     58.1871
  1384.7500     23.6980   -113.8301     21.7628     63.7215
  1385.0000     22.5111   -112.7254     20.8284     67.3945
  1385.2500     21.1005   -111.1651     19.6517     66.8152
  1385.5000     19.5846   -109.2159     18.3219     64.0936
  1385.7500     18.1041   -106.9975     16.9533     63.3709
  1386.0000     16.7627   -104.6558     15.6522     67.2217
  1386.2500     15.5986   -102.3341     14.4894     73.9101
  1386.5000     14.5949   -100.1527     13.4907     89.3237
  1386.7500     13.7064    -98.1974     12.6469    101.5729
  1387.0000     12.8900    -96.5177     11.9303    119.1011
  1387.2500     12.1292    -95.1284     11.3113    128.2258
  1387.5000     11.4413    -94.0157     10.7691    136.4721
  1387.7500     10.8622    -93.1438     10.2966    138.7367
