~Version Information
 VERS.                                  2.0 : CWLS LAS VERSION
 WRAP.                                   NO : WRAPING MODE
 SWARE .                 MController 2.5.0J : SOFTWARE VERSION
~Well Information
 WELL.                     Old Yeller 31-32 : WELL
 COMP.    Pioneer Natural Resources USA Inc : COMPANY
 FLD.                      Purgatoire River : FIELD
 LOC.                NW/NE Sec 32 T32S R67W : LOCATION
 DATE.                           8/23-28/05 : DATE(S) LOGGED
 SRVC.       BLANCO Geological Services LLC : SERVICE COMPANY
 STAT.                                   CO : STATE
 CNTY.                           Las Animas : COUNTY
 CTRY.                                  USA : COUNTRY
 API.                       05-071-08356-00 : API NUMBER
 STRT.FT                            1664.00 : START DEPTH
 STOP.FT                            2951.00 : STOP DEPTH
 STEP.FT                               1.00 : DEPTH INCREMENT
 NULL.                                -9999 : NULL VALUE
~Curve information
 DEPTH.FT                                   :
 ROP.MIN/FT                                 :
 GAS.UNITS                                  :
~ASCII Log data
# ...
      2464.0         0.92        -11.3 
      2465.0         0.73        -11.3 
      2466.0         0.67        -11.3 
      2467.0         0.67        -11.3 
      2468.0         0.70        -11.4 
      2469.0         1.08        -11.2 
      2470.0         1.33        -11.3 
      2471.0         1.18        -11.4 
      2472.0         1.03        -11.2 
      2473.0         1.00        -11.3 
      2474.0         1.05        -11.4 
      2475.0         1.03        -11.3 
      2476.0         1.00        -11.3 
      2477.0         1.00        -11.1 
      2478.0         0.78        -11.2 
      2479.0         1.20        -11.3 
      2480.0         1.98        -11.3 
      2481.0         1.77        -11.3 
      2482.0         1.32        -11.4 
      2483.0         1.30        -11.3 
      2484.0         2.25        -11.3 
      2485.0         1.57        -11.3 
      2486.0         1.22        -11.3 
      2487.0         0.77        -11.3 
      2488.0         0.83        -11.3 
      2489.0         1.00        -11.3 
      2490.0         1.08        -11.3
      2491.0         1.77        -11.3 
      2492.0         1.32        -11.4 
      2493.0         1.30        -11.3 
      2494.0         2.25        -11.3 
      2495.0         1.57        -11.3 
      2496.0         1.22        -11.3 
      2497.0         0.77        -11.3 
      2498.0         0.83        -11.3 
      2499.0         1.00        -11.3 
      2500.0         1.08        -11.3
      2501.0         1.00          1.1 
      2502.0         0.07          1.3 
      2503.0         0.50          2.2 
      2504.0         0.00          1.1 
      2505.0         0.07          1.3 
      2506.0         0.50          2.6 
      2507.0         0.62          2.4 
      2508.0         0.70          2.7 
      2509.0         0.60          2.6 
      2510.0         0.57          2.9 
      2511.0         0.77          2.4 
      2512.0         0.92          1.8 
      2513.0         0.87          2.7 
      2514.0         0.83          2.9 
      2515.0         1.00          3.6 
      2516.0         1.38          6.8 
      2517.0         1.07          7.9 
      2518.0         0.97          8.9 
      2519.0         1.08          6.0 
      2520.0         1.13          2.3 
      2521.0        20.87          8.9 
      2522.0         1.38          3.3 
      2523.0         1.07          3.8 
      2524.0         0.83          4.3 
      2525.0         1.35          3.2 
      2526.0         1.80          3.5 
      2527.0         1.13          4.2 
      2528.0         0.78          4.2 
      2529.0         0.77          3.4 
      2530.0         0.97          3.4 
      2531.0         0.70          4.8 
      2532.0         0.72          5.3 
      2533.0         0.47          4.2 
      2534.0         0.97          3.7 
      2535.0         0.73          3.4 
      2536.0         0.70          3.6 
      2537.0         0.58          3.6 
      2538.0         0.70          3.8 
      2539.0         0.63          3.2 
      2540.0         0.70          3.3 
      2541.0         0.53          3.4 
      2542.0         0.27          3.4 
      2543.0         0.25          4.3 
      2544.0         0.30          5.5 
      2545.0         0.73          6.3 
      2546.0         0.97          5.1 
      2547.0         1.32          2.9 
      2548.0         0.97          2.9 
      2549.0         1.07          2.7 
      2550.0         0.50          2.6 
      2551.0        20.60         52.8 
      2552.0         0.85          5.7 
      2553.0         0.70          6.6 
      2554.0         0.83         10.3 
      2555.0         0.93         10.7 
      2556.0         0.85          5.5 
      2557.0         0.83          2.6 
      2558.0         1.07          2.8 
      2559.0         0.78          3.7 
      2560.0         0.57          4.0 
      2561.0         0.47          4.3 
      2562.0         0.47          3.6 
      2563.0         0.53          3.7 
      2564.0         0.67          3.5 
      2565.0         0.72          3.3 
      2566.0         0.90          3.1 
      2567.0         0.97          3.4 
      2568.0         0.80          3.4 
      2569.0         1.02          4.4 
      2570.0         0.83          5.0 
      2571.0         0.77          5.8 
      2572.0         0.70          7.6 
      2573.0         0.72          8.7 
      2574.0         0.57          7.3 
      2575.0         0.43          5.6 
      2576.0         0.27          4.5 
      2577.0         0.73          4.3 
      2578.0         0.80          3.5 
      2579.0         0.65          3.2 
      2580.0         0.57          2.5 
      2581.0        15.47         36.0 
      2582.0         0.52          4.8 
      2583.0         0.90          4.2 
      2584.0         0.80          3.6 
      2585.0         0.90          3.7 
      2586.0         0.78          4.8 
      2587.0         0.57          7.8 
      2588.0         0.77         14.0 
      2589.0         0.70         16.1 
      2590.0         0.73         14.0 
      2591.0         0.68          8.1 
      2592.0         0.63          3.5 
      2593.0         0.60          2.6 
      2594.0         1.00          2.6 
      2595.0         1.22          3.2 
      2596.0         1.27          4.5 
      2597.0         0.77          4.4 
      2598.0         0.70          7.1 
      2599.0         0.72          7.3 
      2600.0         1.07          5.0 
      2601.0         0.90          4.4 
      2602.0         0.80          6.3 
      2603.0         0.98          5.5 
      2604.0         0.83          5.0 
      2605.0         0.80          5.9 
      2606.0         0.70          5.9 
      2607.0         0.92          4.2 
      2608.0         0.83          3.1 
      2609.0         0.70          3.0 
      2610.0         0.67          2.5 
      2611.0        16.52          7.4 
      2612.0         0.82          5.7 
      2613.0         0.90          4.9 
      2614.0         0.97          4.8 
      2615.0         0.80          4.5 
      2616.0         0.72          5.6 
      2617.0         0.53          4.4 
      2618.0         0.47          3.9 
      2619.0         0.43          2.4 
      2620.0         0.43          2.0 
      2621.0         0.30          1.2 
      2622.0         0.33          1.4 
      2623.0         0.75          2.6 
      2624.0         0.83          2.9 
      2625.0         0.97          2.5 
      2626.0         0.87          2.0 
      2627.0         0.88          2.5 
      2628.0         0.87          2.5 
      2629.0         0.57          3.2 
      2630.0         0.83          8.0 
      2631.0         1.95         33.9 
      2632.0         1.70         39.4 
      2633.0         1.78         12.9 
      2634.0         1.50          6.9 
      2635.0         1.52          3.3 
      2636.0         1.20          2.6 
      2637.0         1.42          3.6 
      2638.0         0.87          4.0 
      2639.0         0.70          3.6 
      2640.0         0.73          3.6 
      2641.0        15.75          3.6 
      2642.0         1.03          5.2 
      2643.0         0.85          6.1 
      2644.0         0.87          5.9 
      2645.0         0.90          4.7 
      2646.0         0.70          2.9 
      2647.0         0.72          2.7 
      2648.0         0.70          2.7 
      2649.0         0.90          2.8 
      2650.0         0.97          2.6 
      2651.0         0.98          2.4 
      2652.0         1.23          2.6 
      2653.0         0.83          3.4 
      2654.0         0.67          2.8 
      2655.0         0.58          2.7 
      2656.0         0.73          2.4 
      2657.0         0.77          4.9 
      2658.0         0.67          4.4 
      2659.0         0.70          3.5 
      2660.0         1.05          2.0 
      2661.0         1.07          2.4 
      2662.0         1.27          3.4 
      2663.0         1.62          7.2 
      2664.0         1.40         11.1 
