~Version Information
VERS.                      2.0: CWLS Log ASCII Standard - VERSION 2.0
WRAP.                       NO: One line per depth step
~Well Information Block
STRT.FT               491.0000: 
STOP.FT              1055.5000: 
STEP.FT                 0.1000: 
NULL.                -999.2500: 
COMP.          Evergreen Operating Corporation: COMPANY
WELL.              Sunset 24-3: WELL
FLD.           Purgatorie River: FIELD
LOC.           467' FSL & 2262' FWL: LOCATION
PROV.                 Colorado: PROVINCE
CNTY.               Las Animas: COUNTRY
SRVC.                         : SERVICE COMPANY
DATE.          Wed Sep 22 14:05:09 2004: LOG DATE
UWI.           05 071 08158 00: UNIQUE WELL ID
~Curve Information Block
DEPT.FT            0 000 00 00: Depth
DCAL.in                       : CDL Caliper
RHOB.g/cc                     : CDL Bulk Density
RHOC.g/cc                     : CDL Density Correction
DPOR.pu                       : CDL Density Porosity
GR.GAPI                       : Gamma Ray
NPOR.pu                       : Neutron Porosity
~Parameter Information Block
~A  Depth       DCAL        RHOB        RHOC        DPOR         GR         NPOR    
# ...
   779.0000      7.9401      2.4884      0.0655      9.7936     77.0110     24.6787
   779.1000      7.9401      2.4848      0.0768     10.0106     77.8790     25.0521
   779.2000      7.9401      2.4774      0.0746     10.4611     79.3829     26.3886
   779.3000      7.9422      2.4761      0.0597     10.5413     85.7881     28.0075
   779.4000      7.9422      2.4821      0.1084     10.1776     96.0340     28.9726
   779.5000      7.9429      2.4861      0.1148      9.9346    102.2437     28.8067
   779.6000      7.9429      2.4816      0.1186     10.2041    101.6378     27.9601
   779.7000      7.9429      2.4703      0.0949     10.8921     98.4794     27.5956
   779.8000      7.9447      2.4597      0.0747     11.5319     96.3854     28.2340
   779.9000      7.9447      2.4527      0.1069     11.9586     95.8604     29.2027
   780.0000      7.9464      2.4465      0.0696     12.3313     95.8349     29.6296
   780.1000      7.9464      2.4493      0.0769     12.1663     95.9994     29.2240
   780.2000      7.9464      2.4661      0.0901     11.1425     97.5714     28.4379
   780.3000      7.9447      2.4871      0.0868      9.8703    101.7808     27.8863
   780.4000      7.9447      2.5003      0.1052      9.0757    104.8876     27.7341
   780.5000      7.9437      2.5094      0.0716      8.5216    102.5168     27.9309
   780.6000      7.9437      2.5268      0.0620      7.4637     98.3042     28.3561
   780.7000      7.9437      2.5457      0.0918      6.3212     94.1440     28.4706
   780.8000      7.9450      2.5467      0.0759      6.2619     88.2584     27.9348
   780.9000      7.9450      2.5304      0.0399      7.2500     83.0221     27.4386
   781.0000      7.9437      2.5175      0.0164      8.0274     81.2245     27.4521
   781.1000      7.9437      2.5186      0.0385      7.9632     82.7782     27.3541
   781.2000      7.9437      2.5203      0.0572      7.8601     85.4167     26.7332
   781.3000      7.9441      2.5077      0.0219      8.6261     87.5985     26.3521
   781.4000      7.9441      2.4849     -0.0057     10.0065     91.2024     26.8529
   781.5000      7.9417      2.4683     -0.0079     11.0145     95.5340     27.6035
   781.6000      7.9417      2.4694      0.0142     10.9482     98.6399     27.9004
   781.7000      7.9417      2.4859      0.0317      9.9469    102.6131     27.9017
   781.8000      7.9431      2.5062      0.0453      8.7141    108.2754     27.7465
   781.9000      7.9431      2.5180      0.0648      7.9994    113.7506     27.1646
   782.0000      7.9433      2.5110      0.0722      8.4214    114.2074     26.2779
   782.1000      7.9433      2.4885      0.0311      9.7902    109.5217     25.7613
   782.2000      7.9433      2.4627      0.0357     11.3526    105.2266     25.9330
   782.3000      7.9437      2.4407     -0.0278     12.6859    104.1280     26.6802
   782.4000      7.9437      2.4256     -0.0012     13.5989    105.4713     27.6801
   782.5000      7.9442      2.4092      0.0105     14.5938    108.0621     28.3802
   782.6000      7.9442      2.3844     -0.0075     16.0996    111.4827     28.6540
   782.7000      7.9442      2.3629     -0.0423     17.3974    115.0607     28.3244
   782.8000      7.9446      2.3521      0.0700     18.0558    115.0360     27.4518
   782.9000      7.9446      2.3402      0.0584     18.7732    106.1156     26.9635
   783.0000      7.9449      2.3220      0.0771     19.8786     88.7526     26.9559
   783.1000      7.9449      2.3006      0.0556     21.1769     71.7303     26.7300
   783.2000      7.9449      2.2788      0.0660     22.4979     65.1000     26.4201
   783.3000      7.9469      2.2611      0.0210     23.5724     70.4254     26.6882
   783.4000      7.9469      2.2569      0.0221     23.8264     78.0891     27.1464
   783.5000      7.9473      2.2763      0.0507     22.6460     76.6275     26.8336
   783.6000      7.9473      2.3197      0.0912     20.0195     65.2377     26.1211
   783.7000      7.9473      2.3694      0.1043     17.0076     54.7189     25.7948
   783.8000      7.9501      2.4027      0.0978     14.9852     56.3779     25.7868
   783.9000      7.9501      2.4185      0.0565     14.0329     67.3485     26.1218
   784.0000      7.9490      2.4317      0.0521     13.2307     73.4184     26.4730
   784.1000      7.9490      2.4478      0.0700     12.2549     70.9583     25.9748
   784.2000      7.9490      2.4597      0.0723     11.5317     68.9595     24.6608
   784.3000      7.9543      2.4641      0.0646     11.2638     70.9085     23.6573
   784.4000      7.9543      2.4690      0.0141     10.9695     73.8418     23.6902
   784.5000      7.9457      2.4781      0.0772     10.4189     77.6098     24.2297
   784.6000      7.9457      2.4813      0.0493     10.2217     82.0824     24.5657
   784.7000      7.9457      2.4740      0.0219     10.6670     83.2695     24.4661
   784.8000      7.9427      2.4697      0.0236     10.9262     80.2887     23.8736
   784.9000      7.9427      2.4839      0.0269     10.0691     78.2867     23.2432
   785.0000      7.9432      2.5124      0.0802      8.3370     81.3394     23.4496
   785.1000      7.9432      2.5361      0.1209      6.9055     88.0678     24.6340
   785.2000      7.9432      2.5427      0.1439      6.5031     90.6139     25.5806
   785.3000      7.9432      2.5354      0.1065      6.9426     86.0337     25.2640
   785.4000      7.9432      2.5270      0.0669      7.4552     80.3143     24.2735
   785.5000      7.9428      2.5283      0.0546      7.3761     78.5297     23.5042
   785.6000      7.9428      2.5306      0.0785      7.2359     81.6281     23.2395
   785.7000      7.9428      2.5228      0.0449      7.7098     86.0926     23.2116
   785.8000      7.9445      2.5176      0.0334      8.0251     87.1890     22.8709
   785.9000      7.9445      2.5300      0.0563      7.2698     83.4134     22.5340
   786.0000      7.9431      2.5490      0.0703      6.1229     76.1903     22.7447
   786.1000      7.9431      2.5498      0.0934      6.0720     67.2818     22.9622
   786.2000      7.9431      2.5301      0.0463      7.2692     57.2357     22.3472
   786.3000      7.9431      2.5139      0.0268      8.2485     49.2461     21.1691
   786.4000      7.9431      2.5200      0.0198      7.8787     48.6271     20.7025
   786.5000      7.9421      2.5409      0.0705      6.6105     53.7295     20.9669
   786.6000      7.9421      2.5576      0.0444      5.5996     55.9321     20.5249
   786.7000      7.9421      2.5664      0.0416      5.0669     51.7581     19.0450
   786.8000      7.9417      2.5721      0.0553      4.7214     47.4426     17.5923
   786.9000      7.9417      2.5759      0.0792      4.4890     48.3100     17.1082
   787.0000      7.9424      2.5859      0.0655      3.8836     52.2889     17.6435
   787.1000      7.9424      2.6059      0.0859      2.6729     54.3482     18.1768
   787.2000      7.9424      2.6147      0.1327      2.1371     52.3107     18.2379
   787.3000      7.9428      2.5991      0.0630      3.0826     49.2795     18.4779
   787.4000      7.9428      2.5790      0.0596      4.3013     48.4938     19.0696
   787.5000      7.9425      2.5735      0.0349      4.6353     50.5518     19.1368
   787.6000      7.9425      2.5808      0.0604      4.1917     53.3377     18.3836
   787.7000      7.9425      2.5844      0.0414      3.9771     55.4630     17.4096
   787.8000      7.9417      2.5750      0.0633      4.5439     57.8707     16.6221
   787.9000      7.9417      2.5632      0.0499      5.2579     60.9865     16.2759
   788.0000      7.9369      2.5594      0.0303      5.4933     65.3661     16.2953
   788.1000      7.9369      2.5622      0.0215      5.3219     68.9536     16.4491
   788.2000      7.9369      2.5698      0.0051      4.8581     69.3592     16.6292
   788.3000      7.9367      2.5804      0.0533      4.2189     69.3769     16.7783
   788.4000      7.9367      2.5890      0.0123      3.6984     71.5388     16.8965
   788.5000      7.9176      2.5928      0.0459      3.4696     73.0315     17.0543
