~Version Information
VERS.                      2.0: CWLS Log ASCII Standard - VERSION 2.0
WRAP.                       NO: One line per depth step
~Well Information Block
STRT.FT               557.0000: 
STOP.FT              2136.0000: 
STEP.FT                 0.2500: 
NULL.                -999.2500: 
COMP.          Petrogulf Corporation: COMPANY
WELL.           Montoya 12-41R: WELL
FLD.           Purgatorie River: FIELD
LOC.           1086' FNL & 610' FEL: LOCATION
CNTY.               Las Animas: COUNTY
SRVC.                         : SERVICE COMPANY
DATE.          Thu Nov 18 06:03:03 2004: LOG DATE
UWI.           05 071 08241 00: UNIQUE WELL ID
STAT.                 Colorado: STATE
~Curve Information Block
DEPT.FT            0 000 00 00: Depth
SP.mV                         : DIL Spontaneous Potential
RILD.Ohm-m                    : DIL Deep Resistivity
RILM.Ohm-m                    : DIL Medium Resistivity
RLL3.Ohm-m                    : DIL Shallow Resistivity
GR.GAPI                       : Gamma Ray
~Parameter Information Block
~A  Depth        SP         RILD        RILM        RLL3         GR     
# ...
  1481.0000   -129.7717     20.6101     24.2479     30.8379     93.4967
  1481.2500   -129.8592     20.6585     24.0691     29.6988     93.7990
  1481.5000   -130.0246     20.6489     23.7013     28.3492     96.8508
  1481.7500   -130.2427     20.5808     23.1897     26.9493     99.9636
  1482.0000   -130.5271     20.4564     22.5872     25.5844    105.1108
  1482.2500   -130.9211     20.2779     21.9460     24.2733    108.6273
  1482.5000   -131.4731     20.0482     21.3124     23.0085    114.4263
  1482.7500   -132.2122     19.7699     20.7233     21.8039    118.8746
  1483.0000   -133.1319     19.4466     20.2054     20.7213    125.9083
  1483.2500   -134.1848     19.0838     19.7743     19.8656    130.0979
  1483.5000   -135.3040     18.6893     19.4347     19.3541    134.7841
  1483.7500   -136.4130     18.2740     19.1817     19.2760    136.9215
  1484.0000   -137.4374     17.8503     19.0006     19.6597    138.9001
  1484.2500   -138.3127     17.4316     18.8695     20.4518    139.0275
  1484.5000   -138.9745     17.0304     18.7605     21.5151    136.2802
  1484.7500   -139.3628     16.6569     18.6436     22.6418    132.2193
  1485.0000   -139.4264     16.3179     18.4902     23.5859    123.4545
  1485.2500   -139.1390     16.0168     18.2782     24.1127    116.6011
  1485.5000   -138.5124     15.7528     17.9956     24.0575    106.4365
  1485.7500   -137.6105     15.5214     17.6427     23.3722    100.8230
  1486.0000   -136.5418     15.3151     17.2318     22.1424     95.6551
  1486.2500   -135.4373     15.1243     16.7839     20.5634     94.6048
  1486.5000   -134.4156     14.9384     16.3241     18.8818     95.8046
  1486.7500   -133.5494     14.7481     15.8773     17.3288     97.6866
  1487.0000   -132.8507     14.5468     15.4636     16.0671    101.0848
  1487.2500   -132.2757     14.3324     15.0972     15.1707    103.4129
  1487.5000   -131.7598     14.1077     14.7851     14.6347    106.7413
  1487.7500   -131.2551     13.8797     14.5275     14.4037    108.7539
  1488.0000   -130.7613     13.6586     14.3202     14.4011    111.4463
  1488.2500   -130.3330     13.4549     14.1553     14.5486    113.1702
  1488.5000   -130.0639     13.2782     14.0232     14.7732    115.8170
  1488.7500   -130.0409     13.1350     13.9146     15.0080    117.3720
  1489.0000   -130.3125     13.0286     13.8213     15.1925    118.4279
  1489.2500   -130.8579     12.9590     13.7380     15.2774    117.8469
  1489.5000   -131.5905     12.9234     13.6624     15.2338    115.3446
  1489.7500   -132.3754     12.9177     13.5957     15.0611    113.4975
  1490.0000   -133.0704     12.9373     13.5419     14.7890    112.5983
  1490.2500   -133.5523     12.9784     13.5069     14.4712    114.1234
  1490.5000   -133.7378     13.0380     13.4979     14.1708    119.4865
  1490.7500   -133.5942     13.1146     13.5218     13.9452    124.2461
  1491.0000   -133.1339     13.2068     13.5844     13.8369    131.2727
  1491.2500   -132.4084     13.3129     13.6891     13.8721    134.8835
  1491.5000   -131.5052     13.4304     13.8361     14.0640    137.4627
  1491.7500   -130.5354     13.5544     14.0221     14.4156    137.1702
  1492.0000   -129.6297     13.6788     14.2387     14.9174    134.7063
  1492.2500   -128.9267     13.7956     14.4729     15.5396    132.4584
  1492.5000   -128.5511     13.8968     14.7072     16.2249    128.6142
  1492.7500   -128.5958     13.9753     14.9211     16.8889    125.6430
  1493.0000   -129.0972     14.0253     15.0938     17.4315    121.0233
  1493.2500   -130.0242     14.0435     15.2080     17.7602    118.6620
  1493.5000   -131.2785     14.0279     15.2526     17.8150    117.6335
  1493.7500   -132.7112     13.9783     15.2255     17.5874    118.8662
  1494.0000   -134.1532     13.8951     15.1328     17.1237    122.8190
  1494.2500   -135.4510     13.7794     14.9871     16.5122    126.0471
  1494.5000   -136.4956     13.6330     14.8042     15.8580    130.5028
  1494.7500   -137.2378     13.4596     14.5997     15.2572    132.7871
  1495.0000   -137.6770     13.2648     14.3872     14.7772    135.1436
  1495.2500   -137.8419     13.0572     14.1774     14.4480    136.2033
  1495.5000   -137.7643     12.8476     13.9776     14.2649    137.2242
  1495.7500   -137.4579     12.6481     13.7926     14.1974    137.4591
  1496.0000   -136.9214     12.4706     13.6247     14.2003    137.1615
  1496.2500   -136.1606     12.3258     13.4753     14.2260    136.8058
  1496.5000   -135.2162     12.2213     13.3448     14.2339    136.6634
  1496.7500   -134.1841     12.1617     13.2333     14.1981    136.9819
  1497.0000   -133.2225     12.1480     13.1417     14.1119    137.8601
  1497.2500   -132.5265     12.1786     13.0721     13.9880    138.4302
  1497.5000   -132.2888     12.2496     13.0287     13.8555    138.7634
  1497.7500   -132.6461     12.3561     13.0179     13.7541    138.4919
  1498.0000   -133.6447     12.4939     13.0488     13.7265    137.7341
  1498.2500   -135.2204     12.6600     13.1320     13.8123    137.6415
  1498.5000   -137.2183     12.8536     13.2792     14.0454    139.3598
  1498.7500   -139.4288     13.0770     13.5025     14.4559    142.0365
  1499.0000   -141.6342     13.3346     13.8129     15.0722    147.7261
  1499.2500   -143.6619     13.6333     14.2197     15.9195    151.8472
  1499.5000   -145.4056     13.9805     14.7292     17.0141    157.1603
  1499.7500   -146.8236     14.3834     15.3438     18.3523    159.5737
  1500.0000   -147.9193     14.8478     16.0612     19.9031    161.0291
  1500.2500   -148.7041     15.3768     16.8738     21.6096    160.4183
  1500.5000   -149.1648     15.9705     17.7687     23.4019    156.9303
  1500.7500   -149.2609     16.6256     18.7293     25.2145    152.9698
  1501.0000   -148.9288     17.3372     19.7359     26.9963    145.6024
  1501.2500   -148.1105     18.0991     20.7690     28.7056    140.7423
  1501.5000   -146.7860     18.9057     21.8104     30.2949    134.7264
  1501.7500   -144.9871     19.7519     22.8453     31.6983    131.4466
  1502.0000   -142.8072     20.6320     23.8621     32.8367    126.5102
  1502.2500   -140.3936     21.5375     24.8543     33.6455    122.8003
  1502.5000   -137.9265     22.4534     25.8183     34.1102    117.2273
  1502.7500   -135.6046     23.3554     26.7551     34.2890    114.4895
  1503.0000   -133.6122     24.2102     27.6684     34.3065    113.3575
  1503.2500   -132.1006     24.9784     28.5640     34.3214    114.6670
  1503.5000   -131.1519     25.6226     29.4471     34.4820    118.3340
  1503.7500   -130.7669     26.1159     30.3182     34.8937    120.8115
  1504.0000   -130.8610     26.4484     31.1702     35.6056    123.2115
  1504.2500   -131.2859     26.6280     31.9833     36.6167    123.4986
  1504.5000   -131.8656     26.6748     32.7217     37.8847    121.7911
  1504.7500   -132.4470     26.6119     33.3317     39.3297    119.6105
  1505.0000   -132.9288     26.4582     33.7430     40.8285    115.9920
  1505.2500   -133.2751     26.2204     33.8774     42.2078    113.8657
  1505.5000   -133.5037     25.8952     33.6627     43.2490    111.1501
  1505.7500   -133.6559     25.4723     33.0545     43.7142    109.4260
  1506.0000   -133.7738     24.9404     32.0511     43.3950    106.9234
  1506.2500   -133.8804     24.2949     30.7013     42.1705    105.7566
  1506.5000   -133.9894     23.5422     29.0942     40.0536    106.2533
  1506.7500   -134.1140     22.7010     27.3386     37.2026    108.9162
  1507.0000   -134.2856     21.7991     25.5402     33.8935    116.6006
  1507.2500   -134.5581     20.8697     23.7855     30.4563    123.3838
  1507.5000   -134.9976     19.9454     22.1352     27.1998    133.8538
  1507.7500   -135.6631     19.0548     20.6258     24.3478    139.7316
  1508.0000   -136.5843     18.2206     19.2753     22.0055    144.9808
  1508.2500   -137.7406     17.4589     18.0892     20.1622    145.3932
  1508.5000   -139.0535     16.7805     17.0664     18.7261    141.8443
  1508.7500   -140.3916     16.1920     16.2027     17.5756    138.2979
