~Version Information
VERS.                      2.0: CWLS Log ASCII Standard - VERSION 2.0
WRAP.                       NO: One line per depth step
~Well Information Block
STRT.FT               -12.5000: 
STOP.FT              2284.7500: 
STEP.FT                 0.2500: 
NULL.                -999.2500: 
COMP.          Pioneer Natural Resources: COMPANY
WELL.          Hill Climb 22-2: WELL
FLD.           Purgatorie River: FIELD
LOC.           1820' FNL & 2193' FWL--: LOCATION
PROV.                       CO: PROVINCE
CNTY.               Las Animas: COUNTRY
SRVC.                         : SERVICE COMPANY
DATE.          Fri Oct 22 11:44:16 2004: LOG DATE
UWI.                          : UNIQUE WELL ID
~Curve Information Block
DEPT.FT            0 000 00 00: Depth
GR.GAPI                       : Gamma Ray
CCL.                          : Casing Collar Locator
TT3.usec                      : CBL 3' Travel Time
AMP3.mV                       : CBL 3' Amplitude
~Parameter Information Block
~A  Depth        GR         CCL         TT3         AMP3    
# ...
   590.5000     75.4259      0.0000    258.8922     82.0898
   590.7500     67.9475      0.0000    258.8976     82.1298
   591.0000     63.4929      0.0000    258.9000     82.1708
   591.2500     63.6329      0.0000    258.9018     82.1576
   591.5000     67.9253      0.0000    258.9027     82.0697
   591.7500     74.8714      0.0000    258.9016     81.9262
   592.0000     83.3044      0.0000    258.8969     81.7789
   592.2500     92.6346      0.0000    258.8881     81.6917
   592.5000    102.3125      0.0000    258.8756     81.7013
   592.7500    111.5260      0.0000    258.8615     81.7870
   593.0000    119.0704      0.0000    258.8485     81.8880
   593.2500    123.2929      0.0000    258.8389     81.9537
   593.5000    122.7615      0.0000    258.8317     81.9754
   593.7500    117.4732      0.0000    258.8232     81.9700
   594.0000    109.2616      0.0000    258.8120     81.9477
   594.2500    100.8873      0.0000    258.8005     81.9054
   594.5000     94.7017      0.0000    258.7916     81.8489
   594.7500     91.6840      0.0000    258.7864     81.8049
   595.0000     91.0545      0.0000    258.7860     81.7977
   595.2500     90.8495      0.0000    258.7921     81.8209
   595.5000     89.5239      0.0000    258.8052     81.8440
   595.7500     87.4672      0.0000    258.8238     81.8451
   596.0000     87.0048      0.0000    258.8461     81.8292
   596.2500     90.7296      0.0000    258.8678     81.8145
   596.5000     99.3993      0.0000    258.8825     81.8112
   596.7500    111.0588      0.0000    258.8867     81.8159
   597.0000    122.2013      0.0000    258.8830     81.8249
   597.2500    130.0546      0.0000    258.8758     81.8457
   597.5000    133.9060      0.0000    258.8667     81.8869
   597.7500    134.4269      0.0000    258.8556     81.9426
   598.0000    132.2232      0.0000    258.8439     81.9911
   598.2500    127.3408      0.0000    258.8357     82.0114
   598.5000    119.7188      0.0000    258.8364     81.9960
   598.7500    109.6254      0.0000    258.8483     81.9512
   599.0000     98.0011      0.0000    258.8668     81.8917
   599.2500     86.7412      0.0000    258.8824     81.8354
   599.5000     78.0660      0.0000    258.8872     81.7930
   599.7500     73.0406      0.0000    258.8811     81.7616
   600.0000     70.8871      0.0000    258.8700     81.7371
   600.2500     70.0996      0.0000    258.8606     81.7326
   600.5000     70.4787      0.0000    258.8555     81.7669
   600.7500     74.1943      0.0000    258.8542     81.8341
   601.0000     84.5476      0.0000    258.8565     81.9000
   601.2500    102.8222      0.0000    258.8615     81.9327
   601.5000    125.7667      0.0000    258.8635     81.9290
   601.7500    146.7039      0.0000    258.8532     81.9182
   602.0000    160.1054      0.0000    258.8274     81.9393
   602.2500    165.3355      0.0000    258.7957     82.0029
   602.5000    165.8303      0.0000    258.7737     82.0750
   602.7500    165.1863      0.0000    258.7692     82.1067
   603.0000    164.7014      0.0000    258.7780     82.0773
   603.2500    164.1621      0.0000    258.7906     82.0066
   603.5000    163.5805      0.0000    258.7997     81.9363
   603.7500    163.3561      0.0000    258.8025     81.9048
   604.0000    163.0862      0.0000    258.7987     81.9244
   604.2500    161.0225      0.0000    258.7903     81.9728
   604.5000    155.5501      0.0000    258.7827     82.0152
   604.7500    147.4885      0.0000    258.7831     82.0365
   605.0000    140.3209      0.0000    258.7952     82.0483
   605.2500    137.4544      0.0000    258.8142     82.0686
   605.5000    139.5127      0.0000    258.8317     82.1021
   605.7500    144.5433      0.0000    258.8427     82.1367
   606.0000    150.3704      0.0000    258.8491     82.1545
   606.2500    156.3481      0.0000    258.8562     82.1482
   606.5000    163.1132      0.0000    258.8674     82.1282
   606.7500    171.0731      0.0000    258.8806     82.1110
   607.0000    179.2987      0.0000    258.8900     82.1030
   607.2500    185.8422      0.0000    258.8920     82.0968
   607.5000    188.9859      0.0000    258.8892     82.0843
   607.7500    188.2554      0.0000    258.8839     82.0693
   608.0000    184.5569      0.0000    258.8739     82.0685
   608.2500    179.5722      0.0000    258.8557     82.0999
   608.5000    174.7866      0.0000    258.8317     82.1653
   608.7500    170.5367      0.0000    258.8090     82.2419
   609.0000    165.9491      0.0000    258.7930     82.3019
   609.2500    160.2631      0.0000    258.7838     82.3409
   609.5000    154.1465      0.0000    258.7781     82.3756
   609.7500    149.3205      0.0000    258.7734     82.4152
   610.0000    147.1071      0.0000    258.7711     82.4496
   610.2500    147.5396      0.0000    258.7743     82.4619
   610.5000    149.5482      0.0000    258.7843     82.4386
   610.7500    151.7290      0.0000    258.7996     82.3772
   611.0000    152.8460      0.0000    258.8164     82.2988
   611.2500    151.8046      0.0000    258.8286     82.2441
   611.5000    147.8514      0.0000    258.8296     82.2439
   611.7500    141.2071      0.0000    258.8176     82.2962
   612.0000    132.9960      0.0000    258.7986     82.3731
   612.2500    124.3027      0.0000    258.7825     82.4339
   612.5000    115.8463      0.0000    258.7779     82.4369
   612.7500    108.4723      0.0000    258.7877     82.3693
   613.0000    103.1050      0.0000    258.8047     82.2734
   613.2500    100.0547      0.0000    258.8145     82.2223
   613.5000     98.8610      0.0000    258.8061     82.2589
   613.7500     98.7824      0.0000    258.7815     82.3666
   614.0000     99.1800      0.0000    258.7524     82.4954
   614.2500     99.6808      0.0000    258.7305     82.6038
   614.5000    100.1964      0.0000    258.7216     82.6778
   614.7500    100.5819      0.0000    258.7244     82.7270
   615.0000    100.3131      0.0000    258.7313     82.7691
   615.2500     99.0854      0.0000    258.7319     82.8197
   615.5000     97.8985      0.0000    258.7203     82.8903
   615.7500     98.8295      0.0000    258.6978     82.9823
   616.0000    103.1782      0.0000    258.6726     83.0718
   616.2500    110.2053      0.0000    258.6567     83.1103
   616.5000    118.0703      0.0000    258.6603     83.0584
   616.7500    125.5836      0.0000    258.6854     82.9200
   617.0000    132.6310      0.0000    258.7231     82.7407
   617.2500    139.1505      0.0000    258.7578     82.5801
   617.5000    144.1890      0.0000    258.7734     82.4891
   617.7500    146.3179      0.0000    258.7626     82.4935
   618.0000    144.9453      0.0000    258.7329     82.5833
   618.2500    140.8358      0.0000    258.7019     82.7131
   618.5000    135.5429      0.0000    258.6835     82.8209
   618.7500    130.9828      0.0000    258.6802     82.8595
   619.0000    129.0674      0.0000    258.6861     82.8245
   619.2500    130.4250      0.0000    258.6938     82.7563
   619.5000    133.2644      0.0000    258.6972     82.7091
   619.7500    134.3714      0.0000    258.6918     82.7131
   620.0000    131.7087      0.0000    258.6756     82.7650
   620.2500    125.8315      0.0000    258.6508     82.8434
   620.5000    118.6882      0.0000    258.6252     82.9232
   620.7500    111.5318      0.0000    258.6084     82.9858
   621.0000    104.4388      0.0000    258.6040     83.0297
   621.2500     97.4638      0.0000    258.6069     83.0651
   621.5000     91.2783      0.0000    258.6114     83.0920
   621.7500     86.4935      0.0000    258.6179     83.0959
   622.0000     83.0509      0.0000    258.6289     83.0672
   622.2500     80.4845      0.0000    258.6424     83.0153
   622.5000     78.3278      0.0000    258.6520     82.9646
   622.7500     76.2405      0.0000    258.6529     82.9426
   623.0000     73.9691      0.0000    258.6456     82.9635
   623.2500     71.2082      0.0000    258.6348     83.0211
   623.5000     67.8355      0.0000    258.6254     83.0969
   623.7500     64.7757      0.0000    258.6197     83.1671
