~Version Information
VERS.                      2.0: CWLS Log ASCII Standard - VERSION 2.0
WRAP.                       NO: One line per depth step
~Well Information Block
STRT.FT                -9.2500: 
STOP.FT              1945.2500: 
STEP.FT                 0.2500: 
NULL.                -999.2500: 
COMP.          Pioneer Natural Resources: COMPANY
WELL.          Titan Federal 34-17: WELL
FLD.           Purgatorie River: FIELD
LOC.           321' FSL & 1911' FEL: LOCATION
STAT.                       CO: State
CNTY.               Las Animas: COUNTY
CTRY. USA : Country
SECT. 17 : Section
TOWN. 32S : Township
RANG. 65W : Range
SRVC.          Patterson Wireline: SERVICE COMPANY
DATE.          Tue Oct 11 10:22:27 2005: LOG DATE
API.           05 071 08272 00: UNIQUE WELL ID
~Curve Information Block
DEPT.FT            0 000 00 00: Depth
CCL.                          : Casing Collar Locator
TT3.usec                      : CBL 3' Travel Time
AMP3.mV                       : CBL 3' Amplitude
GR.GAPI                       : Gamma Ray
~Parameter Information Block
~A  Depth       CCL         TT3         AMP3         GR     
# ...
   995.7500      0.0000    729.3298      3.0420     58.0696
   996.0000      0.0000    718.6008      3.4288     59.6349
   996.2500      0.0000    713.7402      4.0144     62.6249
   996.5000      0.0000    709.1864      4.8064     66.8135
   996.7500      0.0000    703.8329      5.8407     72.1657
   997.0000      0.0000    700.5461      7.1750     78.2889
   997.2500      0.0000    699.9473      8.8520     83.9979
   997.5000      0.0000    693.4099     10.8651     88.0348
   997.7500      0.0000    664.8981     13.1377     90.4810
   998.0000      0.0000    604.5551     15.4945     93.0087
   998.2500      0.0000    522.1458     17.6406     97.2987
   998.5000      0.0000    444.4686     19.2239    103.3651
   998.7500      0.0000    398.5104     19.9922    109.6255
   999.0000      0.0000    397.7640     19.9197    114.3887
   999.2500      0.0000    440.7240     19.1873    117.0073
   999.5000      0.0000    514.9379     18.0547    117.7077
   999.7500      0.0000    600.8560     16.7521    116.6502
  1000.0000      0.0000    677.9722     15.4506    113.6003
  1000.2500      0.0000    733.2808     14.2733    108.7160
  1000.5000      0.0000    765.5443     13.2953    103.2349
  1000.7500      0.0000    781.8312     12.5305     98.7040
  1001.0000      0.0000    790.4629     11.9364     95.4119
  1001.2500      0.0000    796.3374     11.4498     92.2708
  1001.5000      0.0000    801.0070     11.0278     88.6896
  1001.7500      0.0000    804.9389     10.6657     85.9183
  1002.0000      0.0000    808.2302     10.3888     85.8432
  1002.2500      0.0000    810.2257     10.2353     88.8669
  1002.5000      0.0000    810.4584     10.2363     93.8349
  1002.7500      0.0000    809.8391     10.3875     99.8114
  1003.0000      0.0000    809.6805     10.6282    106.8029
  1003.2500      0.0000    809.8074     10.8559    114.5571
  1003.5000      0.0000    808.5738     10.9795    121.9188
  1003.7500      0.0000    804.8832     10.9693    128.1508
  1004.0000      0.0000    799.6050     10.8647    134.0199
  1004.2500      0.0000    794.4937     10.7381    140.5524
  1004.5000      0.0000    790.0200     10.6480    147.1076
  1004.7500      0.0000    785.2607     10.6069    151.5813
  1005.0000      0.0000    780.4089     10.5742    152.4583
  1005.2500      0.0000    778.1130     10.4835    150.0719
  1005.5000      0.0000    781.1013     10.2946    145.8669
  1005.7500      0.0000    789.6449     10.0224    140.9788
  1006.0000      0.0000    802.9704      9.6976    135.7722
  1006.2500      0.0000    821.6605      9.3220    130.2974
  1006.5000      0.0000    845.9331      8.9035    124.7927
  1006.7500      0.0000    872.7352      8.5100    119.8476
  1007.0000      0.0000    897.7423      8.2317    116.1219
  1007.2500      0.0000    919.5899      8.0977    113.7865
  1007.5000      0.0000    939.3816      8.0702    112.4071
  1007.7500     -2.0000    956.3802      8.1076    111.6385
  1008.0000      0.0000    965.6240      8.2227    111.7834
  1008.2500      0.0000    959.8674      8.4976    113.2263
  1008.5000      0.0000    935.0486      9.0247    115.5409
  1008.7500      0.0000    895.6354      9.7860    117.7359
  1009.0000      0.0000    854.0508     10.6003    119.1744
  1009.2500      0.0000    823.0763     11.2478    119.6817
  1009.5000      0.0000    808.1081     11.6414    119.1082
  1009.7500      0.0000    806.0695     11.8399    117.6014
  1010.0000      0.0000    810.3826     11.9334    116.2223
  1010.2500      0.0000    816.2471     11.9676    116.4677
  1010.5000      0.0000    821.7919     11.9518    118.7636
  1010.7500      0.0000    825.8975     11.8913    121.6680
  1011.0000      0.0000    826.7645     11.8068    123.0141
  1011.2500      0.0000    823.1357     11.7326    121.9535
  1011.5000      0.0000    815.8160     11.6939    119.5989
  1011.7500      0.0000    806.9402     11.6820    117.8284
  1012.0000      0.0000    797.8820     11.6590    118.0129
  1012.2500      0.0000    788.4623     11.5931    120.6729
  1012.5000      0.0000    778.0279     11.4883    125.3571
  1012.7500      0.0000    766.5726     11.3757    130.4962
  1013.0000      0.0000    754.7590     11.2756    134.0512
  1013.2500      0.0000    743.5990     11.1780    134.9498
  1013.5000      0.0000    734.3214     11.0591    133.9336
  1013.7500      0.0000    727.8958     10.9110    132.8032
  1014.0000      0.0000    724.3608     10.7500    132.6851
  1014.2500      0.0000    722.8524     10.6015    133.3056
  1014.5000      0.0000    722.3186     10.4773    134.0979
  1014.7500      0.0000    722.1000     10.3712    135.3340
  1015.0000      0.0000    721.9655     10.2776    137.4849
  1015.2500      0.0000    721.8588     10.2123    139.9450
  1015.5000      0.0000    721.7336     10.2078    141.3769
  1015.7500      0.0000    721.5450     10.2872    141.2443
  1016.0000      0.0000    721.3037     10.4417    140.0765
  1016.2500      0.0000    721.0645     10.6328    138.1819
  1016.5000      0.0000    720.8734     10.8154    135.1195
  1016.7500      0.0000    720.7269     10.9620    130.8569
  1017.0000      0.0000    720.5773     11.0704    126.6356
  1017.2500      0.0000    720.3822     11.1501    124.0263
  1017.5000      0.0000    720.1537     11.2030    123.5769
  1017.7500      0.0000    719.9534     11.2194    125.0005
  1018.0000      0.0000    719.8370     11.1936    128.2087
  1018.2500      0.0000    719.8177     11.1356    133.2446
  1018.5000      0.0000    719.8826     11.0683    139.1081
  1018.7500      0.0000    720.0143     11.0173    143.5296
  1019.0000      0.0000    720.1766     11.0021    144.6464
  1019.2500      0.0000    720.2966     11.0312    142.8348
  1019.5000      0.0000    720.2963     11.1031    140.5122
  1019.7500      0.0000    720.1516     11.2137    140.0086
  1020.0000      0.0000    719.9073     11.3570    141.7205
  1020.2500      0.0000    719.6313     11.5169    144.2206
  1020.5000      0.0000    719.3645     11.6655    145.7328
  1020.7500      0.0000    719.1187     11.7764    145.1864
  1021.0000      0.0000    718.9034     11.8381    142.2478
  1021.2500      0.0000    718.7356     11.8511    137.2216
  1021.5000      0.0000    718.6224     11.8173    131.1842
  1021.7500      0.0000    718.5518     11.7355    125.5358
  1022.0000      0.0000    718.5104     11.6018    120.9164
  1022.2500      0.0000    718.4958     11.4161    117.0523
  1022.5000      0.0000    718.5063     11.1930    113.9069
  1022.7500      0.0000    718.5347     10.9669    112.1345
  1023.0000      0.0000    718.5793     10.7800    111.9807
  1023.2500      0.0000    718.6441     10.6584    112.6099
  1023.5000      0.0000    718.7153     10.6032    112.9925
  1023.7500      0.0000    718.7593     10.6020    112.7891
  1024.0000      0.0000    718.7574     10.6455    112.0548
  1024.2500      0.0000    718.7269     10.7282    110.6316
  1024.5000      0.0000    718.6870     10.8411    108.2836
  1024.7500      0.0000    718.5786     10.9713    105.3629
  1025.0000      0.0000    718.2068     11.1109    103.1593
  1025.2500      0.0000    717.2465     11.2641    103.4936
  1025.5000      0.0000    715.4988     11.4400    107.6721
  1025.7500      0.0000    713.5288     11.6275    115.2597
  1026.0000      0.0000    713.2780     11.7766    123.4927
  1026.2500      0.0000    717.4099     11.8207    128.2358
  1026.5000      0.0000    726.7372     11.7328    126.4658
  1026.7500      0.0000    737.7576     11.5507    118.7283
  1027.0000      0.0000    743.8824     11.3391    109.2463
  1027.2500      0.0000    740.7334     11.1418    103.0231
  1027.5000      0.0000    730.3696     10.9783    102.4200
  1027.7500      0.0000    719.2980     10.8704    106.4031
  1028.0000      0.0000    712.2108     10.8511    112.5681
  1028.2500      0.0000    708.6763     10.9426    119.0223
  1028.5000      0.0000    706.0178     11.1304    124.3022
  1028.7500      0.0000    703.6359     11.3543    126.8088
  1029.0000      0.0000    703.0938     11.5338    125.5220
