~Version Information
VERS.                      2.0: CWLS Log ASCII Standard - VERSION 2.0
WRAP.                       NO: One line per depth step
~Well Information Block
STRT.FT               546.2500: 
STOP.FT              2488.5000: 
STEP.FT                 0.2500: 
NULL.                -999.2500: 
COMP.          Petrogulf Corporation: COMPANY
WELL.               Egan 9-11V: WELL
FLD.           Purgatorie River: FIELD
LOC.           724' FNL & 1379' FWL: LOCATION
PROV.                 Colorado: PROVINCE
CNTY.               Las Animas: COUNTRY
SRVC.          Patterson Wireline: SERVICE COMPANY
DATE.          Fri Jul 11 23:16:48 2003: LOG DATE
UWI.           05 071 07875 00: UNIQUE WELL ID
~Curve Information Block
DEPT.FT            0 000 00 00: Depth
DCAL.in                       : CDL Caliper
RHOB.g/cc                     : CDL Bulk Density
RHOC.g/cc                     : CDL Density Correction
DPOR.pu                       : CDL Density Porosity
GR.GAPI                       : Gamma Ray
NPOR.pu                       : Neutron Porosity
~Parameter Information Block
~A  Depth       DCAL        RHOB        RHOC        DPOR         GR         NPOR    
# ...
  2082.2500      8.0327      2.5221      0.0625      7.7528    145.0350     27.3602
  2082.5000      8.0230      2.5280      0.0762      7.3909    144.0537     27.6888
  2082.7500      8.0085      2.5364      0.0839      6.8852    141.1369     27.6533
  2083.0000      8.0030      2.5531      0.0943      5.8721    135.3130     27.3114
  2083.2500      8.0113      2.5652      0.1011      5.1399    132.1044     26.9730
  2083.5000      8.0271      2.5813      0.1083      4.1665    130.1019     26.4094
  2083.7500      8.0368      2.5889      0.1080      3.7043    130.5268     26.0588
  2084.0000      8.0420      2.5942      0.0973      3.3815    132.1331     25.7194
  2084.2500      8.0549      2.5939      0.0849      3.4026    132.8680     25.7038
  2084.5000      8.0721      2.5892      0.0652      3.6872    133.1203     26.0249
  2084.7500      8.0881      2.5845      0.0551      3.9712    133.2777     26.3811
  2085.0000      8.0998      2.5765      0.0469      4.4532    134.6161     26.8994
  2085.2500      8.0986      2.5706      0.0451      4.8106    136.5329     27.1582
  2085.5000      8.0936      2.5594      0.0457      5.4922    140.9405     27.4608
  2085.7500      8.0915      2.5487      0.0466      6.1404    144.7090     27.6793
  2086.0000      8.0906      2.5247      0.0461      7.5920    150.7701     28.1203
  2086.2500      8.0899      2.5020      0.0433      8.9667    154.4059     28.4966
  2086.5000      8.0925      2.4570      0.0368     11.6999    158.6015     29.1285
  2086.7500      8.1147      2.4197      0.0339     13.9551    160.6625     29.5388
  2087.0000      8.1702      2.3538      0.0379     17.9543    163.0162     30.0671
  2087.2500      8.2286      2.3024      0.0467     21.0640    164.0435     30.3583
  2087.5000      8.2236      2.2114      0.0609     26.5800    164.1429     30.7339
  2087.7500      8.1483      2.1392      0.0638     30.9603    162.6695     30.9598
  2088.0000      8.0928      2.0120      0.0517     38.6637    156.9720     31.3213
  2088.2500      8.0858      1.9172      0.0366     44.4149    150.2083     31.6499
  2088.5000      8.1001      1.7690      0.0183     53.3922    135.1483     32.3705
  2088.7500      8.1293      1.6736      0.0146     59.1776    122.2218     32.9651
  2089.0000      8.2126      1.5463      0.0173     66.8926    100.2699     33.8216
  2089.2500      8.3549      1.4761      0.0189     71.1436     85.3052     34.2659
  2089.5000      8.4591      1.3961      0.0168     75.9966     64.8946     34.7352
  2089.7500      8.4631      1.3598      0.0146     78.1922     54.0703     34.9771
  2090.0000      8.4681      1.3316      0.0159     79.9003     43.7102     35.2864
  2090.2500      8.5635      1.3311      0.0218     79.9323     40.9200     35.4209
  2090.5000      8.6940      1.3602      0.0380     78.1668     42.0267     35.4008
  2090.7500      8.8764      1.4013      0.0526     75.6789     45.5509     35.1819
  2091.0000      9.1198      1.4972      0.0764     69.8676     54.1703     34.4873
  2091.2500      9.2526      1.5837      0.0904     64.6271     61.9589     33.7800
  2091.5000      9.1903      1.7429      0.1039     54.9783     76.3166     32.4149
  2091.7500      9.0503      1.8635      0.1077     47.6677     86.9199     31.3498
  2092.0000      8.8047      2.0527      0.1119     36.2008    101.9061     29.6016
  2092.2500      8.4442      2.1746      0.1178     28.8101    109.5703     28.4257
  2092.5000      8.2114      2.3349      0.1293     19.0998    115.6629     26.8966
  2092.7500      8.1257      2.4194      0.1329     13.9755    116.3369     26.1493
  2093.0000      8.0788      2.5079      0.1258      8.6099    114.8840     25.4384
  2093.2500      8.0486      2.5430      0.1145      6.4848    114.1033     25.1782
  2093.5000      8.0290      2.5675      0.0955      4.9984    114.7620     25.0867
  2093.7500      8.0172      2.5709      0.0859      4.7950    116.2843     25.2583
  2094.0000      8.0268      2.5654      0.0790      5.1254    119.6848     25.8442
  2094.2500      8.0326      2.5589      0.0791      5.5221    122.8122     26.3625
  2094.5000      8.0104      2.5493      0.0838      6.1017    129.0905     27.1457
  2094.7500      7.9882      2.5445      0.0885      6.3937    133.9183     27.6056
  2095.0000      7.9864      2.5402      0.0954      6.6554    140.2701     28.1550
  2095.2500      8.0029      2.5390      0.0985      6.7277    142.9017     28.3966
  2095.5000      8.0289      2.5394      0.1004      6.7039    144.2950     28.4921
  2095.7500      8.0553      2.5414      0.1017      6.5837    144.3209     28.3619
  2096.0000      8.0751      2.5480      0.1095      6.1805    144.3864     27.9811
  2096.2500      8.0851      2.5553      0.1208      5.7368    144.4881     27.7069
  2096.5000      8.0975      2.5699      0.1433      4.8532    143.2844     27.3429
  2096.7500      8.1212      2.5806      0.1561      4.2048    140.4065     27.0772
  2097.0000      8.1320      2.5950      0.1618      3.3348    132.0323     26.4998
  2097.2500      8.1036      2.6020      0.1545      2.9105    124.4657     25.9770
  2097.5000      8.0546      2.6078      0.1324      2.5581    113.1294     25.1252
  2097.7500      8.0179      2.6089      0.1164      2.4925    107.2707     24.6488
  2098.0000      8.0052      2.6072      0.0976      2.5934    102.1630     24.2580
  2098.2500      8.0073      2.6041      0.0890      2.7796    100.9843     24.2428
  2098.5000      8.0127      2.5964      0.0789      3.2456    102.0120     24.5365
  2098.7500      8.0204      2.5893      0.0729      3.6791    104.5095     24.9102
  2099.0000      8.0304      2.5766      0.0657      4.4506    110.9544     25.6796
  2099.2500      8.0340      2.5680      0.0640      4.9709    116.7324     26.2379
  2099.5000      8.0305      2.5574      0.0692      5.6138    126.1342     26.8819
  2099.7500      8.0312      2.5527      0.0776      5.8964    131.4909     27.0677
  2100.0000      8.0416      2.5491      0.0931      6.1150    135.8022     26.9918
  2100.2500      8.0478      2.5478      0.1005      6.1958    135.7054     26.7935
  2100.5000      8.0299      2.5443      0.1023      6.4078    132.4750     26.4320
  2100.7500      8.0023      2.5390      0.0979      6.7258    129.7885     26.2294
  2101.0000      7.9888      2.5241      0.0885      7.6322    127.1953     26.1415
  2101.2500      7.9867      2.5084      0.0833      8.5821    127.1354     26.3130
  2101.5000      7.9782      2.4762      0.0774     10.5315    129.8504     26.9664
  2101.7500      7.9636      2.4502      0.0741     12.1113    133.1029     27.6210
  2102.0000      7.9628      2.4084      0.0715     14.6449    138.0701     28.7723
  2102.2500      7.9780      2.3822      0.0735     16.2312    139.8206     29.5504
  2102.5000      7.9912      2.3521      0.0835     18.0557    138.5211     30.5855
  2102.7500      7.9999      2.3415      0.0940     18.6946    135.5052     31.1207
  2103.0000      8.0177      2.3436      0.1157     18.5670    130.2070     31.6130
  2103.2500      8.0544      2.3571      0.1363     17.7523    127.6148     31.7203
  2103.5000      8.0980      2.3914      0.1775     15.6732    126.6144     31.5993
  2103.7500      8.1226      2.4194      0.2066     13.9743    127.9626     31.3873
  2104.0000      8.1345      2.4607      0.2376     11.4722    131.8788     30.9572
  2104.2500      8.1673      2.4836      0.2435     10.0866    134.6799     30.6204
  2104.5000      8.2327      2.5071      0.2310      8.6592    137.6497     30.0811
  2104.7500      8.2979      2.5156      0.2133      8.1430    138.4760     29.7430
  2105.0000      8.3302      2.5203      0.1811      7.8595    138.4650     29.3113
  2105.2500      8.2920      2.5204      0.1591      7.8566    138.2973     29.0171
  2105.5000      8.1832      2.5198      0.1301      7.8913    138.6972     28.3753
  2105.7500      8.0885      2.5208      0.1149      7.8281    139.1809     27.7667
  2106.0000      8.0456      2.5267      0.0973      7.4740    138.4731     26.7396
