~Version Information
VERS.                      2.0: CWLS Log ASCII Standard - VERSION 2.0
WRAP.                       NO: One line per depth step
~Well Information Block
STRT.FT               260.0000: 
STOP.FT              2610.0000: 
STEP.FT                 0.1000: 
NULL.                -999.2500: 
COMP.          Pioneer Natural Resources: COMPANY
WELL.           Costello 44-24: WELL
FLD.           Purgatoire River: FIELD
LOC.           327' FSL & 378' FEL: LOCATION
PROV.                 Colorado: PROVINCE
CNTY.               Las Animas: COUNTRY
SRVC.                Patterson: SERVICE COMPANY
DATE.          Mon Jul 11 10:42:19 2005: LOG DATE
UWI.           05 071 08413 00: UNIQUE WELL ID
~Curve Information Block
DEPT.FT            0 000 00 00: Depth
DCAL.in                       : CDL Caliper
RHOB.g/cc                     : CDL Bulk Density
RHOC.g/cc                     : CDL Density Correction
DPOR.pu                       : CDL Density Porosity
GR.GAPI                       : Gamma Ray
NPOR.pu                       : Neutron Porosity
~Parameter Information Block
~A  Depth       DCAL        RHOB        RHOC        DPOR         GR         NPOR    
# ...
   884.0000      8.3560      2.4612      0.0943     11.4449    136.4672     25.1337
   884.1000      8.3560      2.4852      0.2236      9.9868    130.9986     25.0685
   884.2000      8.3560      2.4843      0.1704     10.0433    128.2767     24.7436
   884.3000      8.3321      2.4598      0.1252     11.5294    130.5435     24.6871
   884.4000      8.3321      2.4433      0.0466     12.5249    134.0320     24.6521
   884.5000      8.2952      2.4723      0.0720     10.7713    133.4342     24.5193
   884.6000      8.2952      2.5517      0.1597      5.9593    127.8525     24.8945
   884.7000      8.2952      2.6444      0.2011      0.3388    120.6402     25.8162
   884.8000      8.2654      2.7138      0.2614     -3.8643    115.4784     26.4693
   884.9000      8.2654      2.7576      0.2680     -6.5215    114.8022     26.4374
   885.0000      8.2571      2.7887      0.2952     -8.4040    117.4129     26.3147
   885.1000      8.2571      2.8049      0.3230     -9.3884    119.3972     26.8032
   885.2000      8.2571      2.8020      0.2412     -9.2122    118.9164     27.5470
   885.3000      8.2490      2.7796      0.2663     -7.8539    117.8910     27.8417
   885.4000      8.2490      2.7365      0.1347     -5.2414    116.4099     27.9260
   885.5000      8.3527      2.6940      0.0211     -2.6644    112.8407     28.1029
   885.6000      8.3527      2.6781     -0.0077     -1.7032    109.7983     27.8335
   885.7000      8.3527      2.6792     -0.0040     -1.7719    109.4425     27.1794
   885.8000      8.3780      2.6676     -0.0325     -1.0675    109.0982     26.9794
   885.9000      8.3780      2.6337     -0.0418      0.9882    108.6012     27.1248
   886.0000      8.3663      2.5981     -0.0600      3.1464    106.8494     27.1896
   886.1000      8.3663      2.5813     -0.0252      4.1624    102.7280     27.5657
   886.2000      8.3663      2.5740     -0.0154      4.6062    103.1629     28.3941
   886.3000      8.2676      2.5704     -0.0424      4.8270    110.3251     29.0992
   886.4000      8.2676      2.5865      0.0155      3.8488    116.7248     29.2829
   886.5000      8.1961      2.6179      0.0468      1.9480    116.2728     29.0500
   886.6000      8.1961      2.6353      0.0776      0.8902    109.3651     28.6465
   886.7000      8.1961      2.6221      0.0282      1.6930    102.5700     28.2005
   886.8000      8.1594      2.5810      0.0469      4.1804    102.2698     28.0247
   886.9000      8.1594      2.5261     -0.0319      7.5085    105.4665     28.2032
   887.0000      8.1520      2.4802     -0.0447     10.2879    106.4124     28.3936
   887.1000      8.1520      2.4636     -0.0739     11.2978    106.8649     28.5190
   887.2000      8.1520      2.4804     -0.0638     10.2794    107.4202     28.6575
   887.3000      8.1579      2.5120     -0.0358      8.3647    106.3448     28.8220
   887.4000      8.1579      2.5326      0.0493      7.1149    106.3405     29.0456
   887.5000      8.1637      2.5408      0.0445      6.6196    109.0625     29.2771
   887.6000      8.1637      2.5612      0.0455      5.3843    110.1142     29.1834
   887.7000      8.1637      2.6012      0.1337      2.9604    107.9016     28.7160
   887.8000      8.1501      2.6422      0.1215      0.4734    107.0371     28.1251
   887.9000      8.1501      2.6818      0.1349     -1.9296    109.6050     27.4458
   888.0000      8.1273      2.7208      0.1928     -4.2891    111.9051     26.9035
   888.1000      8.1273      2.7415      0.1679     -5.5425    108.4500     26.9600
   888.2000      8.1273      2.7328      0.1670     -5.0179    100.6642     27.3913
   888.3000      8.1163      2.7088      0.1221     -3.5655     97.2593     27.6487
   888.4000      8.1163      2.6938      0.0734     -2.6529    100.8839     27.6844
   888.5000      8.1139      2.6829      0.1135     -1.9914    106.9166     27.2631
   888.6000      8.1139      2.6555      0.0984     -0.3355    111.5424     26.5531
   888.7000      8.1139      2.6271      0.0235      1.3881    110.7941     26.3298
   888.8000      8.1209      2.6148      0.1078      2.1319    104.4145     26.6453
   888.9000      8.1209      2.5923      0.0688      3.4991    101.5748     26.9395
   889.0000      8.1465      2.5435      0.0061      6.4526    108.9975     27.0693
   889.1000      8.1465      2.4987     -0.0562      9.1718    118.2369     27.3735
   889.2000      8.1465      2.4895     -0.0252      9.7258    120.6955     27.7731
   889.3000      8.1425      2.5120      0.0226      8.3634    121.9357     27.8978
   889.4000      8.1425      2.5369      0.0130      6.8537    127.3727     27.7961
   889.5000      8.1530      2.5458      0.0293      6.3155    132.8988     27.6478
   889.6000      8.1530      2.5407      0.0338      6.6258    133.9046     27.4825
   889.7000      8.1530      2.5302      0.0101      7.2623    130.0798     27.2477
   889.8000      8.1689      2.5248     -0.0072      7.5849    123.2139     26.9207
   889.9000      8.1689      2.5216      0.0379      7.7812    116.4560     26.8031
   890.0000      8.1717      2.5114      0.0163      8.3988    112.7512     26.7846
   890.1000      8.1717      2.5152     -0.0489      8.1723    111.4957     26.3798
   890.2000      8.1717      2.5523      0.0256      5.9227    110.9034     25.8233
   890.3000      8.1535      2.5883      0.0849      3.7387    109.2005     25.4078
   890.4000      8.1535      2.5874      0.0514      3.7914    103.3685     24.9664
   890.5000      8.1417      2.5790     -0.0157      4.3019     94.7265     24.4985
   890.6000      8.1417      2.5976      0.1030      3.1788     89.1266     24.0338
   890.7000      8.1417      2.6214      0.0780      1.7353     88.0528     23.3488
   890.8000      8.1337      2.6239      0.1049      1.5811     85.5360     22.5418
   890.9000      8.1337      2.6110      0.0571      2.3627     80.3172     22.1372
   891.0000      8.0910      2.6043      0.0646      2.7714     77.5475     22.2113
   891.1000      8.0910      2.6136      0.0685      2.2074     77.0390     22.5292
   891.2000      8.0910      2.6204      0.1026      1.7950     75.2214     22.8754
   891.3000      8.1107      2.6031      0.0195      2.8420     72.4172     22.9765
   891.4000      8.1107      2.5694      0.0148      4.8841     70.0687     22.7662
   891.5000      8.1022      2.5366     -0.0023      6.8712     69.2203     22.3872
   891.6000      8.1022      2.5188     -0.0180      7.9536     70.8667     22.0785
   891.7000      8.1022      2.5338     -0.0275      7.0396     74.7618     22.0786
   891.8000      8.1245      2.5833      0.0426      4.0418     79.0719     22.5450
   891.9000      8.1245      2.6304      0.0792      1.1883     80.5253     23.1965
   892.0000      8.1139      2.6372      0.1105      0.7753     76.9600     23.4740
   892.1000      8.1139      2.6212      0.0348      1.7432     69.4752     23.3215
   892.2000      8.1139      2.6283      0.0590      1.3164     63.5658     22.9529
   892.3000      8.1311      2.6659      0.0959     -0.9656     62.9785     22.3063
   892.4000      8.1311      2.6967      0.1575     -2.8275     63.8423     21.3826
   892.5000      8.1274      2.6833      0.1340     -2.0174     63.3473     20.4311
   892.6000      8.1274      2.6362      0.0295      0.8367     63.5689     19.6769
   892.7000      8.1274      2.5960      0.0298      3.2755     66.8100     18.9964
   892.8000      8.1213      2.5779      0.0453      4.3692     70.2546     18.2340
   892.9000      8.1213      2.5661      0.0272      5.0859     69.9477     17.4901
   893.0000      8.1238      2.5393      0.0281      6.7105     67.7370     16.8591
   893.1000      8.1238      2.4849      0.0508     10.0046     65.9414     16.3648
   893.2000      8.1238      2.4107     -0.0271     14.5053     62.7588     15.9356
   893.3000      8.1323      2.3432     -0.0157     18.5945     60.2873     15.5949
   893.4000      8.1323      2.2939     -0.0013     21.5844     64.4631     15.5974
   893.5000      8.1463      2.2560      0.0102     23.8813     72.3974     16.0636
