~Version Information
VERS.                      2.0: CWLS Log ASCII Standard - VERSION 2.0
WRAP.                       NO: One line per depth step
~Well Information Block
STRT.FT                -8.0000: 
STOP.FT              1540.2500: 
STEP.FT                 0.2500: 
NULL.                -999.2500: 
COMP.          Pioneer Natural Resources: COMPANY
WELL.           Telna 24-22 Tr: WELL
FLD.           Purgatorie River: FIELD
LOC.           748' FSL & 1931' FWL--: LOCATION
PROV.                       CO: PROVINCE
CNTY.               Las Animas: COUNTRY
SRVC.          Patterson Wireline: SERVICE COMPANY
DATE.          Fri May 06 12:29:21 2005: LOG DATE
UWI.           05 071 08304 00: UNIQUE WELL ID
~Curve Information Block
DEPT.FT            0 000 00 00: Depth
CCL.                          : Casing Collar Locator
TT3.usec                      : CBL 3' Travel Time
AMP3.mV                       : CBL 3' Amplitude
GR.GAPI                       : Gamma Ray
~Parameter Information Block
~A  Depth       CCL         TT3         AMP3         GR     
# ...
  1499.5000      0.0000    838.9861      4.9183    162.2702
  1499.7500      0.0000    838.6263      4.9955    159.5896
  1500.0000      0.0000    838.1046      5.1294    156.4875
  1500.2500      0.0000    837.6410      5.3693    153.3979
  1500.5000      0.0000    837.2899      5.7335    151.2164
  1500.7500      0.0000    837.0588      6.1602    151.7148
  1501.0000      0.0000    836.8998      6.5363    155.9861
  1501.2500      0.0000    836.7720      6.7763    162.3113
  1501.5000      0.0000    836.7218      6.8639    166.6448
  1501.7500      0.0000    836.8596      6.8345    165.8640
  1502.0000      0.0000    837.2468      6.7508    160.2006
  1502.2500      0.0000    837.8161      6.6970    152.4970
  1502.5000      0.0000    838.3829      6.7524    145.5762
  1502.7500      0.0000    838.7635      6.9186    140.1845
  1503.0000      0.0000    838.9845      7.0612    134.9402
  1503.2500      0.0000    839.4912      6.9693    128.2122
  1503.5000      0.0000    841.0291      6.5308    119.9902
  1503.7500      0.0000    843.9463      5.8625    111.6469
  1504.0000      0.0000    847.2439      5.2277    104.1711
  1504.2500      0.0000    848.4545      4.7895     97.3869
  1504.5000      0.0000    844.6992      4.4793     90.9402
  1504.7500      0.0000    834.0309      4.1435     85.2719
  1505.0000      0.0000    816.3095      3.7696     81.2869
  1505.2500      0.0000    793.5822      3.5076     79.4916
  1505.5000      0.0000    769.6749      3.4905     79.6873
  1505.7500      2.0000    748.6759      3.6885     81.1622
  1506.0000      2.0000    732.9925      3.9310     82.9026
  1506.2500      0.0000    721.9317      4.0502     83.9617
  1506.5000      0.0000    712.1516      4.0038     84.1082
  1506.7500      0.0000    700.7679      3.8799     84.0083
  1507.0000      0.0000    688.1106      3.7882     84.2682
  1507.2500      0.0000    676.3810      3.7591     84.3556
  1507.5000      0.0000    666.1334      3.7560     82.9731
  1507.7500      0.0000    655.2600      3.7616     79.6581
  1508.0000      0.0000    641.1746      3.8169     75.7558
  1508.2500      0.0000    623.8672      3.9789     73.5773
  1508.5000      0.0000    607.5901      4.2526     74.5551
  1508.7500      0.0000    599.3628      4.5568     78.2337
  1509.0000      0.0000    603.9800      4.7709     82.9333
  1509.2500      0.0000    619.6804      4.8387     87.1833
  1509.5000      0.0000    639.7789      4.8173     90.4199
  1509.7500      0.0000    659.1495      4.8033     92.6262
  1510.0000      0.0000    678.5681      4.8198     93.9478
  1510.2500      0.0000    702.5367      4.8037     95.0238
  1510.5000      0.0000    733.2710      4.6991     97.3586
  1510.7500      0.0000    767.0000      4.5321    102.8015
  1511.0000      0.0000    796.1793      4.3858    112.4189
  1511.2500      0.0000    815.0440      4.3231    125.9866
  1511.5000      0.0000    822.9074      4.3467    142.5311
  1511.7500      0.0000    823.2306      4.4248    160.7930
  1512.0000      0.0000    820.9601      4.5319    178.6865
  1512.2500      0.0000    820.3452      4.6473    193.0019
  1512.5000      0.0000    823.3614      4.7357    200.7002
  1512.7500      0.0000    828.9877      4.7763    200.5313
  1513.0000      0.0000    834.0029      4.8054    193.2790
  1513.2500      0.0000    834.6265      4.8805    181.3362
  1513.5000      0.0000    827.8608      5.0031    168.3841
  1513.7500      0.0000    812.9680      5.1099    158.1738
  1514.0000      0.0000    793.3203      5.1371    152.3809
  1514.2500      0.0000    775.7808      5.0770    149.9989
  1514.5000      0.0000    765.8953      4.9812    149.2914
  1514.7500      0.0000    763.9296      4.9182    149.4699
  1515.0000      0.0000    767.4630      4.9151    149.9486
  1515.2500      0.0000    776.1301      4.9428    149.3664
  1515.5000      0.0000    790.5363      4.9466    146.7495
  1515.7500      0.0000    808.0261      4.8883    143.2383
  1516.0000      0.0000    823.2881      4.7772    141.6949
  1516.2500      0.0000    832.8837      4.6682    144.2804
  1516.5000      0.0000    837.1537      4.6114    150.3695
  1516.7500      0.0000    838.3133      4.6056    157.0313
  1517.0000      0.0000    838.1271      4.6058    161.7405
  1517.2500      0.0000    836.9438      4.5663    164.1627
  1517.5000      0.0000    833.4681      4.4747    165.0058
  1517.7500      0.0000    824.8428      4.3575    164.2869
  1518.0000      0.0000    807.8412      4.2451    161.9613
  1518.2500      0.0000    781.6582      4.1450    159.4449
  1518.5000      0.0000    750.9476      4.0675    158.9047
  1518.7500      0.0000    725.9345      4.0500    161.0336
  1519.0000      0.0000    717.6559      4.1219    164.3137
  1519.2500      0.0000    730.4113      4.2676    166.2143
  1519.5000      0.0000    757.5151      4.4390    164.5566
  1519.7500      0.0000    785.0627      4.5827    158.3966
  1520.0000      0.0000    800.8137      4.6632    148.8482
  1520.2500      0.0000    800.6780      4.6985    139.2601
  1520.5000      0.0000    789.3575      4.7601    133.5771
  1520.7500      0.0000    776.7103      4.8967    133.5685
  1521.0000      0.0000    771.9014      5.0661    137.4729
  1521.2500      0.0000    778.1826      5.1847    141.5143
  1521.5000      0.0000    792.0783      5.2300    142.6180
  1521.7500      0.0000    807.1801      5.2494    139.6929
  1522.0000      0.0000    818.2950      5.2749    133.2542
  1522.2500      0.0000    822.5389      5.2824    124.8151
  1522.5000      0.0000    818.1977      5.2492    116.5938
  1522.7500      0.0000    804.1796      5.2063    110.9213
  1523.0000      0.0000    781.4905      5.2005    109.1141
  1523.2500      0.0000    754.9191      5.2404    110.5598
  1523.5000      0.0000    731.9126      5.3186    112.8942
  1523.7500      0.0000    718.3231      5.4494    113.2135
  1524.0000      0.0000    714.3723      5.6343    109.4832
  1524.2500      0.0000    715.1541      5.8214    101.4074
  1524.5000      0.0000    716.5624      5.9453     90.5482
  1524.7500      0.0000    720.9826      5.9865     79.6560
  1525.0000      0.0000    734.8680      5.9666     71.3551
  1525.2500      0.0000    759.6810      5.9089     66.9739
  1525.5000      0.0000    787.6797      5.8215     66.2842
  1525.7500      0.0000    807.6741      5.7001     67.7346
  1526.0000      0.0000    812.8954      5.5381     68.4754
  1526.2500      0.0000    803.8845      5.3491     64.8597
  1526.5000      0.0000    787.7804      5.1779     54.5991
  1526.7500      0.0000    775.5283      5.0719     39.1641
  1527.0000      0.0000    775.7745      5.0447     23.2419
  1527.2500      0.0000    788.7706      5.0710     11.1909
  1527.5000      0.0000    807.1011      5.1043      4.3170
  1527.7500      0.0000    822.7207      5.1046      1.3227
  1528.0000      0.0000    832.3367      5.0633      0.3200
  1528.2500      0.0000    836.7907      4.9935      0.0605
  1528.5000      0.0000    837.5613      4.9087      0.0084
  1528.7500      0.0000    834.5648      4.8290      0.0000
  1529.0000      0.0000    826.6109      4.7907   -999.2500
  1529.2500      0.0000    813.9188      4.8211   -999.2500
  1529.5000      0.0000    800.2990      4.9098   -999.2500
  1529.7500      0.0000    791.2425      5.0217   -999.2500
  1530.0000      0.0000    788.3919      5.1282   -999.2500
  1530.2500      0.0000    787.5897      5.2143   -999.2500
  1530.5000      0.0000    784.4667      5.2698   -999.2500
  1530.7500      0.0000    779.5898      5.2897   -999.2500
  1531.0000      0.0000    774.0505      5.2697   -999.2500
  1531.2500      0.0000    759.4719      5.1852   -999.2500
  1531.5000      0.0000    715.7617      4.9763   -999.2500
  1531.7500      0.0000    623.5219      4.5704   -999.2500
  1532.0000      0.0000    483.1096      3.9472   -999.2500
  1532.2500      0.0000    322.0974      3.1968   -999.2500
  1532.5000      0.0000    180.0099      2.4942   -999.2500
  1532.7500      0.0000     82.6702      1.9850   -999.2500
