~Version Information
VERS.                      2.0: CWLS Log ASCII Standard - VERSION 2.0
WRAP.                       NO: One line per depth step
~Well Information Block
STRT.FT               954.0000: 
STOP.FT              2517.0000: 
STEP.FT                 0.2500: 
NULL.                -999.2500: 
COMP.          Petrogulf Corporation: COMPANY
WELL.             Royal 8-33 V: WELL
FLD.           Purgatoire River: FIELD
LOC.           2365' FSL & 2336' FEL: LOCATION
PROV.                 Colorado: PROVINCE
CNTY.               Las Animas: COUNTRY
SRVC.                Patterson: SERVICE COMPANY
DATE.          Fri Dec 05 04:39:41 2003: LOG DATE
UWI.                          : UNIQUE WELL ID
~Curve Information Block
DEPT.FT            0 000 00 00: Depth
SP.mV                         : DIL Spontaneous Potential
RILD.Ohm-m                    : DIL Deep Resistivity
RILM.Ohm-m                    : DIL Medium Resistivity
RLL3.Ohm-m                    : DIL Shallow Resistivity
GR.GAPI                       : Gamma Ray
~Parameter Information Block
~A  Depth        SP         RILD        RILM        RLL3         GR     
# ...
  1178.0000   2000.0000     28.6742     30.4440   2000.0000     97.6364
  1178.2500   2000.0000     31.1788     32.9288   2000.0000     95.3034
  1178.5000   2000.0000     33.3579     35.3460   2000.0000     94.3246
  1178.7500   2000.0000     34.9455     37.4787   2000.0000     95.0812
  1179.0000   2000.0000     35.7917     39.0640   2000.0000     96.8218
  1179.2500   2000.0000     35.9018     39.8629   2000.0000     97.3954
  1179.5000   2000.0000     35.4059     39.7634   2000.0000     96.1223
  1179.7500   2000.0000     34.4831     38.8500   2000.0000     93.7364
  1180.0000   2000.0000     33.2947     37.3740   2000.0000     89.3089
  1180.2500   2000.0000     31.9508     35.6434   2000.0000     87.3994
  1180.5000   2000.0000     30.5218     33.9122   2000.0000     88.8187
  1180.7500   2000.0000     29.0781     32.3257   2000.0000     93.4182
  1181.0000   2000.0000     27.7173     30.9253   2000.0000    104.9579
  1181.2500   2000.0000     26.5519     29.6901   2000.0000    114.0492
  1181.5000   2000.0000     25.6675     28.5834   2000.0000    126.3181
  1181.7500   2000.0000     25.0833     27.5797   2000.0000    132.3350
  1182.0000   2000.0000     24.7432     26.6654   2000.0000    138.1124
  1182.2500   2000.0000     24.5465     25.8293   2000.0000    140.5816
  1182.5000   2000.0000     24.4092     25.0594   2000.0000    143.3768
  1182.7500   2000.0000     24.3143     24.3496   2000.0000    144.7919
  1183.0000   2000.0000     24.3094     23.7113   2000.0000    146.0463
  1183.2500   2000.0000     24.4543     23.1824   2000.0000    146.3842
  1183.5000   2000.0000     24.7684     22.8264   2000.0000    146.7824
  1183.7500   2000.0000     25.2163     22.7200   2000.0000    147.3353
  1184.0000   2000.0000     25.7276     22.9348   2000.0000    148.5276
  1184.2500   2000.0000     26.2287     23.5195   2000.0000    148.9352
  1184.5000   2000.0000     26.6627     24.4817   2000.0000    147.0670
  1184.7500   2000.0000     26.9912     25.7673   2000.0000    143.0591
  1185.0000   2000.0000     27.1891     27.2275   2000.0000    132.1784
  1185.2500   2000.0000     27.2433     28.5969   2000.0000    122.4133
  1185.5000   2000.0000     27.1621     29.5319   2000.0000    107.1542
  1185.7500   2000.0000     26.9801     29.7540   2000.0000     98.7375
  1186.0000   2000.0000     26.7412     29.2208   2000.0000     91.0098
  1186.2500   2000.0000     26.4601     28.1455   2000.0000     89.1357
  1186.5000   2000.0000     26.0953     26.8341   2000.0000     89.8866
  1186.7500   2000.0000     25.5673     25.5107   2000.0000     91.8686
  1187.0000   2000.0000     24.8190     24.2636   2000.0000     95.9676
  1187.2500   2000.0000     23.8657     23.0955   2000.0000     99.0224
  1187.5000   2000.0000     22.7899     21.9941   2000.0000    103.5849
  1187.7500   2000.0000     21.6941     20.9679   2000.0000    106.4640
  1188.0000   2000.0000     20.6602     20.0398   2000.0000    110.5336
  1188.2500   2000.0000     19.7348     19.2278   2000.0000    113.1426
  1188.5000   2000.0000     18.9351     18.5372   2000.0000    116.9321
  1188.7500   2000.0000     18.2625     17.9651   2000.0000    119.2999
  1189.0000   2000.0000     17.7132     17.5056   2000.0000    122.4673
  1189.2500   2000.0000     17.2824     17.1514   2000.0000    124.3633
  1189.5000   2000.0000     16.9612     16.8933   2000.0000    126.9370
  1189.7500   2000.0000     16.7342     16.7190   2000.0000    128.1478
  1190.0000   2000.0000     16.5814     16.6146   2000.0000    128.0486
  1190.2500   2000.0000     16.4845     16.5649   2000.0000    126.1932
  1190.5000   2000.0000     16.4329     16.5546   2000.0000    121.1087
  1190.7500   2000.0000     16.4246     16.5696   2000.0000    117.2006
  1191.0000   2000.0000     16.4633     16.5992   2000.0000    112.7604
  1191.2500   2000.0000     16.5529     16.6386   2000.0000    111.5497
  1191.5000   2000.0000     16.6943     16.6873   2000.0000    112.1438
  1191.7500   2000.0000     16.8865     16.7460   2000.0000    113.4260
  1192.0000   2000.0000     17.1308     16.8138   2000.0000    115.7180
  1192.2500   2000.0000     17.4360     16.8924   2000.0000    117.3911
  1192.5000   2000.0000     17.8178     16.9942   2000.0000    120.0618
  1192.7500   2000.0000     18.2908     17.1469   2000.0000    121.4583
  1193.0000   2000.0000     18.8536     17.3860   2000.0000    121.4193
  1193.2500   2000.0000     19.4806     17.7400   2000.0000    119.3932
  1193.5000   2000.0000     20.1302     18.2186   2000.0000    114.2276
  1193.7500   2000.0000     20.7720     18.8142   2000.0000    110.7405
  1194.0000   2000.0000     21.4118     19.5135   2000.0000    107.3166
  1194.2500   2000.0000     22.0918     20.3090   2000.0000    106.2128
  1194.5000   2000.0000     22.8634     21.2044   2000.0000    104.8345
  1194.7500   2000.0000     23.7576     22.2143   2000.0000    103.3688
  1195.0000   2000.0000     24.7761     23.3614   2000.0000    100.4472
  1195.2500   2000.0000     25.9008     24.6682   2000.0000     98.5027
  1195.5000   2000.0000     27.1088     26.1440   2000.0000     95.7916
  1195.7500   2000.0000     28.3759     27.7770   2000.0000     93.7130
  1196.0000   2000.0000     29.6733     29.5384   2000.0000     89.5263
  1196.2500   2000.0000     30.9720     31.3926   2000.0000     86.1122
  1196.5000   2000.0000     32.2592     33.2875   2000.0000     80.8779
  1196.7500   2000.0000     33.5497     35.1246   2000.0000     77.7818
  1197.0000   2000.0000     34.8682     36.7485   2000.0000     73.9866
  1197.2500   2000.0000     36.2093     37.9967   2000.0000     71.8650
  1197.5000   2000.0000     37.5084     38.7798   2000.0000     68.9584
  1197.7500   2000.0000     38.6549     39.1115   2000.0000     67.1774
  1198.0000   2000.0000     39.5433     39.0672   2000.0000     65.1051
  1198.2500   2000.0000     40.1244     38.7328   2000.0000     64.5211
  1198.5000   2000.0000     40.4125     38.1919   2000.0000     65.5564
  1198.7500   2000.0000     40.4515     37.5311   2000.0000     67.6977
  1199.0000   2000.0000     40.2781     36.8373   2000.0000     72.5734
  1199.2500   2000.0000     39.9160     36.1843   2000.0000     76.2108
  1199.5000   2000.0000     39.4054     35.6249   2000.0000     81.0617
  1199.7500   2000.0000     38.8203     35.1912   2000.0000     83.6594
  1200.0000   2000.0000     38.2427     34.8964   2000.0000     86.7083
  1200.2500   2000.0000     37.7194     34.7369   2000.0000     87.9492
  1200.5000   2000.0000     37.2622     34.7012   2000.0000     87.4725
  1200.7500   2000.0000     36.9058     34.7826   2000.0000     85.0777
  1201.0000   2000.0000     36.7576     34.9854   2000.0000     78.8604
  1201.2500   2000.0000     36.9688     35.3220   2000.0000     74.0374
  1201.5000   2000.0000     37.6417     35.8027   2000.0000     67.8744
  1201.7500   2000.0000     38.7487     36.4267   2000.0000     65.2218
  1202.0000   2000.0000     40.1246     37.1764   2000.0000     63.5658
  1202.2500   2000.0000     41.5383     38.0156   2000.0000     63.7058
  1202.5000   2000.0000     42.8033     38.8951   2000.0000     65.0296
  1202.7500   2000.0000     43.8400     39.7629   2000.0000     66.1099
  1203.0000   2000.0000     44.6507     40.5719   2000.0000     67.0739
  1203.2500   2000.0000     45.2525     41.2771   2000.0000     66.9196
  1203.5000   2000.0000     45.6432     41.8254   2000.0000     65.5089
  1203.7500   2000.0000     45.8190     42.1578   2000.0000     64.1608
  1204.0000   2000.0000     45.8032     42.2295   2000.0000     62.4298
  1204.2500   2000.0000     45.6549     42.0382   2000.0000     61.8330
  1204.5000   2000.0000     45.4553     41.6368   2000.0000     61.7679
  1204.7500   2000.0000     45.2761     41.1162   2000.0000     61.9334
  1205.0000   2000.0000     45.1499     40.5775   2000.0000     61.7171
  1205.2500   2000.0000     45.0628     40.1066   2000.0000     61.0297
  1205.5000   2000.0000     44.9765     39.7614   2000.0000     59.5174
  1205.7500   2000.0000     44.8576     39.5660   2000.0000     58.6710
