~Version Information
VERS.                      2.0: CWLS Log ASCII Standard - VERSION 2.0
WRAP.                       NO: One line per depth step
~Well Information Block
STRT.FT               520.0000: 
STOP.FT              2183.5000: 
STEP.FT                 0.1000: 
NULL.                -999.2500: 
COMP.          Pioneer Natural Resources: COMPANY
WELL.             Enzo 43-8 Tr: WELL
FLD.           Purgatoire River: FIELD
LOC.           2303' FSL & 604' FEL: LOCATION
PROV.                 Colorado: PROVINCE
CNTY.               Las Animas: COUNTRY
SRVC.                Patterson: SERVICE COMPANY
DATE.          Sun Oct 31 15:10:54 2004: LOG DATE
UWI.           05 071 08213 00: UNIQUE WELL ID
~Curve Information Block
DEPT.FT            0 000 00 00: Depth
DCAL.in                       : CDL Caliper
RHOB.g/cc                     : CDL Bulk Density
RHOC.g/cc                     : CDL Density Correction
DPOR.pu                       : CDL Density Porosity
NPOR.pu                       : Neutron Porosity
GR.GAPI                       : Gamma Ray
~Parameter Information Block
~A  Depth       DCAL        RHOB        RHOC        DPOR        NPOR         GR     
# ...
  1825.6000      8.1130      2.6020      0.2946      2.9087     23.6781    147.9050
  1825.7000      8.1130      2.5921      0.2431      3.5097     24.0872    147.1391
  1825.8000      8.1116      2.5680      0.1541      4.9674     24.2199    147.9144
  1825.9000      8.1116      2.5407      0.1053      6.6229     23.9890    146.2488
  1826.0000      8.1169      2.5121      0.0603      8.3569     23.5587    143.2092
  1826.1000      8.1169      2.4882      0.0299      9.8057     23.4469    143.0640
  1826.2000      8.1169      2.4643      0.0604     11.2538     23.7815    142.4709
  1826.3000      8.1246      2.4335     -0.0234     13.1192     24.2135    139.3236
  1826.4000      8.1246      2.4110     -0.0125     14.4837     24.3667    136.7712
  1826.5000      8.1317      2.4059     -0.0356     14.7956     24.1755    135.8860
  1826.6000      8.1317      2.4026      0.0140     14.9958     23.7290    134.8471
  1826.7000      8.1317      2.3792      0.0324     16.4145     22.7410    132.6270
  1826.8000      8.1358      2.3280      0.0091     19.5178     20.8715    131.7544
  1826.9000      8.1358      2.2490      0.0023     24.3015     18.3237    132.7055
  1827.0000      8.1364      2.1383     -0.0368     31.0100     15.6503    130.7197
  1827.1000      8.1364      2.0007     -0.0291     39.3511     13.3934    125.0388
  1827.2000      8.1364      1.8591     -0.0992     47.9304     11.7637    121.2319
  1827.3000      8.1318      1.7375     -0.1135     55.3013     10.5386    123.7771
  1827.4000      8.1318      1.6389     -0.0803     61.2791      9.5855    132.0747
  1827.5000      8.1267      1.5622     -0.1281     65.9258      8.9531    138.2435
  1827.6000      8.1267      1.5235     -0.0848     68.2701      8.4635    136.8269
  1827.7000      8.1267      1.5388     -0.0479     67.3470      8.0814    132.4899
  1827.8000      8.1293      1.6103      0.0593     63.0142      8.2690    128.6683
  1827.9000      8.1293      1.7265      0.1590     55.9723      9.1878    125.1409
  1828.0000      8.1350      1.8592      0.3185     47.9296     10.2295    123.0260
  1828.1000      8.1350      1.9735      0.3745     41.0004     11.0238    122.3655
  1828.2000      8.1350      2.0516      0.3476     36.2691     12.0257    124.0048
  1828.3000      8.1452      2.1039      0.2885     33.0997     13.4795    126.5287
  1828.4000      8.1452      2.1596      0.2118     29.7231     15.2220    126.5674
  1828.5000      8.1640      2.2394      0.1505     24.8833     17.1551    125.7559
  1828.6000      8.1640      2.3344      0.1373     19.1283     18.7568    129.3835
  1828.7000      8.1640      2.4099      0.1776     14.5497     19.5323    140.1371
  1828.8000      8.1828      2.4394      0.1504     12.7638     19.7348    155.1016
  1828.9000      8.1828      2.4322      0.1235     13.1993     19.9406    166.9839
  1829.0000      8.1899      2.4232      0.1048     13.7480     20.6296    169.8919
  1829.1000      8.1899      2.4392      0.1891     12.7767     21.6769    166.2650
  1829.2000      8.1899      2.4733      0.2598     10.7109     22.4891    162.9015
  1829.3000      8.1827      2.5006      0.2371      9.0569     22.7619    160.3005
  1829.4000      8.1827      2.5147      0.2023      8.1983     22.6167    159.3096
  1829.5000      8.1510      2.5304      0.1587      7.2509     22.4414    163.8077
  1829.6000      8.1510      2.5566      0.1456      5.6625     22.4934    168.2180
  1829.7000      8.1510      2.5845      0.1737      3.9703     22.5802    164.5219
  1829.8000      8.0998      2.6031      0.1637      2.8454     22.5985    155.4180
  1829.9000      8.0998      2.6067      0.1571      2.6242     22.7801    146.7457
  1830.0000      8.0704      2.5901      0.1009      3.6322     23.2400    142.6755
  1830.1000      8.0704      2.5531      0.0757      5.8730     23.6971    145.0654
  1830.2000      8.0704      2.5057      0.0061      8.7431     23.8915    149.2259
  1830.3000      8.0653      2.4696      0.0059     10.9306     24.0181    148.8516
  1830.4000      8.0653      2.4606     -0.0059     11.4808     23.9957    146.6342
  1830.5000      8.0640      2.4762     -0.0280     10.5317     23.2139    145.8686
  1830.6000      8.0640      2.5036      0.0290      8.8748     21.8852    142.7328
  1830.7000      8.0640      2.5258      0.0333      7.5270     20.7977    136.9589
  1830.8000      8.0626      2.5387      0.0068      6.7460     20.0699    134.3795
  1830.9000      8.0626      2.5467      0.0407      6.2606     19.5335    137.4437
  1831.0000      8.0623      2.5515     -0.0063      5.9727     19.1220    141.7440
  1831.1000      8.0623      2.5646     -0.0011      5.1759     18.9161    138.9377
  1831.2000      8.0623      2.5916      0.0652      3.5409     19.1009    125.6887
  1831.3000      8.0628      2.6161      0.0884      2.0524     19.6896    107.5388
  1831.4000      8.0628      2.6267      0.0856      1.4112     20.4718     95.2263
  1831.5000      8.0627      2.6270      0.0579      1.3925     21.1008     94.2424
  1831.6000      8.0627      2.6275      0.0281      1.3641     21.4685     98.3043
  1831.7000      8.0627      2.6327      0.0180      1.0470     21.6661     99.5050
  1831.8000      8.0616      2.6341      0.0219      0.9638     21.9173     96.2052
  1831.9000      8.0616      2.6265      0.0094      1.4227     22.6502     90.6607
  1832.0000      8.0601      2.6197     -0.0028      1.8393     23.7172     86.2982
  1832.1000      8.0601      2.6183      0.0206      1.9204     24.3717     82.8279
  1832.2000      8.0601      2.6139      0.0262      2.1878     24.4797     77.3043
  1832.3000      8.0576      2.6061     -0.0382      2.6582     24.4386     71.9991
  1832.4000      8.0576      2.5986      0.0331      3.1162     24.2974     70.3974
  1832.5000      8.0548      2.5805      0.0091      4.2151     24.1046     70.7881
  1832.6000      8.0548      2.5483     -0.0202      6.1639     24.0030     69.1224
  1832.7000      8.0548      2.5221     -0.0495      7.7499     23.9064     66.5315
  1832.8000      8.0554      2.5280     -0.0387      7.3936     23.6218     67.8702
  1832.9000      8.0554      2.5645      0.0360      5.1816     23.0412     71.5795
  1833.0000      8.0582      2.6031      0.0643      2.8436     22.3903     74.8228
  1833.1000      8.0582      2.6291      0.0633      1.2668     22.0385     77.4803
  1833.2000      8.0582      2.6577      0.0286     -0.4696     21.9866     79.5578
  1833.3000      8.0593      2.6920      0.0961     -2.5428     21.9637     81.9811
  1833.4000      8.0593      2.7057      0.1095     -3.3781     21.8179     84.0438
  1833.5000      8.0586      2.6903      0.0828     -2.4413     21.7270     84.3772
  1833.6000      8.0586      2.6667      0.0236     -1.0140     21.8442     83.8608
  1833.7000      8.0586      2.6472      0.0770      0.1695     22.0641     84.2064
  1833.8000      8.0586      2.6228     -0.0146      1.6497     22.2796     86.1815
  1833.9000      8.0586      2.5969     -0.0030      3.2175     22.5242     89.6088
  1834.0000      8.0593      2.5846     -0.0117      3.9627     22.8447     93.3973
  1834.1000      8.0593      2.5868     -0.0059      3.8326     22.9618     95.2278
  1834.2000      8.0593      2.5879      0.0125      3.7665     22.4814     93.4497
  1834.3000      8.0603      2.5772     -0.0350      4.4110     21.7653     91.8697
  1834.4000      8.0603      2.5603      0.0112      5.4389     21.6063     93.0402
  1834.5000      8.0608      2.5457     -0.0527      6.3202     22.1256     92.9408
  1834.6000      8.0608      2.5426     -0.0056      6.5120     22.7756     90.2666
  1834.7000      8.0608      2.5570     -0.0266      5.6354     23.2292     89.4641
  1834.8000      8.0608      2.5856      0.0326      3.9041     23.4804     93.0945
  1834.9000      8.0608      2.6151      0.0667      2.1181     23.6415     98.0686
  1835.0000      8.0617      2.6412      0.0474      0.5352     23.7354     98.1799
  1835.1000      8.0617      2.6641      0.1056     -0.8530     23.7618     93.1894
