~Version Information
VERS.                      2.0: CWLS Log ASCII Standard - VERSION 2.0
WRAP.                       NO: One line per depth step
~Well Information Block
STRT.FT               546.2500: 
STOP.FT              2488.5000: 
STEP.FT                 0.2500: 
NULL.                -999.2500: 
COMP.          Petrogulf Corporation: COMPANY
WELL.               Egan 9-11V: WELL
FLD.           Purgatorie River: FIELD
LOC.           724' FNL & 1379' FWL: LOCATION
PROV.                 Colorado: PROVINCE
CNTY.               Las Animas: COUNTRY
SRVC.          Patterson Wireline: SERVICE COMPANY
DATE.          Fri Jul 11 23:16:48 2003: LOG DATE
UWI.           05 071 07875 00: UNIQUE WELL ID
~Curve Information Block
DEPT.FT            0 000 00 00: Depth
DCAL.in                       : CDL Caliper
RHOB.g/cc                     : CDL Bulk Density
RHOC.g/cc                     : CDL Density Correction
DPOR.pu                       : CDL Density Porosity
GR.GAPI                       : Gamma Ray
NPOR.pu                       : Neutron Porosity
~Parameter Information Block
~A  Depth       DCAL        RHOB        RHOC        DPOR         GR         NPOR    
# ...
  1194.2500      8.2228      2.5551      0.0635      5.7508     82.1168     15.8542
  1194.5000      8.2278      2.5520      0.0696      5.9392     79.1543     16.0055
  1194.7500      8.2403      2.5508      0.0704      6.0109     78.0778     16.2718
  1195.0000      8.2552      2.5502      0.0665      6.0465     77.4367     16.8042
  1195.2500      8.2626      2.5506      0.0613      6.0226     77.3654     17.1051
  1195.5000      8.2645      2.5519      0.0520      5.9451     78.1692     17.2459
  1195.7500      8.2683      2.5524      0.0454      5.9139     79.8069     17.0843
  1196.0000      8.2704      2.5507      0.0352      6.0179     84.0442     16.5677
  1196.2500      8.2657      2.5469      0.0279      6.2492     87.6634     16.1865
  1196.5000      8.2608      2.5367      0.0170      6.8686     93.8942     15.8448
  1196.7500      8.2613      2.5275      0.0111      7.4233     98.8198     15.8957
  1197.0000      8.2679      2.5125      0.0085      8.3323    107.8302     16.4474
  1197.2500      8.2853      2.5030      0.0116      8.9079    114.7425     17.0577
  1197.5000      8.3140      2.4910      0.0204      9.6356    125.5441     18.0993
  1197.7500      8.3410      2.4848      0.0259     10.0129    132.5394     18.7697
  1198.0000      8.3546      2.4781      0.0314     10.4156    142.2232     19.7370
  1198.2500      8.3586      2.4756      0.0354     10.5707    147.8534     20.4238
  1198.5000      8.3584      2.4749      0.0460     10.6142    154.3627     21.5554
  1198.7500      8.3550      2.4765      0.0558     10.5156    157.0218     22.3094
  1199.0000      8.3475      2.4813      0.0681     10.2257    158.2905     23.2822
  1199.2500      8.3429      2.4849      0.0704     10.0031    157.6130     23.7794
  1199.5000      8.3476      2.4888      0.0617      9.7723    155.4076     24.2858
  1199.7500      8.3523      2.4888      0.0498      9.7678    153.8935     24.4531
  1200.0000      8.3544      2.4838      0.0293     10.0745    152.4081     24.4229
  1200.2500      8.3596      2.4766      0.0174     10.5072    151.9569     24.2239
  1200.5000      8.3775      2.4601      0.0058     11.5112    151.3340     23.7136
  1200.7500      8.4112      2.4446      0.0027     12.4476    150.3119     23.2563
  1201.0000      8.4406      2.4124      0.0028     14.3971    147.2726     22.3548
  1201.2500      8.4517      2.3830      0.0028     16.1846    144.5490     21.5353
  1201.5000      8.4485      2.3242     -0.0034     19.7430    140.6204     19.8986
  1201.7500      8.4369      2.2765     -0.0120     22.6372    138.4138     18.6461
  1202.0000      8.4329      2.1999     -0.0224     27.2814    134.8324     17.0337
  1202.2500      8.4513      2.1528     -0.0188     30.1307    131.5362     16.4606
  1202.5000      8.4778      2.1008      0.0088     33.2820    125.4400     16.6054
  1202.7500      8.5198      2.0823      0.0363     34.4080    121.8307     17.2739
  1203.0000      8.5803      2.0750      0.0724     34.8500    119.5543     18.6024
  1203.2500      8.5947      2.0761      0.0841     34.7812    120.5773     19.2758
  1203.5000      8.5444      2.0687      0.0795     35.2312    124.0363     19.3316
  1203.7500      8.4842      2.0484      0.0648     36.4628    125.6565     18.6031
  1204.0000      8.4568      1.9885      0.0364     40.0898    124.6091     16.7104
  1204.2500      8.4635      1.9330      0.0223     43.4573    121.3569     15.3492
  1204.5000      8.5009      1.8437      0.0217     48.8658    113.5161     13.8840
  1204.7500      8.5796      1.7934      0.0364     51.9162    107.0014     13.5760
  1205.0000      8.7038      1.7517      0.0722     54.4450     96.9105     14.3729
  1205.2500      8.8319      1.7540      0.0972     54.3027     91.3779     15.7585
  1205.5000      8.8887      1.8072      0.1261     51.0796     87.4107     18.8280
  1205.7500      8.9137      1.8734      0.1359     47.0694     88.4249     21.1203
  1206.0000      8.9208      2.0071      0.1326     38.9664     94.5083     24.0423
  1206.2500      8.8082      2.1090      0.1181     32.7898     99.8980     25.2655
  1206.5000      8.6013      2.2610      0.0847     23.5761    106.7159     25.8371
  1206.7500      8.3966      2.3512      0.0615     18.1105    109.3991     25.5487
  1207.0000      8.2792      2.4580      0.0356     11.6364    111.0965     24.7016
  1207.2500      8.2448      2.5084      0.0270      8.5812    111.6063     24.2150
  1207.5000      8.2399      2.5567      0.0257      5.6516    112.5878     23.9631
  1207.7500      8.2402      2.5751      0.0295      4.5399    113.4635     24.1350
  1208.0000      8.2405      2.5890      0.0358      3.6968    114.5394     24.7029
  1208.2500      8.2397      2.5925      0.0381      3.4833    114.7150     25.1246
  1208.5000      8.2383      2.5937      0.0392      3.4144    114.1175     25.6174
  1208.7500      8.2379      2.5939      0.0422      3.4027    113.6207     25.8137
  1209.0000      8.2386      2.5960      0.0561      3.2705    113.7750     25.9385
  1209.2500      8.2382      2.5993      0.0706      3.0731    114.7184     25.9354
  1209.5000      8.2353      2.6057      0.0888      2.6873    117.0969     25.8214
  1209.7500      8.2314      2.6093      0.0911      2.4638    119.0862     25.6732
  1210.0000      8.2299      2.6115      0.0758      2.3330    122.5094     25.3480
  1210.2500      8.2318      2.6100      0.0576      2.4249    125.0188     25.0765
  1210.5000      8.2417      2.6038      0.0309      2.7980    128.7596     24.6472
  1210.7500      8.2531      2.5983      0.0195      3.1351    130.8056     24.4101
  1211.0000      8.2535      2.5903      0.0143      3.6176    132.2028     24.2621
  1211.2500      8.2463      2.5868      0.0169      3.8300    131.5992     24.3636
  1211.5000      8.2420      2.5866      0.0274      3.8421    128.8358     24.8314
  1211.7500      8.2407      2.5907      0.0398      3.5921    126.8891     25.2911
  1212.0000      8.2401      2.6032      0.0687      2.8386    126.1076     25.9893
  1212.2500      8.2394      2.6142      0.0922      2.1703    127.3994     26.3237
  1212.5000      8.2377      2.6305      0.1208      1.1817    130.2165     26.5031
  1212.7500      8.2351      2.6385      0.1274      0.6964    131.0653     26.4305
  1213.0000      8.2320      2.6434      0.1144      0.3976    129.4337     26.1489
  1213.2500      8.2361      2.6422      0.0956      0.4757    126.7213     25.8745
  1213.5000      8.2497      2.6362      0.0680      0.8392    121.5081     25.2708
  1213.7500      8.2595      2.6316      0.0572      1.1167    117.9247     24.7019
  1214.0000      8.2598      2.6264      0.0537      1.4287    113.1622     23.6526
  1214.2500      8.2493      2.6245      0.0555      1.5437    110.6923     22.9081
  1214.5000      8.2306      2.6230      0.0565      1.6377    108.1772     21.8510
  1214.7500      8.2184      2.6218      0.0536      1.7104    107.0482     21.2224
  1215.0000      8.2153      2.6183      0.0439      1.9220    105.3641     20.4211
  1215.2500      8.2149      2.6146      0.0351      2.1472    103.8740     19.9855
  1215.5000      8.2158      2.6077      0.0223      2.5617    101.1803     19.4585
  1215.7500      8.2172      2.6034      0.0165      2.8243     99.5126     19.1737
  1216.0000      8.2172      2.5995      0.0145      3.0626     97.8816     18.8300
  1216.2500      8.2158      2.5997      0.0177      3.0504     97.3451     18.6389
  1216.5000      8.2149      2.6050      0.0284      2.7246     96.4877     18.3453
  1216.7500      8.2149      2.6116      0.0388      2.3258     95.2329     18.1229
  1217.0000      8.2144      2.6238      0.0559      1.5858     91.9396     17.8239
  1217.2500      8.2105      2.6317      0.0647      1.1066     89.3003     17.7463
  1217.5000      8.2011      2.6404      0.0672      0.5834     86.4021     17.9669
  1217.7500      8.1978      2.6430      0.0612      0.4256     86.0586     18.3661
  1218.0000      8.2134      2.6420      0.0450      0.4833     88.0734     19.2402
