~Version Information
VERS.                      2.0: CWLS Log ASCII Standard - VERSION 2.0
WRAP.                       NO: One line per depth step
~Well Information Block
STRT.FT               -17.7500: 
STOP.FT              1590.5000: 
STEP.FT                 0.2500: 
NULL.                -999.2500: 
COMP.          Petrogulf Corporation: COMPANY
WELL.          Great Plains 22-21V: WELL
FLD.           Purgatorie River: FIELD
LOC.           63' FNL & 1895' FWL--: LOCATION
CNTY.               Las Animas: COUNTY
SRVC.          Superior Well Services: SERVICE COMPANY
DATE.          Fri Dec 08 14:45:19 2006: LOG DATE
UWI.           05 071 08346 00: UNIQUE WELL ID
STAT.                       CO: STATE
~Curve Information Block
DEPT.FT            0 000 00 00: Depth
CCL.                          : Casing Collar Locator
TT3.usec                      : CBL 3' Travel Time
AMP3.mV                       : CBL 3' Amplitude
GR.GAPI                       : Gamma Ray
~Parameter Information Block
~A  Depth       CCL         TT3         AMP3         GR     
# ...
  1456.2500      0.0000    379.4423     13.5589    132.6342
  1456.5000      0.0000    346.6834     14.5926    126.0740
  1456.7500      0.0000    323.2764     15.3254    118.9192
  1457.0000      0.0000    310.4694     15.6635    112.4825
  1457.2500      0.0000    307.7800     15.5411    106.3084
  1457.5000      0.0000    316.2192     14.9116     99.2707
  1457.7500      0.0000    338.5702     13.8124     90.9881
  1458.0000      0.0000    376.5199     12.4289     82.2542
  1458.2500      0.0000    427.3506     11.0485     74.4395
  1458.5000      0.0000    484.1936      9.9227     68.5109
  1458.7500      0.0000    539.9557      9.1637     64.6268
  1459.0000      0.0000    589.8369      8.7400     62.7312
  1459.2500      0.0000    630.4966      8.5397     63.2151
  1459.5000      0.0000    659.2048      8.4417     66.5980
  1459.7500      0.0000    674.1620      8.3657     72.6821
  1460.0000      0.0000    673.4789      8.2941     80.4150
  1460.2500      0.0000    653.5887      8.2723     88.6433
  1460.5000      0.0000    611.2617      8.3918     96.7616
  1460.7500      0.0000    549.2296      8.7578    104.5577
  1461.0000      0.0000    479.0834      9.4564    111.7383
  1461.2500      0.0000    416.1779     10.5326    118.0207
  1461.5000      0.0000    370.4082     11.9723    123.6310
  1461.7500      0.0000    341.8765     13.6941    129.1025
  1462.0000      0.0000    324.7379     15.5783    134.3019
  1462.2500      0.0000    313.4718     17.5252    137.9365
  1462.5000      0.0000    305.5381     19.4789    138.2067
  1462.7500      0.0000    300.2526     21.3846    134.1557
  1463.0000      0.0000    297.1168     23.1549    127.0096
  1463.2500      0.0000    295.3926     24.7261    120.1341
  1463.5000      0.0000    294.3869     26.1555    116.6356
  1463.7500      0.0000    293.6185     27.6188    116.3968
  1464.0000      0.0000    292.6975     29.2791    116.1139
  1464.2500      0.0000    291.2876     31.1420    112.8631
  1464.5000      0.0000    289.3684     32.9983    107.0694
  1464.7500      0.0000    287.5338     34.4672    101.4534
  1465.0000      0.0000    286.7335     35.1446     97.8815
  1465.2500      0.0000    287.4328     34.8182     96.0867
  1465.5000      0.0000    289.1259     33.6128     94.6285
  1465.7500      0.0000    290.8399     31.9497     91.8713
  1466.0000      0.0000    291.9626     30.3591     86.5316
  1466.2500      0.0000    292.4779     29.2700     78.5089
  1466.5000      0.0000    292.6536     28.8381     69.2972
  1466.7500      0.0000    292.7344     28.8539     61.1331
  1467.0000      0.0000    292.8799     28.8182     55.6701
  1467.2500      0.0000    293.2815     28.1976     53.3831
  1467.5000      0.0000    294.5479     26.6994     53.9101
  1467.7500      0.0000    298.5310     24.3699     56.6301
  1468.0000      0.0000    309.4536     21.4956     60.9391
  1468.2500      0.0000    334.0437     18.4316     66.1855
  1468.5000      0.0000    378.6154     15.4777     71.3839
  1468.7500      0.0000    443.3963     12.8369     75.0241
  1469.0000      0.0000    519.2324     10.6190     75.5649
  1469.2500      0.0000    591.6152      8.8478     72.4880
  1469.5000      0.0000    648.8138      7.4738     66.8269
  1469.7500      0.0000    686.1420      6.4118     60.5039
  1470.0000      0.0000    704.7354      5.5856     55.1059
  1470.2500      0.0000    709.3756      4.9482     51.1776
  1470.5000      0.0000    706.6540      4.4730     48.4679
  1470.7500      0.0000    701.9539      4.1410     46.6310
  1471.0000      0.0000    697.4774      3.9377     45.7022
  1471.2500      0.0000    693.9293      3.8509     46.1977
  1471.5000      0.0000    692.9067      3.8635     49.0111
  1471.7500      0.0000    696.1635      3.9492     55.0845
  1472.0000      0.0000    703.4956      4.0811     64.7509
  1472.2500      0.0000    712.8054      4.2492     77.0804
  1472.5000      0.0000    722.0549      4.4712     89.9408
  1472.7500      0.0000    730.2388      4.7842    100.9640
  1473.0000      0.0000    736.4677      5.2216    108.7733
  1473.2500      0.0000    738.8666      5.7930    113.6194
  1473.5000      0.0000    733.9072      6.4886    117.0160
  1473.7500      0.0000    716.5261      7.3046    120.5677
  1474.0000      0.0000    682.9749      8.2597    124.6634
  1474.2500      0.0000    636.3469      9.3678    127.9957
  1474.5000      0.0000    588.3462     10.5715    128.6278
  1474.7500      0.0000    551.7856     11.7106    125.7842
  1475.0000      0.0000    529.4319     12.6011    120.4732
  1475.2500      0.0000    511.2726     13.1796    114.3843
  1475.5000      0.0000    484.9360     13.5400    108.7200
  1475.7500      0.0000    449.7556     13.7890    104.1918
  1476.0000      0.0000    420.3124     13.8920    101.4318
  1476.2500     -2.0000    416.6160     13.7074    101.0121
  1476.5000     -2.0000    451.0911     13.1534    103.3680
  1476.7500      0.0000    520.9433     12.3172    108.7574
  1477.0000      0.0000    607.7718     11.4150    116.9646
  1477.2500      0.0000    685.0131     10.6567    126.8035
  1477.5000      0.0000    730.1654     10.1299    135.9624
  1477.7500      0.0000    734.2903      9.7981    141.7130
  1478.0000      0.0000    702.7273      9.6152    142.2549
  1478.2500      0.0000    648.3996      9.6086    137.5836
  1478.5000      0.0000    583.7554      9.8267    129.2444
  1478.7500      0.0000    517.0821     10.2618    119.5776
  1479.0000      0.0000    454.3876     10.8805    111.1085
  1479.2500      0.0000    401.7550     11.6936    105.8187
  1479.5000      0.0000    363.4082     12.7418    104.2690
  1479.7500      0.0000    338.5765     14.0254    105.1640
  1480.0000      0.0000    322.7473     15.4837    105.9843
  1480.2500      0.0000    311.7614     17.0433    104.7260
  1480.5000      0.0000    303.8636     18.6483    101.6258
  1480.7500      0.0000    298.7324     20.2121     98.8985
  1481.0000      0.0000    296.1253     21.5389     98.2863
  1481.2500      0.0000    295.7674     22.3254     98.8815
  1481.5000      0.0000    297.7228     22.2895     97.6971
  1481.7500      0.0000    302.3039     21.3377     92.5512
  1482.0000      0.0000    309.2910     19.6450     84.2887
  1482.2500      0.0000    317.4007     17.5885     76.1334
  1482.5000      0.0000    324.7876     15.5855     71.2882
  1482.7500      0.0000    330.1535     13.9528     71.2396
  1483.0000      0.0000    333.2911     12.8592     75.4467
  1483.2500      0.0000    334.7056     12.3384     81.8993
  1483.5000      0.0000    335.0157     12.3019     88.3554
  1483.7500      0.0000    334.6641     12.5601     93.5764
  1484.0000      0.0000    333.8191     12.9037     97.3803
  1484.2500      0.0000    332.2507     13.2326     99.7750
  1484.5000      0.0000    329.3022     13.6302    100.6332
  1484.7500      0.0000    324.2724     14.3104     99.9630
  1485.0000      0.0000    317.1885     15.4851     97.7921
  1485.2500      0.0000    309.2590     17.2737     93.8604
  1485.5000      0.0000    302.2903     19.6874     88.0951
  1485.7500      0.0000    297.5016     22.6162     81.6753
  1486.0000      0.0000    294.9401     25.7860     77.2596
  1486.2500      0.0000    293.8913     28.7704     77.4805
  1486.5000      0.0000    293.5535     31.1375     82.7279
  1486.7500      0.0000    293.3303     32.6685     90.4052
  1487.0000      0.0000    292.7766     33.4757     96.5726
  1487.2500      0.0000    291.5757     33.8856     98.4758
  1487.5000      0.0000    289.7651     34.1416     95.7948
  1487.7500      0.0000    287.9854     34.1775     90.0201
  1488.0000      0.0000    287.2144     33.7021     83.0622
  1488.2500      0.0000    287.9514     32.5221     76.3995
  1488.5000      0.0000    289.7360     30.7540     71.2285
  1488.7500      0.0000    291.6272     28.7130     68.9317
  1489.0000      0.0000    293.0165     26.6555     70.6678
  1489.2500      0.0000    293.8741     24.6698     76.0388
  1489.5000      0.0000    294.4445     22.7687     82.5172
