~Version Information
VERS.                      2.0: CWLS Log ASCII Standard - VERSION 2.0
WRAP.                       NO: One line per depth step
~Well Information Block
STRT.FT                -7.5000: 
STOP.FT              2304.7500: 
STEP.FT                 0.2500: 
NULL.                -999.2500: 
COMP.          Pioneer Natural Resources: COMPANY
WELL.          Foothills 12-36: WELL
FLD.           Purgatorie River: FIELD
LOC.           2450' FNL & 201' FWL--: LOCATION
PROV.                       CO: PROVINCE
CNTY.               Las Animas: COUNTRY
SRVC.          Patterson Wireline: SERVICE COMPANY
DATE.          Tue Apr 26 11:10:08 2005: LOG DATE
UWI.           05 071 08339 00: UNIQUE WELL ID
~Curve Information Block
DEPT.FT            0 000 00 00: Depth
CCL.                          : Casing Collar Locator
TT3.usec                      : CBL 3' Travel Time
AMP3.mV                       : CBL 3' Amplitude
GR.GAPI                       : Gamma Ray
~Parameter Information Block
~A  Depth       CCL         TT3         AMP3         GR     
# ...
  1064.5000      0.0000    786.1923      5.4398    134.9689
  1064.7500      0.0000    795.7469      5.3250    134.7970
  1065.0000      0.0000    808.9391      5.2919    132.2564
  1065.2500      0.0000    820.9068      5.3524    128.1904
  1065.5000      0.0000    828.0796      5.4697    124.9311
  1065.7500      0.0000    829.7278      5.5864    124.3977
  1066.0000      0.0000    827.5684      5.6580    126.7274
  1066.2500      0.0000    824.1810      5.6711    130.6493
  1066.5000      0.0000    821.4790      5.6445    134.6969
  1066.7500      0.0000    820.0764      5.6180    137.9934
  1067.0000      0.0000    819.6421      5.6343    140.3126
  1067.2500      0.0000    819.6179      5.7127    141.6667
  1067.5000      0.0000    819.6026      5.8322    141.8543
  1067.7500      0.0000    819.2969      5.9520    140.7042
  1068.0000      0.0000    818.3414      6.0458    138.7036
  1068.2500      0.0000    816.4156      6.1096    136.8246
  1068.5000      0.0000    813.6756      6.1434    135.6385
  1068.7500      0.0000    811.1229      6.1418    134.8741
  1069.0000      0.0000    810.1705      6.1109    133.7656
  1069.2500      0.0000    811.4630      6.0803    131.6472
  1069.5000      0.0000    814.2336      6.0800    128.2548
  1069.7500      0.0000    816.9761      6.1159    123.5722
  1070.0000      0.0000    818.4831      6.1785    117.6511
  1070.2500      0.0000    818.0653      6.2538    111.0795
  1070.5000      0.0000    815.3521      6.3243    105.5818
  1070.7500      0.0000    810.7092      6.3858    103.3472
  1071.0000      0.0000    805.9482      6.4658    105.2451
  1071.2500      0.0000    803.7648      6.5962    109.9426
  1071.5000      0.0000    805.6949      6.7696    114.8899
  1071.7500      0.0000    810.9291      6.9423    118.0115
  1072.0000      0.0000    817.4913      7.0756    118.7418
  1072.2500      0.0000    823.9298      7.1576    118.0749
  1072.5000      0.0000    829.3246      7.1878    117.6925
  1072.7500      0.0000    832.3366      7.1549    118.7234
  1073.0000      0.0000    831.2706      7.0425    121.2726
  1073.2500      0.0000    825.3711      6.8628    124.7947
  1073.5000      0.0000    815.9382      6.6689    128.2244
  1073.7500      0.0000    805.9475      6.5126    129.9472
  1074.0000      0.0000    798.4213      6.3948    128.5848
  1074.2500      0.0000    795.2221      6.2806    124.0392
  1074.5000      0.0000    797.1461      6.1614    117.2851
  1074.7500      0.0000    804.1202      6.0760    109.1920
  1075.0000      0.0000    814.4853      6.0650    100.0362
  1075.2500      0.0000    824.6039      6.1305     90.1022
  1075.5000      0.0000    830.2829      6.2533     80.2141
  1075.7500      0.0000    829.0776      6.4122     71.4996
  1076.0000      0.0000    821.3134      6.5668     64.9366
  1076.2500      0.0000    809.5862      6.6542     61.2266
  1076.5000      0.0000    797.7975      6.6388     60.6922
  1076.7500      0.0000    789.7020      6.5459     62.9469
  1077.0000      0.0000    786.7894      6.4240     66.9123
  1077.2500      0.0000    787.1437      6.2938     71.4850
  1077.5000      0.0000    787.0179      6.1573     76.0160
  1077.7500      0.0000    783.9695      6.0295     80.1159
  1078.0000      0.0000    778.5760      5.9224     83.6150
  1078.2500      0.0000    773.4457      5.8180     87.0303
  1078.5000      0.0000    770.9626      5.6989     91.3000
  1078.7500      0.0000    771.8610      5.5988     96.3986
  1079.0000      0.0000    775.2401      5.5807    100.6915
  1079.2500      0.0000    779.4794      5.6615    102.2927
  1079.5000      0.0000    783.2769      5.7858    100.9088
  1079.7500      0.0000    786.1083      5.8862     98.2035
  1080.0000      0.0000    787.8205      5.9468     96.7316
  1080.2500      0.0000    788.1043      5.9922     98.4925
  1080.5000      0.0000    786.7384      6.0291    103.8162
  1080.7500      0.0000    784.1743      6.0263    111.0943
  1081.0000      0.0000    781.3123      5.9591    117.6877
  1081.2500      0.0000    778.7809      5.8507    121.3135
  1081.5000      0.0000    777.0438      5.7500    120.8623
  1081.7500      0.0000    777.0222      5.6782    116.6502
  1082.0000      0.0000    779.7030      5.6242    110.4474
  1082.2500      0.0000    784.7949      5.5911    104.7287
  1082.5000      0.0000    790.2286      5.6109    101.2136
  1082.7500      0.0000    793.4885      5.6925    100.2122
  1083.0000      0.0000    793.5430      5.7811    101.4431
  1083.2500      0.0000    791.3298      5.7952    104.7913
  1083.5000      0.0000    788.4249      5.7031    109.8423
  1083.7500      0.0000    785.6195      5.5603    115.2148
  1084.0000      0.0000    782.9355      5.4707    119.0908
  1084.2500      0.0000    780.5450      5.4975    120.6238
  1084.5000      0.0000    778.9604      5.6053    120.6991
  1084.7500      0.0000    778.1974      5.7022    121.0356
  1085.0000      0.0000    777.3951      5.7441    122.2873
  1085.2500      0.0000    775.8351      5.7881    123.0941
  1085.5000      0.0000    774.1308      5.9395    121.4189
  1085.7500      0.0000    774.1931      6.2490    116.9236
  1086.0000      0.0000    778.3054      6.6658    111.7842
  1086.2500      0.0000    787.9861      7.0840    109.0754
  1086.5000      0.0000    802.6793      7.4206    110.3913
  1086.7500      0.0000    819.0251      7.6362    114.6866
  1087.0000      0.0000    832.2160      7.7078    118.9942
  1087.2500      0.0000    839.0388      7.6215    120.4518
  1087.5000      0.0000    839.9433      7.3975    118.3050
  1087.7500      0.0000    838.1463      7.0949    114.4003
  1088.0000      0.0000    836.6618      6.7804    111.6261
  1088.2500      0.0000    836.2348      6.4922    111.4357
  1088.5000      0.0000    836.2060      6.2286    112.7284
  1088.7500      0.0000    836.6625      5.9703    113.3971
  1089.0000      0.0000    838.6096      5.7220    112.7931
  1089.2500      0.0000    842.1133      5.5265    111.9395
  1089.5000      0.0000    845.5410      5.4312    111.5417
  1089.7500      0.0000    847.2106      5.4449    111.0046
  1090.0000      0.0000    847.2103      5.5333    109.5900
  1090.2500      0.0000    846.9670      5.6467    107.5034
  1090.5000      0.0000    846.9908      5.7525    105.7127
  1090.7500      0.0000    845.2500      5.8497    105.3223
  1091.0000      0.0000    838.1885      5.9396    106.8334
  1091.2500      0.0000    824.4197      5.9688    109.1577
  1091.5000      0.0000    808.4178      5.8304    109.6239
  1091.7500      0.0000    799.4572      5.4658    105.9988
  1092.0000      0.0000    804.4409      4.9662     98.6098
  1092.2500      0.0000    821.4770      4.5402     90.0160
  1092.5000      0.0000    841.8806      4.3580     82.7572
  1092.7500     -2.0000    857.6890      4.4291     77.8416
  1093.0000     -2.0000    865.9274      4.6147     75.2077
  1093.2500      0.0000    867.5355      4.7401     74.7700
  1093.5000      0.0000    865.0577      4.7144     76.3793
  1093.7500      0.0000    860.9426      4.5878     79.1430
  1094.0000      0.0000    855.8954      4.5045     81.8263
  1094.2500      0.0000    848.4233      4.5793     84.3079
  1094.5000      0.0000    836.8834      4.8108     88.0583
  1094.7500      0.0000    821.7699      5.1202     94.5275
  1095.0000      0.0000    805.5118      5.4352    103.1407
  1095.2500      0.0000    790.8275      5.7002    111.2850
  1095.5000      0.0000    779.8431      5.8423    116.3309
  1095.7500      0.0000    773.7829      5.7981    117.4005
  1096.0000      0.0000    772.4832      5.5942    115.3189
  1096.2500      0.0000    774.2324      5.3689    111.6005
  1096.5000      0.0000    776.5115      5.2844    107.8968
  1096.7500      0.0000    777.2284      5.4044    105.8936
  1097.0000      0.0000    775.6689      5.6549    106.7787
  1097.2500      0.0000    772.6794      5.8882    110.4111
  1097.5000      0.0000    769.9841      5.9804    115.3946
  1097.7500      0.0000    768.8691      5.8930    120.2671
