~Version Information
 VERS.                                  2.0 : CWLS LAS VERSION
 WRAP.                                   NO : WRAPING MODE
 SWARE .                 MController 2.5.0E : SOFTWARE VERSION
~Well Information
 WELL.                        Triumph 13 10 : WELL
 COMP.             Evergreen Operating Corp : COMPANY
 FLD.                      Purgatorie River : FIELD
 LOC.                NW/SW Sec 10 T32S R66W : LOCATION
 DATE.                           7/22 23/04 : DATE(S) LOGGED
 SRVC.       Blanco Geological Services LLC : SERVICE COMPANY
 STAT.                                   CO : STATE
 CNTY.                           Las Animas : COUNTY
 CTRY.                                  USA : COUNTRY
 API.                       05 071 08108 00 : API NUMBER
 STRT.FT                             414.00 : START DEPTH
 STOP.FT                            2210.00 : STOP DEPTH
 STEP.FT                               1.00 : DEPTH INCREMENT
 NULL.                                 9999 : NULL VALUE
~Curve information
 DEPTH.FT                                   :
 ROP.MIN/FT                                 :
 GAS.UNITS                                  :
~ASCII Log data
      414.00     9999.000          1.3 
      415.00        1.767          3.6 
      416.00        0.200          3.1 
      417.00        0.167          1.3 
      418.00        0.133          1.5 
      419.00        0.067          1.5 
      420.00        0.167          1.1 
      421.00        0.183          1.1 
      422.00        0.200          0.7 
      423.00        0.133          1.2 
      424.00        0.133          1.5 
      425.00        0.133          1.6 
      426.00        0.100          1.6 
      427.00        0.167          1.3 
      428.00        0.133          1.2 
      429.00        0.133          1.5 
      430.00        0.133          1.3 
      431.00        0.133          0.5 
      432.00        0.167          1.1 
      433.00        0.167          1.7 
      434.00        0.200          0.2 
      435.00        0.167          0.6 
      436.00        0.167          0.0 
      437.00        0.167          0.1 
      438.00        0.167          0.6 
      439.00        0.133          0.8 
      440.00        0.167          0.0 
      441.00        0.167          0.0 
      442.00        0.183          0.0 
      443.00        0.100          0.3 
      444.00        0.133          0.9 
      445.00        0.267          0.9 
      446.00        1.033          1.7 
      447.00        0.233          1.1 
      448.00        0.167          0.8 
      449.00        0.167          1.4 
      450.00        0.133          1.4 
      451.00        0.167          1.3 
      452.00        0.133          0.9 
      453.00        0.167          1.6 
      454.00        0.200          1.3 
      455.00        0.200          1.4 
      456.00        0.167          1.1 
      457.00        0.150          0.5 
      458.00        0.167          1.3 
      459.00        0.133          0.9 
      460.00        0.133          1.6 
      461.00        0.133          1.6 
      462.00        0.133          1.6 
      463.00        0.133          1.4 
      464.00        0.100          0.7 
      465.00        0.167          1.6 
      466.00        0.133          1.6 
      467.00        0.167          1.6 
      468.00        0.233          1.0 
      469.00        0.167          1.3 
      470.00        0.167          0.5 
      471.00        0.133          1.3 
      472.00        0.133          0.5 
      473.00        0.133          1.4 
      474.00        0.133          0.7 
      475.00        0.400          1.5 
      476.00        1.150          1.6 
      477.00        0.300          1.0 
      478.00        0.233          1.3 
      479.00        0.200          0.9 
      480.00        0.167          0.6 
      481.00        0.233          1.2 
      482.00        0.133          1.3 
      483.00        0.167          1.2 
      484.00        0.167          0.5 
      485.00        0.200          1.1 
      486.00        0.200          0.4 
      487.00        0.200          0.5 
      488.00        0.133          0.4 
      489.00        0.167          1.2 
      490.00        0.183          0.5 
      491.00        0.200          1.2 
      492.00        0.200          1.1 
      493.00        0.167          1.1 
      494.00        0.100          0.5 
      495.00        0.133          0.5 
      496.00        0.167          1.5 
      497.00        0.100          1.4 
      498.00        0.167          1.5 
      499.00        0.167          1.0 
      500.00        0.167          0.6 
      501.00        0.133          0.5 
      502.00        0.167          1.1 
      503.00        0.167          1.3 
      504.00        0.133          1.6 
      505.00        0.200          2.2 
      506.00        1.783          6.9 
      507.00        0.300          3.9 
      508.00        0.300          3.5 
      509.00        0.167          3.1 
      510.00        0.200          3.0 
      511.00        0.167          3.3 
      512.00        0.167          3.2 
      513.00        0.167          2.8 
      514.00        0.200          3.1 
      515.00        0.167          2.4 
      516.00        0.133          2.5 
      517.00        0.133          2.2 
      518.00        0.167          2.5 
      519.00        0.183          3.0 
      520.00        0.200          3.1 
      521.00        0.167          4.1 
      522.00        0.133          8.6 
      523.00        0.133         10.4 
      524.00        0.133         13.0 
      525.00        0.133         13.3 
      526.00        0.167         13.1 
      527.00        0.167         11.4 
      528.00        0.233         10.5 
      529.00        0.200          9.7 
      530.00        0.133          8.5 
      531.00        0.133          7.6 
      532.00        0.167          6.8 
      533.00        0.200          5.3 
      534.00        0.133          6.0 
      535.00        0.133          6.6 
      536.00        1.583         15.8 
      537.00        0.200          5.2 
      538.00        0.400          4.6 
      539.00        0.167          5.0 
      540.00        0.267          4.4 
      541.00        0.200          3.3 
      542.00        0.200          4.1 
      543.00        0.100          3.8 
      544.00        0.267          4.3 
      545.00        0.167          3.5 
      546.00        0.200          4.2 
      547.00        0.133          4.2 
      548.00        0.183          4.0 
      549.00        0.233          5.7 
      550.00        0.200          6.3 
      551.00        0.167          7.1 
      552.00        0.167          6.8 
      553.00        0.133          6.8 
      554.00        0.167          7.1 
      555.00        0.133          6.7 
      556.00        0.167          6.2 
      557.00        0.133          6.7 
      558.00        0.167          6.7 
      559.00        0.167          6.5 
      560.00        0.133          5.3 
      561.00        0.100          5.5 
      562.00        0.133          4.7 
      563.00        0.167          6.9 
      564.00        0.333          8.6 
      565.00        0.200         14.3 
      566.00        1.117         14.9 
      567.00        0.267          6.7 
      568.00        0.200          6.2 
      569.00        0.233          6.1 
      570.00        0.167          5.8 
      571.00        0.233          5.8 
      572.00        0.133          5.4 
      573.00        0.200          5.8 
      574.00        0.367          5.7 
      575.00        0.300          6.1 
      576.00        0.267          6.3 
      577.00        0.250          6.7 
      578.00        0.200          6.2 
      579.00        0.167          8.0 
      580.00        0.133          9.0 
      581.00        0.133         10.2 
      582.00        0.133         10.2 
      583.00        0.133         10.8 
      584.00        0.133         10.1 
      585.00        0.133         10.4 
      586.00        0.200         10.1 
      587.00        0.167         10.0 
      588.00        0.167         10.0 
      589.00        0.200          9.7 
      590.00        0.200          9.4 
      591.00        0.167          9.4 
      592.00        0.200          9.0 
      593.00        0.133          7.5 
      594.00        0.200          6.6 
      595.00        0.233          8.0 
      596.00        1.517         26.7 
      597.00        0.333         12.6 
      598.00        0.300          9.7 
      599.00        0.233          7.5 
      600.00        0.300          6.7 
      601.00        0.200          6.6 
      602.00        0.133          5.7 
      603.00        0.167          5.8 
      604.00        0.167          6.6 
      605.00        0.167          5.7 
      606.00        0.150          6.2 
      607.00        0.167          5.9 
      608.00        0.167          5.8 
      609.00        0.200          6.2 
      610.00        0.200          6.2 
      611.00        0.133          6.2 
      612.00        0.167          6.2 
      613.00        0.133          8.5 
