~Version Information
VERS.                      2.0: CWLS Log ASCII Standard - VERSION 2.0
WRAP.                       NO: One line per depth step
~Well Information Block
STRT.FT              1727.9000: 
STOP.FT              1961.0000: 
STEP.FT                 0.1000: 
NULL.                -999.2500: 
COMP.          Petrogulf Corporation: COMPANY
WELL.              Royal 8-33R: WELL
FLD.           Purgatorie River: FIELD
LOC.           2401' FSL & 2270' FEL: LOCATION
CNTY.               Las Animas: COUNTY
SRVC.                         : SERVICE COMPANY
DATE.          Mon Apr 26 06:57:24 2004: LOG DATE
UWI.           05 071 08041 00: UNIQUE WELL ID
STAT.                 Colorado: STATE
~Curve Information Block
DEPT.FT            0 000 00 00: Depth
DCAL.in                       : CDL Caliper
RHOB.g/cc                     : CDL Bulk Density
RHOC.g/cc                     : CDL Density Correction
DPOR.pu                       : CDL Density Porosity
GR.GAPI                       : Gamma Ray
~Parameter Information Block
~A  Depth       DCAL        RHOB        RHOC        DPOR         GR     
# ...
  1828.7000      7.8623      2.5013      0.1849      9.0114    149.3916
  1828.8000      7.8717      2.5361      0.1129      6.9017    165.5744
  1828.9000      7.8717      2.5458      0.1282      6.3160    152.6815
  1829.0000      7.8750      2.5323      0.1549      7.1331    126.0047
  1829.1000      7.8750      2.5008      0.1168      9.0421    110.2115
  1829.2000      7.8750      2.4727      0.0007     10.7444    110.2280
  1829.3000      7.8724      2.4659      0.0098     11.1568    114.3683
  1829.4000      7.8724      2.4765      0.0716     10.5164    113.3716
  1829.5000      7.8797      2.4977      0.0564      9.2311    109.9337
  1829.6000      7.8797      2.5197      0.1436      7.8978    110.6949
  1829.7000      7.8797      2.5208      0.1786      7.8314    115.3076
  1829.8000      7.8866      2.5034      0.0864      8.8823    120.6266
  1829.9000      7.8866      2.5054      0.0798      8.7641    132.4990
  1830.0000      7.8853      2.5418      0.1271      6.5598    149.1151
  1830.1000      7.8853      2.5884      0.1851      3.7321    157.2791
  1830.2000      7.8853      2.6266      0.1456      1.4195    153.2878
  1830.3000      7.9150      2.6525      0.1487     -0.1521    140.5544
  1830.4000      7.9150      2.6578      0.1989     -0.4715    127.4477
  1830.5000      7.8908      2.6415      0.1857      0.5143    120.2703
  1830.6000      7.8908      2.6240      0.1113      1.5756    111.7988
  1830.7000      7.8908      2.6134      0.1341      2.2159     97.9266
  1830.8000      7.8847      2.5828      0.1773      4.0745     89.5663
  1830.9000      7.8847      2.5355      0.0222      6.9390     94.8339
  1831.0000      7.8824      2.5274      0.0070      7.4323    108.5343
  1831.1000      7.8824      2.5710      0.0946      4.7853    120.6536
  1831.2000      7.8824      2.6062      0.2191      2.6540    126.3704
  1831.3000      7.8824      2.5895      0.0882      3.6690    124.9116
  1831.4000      7.8824      2.5513      0.0493      5.9844    116.1827
  1831.5000      7.8860      2.5299      0.1006      7.2796    103.3338
  1831.6000      7.8860      2.5265      0.1073      7.4828     97.8032
  1831.7000      7.8860      2.5436      0.0200      6.4462    112.7917
  1831.8000      7.8996      2.5698      0.1790      4.8581    136.6434
  1831.9000      7.8996      2.5722      0.0880      4.7140    139.8297
  1832.0000      7.9103      2.5591      0.0780      5.5094    122.3927
  1832.1000      7.9103      2.5613      0.0930      5.3738    108.8994
  1832.2000      7.9103      2.5826      0.1647      4.0838    111.7082
  1832.3000      7.8986      2.5979      0.1944      3.1558    127.2695
  1832.4000      7.8986      2.5827      0.1539      4.0802    144.1150
  1832.5000      7.8936      2.5495      0.0618      6.0906    153.7746
  1832.6000      7.8936      2.5284      0.0269      7.3670    158.7323
  1832.7000      7.8936      2.5242      0.1583      7.6230    158.1463
  1832.8000      7.8904      2.5146      0.2003      8.2037    147.1692
  1832.9000      7.8904      2.4852      0.0680      9.9852    137.2421
  1833.0000      7.8829      2.4468      0.0302     12.3181    143.0959
  1833.1000      7.8829      2.4218      0.0431     13.8308    160.9556
  1833.2000      7.8829      2.4304      0.0356     13.3102    177.8301
  1833.3000      7.8761      2.4700      0.0797     10.9062    180.0744
  1833.4000      7.8761      2.5111      0.1542      8.4200    169.1441
  1833.5000      7.9048      2.5182      0.1592      7.9899    165.8893
  1833.6000      7.9048      2.4911      0.0610      9.6301    173.6681
  1833.7000      7.9048      2.4597      0.1317     11.5339    179.2704
  1833.8000      7.9162      2.4482      0.0156     12.2321    176.2027
  1833.9000      7.9162      2.4741      0.0151     10.6579    167.5138
  1834.0000      7.8905      2.5218      0.0670      7.7723    163.2913
  1834.1000      7.8905      2.5419      0.1432      6.5492    166.3345
  1834.2000      7.8905      2.5242      0.0842      7.6272    174.1945
  1834.3000      7.8700      2.5141      0.0318      8.2369    183.0186
  1834.4000      7.8700      2.5252      0.1476      7.5609    179.1606
  1834.5000      7.8795      2.5230      0.0767      7.6999    165.7154
  1834.6000      7.8795      2.5006      0.0768      9.0567    159.5193
  1834.7000      7.8795      2.4777     -0.0255     10.4453    163.5794
  1834.8000      7.8850      2.4672      0.0387     11.0789    173.1029
  1834.9000      7.8850      2.4697      0.0362     10.9260    179.1150
  1835.0000      7.9045      2.4764     -0.0089     10.5226    176.0230
  1835.1000      7.9045      2.4840      0.0160     10.0631    173.5762
  1835.2000      7.9045      2.4980      0.0658      9.2123    183.3069
  1835.3000      7.8903      2.5228      0.0441      7.7087    200.0660
  1835.4000      7.8903      2.5482      0.1246      6.1703    207.0716
  1835.5000      7.8858      2.5446      0.1419      6.3867    200.5827
  1835.6000      7.8858      2.5086      0.0212      8.5724    195.9517
  1835.7000      7.8858      2.4709      0.0327     10.8545    196.7073
  1835.8000      7.8912      2.4423      0.0104     12.5861    190.0671
  1835.9000      7.8912      2.4160     -0.0077     14.1842    175.4142
  1836.0000      7.8980      2.3954     -0.0034     15.4331    162.4054
  1836.1000      7.8980      2.3988     -0.0200     15.2259    154.4255
  1836.2000      7.8980      2.4365     -0.0579     12.9387    151.5936
  1836.3000      7.8942      2.4754      0.1050     10.5836    149.7034
  1836.4000      7.8942      2.4863     -0.0268      9.9189    144.1900
  1836.5000      7.9034      2.4884      0.1116      9.7950    135.6249
  1836.6000      7.9034      2.4886      0.0902      9.7839    126.8259
  1836.7000      7.9034      2.4850      0.0817     10.0012    128.9726
  1836.8000      7.9145      2.4900      0.0622      9.6994    145.6624
  1836.9000      7.9145      2.5006      0.0762      9.0542    160.3152
  1837.0000      7.9305      2.4955      0.0760      9.3652    160.7523
  1837.1000      7.9305      2.4757      0.0408     10.5612    148.6226
  1837.2000      7.9305      2.4691      0.0852     10.9620    129.3911
  1837.3000      7.9412      2.4775      0.1042     10.4562    109.5323
  1837.4000      7.9412      2.4824      0.0794     10.1591    101.1269
  1837.5000      7.9968      2.4922      0.0788      9.5607    112.5065
  1837.6000      7.9968      2.5198      0.0568      7.8884    136.7424
  1837.7000      7.9968      2.5432      0.1408      6.4742    164.6791
  1837.8000      7.9854      2.5387      0.1054      6.7458    188.1790
  1837.9000      7.9854      2.5302      0.0764      7.2631    196.0908
  1838.0000      7.9364      2.5396      0.1772      6.6917    185.3900
  1838.1000      7.9364      2.5546      0.1291      5.7848    164.5451
  1838.2000      7.9364      2.5641      0.1318      5.2082    146.7917
  1838.3000      7.9257      2.5445      0.1769      6.3948    142.9694
  1838.4000      7.9257      2.4813      0.1116     10.2264    152.5563
  1838.5000      7.9410      2.4159     -0.0401     14.1855    163.4835
  1838.6000      7.9410      2.3997     -0.0160     15.1706    164.1624
  1838.7000      7.9410      2.4352     -0.0614     13.0193    158.3903
  1838.8000      7.9320      2.4909      0.0899      9.6442    153.7430
  1838.9000      7.9320      2.5255      0.0688      7.5460    146.3201
  1839.0000      7.9325      2.5233      0.0788      7.6807    134.4059
  1839.1000      7.9325      2.5011      0.1085      9.0219    128.6602
  1839.2000      7.9325      2.4841      0.1143     10.0552    136.4652
  1839.3000      7.9736      2.4839      0.0680     10.0660    149.0781
  1839.4000      7.9736      2.4916      0.0579      9.6021    154.6488
  1839.5000      7.9707      2.4974      0.1020      9.2455    154.2872
  1839.6000      7.9707      2.5079      0.0815      8.6108    152.6944
  1839.7000      7.9707      2.5302      0.0466      7.2635    149.0176
  1839.8000      8.0055      2.5567      0.1294      5.6524    144.6824
