~Version Information
VERS.                      2.0: CWLS Log ASCII Standard - VERSION 2.0
WRAP.                       NO: One line per depth step
~Well Information Block
STRT.FT               440.0000: 
STOP.FT              1003.5000: 
STEP.FT                 0.2500: 
NULL.                -999.2500: 
COMP.          Pioneer Natural Resources: COMPANY
WELL.              Dylan 42-25: WELL
FLD.           Purgatoire River: FIELD
LOC.           2160' FNL & 855' FEL: LOCATION
PROV.                 Colorado: PROVINCE
CNTY.               Las Animas: COUNTRY
SRVC.                Patterson: SERVICE COMPANY
DATE.          Sat Apr 23 11:21:51 2005: LOG DATE
UWI.           05 071 08229 00: UNIQUE WELL ID
~Curve Information Block
DEPT.FT            0 000 00 00: Depth
SN.Ohm-m                      : IEL Short Normal
SP.mV                         : IEL Spontaneous Potential
DIR.Ohm-m                     : IEL Induction Resistivity
GR.GAPI                       : Gamma Ray
~Parameter Information Block
~A  Depth        SN          SP         DIR          GR     
# ...
   909.0000     30.0030     17.3739     32.3629     71.0601
   909.2500     30.0423     17.5779     30.8139     72.5667
   909.5000     30.0749     17.7891     29.1177     73.3565
   909.7500     30.0478     17.9840     27.2831     72.7707
   910.0000     29.8753     18.1538     25.3742     70.8209
   910.2500     29.4619     18.3027     23.5041     69.5518
   910.5000     28.7205     18.4490     21.7884     69.2385
   910.7500     27.5869     18.6238     20.3026     70.8940
   911.0000     26.0754     18.8583     19.0661     76.9109
   911.2500     24.3291     19.1628     18.0511     83.1303
   911.5000     22.5711     19.5149     17.2063     94.4214
   911.7500     20.9830     19.8715     16.4820    101.9183
   912.0000     19.6324     20.1939     15.8477    110.5277
   912.2500     18.4894     20.4658     15.2937    113.4342
   912.5000     17.4942     20.6921     14.8200    113.3753
   912.7500     16.6353     20.8880     14.4240    111.2689
   913.0000     15.9807     21.0673     14.0979    107.2816
   913.2500     15.6239     21.2403     13.8372    105.1656
   913.5000     15.6097     21.4179     13.6522    103.1620
   913.7500     15.9040     21.6170     13.5697    101.7597
   914.0000     16.3873     21.8604     13.6225     97.5664
   914.2500     16.8903     22.1697     13.8347     93.1394
   914.5000     17.3098     22.5575     14.2116     86.4432
   914.7500     17.7185     23.0227     14.7383     84.2168
   915.0000     18.3296     23.5497     15.3861     86.4575
   915.2500     19.3113     24.1107     16.1246     90.7937
   915.5000     20.6169     24.6716     16.9340     97.2973
   915.7500     22.0070     25.2026     17.8103     99.3989
   916.0000     23.2194     25.6869     18.7554     98.4931
   916.2500     24.1475     26.1229     19.7600     96.3913
   916.5000     24.9356     26.5178     20.8004     93.1780
   916.7500     25.8707     26.8755     21.8582     91.1838
   917.0000     27.1273     27.1901     22.9482     87.2031
   917.2500     28.6336     27.4504     24.1220     83.3766
   917.5000     30.1821     27.6521     25.4341     76.6845
   917.7500     31.6267     27.8069     26.8927     72.7287
   918.0000     32.9590     27.9381     28.4282     69.0440
   918.2500     34.2240     28.0671     29.9082     68.1649
   918.5000     35.4045     28.2017     31.2044     68.2664
   918.7500     36.4114     28.3376     32.2665     68.5230
   919.0000     37.1512     28.4658     33.1372     68.2287
   919.2500     37.5743     28.5794     33.8921     67.4882
   919.5000     37.6777     28.6734     34.5572     66.4136
   919.7500     37.4859     28.7411     35.0696     66.6024
   920.0000     37.0417     28.7732     35.3034     69.5363
   920.2500     36.4137     28.7627     35.1489     73.3993
   920.5000     35.6854     28.7109     34.5873     80.9325
   920.7500     34.9179     28.6287     33.6967     85.9437
   921.0000     34.1272     28.5341     32.5966     91.4946
   921.2500     33.3016     28.4451     31.3969     93.1801
   921.5000     32.4451     28.3740     30.1882     92.3983
   921.7500     31.6049     28.3220     29.0462     89.9306
   922.0000     30.8556     28.2801     28.0252     84.2906
   922.2500     30.2488     28.2367     27.1477     80.1019
   922.5000     29.7553     28.1856     26.4111     75.0172
   922.7500     29.2612     28.1287     25.8058     73.4526
   923.0000     28.6625     28.0655     25.3283     74.8714
   923.2500     27.9565     27.9725     24.9779     78.2848
   923.5000     27.2172     27.7908     24.7442     85.8990
   923.7500     26.5196     27.4467     24.6036     91.3993
   924.0000     25.9253     26.9068     24.5261     97.8294
   924.2500     25.4928     26.2207     24.4865     99.7903
   924.5000     25.2749     25.4932     24.4700     98.7531
   924.7500     25.3270     24.8055     24.4707     96.0889
   925.0000     25.6987     24.1649     24.4923     91.3893
   925.2500     26.3832     23.5230     24.5510     89.0462
   925.5000     27.2856     22.8259     24.6717     87.5229
   925.7500     28.2595     22.0493     24.8715     87.3845
   926.0000     29.1773     21.2048     25.1414     87.1701
   926.2500     29.9707     20.3254     25.4453     86.6714
   926.5000     30.6035     19.4459     25.7390     85.8714
   926.7500     31.0330     18.5884     25.9935     85.7193
   927.0000     31.2180     17.7606     26.2021     86.1120
   927.2500     31.1328     16.9627     26.3667     86.5956
   927.5000     30.7667     16.1976     26.4790     87.7881
   927.7500     30.1441     15.4787     26.5098     89.2244
   928.0000     29.3485     14.8285     26.4132     92.5877
   928.2500     28.5014     14.2676     26.1440     95.4302
   928.5000     27.7108     13.7990     25.6817     99.9060
   928.7500     27.0196     13.4022     25.0448    102.5147
   929.0000     26.3852     13.0461     24.2852    104.8701
   929.2500     25.7389     12.7125     23.4671    105.0642
   929.5000     25.0750     12.4140     22.6491    103.7651
   929.7500     24.4586     12.1923     21.8753    102.6224
   930.0000     23.9435     12.0960     21.1734    101.7022
   930.2500     23.5068     12.1524     20.5550    101.7837
   930.5000     23.0649     12.3560     20.0160    102.2837
   930.7500     22.5563     12.6776     19.5420    102.2940
   931.0000     22.0020     13.0827     19.1171    101.2884
   931.2500     21.4673     13.5430     18.7326    100.0785
   931.5000     20.9875     14.0389     18.3902     98.2905
   931.7500     20.5534     14.5604     18.0984     97.6828
   932.0000     20.1652     15.1058     17.8648     98.2312
   932.2500     19.8639     15.6748     17.6900     99.4999
   932.5000     19.6791     16.2614     17.5669    101.8761
   932.7500     19.5845     16.8522     17.4851    103.0083
   933.0000     19.5553     17.4305     17.4358    103.0965
   933.2500     19.6117     17.9816     17.4137    102.1426
   933.5000     19.7612     18.4965     17.4126    100.0948
   933.7500     19.9494     18.9726     17.4211     98.7784
   934.0000     20.1006     19.4081     17.4206     97.0289
   934.2500     20.1999     19.7952     17.3903     96.0019
   934.5000     20.3298     20.1224     17.3159     95.1812
   934.7500     20.5934     20.3851     17.1980     95.6134
   935.0000     20.9767     20.5909     17.0520     97.9988
   935.2500     21.3211     20.7540     16.9006    100.2415
   935.5000     21.4479     20.8883     16.7622    103.0337
   935.7500     21.2894     21.0027     16.6455    103.8263
   936.0000     20.9170     21.0980     16.5509    103.5278
   936.2500     20.4690     21.1665     16.4774    103.0936
   936.5000     20.0324     21.1967     16.4274    103.4758
   936.7500     19.6067     21.1808     16.4067    104.6823
   937.0000     19.1806     21.1200     16.4197    107.1384
   937.2500     18.7839     21.0251     16.4635    108.3505
   937.5000     18.4788     20.9103     16.5256    108.4948
   937.7500     18.3226     20.7882     16.5880    107.5621
   938.0000     18.3262     20.6692     16.6363    105.5730
   938.2500     18.4789     20.5639     16.6663    104.1859
   938.5000     18.7766     20.4834     16.6858    101.4249
   938.7500     19.1897     20.4389     16.7116     98.5017
   939.0000     19.6642     20.4429     16.7636     92.3488
   939.2500     20.1670     20.5074     16.8595     87.8773
   939.5000     20.6953     20.6386     17.0111     82.6935
   939.7500     21.2415     20.8301     17.2252     81.0813
   940.0000     21.7755     21.0581     17.5099     81.3679
   940.2500     22.2661     21.2846     17.8795     82.6225
   940.5000     22.7018     21.4711     18.3494     84.5460
   940.7500     23.0881     21.5970     18.9210     85.2701
   941.0000     23.4295     21.6638     19.5633     85.3610
   941.2500     23.7145     21.6795     20.2048     84.9581
   941.5000     23.9273     21.6441     20.7468     84.0162
   941.7500     24.0954     21.5555     21.0945     83.3177
   942.0000     24.3145     21.4256     21.1939     82.2751
   942.2500     24.6831     21.2838     21.0519     81.4030
