~Version Information
VERS.                      2.0: CWLS Log ASCII Standard - VERSION 2.0
WRAP.                       NO: One line per depth step
~Well Information Block
STRT.FT               757.3000: 
STOP.FT              2418.0000: 
STEP.FT                 0.1000: 
NULL.                -999.2500: 
COMP.          Petrogulf Corporation: COMPANY
WELL.            Montoya 7-21V: WELL
FLD.           Purgatorie River: FIELD
LOC.           738' FSL & 2070' FWL: LOCATION
CNTY.               Las Animas: COUNTY
SRVC.                         : SERVICE COMPANY
DATE.          Fri Aug 20 14:08:15 2004: LOG DATE
UWI.           05 071 08018 00: UNIQUE WELL ID
STAT.                 Colorado: STATE
~Curve Information Block
DEPT.FT            0 000 00 00: Depth
DCAL.in                       : CDL Caliper
RHOB.g/cc                     : CDL Bulk Density
RHOC.g/cc                     : CDL Density Correction
DPOR.pu                       : CDL Density Porosity
GR.GAPI                       : Gamma Ray
NPOR.pu                       : Neutron Porosity
~Parameter Information Block
~A  Depth       DCAL        RHOB        RHOC        DPOR         GR         NPOR    
# ...
  1650.1000      8.4829      1.8060      0.0728     51.1508    150.1602     31.8534
  1650.2000      8.4829      1.8091      0.1284     50.9627    138.9084     32.2629
  1650.3000      8.6020      1.8785      0.1990     46.7574    132.1690     32.7920
  1650.4000      8.6020      1.9941      0.2774     39.7531    134.4656     33.1322
  1650.5000      8.9467      2.1204      0.3517     32.0984    140.7347     33.2323
  1650.6000      8.9467      2.2292      0.3665     25.5027    140.6599     33.1206
  1650.7000      8.9467      2.3095      0.3834     20.6349    137.0187     32.3259
  1650.8000      9.4207      2.3562      0.3744     17.8032    141.3392     30.9562
  1650.9000      9.4207      2.3758      0.3111     16.6193    156.5321     30.1142
  1651.0000      9.4152      2.3879      0.2323     15.8856    172.5273     29.8576
  1651.1000      9.4152      2.4021      0.2031     15.0252    178.6814     29.2689
  1651.2000      9.4152      2.4145      0.1197     14.2736    174.1211     28.3909
  1651.3000      8.7416      2.4247      0.1044     13.6525    164.8004     27.7213
  1651.4000      8.7416      2.4338      0.1094     13.1028    157.0768     27.3045
  1651.5000      8.1994      2.4413      0.1010     12.6493    154.6805     26.9954
  1651.6000      8.1994      2.4539      0.0256     11.8828    155.6848     26.7725
  1651.7000      8.1994      2.4771      0.0661     10.4768    156.8056     26.5850
  1651.8000      8.0502      2.5025      0.1007      8.9377    157.8784     26.2929
  1651.9000      8.0502      2.5258      0.0727      7.5300    160.5835     26.1453
  1652.0000      8.0353      2.5461      0.1188      6.2993    166.0087     26.5825
  1652.1000      8.0353      2.5573      0.1358      5.6172    170.2249     27.0673
  1652.2000      8.0353      2.5605      0.1707      5.4271    168.5285     26.9922
  1652.3000      8.0501      2.5566      0.2268      5.6595    163.1828     26.6490
  1652.4000      8.0501      2.5424      0.1938      6.5229    155.4818     26.5046
  1652.5000      8.1034      2.5215      0.1612      7.7871    146.6994     26.7368
  1652.6000      8.1034      2.4984      0.1516      9.1896    146.0955     27.1542
  1652.7000      8.1034      2.4765      0.0612     10.5165    156.7815     27.6219
  1652.8000      8.2131      2.4666      0.0245     11.1167    171.1968     27.9890
  1652.9000      8.2131      2.4712      0.0338     10.8354    184.7507     27.5847
  1653.0000      8.2704      2.4806      0.0510     10.2665    193.1822     26.4277
  1653.1000      8.2704      2.4953      0.0373      9.3784    194.3530     25.4054
  1653.2000      8.2704      2.5169      0.0949      8.0682    191.6504     24.8385
  1653.3000      8.1862      2.5279      0.1255      7.3987    189.4966     24.2586
  1653.4000      8.1862      2.5183      0.0963      7.9803    187.4479     23.2058
  1653.5000      8.0925      2.5050      0.0379      8.7896    183.9431     21.7828
  1653.6000      8.0925      2.5092      0.0378      8.5321    180.3911     20.4691
  1653.7000      8.0925      2.5346      0.0441      6.9936    173.0507     19.6750
  1653.8000      8.0572      2.5646      0.0955      5.1745    159.8067     19.7890
  1653.9000      8.0572      2.5840      0.0842      3.9970    146.6502     20.5936
  1654.0000      8.0331      2.5963      0.0865      3.2529    138.0622     20.7863
  1654.1000      8.0331      2.6037      0.1313      2.8064    131.9195     20.1987
  1654.2000      8.0331      2.6019      0.0718      2.9162    125.9873     19.9203
  1654.3000      8.0064      2.5938      0.0983      3.4040    121.5810     20.0653
  1654.4000      8.0064      2.5832      0.0698      4.0479    119.4570     19.8697
  1654.5000      7.9908      2.5763      0.0882      4.4658    118.7919     19.2412
  1654.6000      7.9908      2.5828      0.0427      4.0729    115.8374     18.5663
  1654.7000      7.9908      2.6048      0.0265      2.7387    109.3337     17.6157
  1654.8000      7.9960      2.6283      0.0871      1.3125    104.0554     16.3029
  1654.9000      7.9960      2.6370      0.0581      0.7885    104.8366     15.2224
  1655.0000      8.0089      2.6330      0.0533      1.0276    109.6649     14.9648
  1655.1000      8.0089      2.6264      0.0479      1.4314    110.4869     15.5777
  1655.2000      8.0089      2.6177      0.0511      1.9550    104.6549     16.3443
  1655.3000      8.0123      2.6068      0.0287      2.6152    100.8038     16.8922
  1655.4000      8.0123      2.5999      0.0380      3.0385    102.8721     17.9287
  1655.5000      8.0116      2.5982      0.0306      3.1371    105.5521     19.0600
  1655.6000      8.0116      2.6008      0.0209      2.9806    106.2058     19.0473
  1655.7000      8.0116      2.6065      0.0170      2.6351    103.2475     18.5560
  1655.8000      8.0147      2.6089      0.0404      2.4907     98.5378     18.6817
  1655.9000      8.0147      2.5991      0.0339      3.0856     95.7637     18.9915
  1656.0000      8.0268      2.5739     -0.0001      4.6138     95.5709     18.8547
  1656.1000      8.0268      2.5479     -0.0015      6.1900     98.1164     18.4805
  1656.2000      8.0268      2.5336      0.0520      7.0542    101.7986     18.4253
  1656.3000      8.0454      2.5244     -0.0178      7.6107    106.2854     18.6879
  1656.4000      8.0454      2.5215     -0.0318      7.7870    111.6432     18.6486
  1656.5000      8.0568      2.5310     -0.0061      7.2110    114.5738     18.4661
  1656.6000      8.0568      2.5447      0.0294      6.3803    114.5449     18.5672
  1656.7000      8.0568      2.5592      0.0057      5.5039    111.3665     18.6171
  1656.8000      8.0430      2.5810      0.0452      4.1828    103.6880     18.7900
  1656.9000      8.0430      2.6068      0.0475      2.6187     99.2694     19.1984
  1657.0000      8.0104      2.6275      0.0966      1.3635    101.4257     19.1906
  1657.1000      8.0104      2.6386      0.0942      0.6903    104.6217     18.9708
  1657.2000      8.0104      2.6395      0.0664      0.6353    107.8793     19.2080
  1657.3000      7.9854      2.6306      0.1298      1.1779    112.4685     19.8876
  1657.4000      7.9854      2.6177      0.0766      1.9580    116.0795     20.8485
  1657.5000      7.9839      2.6135      0.0710      2.2124    116.8339     21.7087
  1657.6000      7.9839      2.6225      0.0688      1.6678    120.2708     22.0390
  1657.7000      7.9839      2.6375      0.0824      0.7601    129.4178     21.9268
  1657.8000      8.0033      2.6554      0.0446     -0.3278    138.2950     21.4096
  1657.9000      8.0033      2.6765      0.0977     -1.6079    141.5492     20.5997
  1658.0000      8.0245      2.6879      0.1088     -2.2953    141.4155     19.9060
  1658.1000      8.0245      2.6796      0.1137     -1.7944    141.8795     19.9293
  1658.2000      8.0245      2.6619      0.0215     -0.7187    143.1056     20.8451
  1658.3000      8.0433      2.6460      0.0495      0.2416    142.7125     21.8477
  1658.4000      8.0433      2.6291      0.0245      1.2652    141.0783     22.0869
  1658.5000      8.0695      2.6067      0.0106      2.6245    141.2682     21.4852
  1658.6000      8.0695      2.5853     -0.0161      3.9228    144.2145     20.3659
  1658.7000      8.0695      2.5714      0.0025      4.7618    148.8687     19.5014
  1658.8000      8.1066      2.5595      0.0135      5.4844    154.9805     19.5283
  1658.9000      8.1066      2.5488      0.0077      6.1347    163.3462     20.1983
  1659.0000      8.1322      2.5549     -0.0003      5.7658    169.2185     20.7791
  1659.1000      8.1322      2.5816      0.0571      4.1440    165.7828     20.9493
  1659.2000      8.1322      2.6028      0.0949      2.8610    153.0752     21.3289
  1659.3000      8.1444      2.6014      0.0540      2.9475    139.1734     21.8941
  1659.4000      8.1444      2.5945      0.0244      3.3620    138.6545     21.8482
  1659.5000      8.1478      2.5944      0.0667      3.3715    157.2980     21.7210
  1659.6000      8.1478      2.5809      0.0860      4.1860    179.4034     22.5067
