~Version Information
VERS.                      2.0: CWLS Log ASCII Standard - VERSION 2.0
WRAP.                       NO: One line per depth step
~Well Information Block
STRT.FT               423.0000: 
STOP.FT              2308.2500: 
STEP.FT                 0.2500: 
NULL.                -999.2500: 
COMP.          Pioneer Natural Resources: COMPANY
WELL.             Culver 14-12: WELL
FLD.           Purgatoire River: FIELD
LOC.           913' FSL & 1140' FWL: LOCATION
PROV.                 Colorado: PROVINCE
CNTY.               Las Animas: COUNTRY
SRVC.                Patterson: SERVICE COMPANY
DATE.          Tue Jun 07 00:21:41 2005: LOG DATE
UWI.           05 071 08386 00: UNIQUE WELL ID
~Curve Information Block
DEPT.FT            0 000 00 00: Depth
SN.Ohm-m                      : IEL Short Normal
SP.mV                         : IEL Spontaneous Potential
DIR.Ohm-m                     : IEL Induction Resistivity
GR.GAPI                       : Gamma Ray
~Parameter Information Block
~A  Depth        SN          SP         DIR          GR     
# ...
  1662.5000     14.6735    -66.2954     12.3735    115.9947
  1662.7500     15.6820    -66.4933     12.6386    108.4418
  1663.0000     16.8943    -66.6807     12.8448    102.1678
  1663.2500     18.2341    -66.8388     12.9915    102.0794
  1663.5000     19.3758    -66.9586     13.0833    107.2516
  1663.7500     19.8650    -67.0490     13.1284    112.9674
  1664.0000     19.5429    -67.1348     13.1331    123.0493
  1664.2500     18.6443    -67.2450     13.0948    130.2900
  1664.5000     17.4741    -67.3995     13.0022    141.2923
  1664.7500     16.2113    -67.6066     12.8413    147.8314
  1665.0000     14.9654    -67.8691     12.6040    154.5820
  1665.2500     13.8358    -68.1940     12.2926    156.7068
  1665.5000     12.9031    -68.5936     11.9210    157.6681
  1665.7500     12.2082    -69.0784     11.5105    157.9458
  1666.0000     11.7462    -69.6438     11.0852    158.5609
  1666.2500     11.4644    -70.2639     10.6686    158.8664
  1666.5000     11.2610    -70.8982     10.2829    159.0804
  1666.7500     11.0155    -71.5067      9.9479    159.5018
  1667.0000     10.6498    -72.0651      9.6780    160.8277
  1667.2500     10.1799    -72.5699      9.4802    161.3837
  1667.5000      9.7260    -73.0369      9.3544    159.6540
  1667.7500      9.4403    -73.4944      9.2968    156.3498
  1668.0000      9.4058    -73.9730      9.3029    149.4752
  1668.2500      9.6196    -74.4960      9.3677    144.8587
  1668.5000     10.0585    -75.0745      9.4841    139.3661
  1668.7500     10.6868    -75.7059      9.6425    137.0288
  1669.0000     11.3701    -76.3736      9.8330    135.7923
  1669.2500     11.9039    -77.0504     10.0487    136.6024
  1669.5000     12.2052    -77.7059     10.2864    140.1634
  1669.7500     12.3655    -78.3144     10.5447    143.5574
  1670.0000     12.5066    -78.8597     10.8205    148.3855
  1670.2500     12.6862    -79.3413     11.1077    150.4383
  1670.5000     12.9144    -79.7798     11.3996    151.1969
  1670.7500     13.2033    -80.2083     11.6933    150.2949
  1671.0000     13.5883    -80.6508     11.9913    146.8769
  1671.2500     14.0631    -81.1075     12.2997    143.1853
  1671.5000     14.5254    -81.5625     12.6252    136.6073
  1671.7500     14.8789    -81.9973     12.9746    133.0795
  1672.0000     15.1525    -82.3967     13.3581    131.7567
  1672.2500     15.4645    -82.7504     13.7923    133.8278
  1672.5000     15.9173    -83.0628     14.2983    138.9700
  1672.7500     16.5486    -83.3559     14.8946    141.4681
  1673.0000     17.3259    -83.6559     15.5883    140.6750
  1673.2500     18.1629    -83.9748     16.3708    136.4801
  1673.5000     18.9837    -84.3064     17.2181    125.5443
  1673.7500     19.8058    -84.6352     18.0946    116.2623
  1674.0000     20.7507    -84.9456     18.9622    101.4305
  1674.2500     21.9650    -85.2241     19.7954     92.0567
  1674.5000     23.5350    -85.4627     20.5990     80.2556
  1674.7500     25.4423    -85.6651     21.4153     74.3025
  1675.0000     27.5650    -85.8456     22.3083     67.9358
  1675.2500     29.7276    -86.0151     23.3341     64.7993
  1675.5000     31.7707    -86.1664     24.5166     60.8300
  1675.7500     33.6010    -86.2733     25.8492     58.6087
  1676.0000     35.1973    -86.2992     27.3211     56.4513
  1676.2500     36.5665    -86.2063     28.9459     55.9403
  1676.5000     37.6977    -85.9643     30.7604     55.9396
  1676.7500     38.5716    -85.5645     32.7799     55.9627
  1677.0000     39.2015    -85.0322     34.9385     56.0501
  1677.2500     39.6544    -84.4295     37.0634     56.5907
  1677.5000     40.0331    -83.8427     38.9270     58.5088
  1677.7500     40.4250    -83.3586     40.3528     60.1808
  1678.0000     40.8678    -83.0359     41.2870     62.2483
  1678.2500     41.3565    -82.8896     41.7822     62.9897
  1678.5000     41.8518    -82.8981     41.9448     63.3613
  1678.7500     42.2874    -83.0277     41.9159     63.4368
  1679.0000     42.6081    -83.2542     41.8662     63.4454
  1679.2500     42.8274    -83.5693     41.9594     63.1320
  1679.5000     43.0179    -83.9728     42.2870     61.6373
  1679.7500     43.2387    -84.4605     42.8213     59.8746
  1680.0000     43.5146    -85.0206     43.4285     56.5629
  1680.2500     43.8355    -85.6403     43.9423     54.4328
  1680.5000     44.1541    -86.3147     44.2542     52.1055
  1680.7500     44.4447    -87.0473     44.3502     51.2176
  1681.0000     44.7413    -87.8444     44.2743     50.5631
  1681.2500     45.0776    -88.7060     44.0752     50.4747
  1681.5000     45.4333    -89.6213     43.7912     51.0837
  1681.7500     45.7650    -90.5703     43.4709     52.0304
  1682.0000     46.0585    -91.5281     43.1811     53.6782
  1682.2500     46.3390    -92.4637     42.9855     54.4667
  1682.5000     46.6455    -93.3323     42.9212     55.0745
  1682.7500     47.0076    -94.0776     42.9936     55.4542
  1683.0000     47.4523    -94.6510     43.1959     56.4764
  1683.2500     48.0185    -95.0315     43.5304     57.3509
  1683.5000     48.7525    -95.2281     44.0094     58.3616
  1683.7500     49.6834    -95.2666     44.6275     58.5218
  1684.0000     50.8045    -95.1749     45.3377     57.6286
  1684.2500     52.1000    -94.9727     46.0746     56.2239
  1684.5000     53.5820    -94.6671     46.8182     53.3961
  1684.7500     55.2704    -94.2525     47.6341     51.5930
  1685.0000     57.1459    -93.7157     48.6343     49.6832
  1685.2500     59.1647    -93.0469     49.8831     48.9317
  1685.5000     61.2898    -92.2511     51.3331     48.3528
  1685.7500     63.4431    -91.3509     52.8233     48.3713
  1686.0000     65.4562    -90.3826     54.1317     49.2669
  1686.2500     67.1936    -89.3841     55.0521     50.4402
  1686.5000     68.7074    -88.3803     55.4894     52.6493
  1686.7500     70.0860    -87.3725     55.5338     54.1777
  1687.0000     71.2304    -86.3408     55.4419     56.6253
  1687.2500     71.9356    -85.2583     55.4895     58.6209
  1687.5000     72.0352    -84.1065     55.7919     62.3390
  1687.7500     71.4053    -82.8806     56.2225     65.0910
  1688.0000     70.0027    -81.5892     56.4962     69.2237
  1688.2500     67.9588    -80.2528     56.3619     72.0212
  1688.5000     65.5340    -78.9016     55.7446     76.5518
  1688.7500     62.9113    -77.5694     54.7111     79.6933
  1689.0000     60.0938    -76.2853     53.3194     83.9323
  1689.2500     57.0233    -75.0684     51.5325     86.1539
  1689.5000     53.7059    -73.9244     49.2807     88.6898
  1689.7500     50.1994    -72.8484     46.5911     90.1818
  1690.0000     46.5852    -71.8317     43.6324     92.7848
  1690.2500     42.9919    -70.8694     40.6313     95.0163
  1690.5000     39.5649    -69.9625     37.7716     99.1914
  1690.7500     36.3976    -69.1167     35.1557    102.4996
  1691.0000     33.5250    -68.3422     32.8250    108.1195
  1691.2500     30.9618    -67.6549     30.7834    111.9829
  1691.5000     28.7285    -67.0674     29.0076    116.9655
  1691.7500     26.8384    -66.5723     27.4542    119.2630
  1692.0000     25.2561    -66.1379     26.0751    120.9933
  1692.2500     23.8902    -65.7315     24.8312    121.2532
  1692.5000     22.6479    -65.3435     23.6938    121.2037
  1692.7500     21.4963    -64.9881     22.6310    121.4766
  1693.0000     20.4796    -64.6838     21.5994    122.7498
  1693.2500     19.6719    -64.4369     20.5650    123.8323
  1693.5000     19.0896    -64.2377     19.5402    124.9096
  1693.7500     18.6631    -64.0679     18.5955    125.1884
  1694.0000     18.2964    -63.9106     17.8218    125.8755
  1694.2500     17.9254    -63.7557     17.2741    127.1021
  1694.5000     17.5452    -63.6017     16.9395    129.8919
  1694.7500     17.2104    -63.4529     16.7444    131.4970
  1695.0000     16.9804    -63.3176     16.5913    131.8790
  1695.2500     16.8484    -63.2046     16.4032    130.4229
  1695.5000     16.7264    -63.1200     16.1455    126.4318
  1695.7500     16.5328    -63.0634     15.8142    123.5240
