~Version Information
VERS.                      2.0: CWLS Log ASCII Standard - VERSION 2.0
WRAP.                       NO: One line per depth step
~Well Information Block
STRT.FT               899.1000: 
STOP.FT              2501.5000: 
STEP.FT                 0.1000: 
NULL.                -999.2500: 
COMP.          Petrogulf Corporation: COMPANY
WELL.           Deremer 17-21V: WELL
FLD.           Purgatorie River: FIELD
LOC.           851' FNL & 963' FWL: LOCATION
CNTY.               Las Animas: COUNTY
SRVC.                         : SERVICE COMPANY
DATE.          Tue Nov 18 09:12:06 2003: LOG DATE
UWI.                          : UNIQUE WELL ID
STAT.                 Colorado: STATE
~Curve Information Block
DEPT.FT            0 000 00 00: Depth
DPOR.pu                       : CDL Density Porosity
NEU.NAPI                      : Neutron
NPOR.pu                       : Neutron Porosity
RHOB.g/cc                     : CDL Bulk Density
RHOC.g/cc                     : CDL Density Correction
GR.GAPI                       : Gamma Ray
DCAL.in                       : CDL Caliper
~Parameter Information Block
~A  Depth       DPOR        NEU         NPOR        RHOB        RHOC         GR         DCAL    
# ...
  1873.5000     31.0679   1232.2919     20.7104      2.1374      0.0497    104.9399      7.8919
  1873.6000     36.6405   1216.2502     21.4250      2.0454      0.0372    105.5521      7.8919
  1873.7000     42.6907   1214.5308     21.5013      1.9456     -0.0207    108.0324      7.8919
  1873.8000     46.7520   1216.4310     21.4169      1.8786      0.0144    111.3960      7.9373
  1873.9000     46.6405   1216.6263     21.4083      1.8804      0.0358    117.0560      7.9373
  1874.0000     43.0771   1217.5555     21.3670      1.9392      0.2204    125.6979      7.9738
  1874.1000     38.7294   1218.0162     21.3465      2.0110      0.2351    132.3158      7.9738
  1874.2000     35.0736   1217.7560     21.3581      2.0713      0.2877    134.6993      7.9738
  1874.3000     31.7906   1220.9083     21.2179      2.1255      0.1816    137.0455      8.0200
  1874.4000     28.5241   1229.5211     20.8341      2.1794      0.3006    145.2295      8.0200
  1874.5000     25.7434   1236.0591     20.5420      2.2252      0.2963    156.8364      8.0608
  1874.6000     23.2876   1232.9342     20.6817      2.2658      0.2531    160.7146      8.0608
  1874.7000     20.4874   1222.9415     21.1274      2.3120      0.2991    151.6855      8.0608
  1874.8000     17.0496   1210.2358     21.6919      2.3687      0.2103    136.9766      8.0743
  1874.9000     13.0359   1198.9851     22.1897      2.4349      0.3493    132.4418      8.0743
  1875.0000      9.4754   1192.5880     22.4720      2.4937      0.3622    146.5826      8.0838
  1875.1000      7.2047   1192.9833     22.4545      2.5311      0.3873    167.8489      8.0838
  1875.2000      6.1094   1192.6637     22.4686      2.5492      0.4580    177.4563      8.0838
  1875.3000      5.8474   1179.3575     23.0539      2.5535      0.3548    171.1346      8.1134
  1875.4000      6.3047   1161.5123     23.8352      2.5460      0.3550    160.5636      8.1134
  1875.5000      7.6414   1153.2346     24.1962      2.5239      0.2638    155.7421      8.1581
  1875.6000      9.4315   1148.0994     24.4197      2.4944      0.2717    155.4492      8.1581
  1875.7000     10.6462   1136.0677     24.9422      2.4743      0.2026    156.6679      8.1581
  1875.8000     10.5446   1123.2822     25.4956      2.4760      0.2076    160.4605      8.2143
  1875.9000      9.8314   1121.2535     25.5833      2.4878      0.2413    166.3470      8.2143
  1876.0000      9.6257   1128.1906     25.2834      2.4912      0.2293    172.1830      8.2628
  1876.1000      9.4261   1132.4688     25.0982      2.4945      0.1933    173.0855      8.2628
  1876.2000      8.6110   1126.5532     25.3542      2.5079      0.2528    165.5006      8.2628
  1876.3000      7.8414   1112.4082     25.9649      2.5206      0.2702    161.7216      8.2864
  1876.4000      6.8746   1095.8123     26.6787      2.5366      0.2438    172.1352      8.2864
  1876.5000      4.9285   1082.6202     27.2442      2.5687      0.4007    182.1448      8.2608
  1876.6000      3.0787   1082.3418     27.2561      2.5992      0.4103    177.3267      8.2608
  1876.7000      2.7866   1101.6731     26.4270      2.6040      0.4109    169.2831      8.2608
  1876.8000      4.0164   1134.7720     24.9984      2.5837      0.2987    176.2817      8.1886
  1876.9000      5.5654   1168.0121     23.5511      2.5582      0.2439    190.7923      8.1886
  1877.0000      6.2835   1193.8074     22.4182      2.5463      0.1721    195.6908      8.1421
  1877.1000      6.0944   1214.0498     21.5227      2.5494      0.2303    190.6594      8.1421
  1877.2000      5.9969   1228.3540     20.8862      2.5511      0.2555    182.1305      8.1421
  1877.3000      6.4134   1233.8868     20.6392      2.5442      0.1856    174.6951      8.1416
  1877.4000      6.7390   1230.5333     20.7890      2.5388      0.2008    171.8674      8.1416
  1877.5000      6.9294   1226.2844     20.9785      2.5357      0.2163    173.4881      8.1395
  1877.6000      7.8191   1232.9738     20.6800      2.5210      0.2321    173.8921      8.1395
  1877.7000     10.0818   1244.1223     20.1809      2.4836      0.2420    167.7841      8.1395
  1877.8000     13.7147   1240.1906     20.3571      2.4237      0.1493    157.3795      8.1186
  1877.9000     18.4084   1219.0709     21.2996      2.3463      0.1672    149.8542      8.1186
  1878.0000     23.7508   1194.6299     22.3819      2.2581      0.1354    150.8903      8.0824
  1878.1000     28.7532   1172.6783     23.3468      2.1756      0.0956    159.2838      8.0824
  1878.2000     32.4499   1152.3855     24.2332      2.1146     -0.0086    166.2782      8.0824
  1878.3000     34.7769   1138.0448     24.8565      2.0762      0.0469    164.2028      8.0610
  1878.4000     36.2177   1129.0099     25.2479      2.0524      0.0797    155.6526      8.0610
  1878.5000     36.5929   1117.8348     25.7309      2.0462      0.1383    148.7031      8.0753
  1878.6000     35.3175   1104.1788     26.3192      2.0673      0.1477    145.9441      8.0753
  1878.7000     32.9448   1096.6700     26.6419      2.1064      0.2426    144.5643      8.0753
  1878.8000     30.8019   1098.0690     26.5818      2.1418      0.2164    144.5220      8.0881
  1878.9000     29.1640   1105.4391     26.2650      2.1688      0.2006    149.7630      8.0881
  1879.0000     27.7009   1116.2164     25.8007      2.1929      0.2292    156.5400      8.0907
  1879.1000     26.2142   1123.3407     25.4931      2.2175      0.1397    156.9486      8.0907
  1879.2000     24.2784   1121.3206     25.5804      2.2494      0.1467    153.7645      8.0907
  1879.3000     22.0368   1114.7990     25.8618      2.2864      0.1437    153.8180      8.0918
  1879.4000     20.3604   1112.9584     25.9412      2.3141      0.1925    156.7701      8.0918
  1879.5000     19.6090   1115.4739     25.8327      2.3265      0.1850    156.4067      8.0758
  1879.6000     18.9344   1114.3992     25.8791      2.3376      0.0814    152.0092      8.0758
  1879.7000     17.8802   1109.0789     26.1083      2.3550      0.1624    150.6246      8.0758
  1879.8000     17.4145   1102.5024     26.3913      2.3627      0.1291    152.9204      8.0500
  1879.9000     17.9352   1092.6946     26.8125      2.3541      0.1145    152.6272      8.0500
  1880.0000     18.7063   1080.3636     27.3408      2.3413      0.1018    148.3737      8.0283
  1880.1000     18.9268   1070.0542     27.7814      2.3377      0.0209    145.6927      8.0283
  1880.2000     18.7045   1060.9963     28.1678      2.3414      0.1247    145.5683      8.0283
  1880.3000     18.7397   1054.8529     28.4294      2.3408      0.0742    142.4468      7.9992
  1880.4000     18.7458   1057.5957     28.3127      2.3407      0.0771    135.1792      7.9992
  1880.5000     18.1578   1067.5747     27.8872      2.3504      0.1231    129.8162      7.9586
  1880.6000     16.9065   1079.2567     27.3882      2.3710      0.1054    134.7308      7.9586
  1880.7000     14.6879   1090.6167     26.9016      2.4076      0.1213    150.6566      7.9586
  1880.8000     11.8157   1100.6741     26.4699      2.4550      0.2523    166.3608      7.9188
  1880.9000     10.3421   1107.0997     26.1935      2.4794      0.3300    173.1961      7.9188
  1881.0000     10.9409   1110.1746     26.0611      2.4695      0.1837    172.4630      7.9003
  1881.1000     10.6161   1109.3158     26.0981      2.4748      0.1582    169.8611      7.9003
  1881.2000      7.1250   1101.8948     26.4174      2.5324      0.1893    172.3818      7.9003
  1881.3000      2.5917   1093.9629     26.7581      2.6072      0.2919    180.2348      7.9061
  1881.4000      0.2409   1093.4771     26.7790      2.6460      0.3000    185.1111      7.9061
  1881.5000      0.1128   1101.2224     26.4463      2.6481      0.2590    188.5959      7.9297
  1881.6000      0.6019   1118.7288     25.6923      2.6401      0.2331    195.7685      7.9297
  1881.7000      1.9935   1144.8070     24.5629      2.6171      0.2697    197.6276      7.9297
  1881.8000      5.3052   1166.7921     23.6045      2.5625      0.1402    190.8895      7.9742
