~Version Information
 VERS.                                  2.0 : CWLS LAS VERSION
 WRAP.                                   NO : WRAPING MODE
 SWARE .                 MController 2.5.0J : SOFTWARE VERSION
~Well Information
 WELL.                        MOO MOO 31-36 : WELL
 COMP.    PIONEER NATURAL RESOURCES USA INC : COMPANY
 FLD.                      PURGATOIRE RIVER : FIELD
 LOC.                NW/NE SEC 36 T32S R67W : LOCATION
 DATE.                             06/16/05 : DATE(S) LOGGED
 SRVC.       BLANCO GEOLOGICAL SERVICES LLC : SERVICE COMPANY
 STAT.                             COLORADO : STATE
 CNTY.                           LAS ANIMAS : COUNTY
 CTRY.                                  USA : COUNTRY
 API.                       05-071-08395-00 : API NUMBER
 STRT.FT                             303.00 : START DEPTH
 STOP.FT                            2275.00 : STOP DEPTH
 STEP.FT                               1.00 : DEPTH INCREMENT
 NULL.                                -9999 : NULL VALUE
~Curve information
 DEPTH.FT                                   :
 ROP.MIN/FT                                 :
 GAS.UNITS                                  :
~ASCII Log data
# ...
       703.0         0.23         54.4 
       704.0         0.20         52.0 
       705.0         0.23         51.1 
       706.0         0.17         51.6 
       707.0         0.27         50.2 
       708.0         0.27         49.9 
       709.0         0.30         48.9 
       710.0         0.27         48.1 
       711.0         0.32         47.3 
       712.0         0.17         46.7 
       713.0         0.43         46.9 
       714.0         0.17         46.9 
       715.0         0.23         46.5 
       716.0         1.13         77.0 
       717.0         0.23        117.6 
       718.0         0.27        188.2 
       719.0         0.30        204.5 
       720.0         0.25        182.7 
       721.0         0.33        137.7 
       722.0         0.50         84.8 
       723.0         0.30         71.2 
       724.0         0.30         62.8 
       725.0         0.27         56.7 
       726.0         0.27         50.8 
       727.0         0.27         47.5 
       728.0         0.27         46.5 
       729.0         0.27         47.4 
       730.0         0.23         46.5 
       731.0         0.25         47.5 
       732.0         0.27         46.5 
       733.0         0.27         46.6 
       734.0         0.23         46.1 
       735.0         0.30         47.2 
       736.0         0.23         47.0 
       737.0         0.27         45.4 
       738.0         0.23         45.1 
       739.0         0.23         46.1 
       740.0         0.20         45.9 
       741.0         0.23         44.3 
       742.0         0.20         45.1 
       743.0         0.30         45.8 
       744.0         0.33         44.0 
       745.0         0.22         40.7 
       746.0         0.57         63.0 
       747.0         0.33        109.9 
       748.0         0.30        164.3 
       749.0         0.27        171.0 
       750.0         0.20        159.3 
       751.0         0.20        140.6 
       752.0         0.10        130.9 
       753.0         0.10        120.6 
       754.0         0.17        104.4 
       755.0         0.27         83.5 
       756.0         0.27         69.9 
       757.0         0.20         63.7 
       758.0         0.13         62.8 
       759.0         0.15         64.5 
       760.0         0.17         69.4 
       761.0         0.27         75.0 
       762.0         0.13         75.3 
       763.0         0.27         73.9 
       764.0         0.20         73.9 
       765.0         0.17         77.5 
       766.0         0.17         81.5 
       767.0         0.17         85.0 
       768.0         0.23         87.0 
       769.0         0.10         86.2 
       770.0         0.10         85.9 
       771.0         0.13         83.4 
       772.0         0.10         80.4 
       773.0         0.43         68.2 
       774.0         0.20         68.8 
       775.0         0.27         71.6 
       776.0         0.72         69.1 
       777.0         0.33        111.8 
       778.0         0.37        202.2 
       779.0         0.30        295.3 
       780.0         0.23        321.7 
       781.0         0.23        301.3 
       782.0         0.27        250.5 
       783.0         0.27        193.0 
       784.0         0.33        138.2 
       785.0         0.30        108.9 
       786.0         0.25         96.5 
       787.0         0.20         89.7 
       788.0         0.23         84.0 
       789.0         0.20         79.2 
       790.0         0.27         73.9 
       791.0         0.20         69.9 
       792.0         0.20         66.9 
       793.0         0.20         64.7 
       794.0         0.17         62.8 
       795.0         0.27         61.0 
       796.0         0.23         60.1 
       797.0         0.33         59.8 
       798.0         0.27         59.6 
       799.0         0.30         58.7 
       800.0         0.22         57.8 
       801.0         0.20         56.7 
       802.0         0.40         55.5 
       803.0         0.13         55.2 
       804.0         0.27         55.2 
       805.0         0.23         54.3 
       806.0         1.10        113.6 
       807.0         0.37        202.4 
       808.0         0.27        245.2 
       809.0         0.22        243.4 
       810.0         0.10        236.4 
       811.0         0.13        220.0 
       812.0         0.17        195.9 
       813.0         0.10        180.0 
       814.0         0.17        153.2 
       815.0         0.23        122.9 
       816.0         0.30         98.9 
       817.0         0.30         96.9 
       818.0         0.27        105.3 
       819.0         0.20        112.5 
       820.0         0.17        116.1 
       821.0         0.17        117.2 
       822.0         0.27        112.8 
       823.0         0.33        104.9 
       824.0         0.32         98.2 
       825.0         0.27         93.4 
       826.0         0.23         90.5 
       827.0         0.20         89.3 
       828.0         0.27         88.2 
       829.0         0.23         87.0 
       830.0         0.27         84.4 
       831.0         0.33         81.1 
       832.0         0.20         80.0 
       833.0         0.37         77.6 
       834.0         0.23         74.5 
       835.0         0.13         70.3 
       836.0         0.13         66.4 
       837.0         0.10         64.9 
       838.0         0.20         72.2 
       839.0         0.45        146.3 
       840.0         0.43        285.3 
       841.0         0.23        316.8 
       842.0         0.37        260.8 
       843.0         0.33        204.0 
       844.0         0.27        166.7 
       845.0         0.40        125.5 
       846.0         0.33        108.9 
       847.0         0.27        100.0 
       848.0         0.30         89.9 
       849.0         0.32         77.8 
       850.0         0.20         76.3 
       851.0         0.40         77.4 
       852.0         0.27         77.3 
       853.0         0.20         76.1 
       854.0         0.20         73.6 
       855.0         0.13         70.0 
       856.0         0.07         67.8 
       857.0         0.13         65.7 
       858.0         0.10         65.6 
       859.0         0.13         66.9 
       860.0         0.13         68.4 
       861.0         0.13         69.6 
       862.0         0.17         69.6 
       863.0         0.27         70.5 
       864.0         0.30         85.2 
       865.0         0.23         95.7 
       866.0         1.05        100.7 
       867.0         0.20         93.7 
       868.0         0.30         82.9 
       869.0         0.10         84.1 
       870.0         0.30        117.5 
       871.0         0.37        215.8 
       872.0         0.30        338.7 
       873.0         0.23        423.3 
       874.0         0.23        432.7 
       875.0         0.20        396.5 
       876.0         0.22        341.7 
       877.0         0.23        274.1 
       878.0         0.23        216.8 
       879.0         0.33        161.1 
       880.0         0.23        139.0 
       881.0         0.23        126.5 
       882.0         0.23        120.3 
       883.0         0.20        117.4 
       884.0         0.20        112.0 
       885.0         0.20        107.6 
       886.0         0.20        104.8 
       887.0         0.23        102.1 
       888.0         0.20        100.2 
       889.0         0.23         98.3 
       890.0         0.23         95.9 
       891.0         0.28         93.6 
       892.0         0.23         92.2 
       893.0         0.23         90.8 
       894.0         0.23         88.5 
       895.0         0.23         87.3 
       896.0         1.10         81.8 
       897.0         0.23         73.1 
       898.0         0.13         71.3 
       899.0         0.40        111.3 
       900.0         0.38        212.6 
       901.0         0.33        336.1 
       902.0         0.30        379.9 
