~Version Information
 VERS.                                  2.0 : CWLS LAS VERSION
 WRAP.                                   NO : WRAPING MODE
 SWARE .                 MController 2.5.0N : SOFTWARE VERSION
~Well Information
 WELL.                          Bobsy 34-11 : WELL
 COMP.    Pioneer Natural Resources USA Inc : COMPANY
 FLD.                      Purgatoire River : FIELD
 LOC.                SW/SE Sec 11 T32S R66W : LOCATION
 DATE.                               4/7/05 : DATE(S) LOGGED
 SRVC.       Blanco Geological Services LLC : SERVICE COMPANY
 STAT.                                   CO : STATE
 CNTY.                           Las Animas : COUNTY
 CTRY.                                  USA : COUNTRY
 API.                       05-071-08330-00 : API NUMBER
 STRT.FT                             842.00 : START DEPTH
 STOP.FT                            2345.00 : STOP DEPTH
 STEP.FT                               1.00 : DEPTH INCREMENT
 NULL.                                -9999 : NULL VALUE
~Curve information
 DEPTH.FT                                   :
 ROP.MIN/FT                                 :
 GAS.UNITS                                  :
~ASCII Log data
# ...
      1042.0         0.20          5.0 
      1043.0         0.17          4.8 
      1044.0         0.22          4.3 
      1045.0         0.30          3.4 
      1046.0         2.03         62.9 
      1047.0         0.40         73.0 
      1048.0         0.27         68.2 
      1049.0         0.25         51.6 
      1050.0         0.10         38.8 
      1051.0         0.20         35.4 
      1052.0         0.23         30.4 
      1053.0         0.23         28.5 
      1054.0         0.27         26.8 
      1055.0         0.17         23.0 
      1056.0         0.23         21.3 
      1057.0         0.20         20.3 
      1058.0         0.23         18.3 
      1059.0         0.27         18.9 
      1060.0         0.27         19.3 
      1061.0         0.17         18.8 
      1062.0         0.13         19.0 
      1063.0         0.23         19.7 
      1064.0         0.23         20.8 
      1065.0         0.25         20.2 
      1066.0         0.27         20.2 
      1067.0         0.30         19.7 
      1068.0         0.20         19.8 
      1069.0         0.17         19.7 
      1070.0         0.13         18.6 
      1071.0         0.23         18.2 
      1072.0         0.20         16.3 
      1073.0         0.23         16.1 
      1074.0         0.20         14.9 
      1075.0         0.37         13.6 
      1076.0         2.12         93.0 
      1077.0         0.33        118.8 
      1078.0         0.23        122.2 
      1079.0         0.27        116.7 
      1080.0         0.13         88.6 
      1081.0         0.13         72.3 
      1082.0         0.20         57.5 
      1083.0         0.20         41.2 
      1084.0         0.27         30.0 
      1085.0         0.27         22.5 
      1086.0         0.28         15.5 
      1087.0         0.27         11.3 
      1088.0         0.30          8.1 
      1089.0         0.23          5.8 
      1090.0         0.23          5.4 
      1091.0         0.30          3.4 
      1092.0         0.23          3.3 
      1093.0         0.23          3.2 
      1094.0         0.27          2.6 
      1095.0         0.30          3.3 
      1096.0         0.27          3.8 
      1097.0         0.27          4.4 
      1098.0         0.32          3.8 
      1099.0         0.30          3.7 
      1100.0         0.23          4.4 
      1101.0         0.23          3.7 
      1102.0         0.23          3.3 
      1103.0         0.23          3.3 
      1104.0         0.17          2.0 
      1105.0         0.20          2.0 
      1106.0        35.32        299.0 
      1107.0         0.60       1204.1 
      1108.0         0.23       1199.2 
      1109.0         0.20       1025.4 
      1110.0         0.13        784.7 
      1111.0         0.23        630.2 
      1112.0         0.30        440.0 
      1113.0         0.17        440.0 
      1114.0         0.23        134.9 
      1115.0         0.23         85.6 
      1116.0         0.27         52.4 
      1117.0         0.20         32.6 
      1118.0         0.20         23.3 
      1119.0         0.25         18.5 
      1120.0         0.20         12.1 
      1121.0         0.23         10.5 
      1122.0         0.23          8.1 
      1123.0         0.27          7.5 
      1124.0         0.27          6.9 
      1125.0         0.23          6.9 
      1126.0         0.13          5.8 
      1127.0         0.13          5.6 
      1128.0         0.13          5.5 
      1129.0         0.27          6.1 
      1130.0         0.23          6.7 
      1131.0         0.23          5.9 
      1132.0         0.23          4.7 
      1133.0         0.23          3.7 
      1134.0         0.35          4.1 
      1135.0         0.20          4.3 
      1136.0         2.37         16.0 
      1137.0         0.27         17.9 
      1138.0         0.28         17.8 
      1139.0         0.27         15.3 
      1140.0         0.27         11.3 
      1141.0         0.27          9.4 
      1142.0         0.27          6.2 
      1143.0         0.27          6.4 
      1144.0         0.30          6.4 
      1145.0         0.27          5.9 
      1146.0         0.27          5.8 
      1147.0         0.27          6.0 
      1148.0         0.23          5.2 
      1149.0         0.30          4.6 
      1150.0         0.23          4.5 
      1151.0         0.35          4.6 
      1152.0         0.30          9.3 
      1153.0         0.27         13.8 
      1154.0         0.23         18.6 
      1155.0         0.23         21.6 
      1156.0         0.23         23.1 
      1157.0         0.23         23.9 
      1158.0         0.23         25.2 
      1159.0         0.23         28.2 
      1160.0         0.23         29.5 
      1161.0         0.23         29.2 
      1162.0         0.23         27.0 
      1163.0         0.23         25.5 
      1164.0         0.25         24.6 
      1165.0         0.30         22.9 
      1166.0         1.73         41.8 
      1167.0         0.57         85.0 
      1168.0         0.37        112.7 
      1169.0         0.30        115.3 
      1170.0         0.28        110.0 
      1171.0         0.23         91.1 
      1172.0         0.27         75.2 
      1173.0         0.30         60.5 
      1174.0         0.30         50.5 
      1175.0         0.30         45.3 
      1176.0         0.23         43.9 
      1177.0         0.23         41.5 
      1178.0         0.23         39.0 
      1179.0         0.17         35.7 
      1180.0         0.13         32.7 
      1181.0         0.13         31.3 
      1182.0         0.10         28.7 
      1183.0         0.13         28.0 
      1184.0         0.23         27.9 
      1185.0         0.18         28.4 
      1186.0         0.27         28.9 
      1187.0         0.30         29.9 
      1188.0         0.23         30.5 
      1189.0         0.27         30.8 
      1190.0         0.23         32.3 
      1191.0         0.23         33.2 
      1192.0         0.27         31.1 
      1193.0         0.23         28.2 
      1194.0         0.27         27.1 
      1195.0         0.20         25.6 
      1196.0         1.58         25.5 
      1197.0         0.23         33.3 
      1198.0         0.30         45.4 
      1199.0         0.30         57.8 
      1200.0         0.40         73.6 
      1201.0         0.30         74.9 
      1202.0         0.30         70.9 
      1203.0         0.27         56.2 
      1204.0         0.30         44.3 
      1205.0         0.28         33.3 
      1206.0         0.20         26.8 
      1207.0         0.23         27.3 
      1208.0         0.20         27.6 
      1209.0         0.20         26.8 
      1210.0         0.23         26.3 
      1211.0         0.23         24.8 
      1212.0         0.17         23.4 
      1213.0         0.13         22.4 
      1214.0         0.13         21.2 
      1215.0         0.10         19.6 
      1216.0         0.43         20.6 
      1217.0         0.13         21.1 
      1218.0         0.13         23.0 
      1219.0         0.17         23.2 
      1220.0         0.13         23.1 
      1221.0         0.23         23.5 
      1222.0         0.22         22.4 
      1223.0         0.13         21.5 
      1224.0         0.17         21.4 
      1225.0         0.27         20.6 
      1226.0         2.65         82.9 
      1227.0         0.33         83.9 
      1228.0         0.30         74.9 
      1229.0         0.13         59.2 
      1230.0         0.23         52.2 
      1231.0         0.30         45.1 
      1232.0         0.17         51.4 
      1233.0         0.23         72.9 
      1234.0         0.23         96.7 
      1235.0         0.30        114.3 
      1236.0         0.23        118.8 
      1237.0         0.27        118.6 
      1238.0         0.17        114.6 
      1239.0         0.20        110.4 
      1240.0         0.25        104.2 
      1241.0         0.20         98.5 
