~Version Information
VERS.                      2.0: CWLS Log ASCII Standard - VERSION 2.0
WRAP.                       NO: One line per depth step
~Well Information Block
STRT.FT               546.2500: 
STOP.FT              2496.7500: 
STEP.FT                 0.2500: 
NULL.                -999.2500: 
COMP.          Petrogulf Corporation: COMPANY
WELL.               Egan 9-11V: WELL
FLD.           Purgatorie River: FIELD
LOC.           724' FNL & 1379' FWL: LOCATION
PROV.                 Colorado: PROVINCE
CNTY.               Las Animas: COUNTRY
SRVC.          Patterson Wireline: SERVICE COMPANY
DATE.          Fri Jul 11 23:32:41 2003: LOG DATE
UWI.           05 071 07875 00: UNIQUE WELL ID
~Curve Information Block
DEPT.FT            0 000 00 00: Depth
SP.mV                         : DIL Spontaneous Potential
RILD.Ohm-m                    : DIL Deep Resistivity
RILM.Ohm-m                    : DIL Medium Resistivity
RLL3.Ohm-m                    : DIL Shallow Resistivity
GR.GAPI                       : Gamma Ray
~Parameter Information Block
~A  Depth        SP         RILD        RILM        RLL3         GR     
# ...
  1722.2500    -99.2765     11.8185     13.4728     16.7034    112.8820
  1722.5000    -99.4088     11.7997     13.5663     20.1860    116.8960
  1722.7500    -99.6997     11.7624     13.6649     24.4467    117.1330
  1723.0000   -100.1276     11.7180     13.7609     28.0683    113.2057
  1723.2500   -100.6426     11.6839     13.8477     29.4445    109.0261
  1723.5000   -101.1704     11.6807     13.9218     27.9078    104.4177
  1723.7500   -101.6326     11.7255     13.9833     24.2660    104.4839
  1724.0000   -101.9770     11.8258     14.0351     20.1615    110.0886
  1724.2500   -102.1981     11.9754     14.0819     16.9341    116.2505
  1724.5000   -102.3292     12.1533     14.1283     15.0558    125.7960
  1724.7500   -102.4136     12.3270     14.1768     14.3579    130.8627
  1725.0000   -102.4747     12.4589     14.2263     14.4940    135.3965
  1725.2500   -102.5063     12.5166     14.2709     15.1754    136.2659
  1725.5000   -102.4824     12.4824     14.3001     16.1740    134.8464
  1725.7500   -102.3778     12.3583     14.2997     17.2743    132.8829
  1726.0000   -102.1855     12.1619     14.2537     18.2613    130.0975
  1726.2500   -101.9227     11.9192     14.1473     18.9343    128.8385
  1726.5000   -101.6280     11.6553     13.9695     19.1314    127.5097
  1726.7500   -101.3523     11.3895     13.7159     18.7679    126.6513
  1727.0000   -101.1444     11.1324     13.3896     17.8819    125.4748
  1727.2500   -101.0351     10.8860     13.0013     16.6410    125.0470
  1727.5000   -101.0262     10.6466     12.5668     15.2852    125.0356
  1727.7500   -101.0909     10.4080     12.1050     14.0354    125.2658
  1728.0000   -101.1862     10.1644     11.6348     13.0228    126.0072
  1728.2500   -101.2710      9.9125     11.1729     12.2694    127.1792
  1728.5000   -101.3236      9.6526     10.7334     11.7141    130.5396
  1728.7500   -101.3484      9.3891     10.3268     11.2721    133.5835
  1729.0000   -101.3675      9.1305      9.9604     10.8931    138.0596
  1729.2500   -101.4018      8.8886      9.6391     10.5779    140.4414
  1729.5000   -101.4582      8.6756      9.3658     10.3439    143.2919
  1729.7500   -101.5315      8.5017      9.1419     10.1839    145.1206
  1730.0000   -101.6129      8.3723      8.9682     10.0606    147.8739
  1730.2500   -101.6959      8.2883      8.8443      9.9423    149.3396
  1730.5000   -101.7816      8.2468      8.7698      9.8480    150.3478
  1730.7500   -101.8811      8.2433      8.7431      9.8602    150.1526
  1731.0000   -102.0100      8.2729      8.7622     10.0825    148.5610
  1731.2500   -102.1722      8.3307      8.8241     10.5627    146.4286
  1731.5000   -102.3458      8.4108      8.9246     11.2506    141.3595
  1731.7500   -102.4853      8.5061      9.0583     12.0327    137.0894
  1732.0000   -102.5400      8.6100      9.2183     12.8059    130.7427
  1732.2500   -102.4787      8.7181      9.3971     13.5098    127.2576
  1732.5000   -102.3049      8.8302      9.5864     14.0923    123.4948
  1732.7500   -102.0538      8.9498      9.7784     14.4710    121.7969
  1733.0000   -101.7715      9.0830      9.9666     14.5628    120.1501
  1733.2500   -101.4914      9.2350     10.1470     14.3600    119.6025
  1733.5000   -101.2225      9.4088     10.3188     13.9537    119.7153
  1733.7500   -100.9520      9.6043     10.4846     13.4622    120.5670
  1734.0000   -100.6564      9.8194     10.6505     12.9522    123.3559
  1734.2500   -100.3131     10.0516     10.8249     12.4476    126.2648
  1734.5000    -99.9064     10.2985     11.0185     11.9978    131.4843
  1734.7500    -99.4310     10.5575     11.2424     11.7195    134.6477
  1735.0000    -98.8944     10.8255     11.5079     11.7908    137.3999
  1735.2500    -98.3157     11.0985     11.8253     12.4279    137.5495
  1735.5000    -97.7238     11.3738     12.2036     13.8299    135.5253
  1735.7500    -97.1529     11.6519     12.6503     16.0483    132.7008
  1736.0000    -96.6369     11.9375     13.1709     18.8352    125.3088
  1736.2500    -96.1975     12.2401     13.7684     21.6482    117.8064
  1736.5000    -95.8339     12.5724     14.4434     23.9022    103.8716
  1736.7500    -95.5241     12.9493     15.1937     25.2960     94.5848
  1737.0000    -95.2384     13.3865     16.0137     25.9320     83.4460
  1737.2500    -94.9531     13.8983     16.8945     26.1617     78.4866
  1737.5000    -94.6545     14.4923     17.8230     26.3460     74.6178
  1737.7500    -94.3376     15.1630     18.7820     26.7103     74.3343
  1738.0000    -94.0069     15.8858     19.7499     27.3157     77.3448
  1738.2500    -93.6763     16.6168     20.7013     28.0906     81.2952
  1738.5000    -93.3641     17.2994     21.6078     28.8853     88.4331
  1738.7500    -93.0852     17.8793     22.4408     29.5342     92.5380
  1739.0000    -92.8468     18.3212     23.1737     29.8971     95.4730
  1739.2500    -92.6488     18.6193     23.7860     29.8637     94.7297
  1739.5000    -92.4889     18.7940     24.2660     29.3508     90.2221
  1739.7500    -92.3655     18.8785     24.6123     28.3468     85.9662
  1740.0000    -92.2800     18.9049     24.8342     26.9841     79.7312
  1740.2500    -92.2328     18.8984     24.9490     25.5393     76.6352
  1740.5000    -92.2163     18.8787     24.9796     24.3109     74.1477
  1740.7500    -92.2112     18.8636     24.9502     23.4714     73.4498
  1741.0000    -92.1906     18.8666     24.8835     23.0311     72.2841
  1741.2500    -92.1329     18.8897     24.7980     22.9170     70.7773
  1741.5000    -92.0345     18.9189     24.7073     23.0558     67.5335
  1741.7500    -91.9133     18.9298     24.6193     23.3886     65.2951
  1742.0000    -91.8002     18.9015     24.5364     23.8477     62.6492
  1742.2500    -91.7263     18.8280     24.4570     24.3558     61.3751
  1742.5000    -91.7108     18.7201     24.3760     24.8470     59.6291
  1742.7500    -91.7558     18.5987     24.2870     25.2763     58.2630
  1743.0000    -91.8435     18.4856     24.1831     25.6041     55.8887
  1743.2500    -91.9367     18.3959     24.0587     25.7805     54.3867
  1743.5000    -91.9875     18.3349     23.9102     25.7504     52.9846
  1743.7500    -91.9561     18.2994     23.7372     25.4784     52.9761
  1744.0000    -91.8278     18.2816     23.5421     24.9754     54.5597
  1744.2500    -91.6199     18.2706     23.3304     24.3068     56.4456
  1744.5000    -91.3754     18.2530     23.1097     23.5742     59.5238
  1744.7500    -91.1480     18.2151     22.8889     22.8855     61.0702
  1745.0000    -90.9831     18.1502     22.6777     22.3293     62.0674
  1745.2500    -90.8981     18.0650     22.4852     21.9572     62.0560
  1745.5000    -90.8743     17.9793     22.3195     21.7761     61.8711
  1745.7500    -90.8708     17.9156     22.1874     21.7541     62.0000
  1746.0000    -90.8535     17.8886     22.0934     21.8398     62.6989
  1746.2500    -90.8172     17.8984     22.0400     21.9843     63.4779
  1746.5000    -90.7860     17.9329     22.0276     22.1567     65.1294
  1746.7500    -90.7942     17.9746     22.0540     22.3474     66.4846
  1747.0000    -90.8661     18.0091     22.1151     22.5583     68.6108
  1747.2500    -91.0075     18.0310     22.2050     22.7906     70.0301
  1747.5000    -91.2104     18.0451     22.3161     23.0377     72.4236
  1747.7500    -91.4606     18.0627     22.4400     23.2838     74.2754
  1748.0000    -91.7433     18.0953     22.5675     23.5054     76.7060
  1748.2500    -92.0475     18.1493     22.6895     23.6706     77.1970
  1748.5000    -92.3708     18.2231     22.7975     23.7397     75.0944
  1748.7500    -92.7200     18.3077     22.8843     23.6766     72.0325
  1749.0000    -93.0981     18.3897     22.9440     23.4720     66.6620
  1749.2500    -93.4895     18.4558     22.9732     23.1570     63.5043
  1749.5000    -93.8546     18.4981     22.9703     22.7918     59.8339
  1749.7500    -94.1419     18.5156     22.9363     22.4387     57.8687
  1750.0000    -94.3098     18.5135     22.8744     22.1417     55.3134
