~Version Information
VERS.                      2.0: CWLS Log ASCII Standard - VERSION 2.0
WRAP.                       NO: One line per depth step
~Well Information Block
STRT.FT               802.1000: 
STOP.FT              1915.0000: 
STEP.FT                 0.1000: 
NULL.                -999.2500: 
COMP.          Petrogulf Corporation: COMPANY
WELL.             State 16-32R: WELL
FLD.           Purgatorie River: FIELD
LOC.           1849' FNL & 1677' FEL: LOCATION
CNTY.               Las Animas: COUNTY
SRVC.                         : SERVICE COMPANY
DATE.          Thu May 13 18:17:16 2004: LOG DATE
UWI.           05 071 08033 00: UNIQUE WELL ID
STAT.                 Colorado: STATE
~Curve Information Block
DEPT.FT            0 000 00 00: Depth
DCAL.in                       : CDL Caliper
RHOB.g/cc                     : CDL Bulk Density
RHOC.g/cc                     : CDL Density Correction
DPOR.pu                       : CDL Density Porosity
GR.GAPI                       : Gamma Ray
NPOR.pu                       : Neutron Porosity
~Parameter Information Block
~A  Depth       DCAL        RHOB        RHOC        DPOR         GR         NPOR    
# ...
   994.1000      7.8784      2.4921      0.0051      9.5711     79.2306     23.3439
   994.2000      7.8784      2.5487      0.1293      6.1414     70.4590     23.2164
   994.3000      7.8818      2.5687      0.1033      4.9261     54.3202     23.5167
   994.4000      7.8818      2.5704      0.1057      4.8249     44.8504     23.9199
   994.5000      7.8703      2.5838      0.1104      4.0132     50.1540     24.1037
   994.6000      7.8703      2.5890      0.1385      3.6946     57.8352     24.1565
   994.7000      7.8703      2.5763      0.0977      4.4639     56.1394     24.2093
   994.8000      7.8632      2.5578      0.0977      5.5884     51.5589     24.1136
   994.9000      7.8632      2.5299      0.1059      7.2778     52.4460     23.8665
   995.0000      7.8626      2.4906      0.0870      9.6609     53.8657     23.7516
   995.1000      7.8626      2.4551      0.0851     11.8103     50.2467     23.8517
   995.2000      7.8626      2.4408     -0.0566     12.6784     46.5589     24.0474
   995.3000      7.8486      2.4567     -0.0075     11.7133     46.3356     24.1579
   995.4000      7.8486      2.4917      0.0571      9.5936     44.8198     24.2263
   995.5000      7.8393      2.5238      0.1019      7.6473     41.9366     24.5782
   995.6000      7.8393      2.5527      0.0900      5.8999     41.4203     25.0076
   995.7000      7.8393      2.5860      0.1324      3.8762     43.4611     25.1909
   995.8000      7.8590      2.6207      0.1438      1.7731     48.0988     25.3384
   995.9000      7.8590      2.6601      0.1741     -0.6133     52.5683     25.4210
   996.0000      7.8353      2.6965      0.1743     -2.8158     51.5289     25.2362
   996.1000      7.8353      2.7065      0.1588     -3.4220     46.7364     24.9131
   996.2000      7.8353      2.6932      0.0730     -2.6207     45.8591     24.6585
   996.3000      7.8238      2.6673      0.1678     -1.0460     52.9078     24.6726
   996.4000      7.8238      2.6204      0.0388      1.7951     62.2383     24.9285
   996.5000      7.8451      2.5716      0.0718      4.7544     68.4626     25.1376
   996.6000      7.8451      2.5531     -0.0483      5.8706     71.3527     25.2796
   996.7000      7.8451      2.5660     -0.0157      5.0921     68.9201     25.4256
   996.8000      7.8648      2.5808      0.0115      4.1929     60.9322     25.3921
   996.9000      7.8648      2.5723      0.0114      4.7091     54.2755     25.1833
   997.0000      7.8758      2.5521      0.0845      5.9355     55.9859     24.9405
   997.1000      7.8758      2.5366      0.0377      6.8717     62.5546     24.7792
   997.2000      7.8758      2.5132      0.1014      8.2926     65.5998     24.9470
   997.3000      7.8878      2.4729     -0.0251     10.7351     63.4246     25.5576
   997.4000      7.8878      2.4419     -0.0806     12.6135     63.6713     26.2155
   997.5000      7.9165      2.4395     -0.0241     12.7573     69.2511     26.5217
   997.6000      7.9165      2.4583     -0.0057     11.6176     73.8904     26.7787
   997.7000      7.9165      2.4899      0.0114      9.7031     73.5626     27.2686
   997.8000      7.9075      2.5286      0.0345      7.3578     68.6823     27.7705
   997.9000      7.9075      2.5662      0.0864      5.0773     63.3056     28.3209
   998.0000      7.8995      2.5884      0.1139      3.7347     60.2775     29.1968
   998.1000      7.8995      2.5875      0.1676      3.7882     58.5650     30.2283
   998.2000      7.8995      2.5766      0.0745      4.4462     57.3126     30.7295
   998.3000      7.8652      2.5665      0.1120      5.0587     54.5725     30.5153
   998.4000      7.8652      2.5535      0.1196      5.8470     48.4047     30.2676
   998.5000      7.8445      2.5470      0.0760      6.2414     41.4705     30.2707
   998.6000      7.8445      2.5629      0.1030      5.2787     39.3867     29.9172
   998.7000      7.8445      2.5913      0.1045      3.5570     44.3953     28.8522
   998.8000      7.8519      2.6072      0.0938      2.5955     50.6320     27.5422
   998.9000      7.8519      2.5914      0.0868      3.5514     51.8963     26.3114
   999.0000      7.8550      2.5471     -0.0326      6.2375     48.2925     24.8260
   999.1000      7.8550      2.4972     -0.0300      9.2590     45.0520     22.8428
   999.2000      7.8550      2.4341      0.0412     13.0841     49.2735     20.5885
   999.3000      7.8732      2.3213      0.0459     19.9204     58.6531     18.2502
   999.4000      7.8732      2.1587     -0.0034     29.7777     62.2698     15.5594
   999.5000      7.8593      1.9966     -0.1266     39.5994     54.9014     12.3230
   999.6000      7.8593      1.8614     -0.1238     47.7965     44.8002      9.0769
   999.7000      7.8593      1.7159     -0.0894     56.6111     43.0712      6.4548
   999.8000      7.8684      1.5540     -0.2153     66.4240     46.9141      4.4585
   999.9000      7.8684      1.4360     -0.1631     73.5761     47.1407      2.7683
  1000.0000      7.9035      1.3803      0.0159     76.9485     42.3919      1.2279
  1000.1000      7.9035      1.3501      0.0685     78.7789     34.7497      0.5200
  1000.2000      7.9035      1.3353      0.1190     79.6812     28.2141      1.1745
  1000.3000      7.9853      1.3518      0.1089     78.6797     28.3744      2.4103
  1000.4000      7.9853      1.4001      0.1561     75.7536     33.5603      3.5799
  1000.5000      8.2312      1.4607      0.2103     72.0799     38.3703      5.0510
  1000.6000      8.2312      1.5084      0.2724     69.1867     40.9691      7.0797
  1000.7000      8.2312      1.5188      0.3176     68.5550     40.4389      9.6092
  1000.8000      8.7465      1.4864      0.2319     70.5189     39.3128     12.1140
  1000.9000      8.7465      1.4363      0.1607     73.5576     40.7275     13.8207
  1001.0000      8.9950      1.4004      0.0825     75.7348     41.9383     14.8494
  1001.1000      8.9950      1.3888      0.1197     76.4385     39.6103     15.7071
  1001.2000      8.9950      1.3896      0.0778     76.3854     34.1902     16.7826
  1001.3000      8.8504      1.3910      0.0498     76.3029     32.3168     18.2712
  1001.4000      8.8504      1.3888      0.0146     76.4369     34.9944     19.6930
  1001.5000      8.2894      1.3926     -0.0042     76.2040     37.7115     20.4153
  1001.6000      8.2894      1.4245      0.0092     74.2706     43.1959     20.6933
  1001.7000      8.2894      1.4981      0.0589     69.8093     54.2014     21.0712
  1001.8000      8.1060      1.6147      0.1114     62.7436     66.9584     21.6880
  1001.9000      8.1060      1.7754      0.1973     53.0046     74.2338     22.6249
  1002.0000      8.0932      1.9566      0.2804     42.0253     75.4197     23.7903
  1002.1000      8.0932      2.1019      0.3438     33.2174     77.8998     24.9974
  1002.2000      8.0932      2.1918      0.2542     27.7673     86.6385     26.0872
  1002.3000      8.1363      2.2691      0.2559     23.0824     95.3869     26.9820
  1002.4000      8.1363      2.3566      0.2924     17.7793     95.2379     27.8282
  1002.5000      8.0229      2.4240      0.3442     13.6992     89.9250     28.6717
  1002.6000      8.0229      2.4499      0.1960     12.1288     87.9965     29.4351
  1002.7000      8.0229      2.4480      0.0990     12.2421     90.1201     29.9846
  1002.8000      8.0430      2.4359      0.0654     12.9767     93.2331     30.0686
  1002.9000      8.0430      2.4289      0.0087     13.4025     98.2508     29.6692
  1003.0000      8.0142      2.4401     -0.0181     12.7206    109.3476     29.1444
  1003.1000      8.0142      2.4541      0.0954     11.8741    124.1679     28.7694
  1003.2000      8.0142      2.4407      0.0534     12.6873    131.2780     28.6473
  1003.3000      7.9734      2.4219     -0.0646     13.8256    123.4273     28.6242
  1003.4000      7.9734      2.4340      0.0516     13.0896    107.9366     28.6020
  1003.5000      7.9078      2.4571      0.0921     11.6920     97.9786     28.8924
  1003.6000      7.9078      2.4662      0.0775     11.1385     95.8154     29.4663
