~Version Information
 VERS.                                  2.0 : CWLS LAS VERSION
 WRAP.                                   NO : WRAPING MODE
 SWARE .                 MController 2.5.0I : SOFTWARE VERSION
~Well Information
 WELL.                        Montoya 7-21v : WELL
 COMP.                       Petrogulf Corp : COMPANY
 FLD.                      Purgatorie River : FIELD
 LOC.                 NE/NW Sec 7 T33S R67W : LOCATION
 DATE.                                  N/A : DATE(S) LOGGED
 SRVC.       Blanco Geological Services LLC : SERVICE COMPANY
 STAT.                                   CO : STATE
 CNTY.                           Las Animas : COUNTY
 CTRY.                                  USA : COUNTRY
 API.                       05-071-08018-00 : API NUMBER
 STRT.FT                             836.00 : START DEPTH
 STOP.FT                            2421.00 : STOP DEPTH
 STEP.FT                               1.00 : DEPTH INCREMENT
 NULL.                                -9999 : NULL VALUE
~Curve information
 DEPTH.FT                                   :
 ROP.MIN/FT                                 :
 GAS.UNITS                                  :
~ASCII Log data
# ...
      1436.0          0.2         13.1 
      1437.0          0.3         13.2 
      1438.0          0.2         13.7 
      1439.0          0.3         14.2 
      1440.0          3.3         65.1 
      1441.0          0.7         51.5 
      1442.0          0.4         24.6 
      1443.0          0.3         21.1 
      1444.0          0.4         20.0 
      1445.0          0.4         19.5 
      1446.0          0.4         19.4 
      1447.0          0.4         18.4 
      1448.0          0.7         18.1 
      1449.0          0.8         16.7 
      1450.0          0.7         14.0 
      1451.0          0.3         13.1 
      1452.0          0.3         12.9 
      1453.0          0.2         13.3 
      1454.0          0.3         12.8 
      1455.0          0.4         13.0 
      1456.0          0.4         13.2 
      1457.0          0.2         13.2 
      1458.0          0.3         12.9 
      1459.0          0.3         13.1 
      1460.0          0.3         13.3 
      1461.0          0.3         12.8 
      1462.0          0.4         13.3 
      1463.0          0.4         13.3 
      1464.0          0.4         13.7 
      1465.0          0.4         13.4 
      1466.0          0.4         13.4 
      1467.0          0.3         13.3 
      1468.0          0.3         13.8 
      1469.0          0.3         14.1 
      1470.0          4.0        110.8 
      1471.0          0.5         46.7 
      1472.0          0.5         20.8 
      1473.0          0.3         19.8 
      1474.0          0.5         21.5 
      1475.0          0.6         22.5 
      1476.0          0.5         20.1 
      1477.0          0.4         17.5 
      1478.0          0.4         16.1 
      1479.0          0.4         15.2 
      1480.0          0.4         13.2 
      1481.0          0.4         13.7 
      1482.0          0.3         13.6 
      1483.0          0.3         13.2 
      1484.0          0.4         13.0 
      1485.0          0.4         13.2 
      1486.0          0.5         13.5 
      1487.0          0.3         13.3 
      1488.0          0.3         13.3 
      1489.0          0.3         13.6 
      1490.0          0.3         13.3 
      1491.0          0.3         13.1 
      1492.0          0.3         12.8 
      1493.0          0.3         12.9 
      1494.0          0.3         13.0 
      1495.0          0.3         13.3 
      1496.0          0.3         13.7 
      1497.0          0.3         13.9 
      1498.0          0.3         14.4 
      1499.0          0.4         14.4 
      1500.0          3.5         64.5 
      1501.0          0.8         40.1 
      1502.0          0.7         20.9 
      1503.0          0.7         23.2 
      1504.0          0.6         23.0 
      1505.0          0.4         20.0 
      1506.0          0.4         17.8 
      1507.0          0.4         16.9 
      1508.0          0.4         16.2 
      1509.0          0.2         16.0 
      1510.0          0.2         16.1 
      1511.0          0.3         15.8 
      1512.0          0.3         15.7 
      1513.0          0.2         15.6 
      1514.0          0.2         15.8 
      1515.0          0.4         15.6 
      1516.0          0.3         15.7 
      1517.0          0.4         15.8 
      1518.0          0.4         15.7 
      1519.0          0.4         15.4 
      1520.0          0.3         15.4 
      1521.0          0.3         15.5 
      1522.0          0.3         15.4 
      1523.0          0.3         15.3 
      1524.0          0.3         15.1 
      1525.0          0.2         15.4 
      1526.0          0.3         15.0 
      1527.0          0.6         15.4 
      1528.0          0.7         15.0 
      1529.0          0.4         15.4 
      1530.0          4.4         70.5 
      1531.0          0.9         30.8 
      1532.0          0.8         30.1 
      1533.0          0.5         20.1 
      1534.0          0.3         16.5 
      1535.0          0.2         15.8 
      1536.0          0.3         15.3 
      1537.0          0.3         15.3 
      1538.0          0.3         15.5 
      1539.0          0.3         15.3 
      1540.0          0.3         15.7 
      1541.0          0.3         15.3 
      1542.0          0.3         15.3 
      1543.0          0.2         15.2 
      1544.0          0.3         14.9 
      1545.0          0.3         14.9 
      1546.0          0.2         14.5 
      1547.0          0.2         14.1 
      1548.0          0.3         14.7 
      1549.0          0.3         14.8 
      1550.0          0.4         14.4 
      1551.0          0.3         14.5 
      1552.0          0.4         14.5 
      1553.0          0.3         14.4 
      1554.0          0.5         14.7 
      1555.0          0.4         14.6 
      1556.0          0.3         14.5 
      1557.0          0.4         14.7 
      1558.0          0.4         15.0 
      1559.0          1.1         15.3 
      1560.0          2.6         83.5 
      1561.0          0.6         54.5 
      1562.0          0.6         25.0 
      1563.0          0.7         22.2 
      1564.0          0.6         22.5 
      1565.0          0.5         21.0 
      1566.0          0.4         19.5 
      1567.0          0.4         17.1 
      1568.0          0.4         15.4 
      1569.0          0.4         15.3 
      1570.0          0.2         15.0 
      1571.0          0.3         14.8 
      1572.0          0.3         14.6 
      1573.0          0.2         14.6 
      1574.0          0.3         14.7 
      1575.0          0.3         14.3 
      1576.0          0.3         14.3 
      1577.0          0.2         14.0 
      1578.0          0.2         14.0 
      1579.0          0.3         13.6 
      1580.0          0.3         13.7 
      1581.0          0.3         13.6 
      1582.0          0.4         13.7 
      1583.0          0.4         13.3 
      1584.0          0.4         13.3 
      1585.0          0.3         13.4 
      1586.0          0.3         13.6 
      1587.0          0.3         13.7 
      1588.0          0.3         14.1 
      1589.0          0.3         14.8 
      1590.0          4.8        128.5 
      1591.0          0.8         79.6 
      1592.0          0.7         24.6 
      1593.0          0.4         26.5 
      1594.0          0.5         26.2 
      1595.0          0.4         22.7 
      1596.0          0.4         19.8 
      1597.0          0.3         17.5 
      1598.0          0.3         16.5 
      1599.0          0.4         16.2 
      1600.0          0.4         15.9 
      1601.0          0.4         16.1 
      1602.0          0.4         16.0 
      1603.0          0.4         15.4 
      1604.0          0.3         15.7 
      1605.0          0.3         14.9 
      1606.0          0.3         15.1 
      1607.0          0.4         14.5 
      1608.0          0.4         14.5 
      1609.0          0.4         14.3 
      1610.0          0.4         14.0 
      1611.0          0.4         13.7 
      1612.0          0.4         14.1 
      1613.0          0.4         14.4 
      1614.0          0.4         14.4 
      1615.0          0.5         14.5 
      1616.0          0.3         15.0 
      1617.0          0.4         14.8 
      1618.0          0.4         14.7 
      1619.0          0.4         15.2 
      1620.0          6.6         98.4 
      1621.0          1.1         36.6 
      1622.0          0.4         16.0 
      1623.0          0.2         13.5 
      1624.0          0.2         14.1 
      1625.0          0.2         14.4 
      1626.0          0.2         14.9 
      1627.0          0.4         15.8 
      1628.0          0.4         15.6 
      1629.0          0.4         15.9 
      1630.0          0.3         15.2 
      1631.0          0.3         15.0 
      1632.0          0.3         14.7 
      1633.0          0.2         14.7 
      1634.0          0.3         15.0 
      1635.0          0.4         15.9 
