~Version Information
VERS.                      2.0: CWLS Log ASCII Standard - VERSION 2.0
WRAP.                       NO: One line per depth step
~Well Information Block
STRT.FT                39.7500: 
STOP.FT              1484.0000: 
STEP.FT                 0.2500: 
NULL.                -999.2500: 
COMP.          Evergreen Operating Corporation: COMPANY
WELL.              Chase 21-10: WELL
FLD.           Purgatoire River: FIELD
LOC.           1122' FNL & 1544' FWL: LOCATION
PROV.                       CO: PROVINCE
CNTY.               Las Animas: COUNTRY
SRVC.                         : SERVICE COMPANY
DATE.          Fri May 28 15:54:16 2004: LOG DATE
UWI.           05 071 08006 00: UNIQUE WELL ID
~Curve Information Block
DEPT.FT            0 000 00 00: Depth
TT3.usec                      : CBL 3' Travel Time
AMP3.mV                       : CBL 3' Amplitude
GR.GAPI                       : Gamma Ray
CCL.                          : Casing Collar Locator
~Parameter Information Block
~A  Depth       TT3         AMP3         GR         CCL     
# ...
   408.2500    738.0049      7.0004     80.1351      0.0000
   408.5000    724.4127      6.9869     80.8056      0.0000
   408.7500    708.2718      6.9858     81.3569      0.0000
   409.0000    697.3582      6.9969     81.5648      0.0000
   409.2500    697.6086      7.0143     81.1987      0.0000
   409.5000    709.3350      7.0320     79.7053      0.0000
   409.7500    727.3949      7.0484     76.6643      0.0000
   410.0000    744.8761      7.0675     72.5721      0.0000
   410.2500    757.2783      7.0944     68.6611      0.0000
   410.5000    763.9919      7.1304     65.7467      0.0000
   410.7500    766.8019      7.1718     63.5249      0.0000
   411.0000    767.7163      7.2116     61.1741      0.0000
   411.2500    767.9475      7.2438     58.4265      0.0000
   411.5000    767.9930      7.2656     55.8577      0.0000
   411.7500    768.0000      7.2788     54.3385      0.0000
   412.0000    768.0000      7.2874     54.5146      0.0000
   412.2500    768.0000      7.2944     56.6570      0.0000
   412.5000    768.0000      7.2995     60.5993      0.0000
   412.7500    768.0000      7.3007     65.6760      0.0000
   413.0000    768.0000      7.2967     70.7550      0.0000
   413.2500    768.0000      7.2891     74.3522      0.0000
   413.5000    768.0000      7.2822     75.1092      0.0000
   413.7500    768.0000      7.2803     72.8130      0.0000
   414.0000    768.0000      7.2851     68.9760      0.0000
   414.2500    768.0000      7.2953     65.8347      0.0000
   414.5000    768.0000      7.3079     64.4914      0.0000
   414.7500    768.0000      7.3195     64.1760      0.0000
   415.0000    768.0000      7.3266     63.3414      0.0000
   415.2500    768.0000      7.3268     61.3125      0.0000
   415.5000    768.0000      7.3209     58.8924      0.0000
   415.7500    768.0000      7.3139     57.5645      0.0000
   416.0000    768.0000      7.3112     58.3310      0.0000
   416.2500    768.0000      7.3147     61.1953      0.0000
   416.5000    768.0000      7.3218     65.2747      0.0000
   416.7500    768.0000      7.3274     69.0623      0.0000
   417.0000    768.0000      7.3276     70.9084      0.0000
   417.2500    768.0000      7.3235     69.8095      0.0000
   417.5000    768.0000      7.3203     65.9566      0.0000
   417.7500    768.0000      7.3235     60.6392      0.0000
   418.0000    768.0000      7.3327     55.6590      0.0000
   418.2500    768.0000      7.3403     52.4715      0.0000
   418.5000    768.0000      7.3364     51.4164      0.0000
   418.7500    768.0000      7.3165     51.6999      0.0000
   419.0000    768.0000      7.2840     52.2733      0.0000
   419.2500    768.0000      7.2487     52.7146      0.0000
   419.5000    768.0000      7.2191     53.2694      0.0000
   419.7500    768.0000      7.1975     54.2332      0.0000
   420.0000    768.0000      7.1794     55.5055      0.0000
   420.2500    768.0000      7.1613     56.6605      0.0000
   420.5000    767.9908      7.1467     57.2950      0.0000
   420.7500    767.9307      7.1441     57.3437      0.0000
   421.0000    767.6344      7.1583     57.2470      0.0000
   421.2500    766.4865      7.1856     57.6896      0.0000
   421.5000    763.0704      7.2170     58.9366      0.0000
   421.7500    755.3503      7.2441     60.4621      0.0000
   422.0000    742.3902      7.2614     61.4258      0.0000
   422.2500    727.0444      7.2675     61.5159      0.0000
   422.5000    716.2171      7.2650     61.1364      0.0000
   422.7500    716.2028      7.2611     60.8306      0.0000
   423.0000    726.9601      7.2623     60.7889      0.0000
   423.2500    741.9808      7.2698     60.8680      0.0000
   423.5000    753.6400      7.2788     60.7406      0.0000
   423.7500    757.2689      7.2850     59.9865      0.0000
   424.0000    750.6234      7.2883     58.3836      0.0000
   424.2500    732.3989      7.2920     56.2715      0.0000
   424.5000    703.4354      7.2989     54.4651      0.0000
   424.7500    668.6800      7.3094     53.6672      0.0000
   425.0000    635.5324      7.3240     54.0105      0.0000
   425.2500    608.7163      7.3438     55.1153      0.0000
   425.5000    587.0800      7.3704     56.4283      0.0000
   425.7500    566.1125      7.4023     57.3563      0.0000
   426.0000    543.2830      7.4343     57.2394      0.0000
   426.2500    520.1917      7.4598     55.6774      0.0000
   426.5000    499.9089      7.4770     53.1039      0.0000
   426.7500    483.6714      7.4906     50.7018      0.0000
   427.0000    470.7832      7.5079     49.4306      0.0000
   427.2500    460.6585      7.5326     49.3241      0.0000
   427.5000    454.0547      7.5624     49.9496      0.0000
   427.7500    453.0229      7.5923     51.2531      0.0000
   428.0000    461.0913      7.6179     53.5454      0.0000
   428.2500    483.0536      7.6377     56.8534      0.0000
   428.5000    521.4951      7.6539     60.8450      0.0000
   428.7500    570.4294      7.6706     65.4508      0.0000
   429.0000    613.3893      7.6891     71.0190      0.0000
   429.2500    633.4296      7.7046     77.4895      0.0000
   429.5000    629.3109      7.7094     83.6862      0.0000
   429.7500    619.8403      7.6991     87.8454      0.0000
   430.0000    627.7094      7.6768     89.0388      0.0000
   430.2500    658.8661      7.6495     88.0162      0.0000
   430.5000    700.0916      7.6247     86.4413      0.0000
   430.7500    734.4972      7.6083     85.2465      0.0000
   431.0000    754.9070      7.6046     84.0011      0.0000
   431.2500    763.8094      7.6147     81.9329      0.0000
   431.5000    766.4583      7.6334     79.2197      0.0000
   431.7500    766.4112      7.6486     76.9878      0.0000
   432.0000    765.2308      7.6473     76.0787      0.0000
   432.2500    763.5967      7.6254     75.9902      0.0000
   432.5000    761.8799      7.5928     75.2195      0.0000
   432.7500    760.0483      7.5671     72.7384      0.0000
   433.0000    757.7534      7.5595     68.9490      0.0000
   433.2500    754.8122      7.5648     65.1175      0.0000
   433.5000    751.3015      7.5589     62.1393      0.0000
   433.7500    746.9835      7.5063     59.9700      0.0000
   434.0000    741.1870      7.3780     57.9997      0.0000
   434.2500    734.1069      7.1708     55.8056      0.0000
   434.5000    728.2675      6.9136     53.5052      0.0000
   434.7500    727.4674      6.6516     51.3144      0.0000
   435.0000    733.2244      6.4204     48.9662      0.0000
   435.2500    742.8926      6.2288     45.9796      0.0000
   435.5000    752.1441      6.0653     42.5699      0.0000
   435.7500    758.6182      5.9201     39.9729     -3.0000
   436.0000    762.5540      5.7992     39.6478      3.0000
   436.2500    764.9977      5.7192     42.1420      0.0000
   436.5000    766.5462      5.6992     46.8585      0.0000
   436.7500    767.4191      5.7617     52.9195      0.0000
   437.0000    767.8158      5.9297     59.9235      0.0000
   437.2500    767.9537      6.1951     67.6470      0.0000
   437.5000    767.9909      6.4842     75.3406      0.0000
   437.7500    767.9986      6.6808     81.9898      0.0000
   438.0000    768.0000      6.7154     87.4178      0.0000
   438.2500    768.0000      6.6230     92.5360      0.0000
   438.5000    768.0000      6.5004     98.0827      0.0000
   438.7500    768.0000      6.4259    103.6052      0.0000
   439.0000    768.0000      6.4289    108.1510      0.0000
   439.2500    768.0000      6.5129    111.4932      0.0000
   439.5000    768.0000      6.6833    114.0950      0.0000
   439.7500    768.0000      6.9552    116.0664      0.0000
   440.0000    768.0000      7.3465    116.5686      0.0000
   440.2500    767.9982      7.8625    114.4439      0.0000
   440.5000    767.9879      8.4832    109.6887      0.0000
   440.7500    767.9106      9.1698    104.3727      0.0000
   441.0000    767.5441      9.8954    101.6030      0.0000
   441.2500    766.0948     10.6748    102.9626      0.0000
   441.5000    761.2938     11.5660    106.9330      0.0000
