~Version Information
VERS.                      2.0: CWLS Log ASCII Standard - VERSION 2.0
WRAP.                       NO: One line per depth step
~Well Information Block
STRT.FT               742.0000: 
STOP.FT              2582.0000: 
STEP.FT                 0.2500: 
NULL.                -999.2500: 
COMP.          Petrogulf Corporation: COMPANY
WELL.            Montoya 7-12V: WELL
FLD.           Purgatorie River: FIELD
LOC.           728' FWL & 1764' FNL: LOCATION
CNTY.               Las Animas: COUNTY
SRVC.                         : SERVICE COMPANY
DATE.          Thu Feb 19 20:58:32 2004: LOG DATE
UWI.           05-071-07887-00: UNIQUE WELL ID
STAT.                 Colorado: STATE
~Curve Information Block
DEPT.FT            0 000 00 00: Depth
SP.mV                         : DIL Spontaneous Potential
RILD.Ohm-m                    : DIL Deep Resistivity
RILM.Ohm-m                    : DIL Medium Resistivity
RLL3.Ohm-m                    : DIL Shallow Resistivity
GR.GAPI                       : Gamma Ray
~Parameter Information Block
~A  Depth        SP         RILD        RILM        RLL3         GR     
# ...
  1610.0000   -126.6901     18.0198     15.3569     16.5425    189.8210
  1610.2500   -126.1446     17.2430     15.2948     17.4591    191.2098
  1610.5000   -125.4680     16.4529     15.3689     20.1789    190.3752
  1610.7500   -124.6279     15.6682     15.5061     25.5655    187.0929
  1611.0000   -123.6007     14.9159     15.5971     33.5051    178.1890
  1611.2500   -122.3927     14.2240     15.5148     41.9910    170.3121
  1611.5000   -121.0547     13.6139     15.1660     47.4540    157.5287
  1611.7500   -119.6808     13.0963     14.5463     46.9282    150.2341
  1612.0000   -118.3861     12.6696     13.7447     40.4096    145.1724
  1612.2500   -117.2715     12.3208     12.8919     30.9058    147.1647
  1612.5000   -116.3928     12.0277     12.0978     22.0746    156.8063
  1612.7500   -115.7540     11.7626     11.4220     15.9562    164.9671
  1613.0000   -115.3270     11.4985     10.8777     12.6326    175.3062
  1613.2500   -115.0780     11.2159     10.4479     11.2359    180.0238
  1613.5000   -114.9804     10.9097     10.1032     10.8889    185.3222
  1613.7500   -115.0117     10.5901      9.8147     11.0228    188.8668
  1614.0000   -115.1458     10.2794      9.5625     11.3210    194.5109
  1614.2500   -115.3515     10.0037      9.3388     11.6015    197.7827
  1614.5000   -115.5961      9.7854      9.1460     11.7551    200.6240
  1614.7500   -115.8505      9.6390      8.9933     11.7340    200.4990
  1615.0000   -116.0902      9.5715      8.8924     11.5568    196.4147
  1615.2500   -116.2954      9.5845      8.8542     11.3035    191.3446
  1615.5000   -116.4513      9.6784      8.8882     11.0955    182.8017
  1615.7500   -116.5500      9.8537      9.0024     11.0784    178.4560
  1616.0000   -116.5934     10.1110      9.2045     11.4062    175.5089
  1616.2500   -116.5940     10.4484      9.5031     12.1854    175.1589
  1616.5000   -116.5760     10.8601      9.9070     13.3996    174.2095
  1616.7500   -116.5749     11.3370     10.4251     14.9443    171.9716
  1617.0000   -116.6355     11.8693     11.0656     16.8102    165.9840
  1617.2500   -116.8031     12.4518     11.8360     19.1900    161.1910
  1617.5000   -117.1087     13.0876     12.7428     22.2640    154.6856
  1617.7500   -117.5552     13.7889     13.7904     25.8485    151.1803
  1618.0000   -118.1140     14.5749     14.9788     29.3587    146.4985
  1618.2500   -118.7350     15.4647     16.3026     32.1609    143.3331
  1618.5000   -119.3625     16.4695     17.7549     33.9251    138.7666
  1618.7500   -119.9520     17.5848     19.3343     34.7126    136.3853
  1619.0000   -120.4796     18.7858     21.0490     34.9281    134.4831
  1619.2500   -120.9415     20.0233     22.9104     35.2683    134.2589
  1619.5000   -121.3431     21.2206     24.9115     36.5821    134.7316
  1619.7500   -121.6862     22.2787     26.9945     39.5939    135.0549
  1620.0000   -121.9621     23.0960     29.0215     44.5685    134.7823
  1620.2500   -122.1561     23.5998     30.7655     50.9829    133.7774
  1620.5000   -122.2575     23.7708     31.9464     57.3507    131.1540
  1620.7500   -122.2687     23.6406     32.3181     61.5413    129.3136
  1621.0000   -122.2069     23.2695     31.7766     61.7150    127.8308
  1621.2500   -122.0999     22.7213     30.4218     57.3418    128.0023
  1621.5000   -121.9817     22.0496     28.5201     49.5179    129.5349
  1621.7500   -121.8888     21.2930     26.3921     40.3538    131.2319
  1622.0000   -121.8551     20.4761     24.3030     31.9338    135.4706
  1622.2500   -121.9011     19.6129     22.4100     25.5313    140.0106
  1622.5000   -122.0238     18.7126     20.7651     21.4116    149.4469
  1622.7500   -122.1939     17.7872     19.3478     19.1165    156.7857
  1623.0000   -122.3661     16.8584     18.1040     17.9179    167.6399
  1623.2500   -122.4949     15.9572     16.9792     17.1833    173.8677
  1623.5000   -122.5493     15.1158     15.9383     16.5421    180.6087
  1623.7500   -122.5199     14.3572     14.9700     15.8619    183.0378
  1624.0000   -122.4146     13.6915     14.0802     15.1341    183.6461
  1624.2500   -122.2494     13.1174     13.2808     14.3795    182.4509
  1624.5000   -122.0388     12.6272     12.5814     13.6177    179.3966
  1624.7500   -121.7942     12.2112     11.9865     12.8664    177.3499
  1625.0000   -121.5261     11.8583     11.4957     12.1419    175.9895
  1625.2500   -121.2484     11.5560     11.1064     11.4664    177.1136
  1625.5000   -120.9762     11.2901     10.8145     10.8859    181.9214
  1625.7500   -120.7211     11.0462     10.6133     10.4832    186.0899
  1626.0000   -120.4879     10.8119     10.4906     10.3679    191.0271
  1626.2500   -120.2792     10.5790     10.4263     10.6341    192.2176
  1626.5000   -120.1009     10.3448     10.3928     11.2911    190.1680
  1626.7500   -119.9613     10.1127     10.3578     12.1957    186.7348
  1627.0000   -119.8659      9.8895     10.2909     13.0506    180.6357
  1627.2500   -119.8124      9.6838     10.1720     13.5180    177.4625
  1627.5000   -119.7929      9.5022      9.9974     13.4029    175.7595
  1627.7500   -119.7992      9.3474      9.7796     12.7649    176.7618
  1628.0000   -119.8295      9.2179      9.5406     11.8537    180.4311
  1628.2500   -119.8901      9.1084      9.3021     10.9294    183.5306
  1628.5000   -119.9915      9.0119      9.0798     10.1343    188.5228
  1628.7500   -120.1401      8.9215      8.8825      9.4984    192.1454
  1629.0000   -120.3319      8.8325      8.7133      9.0210    197.5018
  1629.2500   -120.5537      8.7432      8.5712      8.7211    199.7507
  1629.5000   -120.7892      8.6561      8.4516      8.6167    198.4929
  1629.7500   -121.0238      8.5770      8.3483      8.6760    194.1180
  1630.0000   -121.2473      8.5133      8.2558      8.8067    184.4369
  1630.2500   -121.4557      8.4718      8.1733      8.9008    178.1998
  1630.5000   -121.6521      8.4577      8.1067      8.8934    172.3520
  1630.7500   -121.8464      8.4745      8.0673      8.7857    171.2008
  1631.0000   -122.0552      8.5252      8.0684      8.6290    171.9484
  1631.2500   -122.2997      8.6121      8.1220      8.4975    172.6968
  1631.5000   -122.6008      8.7364      8.2370      8.4676    172.6450
  1631.7500   -122.9693      8.8966      8.4193      8.6069    171.6101
  1632.0000   -123.3987      9.0886      8.6710      8.9695    168.6974
  1632.2500   -123.8671      9.3072      8.9889      9.5867    165.8695
  1632.5000   -124.3467      9.5489      9.3647     10.4485    160.1685
  1632.7500   -124.8141      9.8152      9.7858     11.4913    155.4119
  1633.0000   -125.2540     10.1129     10.2384     12.6144    147.3638
  1633.2500   -125.6581     10.4508     10.7103     13.7173    141.9658
  1633.5000   -126.0224     10.8360     11.1932     14.7155    134.7122
  1633.7500   -126.3454     11.2701     11.6837     15.5194    130.5904
  1634.0000   -126.6280     11.7482     12.1843     16.0255    125.3542
  1634.2500   -126.8760     12.2606     12.7056     16.1902    122.6339
  1634.5000   -127.1010     12.7941     13.2662     16.1551    120.4062
  1634.7500   -127.3157     13.3355     13.8891     16.2863    120.3560
  1635.0000   -127.5256     13.8715     14.5925     17.0530    121.7132
  1635.2500   -127.7232     14.3899     15.3788     18.8136    122.6914
  1635.5000   -127.8928     14.8807     16.2235     21.6043    122.7576
  1635.7500   -128.0193     15.3387     17.0713     24.9977    121.2575
  1636.0000   -128.0937     15.7669     17.8401     28.1547    116.2621
  1636.2500   -128.1142     16.1758     18.4418     30.1569    111.3436
  1636.5000   -128.0857     16.5805     18.8171     30.4540    103.1979
  1636.7500   -128.0180     16.9939     18.9695     29.0931     98.8851
  1637.0000   -127.9260     17.4217     18.9709     26.6080     97.3579
  1637.2500   -127.8295     17.8591     18.9313     23.7664    100.9714
  1637.5000   -127.7511     18.2945     18.9542     21.3961    112.7378
  1637.7500   -127.7087     18.7162     19.1057     20.2446    122.4154
