~Version Information
VERS.                      2.0: CWLS Log ASCII Standard - VERSION 2.0
WRAP.                       NO: One line per depth step
~Well Information Block
STRT.FT               245.0000: 
STOP.FT              1919.7000: 
STEP.FT                 0.1000: 
NULL.                -999.2500: 
COMP.          Pioneer Natural Resources: COMPANY
WELL.          Oink Oink 14-36 Tr: WELL
FLD.           Purgatoire River: FIELD
LOC.           236' FSL & 164' FWL--: LOCATION
PROV.                 Colorado: PROVINCE
CNTY.               Las Animas: COUNTRY
SRVC.                Patterson: SERVICE COMPANY
DATE.          Fri Jun 10 08:23:18 2005: LOG DATE
UWI.           05 071 08393 00: UNIQUE WELL ID
~Curve Information Block
DEPT.FT            0 000 00 00: Depth
DCAL.in                       : CDL Caliper
RHOB.g/cc                     : CDL Bulk Density
RHOC.g/cc                     : CDL Density Correction
DPOR.pu                       : CDL Density Porosity
NPOR.pu                       : Neutron Porosity
GR.GAPI                       : Gamma Ray
~Parameter Information Block
~A  Depth       DCAL        RHOB        RHOC        DPOR        NPOR         GR     
# ...
   792.2000      7.9841      2.5291      0.0486      7.3247     22.4379    108.1040
   792.3000      7.9836      2.5344      0.0088      7.0037     22.3578     99.5168
   792.4000      7.9836      2.5603      0.0311      5.4359     22.5893     94.2328
   792.5000      7.9808      2.5974      0.0677      3.1889     22.9272     90.4434
   792.6000      7.9808      2.6164      0.0917      2.0349     23.2484     86.0413
   792.7000      7.9808      2.6062      0.0600      2.6559     23.5054     82.2345
   792.8000      7.9796      2.5789      0.0467      4.3106     23.7758     80.9994
   792.9000      7.9796      2.5464      0.0610      6.2817     24.0368     79.6376
   793.0000      7.9794      2.5196      0.0066      7.9044     24.2206     74.5065
   793.1000      7.9794      2.5137      0.0192      8.2593     24.4803     69.5000
   793.2000      7.9794      2.5316      0.0271      7.1763     24.7646     69.1085
   793.3000      7.9783      2.5571      0.0815      5.6273     24.8540     71.0665
   793.4000      7.9783      2.5788      0.0380      4.3121     24.8730     73.0466
   793.5000      7.9777      2.5961      0.0970      3.2672     25.0216     77.1012
   793.6000      7.9777      2.6022      0.1050      2.8943     25.1585     82.8627
   793.7000      7.9777      2.5982      0.0858      3.1364     24.9022     86.0448
   793.8000      7.9792      2.5963      0.0947      3.2556     24.2802     86.1463
   793.9000      7.9792      2.6000      0.0600      3.0283     23.9547     83.6431
   794.0000      7.9811      2.6025      0.0720      2.8808     24.2717     78.2365
   794.1000      7.9811      2.5976      0.0663      3.1751     25.0093     73.7034
   794.2000      7.9811      2.5929      0.0833      3.4597     26.0167     74.8983
   794.3000      7.9810      2.5997      0.0652      3.0515     26.8795     81.8596
   794.4000      7.9810      2.6109      0.1258      2.3701     27.1087     88.2434
   794.5000      7.9808      2.6105      0.1174      2.3922     27.0554     88.6494
   794.6000      7.9808      2.5989      0.0930      3.0973     27.0200     86.4585
   794.7000      7.9808      2.5882      0.0777      3.7434     26.9295     87.4263
   794.8000      7.9823      2.5821      0.0742      4.1133     26.8497     90.3271
   794.9000      7.9823      2.5713      0.0899      4.7709     26.5906     92.1781
   795.0000      7.9836      2.5550      0.0360      5.7600     26.1244     93.5407
   795.1000      7.9836      2.5499      0.0134      6.0647     25.8158     95.5919
   795.2000      7.9836      2.5585      0.0689      5.5438     25.7168     98.1753
   795.3000      7.9840      2.5652      0.0366      5.1410     25.7559    102.8989
   795.4000      7.9840      2.5636      0.0515      5.2389     25.8834    111.2486
   795.5000      7.9835      2.5557      0.0490      5.7125     25.8771    118.3610
   795.6000      7.9835      2.5439      0.0640      6.4329     25.6916    120.8674
   795.7000      7.9835      2.5301      0.0539      7.2656     25.3928    120.7437
   795.8000      7.9813      2.5180      0.0493      7.9989     24.9889    120.6780
   795.9000      7.9813      2.5088      0.0395      8.5587     24.6408    123.8972
   796.0000      7.9790      2.5040     -0.0037      8.8464     24.5936    125.7100
   796.1000      7.9790      2.5049      0.0305      8.7920     24.9377    120.1106
   796.2000      7.9790      2.5085      0.0051      8.5732     25.4336    113.2260
   796.3000      7.9790      2.5121      0.0412      8.3563     25.7510    111.2561
   796.4000      7.9790      2.5108      0.0357      8.4388     25.8697    112.6813
   796.5000      7.9791      2.5082      0.0225      8.5965     25.9170    114.8269
   796.6000      7.9791      2.5110      0.0396      8.4230     25.9413    117.2602
   796.7000      7.9791      2.5106      0.0396      8.4512     26.0722    119.8749
   796.8000      7.9788      2.5066     -0.0007      8.6899     26.2404    121.1298
   796.9000      7.9788      2.5134      0.0660      8.2767     26.0416    119.5095
   797.0000      7.9796      2.5264      0.0473      7.4938     25.3823    116.9604
   797.1000      7.9796      2.5329      0.0354      7.0968     24.8892    114.1751
   797.2000      7.9796      2.5271      0.0785      7.4506     24.9481    111.0058
   797.3000      7.9802      2.5095      0.0381      8.5141     25.2338    109.2366
   797.4000      7.9802      2.4958      0.0248      9.3463     25.5613    107.8610
   797.5000      7.9804      2.5004     -0.0241      9.0675     25.8443    107.5924
   797.6000      7.9804      2.5141      0.0595      8.2350     26.0356    110.6325
   797.7000      7.9804      2.5154      0.0552      8.1596     26.1607    115.8234
   797.8000      7.9810      2.5078      0.0152      8.6169     26.2003    120.9652
   797.9000      7.9810      2.5124     -0.0032      8.3402     26.2893    123.9760
   798.0000      7.9828      2.5265      0.0593      7.4876     26.3301    122.8550
   798.1000      7.9828      2.5355      0.0454      6.9390     25.9930    117.1220
   798.2000      7.9828      2.5451      0.0633      6.3574     25.3144    111.8886
   798.3000      7.9837      2.5570      0.1352      5.6348     24.6967    110.9491
   798.4000      7.9837      2.5590      0.0796      5.5126     24.4079    111.0166
   798.5000      7.9829      2.5532      0.0875      5.8660     24.4402    111.8610
   798.6000      7.9829      2.5491      0.0518      6.1155     24.5335    118.9120
   798.7000      7.9829      2.5464      0.0698      6.2787     24.3083    129.6950
   798.8000      7.9824      2.5378      0.0516      6.8025     23.7461    135.5394
   798.9000      7.9824      2.5257      0.0312      7.5358     22.9897    132.4357
   799.0000      7.9844      2.5244      0.0222      7.6131     22.3773    122.5755
   799.1000      7.9844      2.5358      0.0444      6.9218     22.2187    112.9790
   799.2000      7.9844      2.5491      0.0550      6.1131     22.3397    109.3955
   799.3000      7.9852      2.5558      0.0810      5.7114     22.7152    111.0649
   799.4000      7.9852      2.5464      0.0960      6.2812     23.4241    113.6727
   799.5000      7.9832      2.5223      0.0511      7.7396     23.9020    112.5047
   799.6000      7.9832      2.5024      0.0265      8.9465     23.8519    107.1551
   799.7000      7.9832      2.4957      0.0348      9.3516     23.6808    101.9232
   799.8000      7.9808      2.4889      0.0575      9.7608     23.7276    100.4401
   799.9000      7.9808      2.4787      0.0169     10.3843     24.0715    101.3830
   800.0000      7.9798      2.4789      0.0879     10.3694     24.4606     99.6240
   800.1000      7.9798      2.4943      0.0560      9.4392     24.8243     94.5080
   800.2000      7.9798      2.5138      0.0979      8.2534     25.4405     91.9831
   800.3000      7.9802      2.5221      0.0852      7.7513     25.9900     96.7033
   800.4000      7.9802      2.5195      0.0805      7.9072     25.8779    105.0574
   800.5000      7.9804      2.5158      0.0971      8.1313     25.0254    110.9884
   800.6000      7.9804      2.5098      0.0996      8.4977     23.6866    113.8947
   800.7000      7.9804      2.4988      0.0658      9.1624     22.2839    114.8565
   800.8000      7.9810      2.4907      0.0801      9.6524     21.2463    115.7425
   800.9000      7.9810      2.4979      0.0939      9.2182     20.4235    117.1739
   801.0000      7.9835      2.5215      0.1309      7.7908     19.7033    117.0140
   801.1000      7.9835      2.5474      0.1175      6.2155     19.4967    114.5469
   801.2000      7.9835      2.5625      0.1158      5.3044     19.9857    113.2724
   801.3000      7.9838      2.5654      0.0888      5.1266     20.9175    116.3001
   801.4000      7.9838      2.5625      0.0900      5.3005     21.7918    118.7163
   801.5000      7.9812      2.5597      0.0445      5.4735     22.1053    115.1716
   801.6000      7.9812      2.5597      0.0299      5.4739     21.8424    108.5501
   801.7000      7.9812      2.5556      0.1162      5.7237     21.7207    103.8546
