~Version Information
 VERS.                                  2.0 : CWLS LAS VERSION
 WRAP.                                   NO : WRAPING MODE
 SWARE .                 MController 2.5.0J : SOFTWARE VERSION
~Well Information
 WELL.                         Sebring42-29 : WELL
 COMP.    Pioneer Natural Resources USA Inc : COMPANY
 FLD.                      Purgatoire River : FIELD
 LOC.                SE/NE Sec 29 T32S R67W : LOCATION
 DATE.                             08/12/05 : DATE(S) LOGGED
 SRVC.       BLANCO Geological Services LLC : SERVICE COMPANY
 STAT.                                   CO : STATE
 CNTY.                           Las Animas : COUNTY
 CTRY.                                  USA : COUNTRY
 API.                       05-071-08293-00 : API NUMBER
 STRT.FT                             750.00 : START DEPTH
 STOP.FT                            2880.00 : STOP DEPTH
 STEP.FT                               1.00 : DEPTH INCREMENT
 NULL.                                -9999 : NULL VALUE
~Curve information
 DEPTH.FT                                   :
 ROP.MIN/FT                                 :
 GAS.UNITS                                  :
~ASCII Log data
# ...
      1950.0         0.23         85.6 
      1951.0         5.48        267.3 
      1952.0         1.08        175.6 
      1953.0         0.10        178.2 
      1954.0         0.20        184.0 
      1955.0         0.30        196.0 
      1956.0         0.23        204.5 
      1957.0         0.33        215.3 
      1958.0         0.67        215.1 
      1959.0         0.37        110.6 
      1960.0         0.25         55.8 
      1961.0         0.27         37.0 
      1962.0         0.23         29.9 
      1963.0         0.17         31.6 
      1964.0         0.27         36.4 
      1965.0         0.33         42.1 
      1966.0         0.60         47.8 
      1967.0         0.40         46.6 
      1968.0         0.27         36.7 
      1969.0         0.63         28.0 
      1970.0         0.45         16.9 
      1971.0         0.27         19.3 
      1972.0         0.50         28.0 
      1973.0         0.60         39.8 
      1974.0         0.43         46.8 
      1975.0         0.50         52.4 
      1976.0         0.47         57.0 
      1977.0         0.52         58.9 
      1978.0         0.53         59.8 
      1979.0         0.47         59.7 
      1980.0         0.53         59.2 
      1981.0         8.20        288.8 
      1982.0         4.20       1026.1 
      1983.0         3.15       1082.7 
      1984.0         0.30        179.4 
      1985.0         0.33        195.0 
      1986.0         0.60        200.6 
      1987.0         0.57        189.0 
      1988.0         0.43        122.4 
      1989.0         0.68         53.9 
      1990.0         0.50         21.3 
      1991.0         0.73         15.9 
      1992.0         0.53         18.5 
      1993.0         0.47         22.8 
      1994.0         0.40         26.8 
      1995.0         0.47         31.5 
      1996.0         0.45         35.4 
      1997.0         0.30         38.7 
      1998.0         0.47         45.5 
      1999.0         0.47         51.6 
      2000.0         0.57         52.8 
      2001.0         0.60         52.4 
      2002.0         0.47         49.1 
      2003.0         0.28         49.4 
      2004.0         0.27         56.2 
      2005.0         0.30         72.2 
      2006.0         0.20         85.1 
      2007.0         0.17         96.4 
      2008.0         0.23        111.8 
      2009.0         0.63        141.6 
      2010.0         0.50        148.4 
      2011.0         7.20        153.6 
      2012.0         0.52        179.0 
      2013.0         0.30        181.0 
      2014.0         0.40        179.3 
      2015.0         0.30        170.8 
      2016.0         0.30        167.0 
      2017.0         0.33        165.8 
      2018.0         0.47        154.5 
      2019.0         0.50         84.9 
      2020.0         0.43         34.4 
      2021.0         0.55         20.0 
      2022.0         0.40         15.4 
      2023.0         0.30         14.5 
      2024.0         0.37         15.5 
      2025.0         0.30         16.5 
      2026.0         0.43         19.7 
      2027.0         0.33         22.1 
      2028.0         0.27         23.3 
      2029.0         0.27         25.2 
      2030.0         0.25         27.3 
      2031.0         0.30         30.0 
      2032.0         0.27         31.5 
      2033.0         0.30         34.5 
      2034.0         0.53         37.8 
      2035.0         0.80         37.8 
      2036.0         0.30         33.4 
      2037.0         0.20         33.3 
      2038.0         0.20         34.6 
      2039.0         0.27         38.8 
      2040.0         0.52         46.3 
      2041.0         9.72        312.7 
      2042.0         0.33        144.1 
      2043.0         0.37        154.0 
      2044.0         0.40        177.7 
      2045.0         0.30        199.2 
      2046.0         0.37        211.1 
      2047.0         0.47        211.2 
      2048.0         0.53        201.7 
      2049.0         0.62        187.7 
      2050.0         0.37        118.2 
      2051.0         0.37         61.0 
      2052.0         0.33         32.5 
      2053.0         0.43         21.7 
      2054.0         0.57         17.2 
      2055.0         0.60         15.1 
      2056.0         0.58         18.5 
      2057.0         0.47         20.9 
      2058.0         0.50         24.8 
      2059.0         0.50         29.2 
      2060.0         0.47         33.6 
      2061.0         0.30         37.6 
      2062.0         0.30         41.2 
      2063.0         0.47         45.4 
      2064.0         0.32         45.5 
      2065.0         0.30         44.7 
      2066.0         0.23         44.6 
      2067.0         0.27         46.6 
      2068.0         0.23         50.7 
      2069.0         0.20         57.1 
      2070.0         0.23         66.1 
      2071.0         3.25        219.5 
      2072.0         0.50        249.0 
      2073.0         1.03        265.9 
      2074.0         1.12        150.3 
      2075.0         0.23         72.1 
      2076.0         0.40         79.0 
      2077.0         0.60         96.6 
      2078.0         0.87        125.0 
      2079.0         0.07        125.6 
      2080.0         0.27        127.8 
      2081.0         0.58        136.8 
      2082.0         0.73        138.2 
      2083.0         0.67         79.2 
      2084.0         0.70         24.9 
      2085.0         0.60         15.8 
      2086.0         0.78         16.2 
      2087.0         0.80         24.4 
      2088.0         0.47         30.7 
      2089.0         0.37         35.4 
      2090.0         0.30         38.9 
      2091.0         0.30         42.2 
      2092.0         0.30         46.0 
      2093.0         0.32         49.3 
      2094.0         0.33         52.0 
      2095.0         0.40         54.2 
      2096.0         0.33         54.3 
      2097.0         0.23         53.2 
      2098.0         0.23         51.3 
      2099.0         0.27         48.3 
      2100.0         0.27         45.4 
      2101.0         4.70        201.4 
      2102.0         2.97        187.7 
      2103.0         0.22        171.5 
      2104.0         0.40        170.3 
      2105.0         0.37        171.2 
      2106.0         0.53        170.8 
      2107.0         0.40        165.9 
      2108.0         0.47        176.2 
      2109.0         0.50        193.3 
      2110.0         0.50        186.3 
      2111.0         0.52         99.3 
      2112.0         0.73         39.9 
      2113.0         0.60         20.9 
      2114.0         0.57         18.7 
      2115.0         0.43         16.6 
      2116.0         0.72         17.7 
      2117.0         0.73         23.5 
      2118.0         0.77         32.3 
      2119.0         0.87         40.3 
      2120.0         0.47         45.0 
      2121.0         0.30         47.0 
      2122.0         0.32         48.7 
      2123.0         0.30         49.9 
      2124.0         0.27         50.2 
      2125.0         0.33         50.1 
      2126.0         0.50         49.0 
      2127.0         0.30         46.8 
      2128.0         0.30         47.7 
      2129.0         0.20         49.2 
      2130.0         0.23         50.3 
      2131.0        12.10        269.0 
      2132.0         0.13        185.1 
      2133.0         0.40        182.4 
      2134.0         0.33        183.0 
      2135.0         0.33        189.9 
      2136.0         0.37        192.7 
      2137.0         0.48        192.6 
      2138.0         0.47        195.0 
      2139.0         0.57        227.4 
      2140.0         0.63        236.9 
      2141.0         0.70        169.8 
      2142.0         0.57         42.9 
      2143.0         0.62         20.7 
      2144.0         0.60         15.3 
      2145.0         0.77         15.0 
      2146.0         0.70         20.4 
      2147.0         0.57         24.1 
      2148.0         0.48         28.2 
      2149.0         0.53         35.7 
