~Version Information
VERS.                      2.0: CWLS Log ASCII Standard - VERSION 2.0
WRAP.                       NO: One line per depth step
~Well Information Block
STRT.FT               -14.0000: 
STOP.FT              2531.7500: 
STEP.FT                 0.2500: 
NULL.                -999.2500: 
COMP.          Petrogulf Corporation: COMPANY
WELL.            Lavedure 7-44: WELL
FLD.           Purgatorie River: FIELD
LOC.           969' FSL & 501' FEL--: LOCATION
PROV.                       CO: PROVINCE
CNTY.               Las Animas: COUNTRY
SRVC.          Patterson Wireline: SERVICE COMPANY
DATE.          Wed Dec 10 09:23:08 2003: LOG DATE
UWI.                          : UNIQUE WELL ID
~Curve Information Block
DEPT.FT            0 000 00 00: Depth
CCL.                          : Casing Collar Locator
TT3.usec                      : CBL 3' Travel Time
AMP3.mV                       : CBL 3' Amplitude
GR.GAPI                       : Gamma Ray
~Parameter Information Block
~A  Depth       CCL         TT3         AMP3         GR     
# ...
   991.0000      0.0000    309.2873     37.1349    144.3821
   991.2500      0.0000    309.2582     37.3626    148.3200
   991.5000      0.0000    309.2057     37.5969    151.5206
   991.7500      0.0000    309.1018     37.8033    152.4958
   992.0000      0.0000    308.9398     37.9317    150.0168
   992.2500      0.0000    308.7442     37.9482    144.2719
   992.5000      0.0000    308.5539     37.8610    136.9624
   992.7500      0.0000    308.4004     37.7340    129.9919
   993.0000      0.0000    308.2999     37.6495    124.1850
   993.2500      0.0000    308.2533     37.6305    119.2385
   993.5000      0.0000    308.2499     37.6221    114.5157
   993.7500      0.0000    308.2832     37.5728    109.9768
   994.0000      0.0000    308.3637     37.4954    106.9230
   994.2500      0.0000    308.5053     37.4175    107.6934
   994.5000      0.0000    308.6915     37.3070    113.6965
   994.7500      0.0000    308.8642     37.0809    123.4421
   995.0000      0.0000    308.9565     36.6739    133.1084
   995.2500      0.0000    308.9583     36.0917    139.2627
   995.5000      0.0000    308.9622     35.4135    140.9265
   995.7500      0.0000    309.2930     34.7107    139.5513
   996.0000      0.0000    310.7739     33.9027    137.5759
   996.2500      0.0000    314.9980     32.7024    136.6286
   996.5000      0.0000    323.7523     30.8412    136.5677
   996.7500      0.0000    336.8510     28.4521    136.2432
   997.0000      0.0000    350.0063     26.1319    135.1455
   997.2500      0.0000    356.5046     24.4606    133.9983
   997.5000      0.0000    352.8416     23.5206    133.7202
   997.7500      0.0000    342.0975     23.0227    134.0481
   998.0000      0.0000    330.7071     22.7563    133.3752
   998.2500      0.0000    322.9276     22.7166    130.0541
   998.5000      0.0000    319.1494     22.9072    123.8973
   998.7500      0.0000    317.8965     23.2371    116.3534
   999.0000     -1.5637    317.8746     23.6162    109.2330
   999.2500      0.0000    318.3789     24.0976    103.4617
   999.5000      0.0000    318.7388     24.9175     99.1546
   999.7500      0.0000    318.0344     26.3579     96.4602
  1000.0000      0.0000    315.7037     28.4824     95.7913
  1000.2500      0.0000    312.3786     31.0017     97.2898
  1000.5000      0.0000    309.5121     33.4557    100.5239
  1000.7500      0.0000    307.9987     35.4991    104.8077
  1001.0000      0.0000    307.4913     36.9941    109.5590
  1001.2500      0.0000    307.0023     37.9624    114.3682
  1001.5000      0.0000    305.7805     38.5375    118.9877
  1001.7500      0.0000    303.7857     38.8733    123.3782
  1002.0000      0.0000    301.7914     39.0349    127.7426
  1002.2500      0.0000    300.9433     39.0141    132.4082
  1002.5000      0.0000    301.8081     38.8477    137.3825
  1002.7500      0.0000    303.8350     38.6553    141.8532
  1003.0000      0.0000    305.9241     38.5423    144.3661
  1003.2500      0.0000    307.3560     38.5090    143.8416
  1003.5000      0.0000    308.0724     38.4737    140.5349
  1003.7500      0.0000    308.3360     38.3757    136.0919
  1004.0000      0.0000    308.3923     38.2472    132.6413
  1004.2500      0.0000    308.3849     38.1808    131.4913
  1004.5000      0.0000    308.3887     38.2231    132.3123
  1004.7500      0.0000    308.4302     38.3052    133.3369
  1005.0000      0.0000    308.4964     38.2891    132.3898
  1005.2500      0.0000    308.5530     38.0891    128.3308
  1005.5000      0.0000    308.5833     37.7536    122.2811
  1005.7500      0.0000    308.6073     37.4331    117.4299
  1006.0000      0.0000    308.6629     37.2670    116.9326
  1006.2500      0.0000    308.7680     37.2830    121.4768
  1006.5000      0.0000    308.9008     37.3931    128.7713
  1006.7500      0.0000    309.0178     37.4751    135.2898
  1007.0000      0.0000    309.0870     37.4501    138.3972
  1007.2500      0.0000    309.1021     37.2921    137.2000
  1007.5000      0.0000    309.0733     37.0037    132.4932
  1007.7500      0.0000    309.0147     36.6101    126.5653
  1008.0000      0.0000    308.9412     36.1589    122.1250
  1008.2500      0.0000    308.8675     35.6978    120.3865
  1008.5000      0.0000    308.8069     35.2569    120.4090
  1008.7500      0.0000    308.7711     34.8635    120.5118
  1009.0000      0.0000    308.7658     34.5452    119.7757
  1009.2500      0.0000    308.7772     34.2968    118.2594
  1009.5000      0.0000    308.7715     34.0837    116.6419
  1009.7500      0.0000    308.7188     33.9236    115.9156
  1010.0000      0.0000    308.6247     33.9358    116.8492
  1010.2500      0.0000    308.5299     34.2423    119.3199
  1010.5000      0.0000    308.4772     34.8072    122.1352
  1010.7500      0.0000    308.4794     35.4119    123.6388
  1011.0000      0.0000    308.5156     35.7987    122.9031
  1011.2500      0.0000    308.5508     35.8248    120.7317
  1011.5000      0.0000    308.5571     35.5156    119.3929
  1011.7500      0.0000    308.5251     35.0341    120.8552
  1012.0000      0.0000    308.4637     34.6051    124.9973
  1012.2500      0.0000    308.3942     34.4194    129.6199
  1012.5000      0.0000    308.3453     34.5531    132.2764
  1012.7500      0.0000    308.3459     34.9508    132.1725
  1013.0000      0.0000    308.4096     35.4714    130.4789
  1013.2500      0.0000    308.5195     35.9668    129.0479
  1013.5000      0.0000    308.6295     36.3382    129.0327
  1013.7500      0.0000    308.6904     36.5443    130.7109
  1014.0000      0.0000    308.6821     36.5906    134.1035
  1014.2500      0.0000    308.6264     36.5374    138.9221
  1014.5000      0.0000    308.5707     36.4896    143.7730
  1014.7500      0.0000    308.5529     36.5332    146.3479
  1015.0000      0.0000    308.5734     36.6712    145.1373
  1015.2500      0.0000    308.5994     36.8349    140.6565
  1015.5000      0.0000    308.5962     36.9572    134.6455
  1015.7500      0.0000    308.5569     37.0274    128.4336
  1016.0000      0.0000    308.5071     37.0737    122.5223
  1016.2500      0.0000    308.4839     37.0959    117.4676
  1016.5000      0.0000    308.5088     37.0317    114.3387
  1016.7500      0.0000    308.5781     36.8058    113.8828
  1017.0000      0.0000    308.6740     36.4107    115.6671
  1017.2500      0.0000    308.7770     35.9225    118.4990
  1017.5000      0.0000    308.8697     35.4457    121.2309
  1017.7500      0.0000    308.9380     35.0637    122.8088
  1018.0000      0.0000    308.9790     34.8221    122.3873
  1018.2500      0.0000    309.0033     34.7111    120.1504
  1018.5000      0.0000    309.0245     34.6467    117.5606
  1018.7500      0.0000    309.0477     34.4930    116.2331
  1019.0000      0.0000    309.0713     34.1285    116.8204
  1019.2500      0.0000    309.1052     33.5077    119.0498
  1019.5000      0.0000    309.2432     32.6670    122.2103
  1019.7500      0.0000    309.7899     31.6411    125.3339
  1020.0000      0.0000    311.3875     30.3422    127.5990
  1020.2500      0.0000    314.8491     28.5998    129.0166
  1020.5000      0.0000    320.4441     26.4369    130.2359
  1020.7500      0.0000    327.0647     24.2612    131.4276
  1021.0000      0.0000    332.3951     22.5994    132.0349
  1021.2500      0.0000    334.3965     21.6359    131.9475
  1021.5000      0.0000    332.7447     21.1517    132.0730
  1021.7500      0.0000    328.8533     20.8547    132.9866
  1022.0000      0.0000    324.7210     20.5965    133.4325
  1022.2500      0.0000    321.7961     20.3312    131.0526
  1022.5000     -2.0000    320.6511     20.0689    124.7759
  1022.7500     -1.9733    321.4288     19.9009    116.1024
  1023.0000      0.0000    324.2004     20.0020    108.0170
  1023.2500      0.0000    328.4436     20.5754    102.9585
  1023.5000      0.0000    332.2420     21.7611    101.7237
  1023.7500      0.0000    332.9184     23.5103    103.8030
  1024.0000      0.0000    329.2894     25.5309    108.5442
  1024.2500      0.0000    322.9508     27.4398    115.8174
