~Version Information
VERS.                      2.0: CWLS Log ASCII Standard - VERSION 2.0
WRAP.                       NO: One line per depth step
~Well Information Block
STRT.FT                -3.2500: 
STOP.FT              2202.2500: 
STEP.FT                 0.2500: 
NULL.                -999.2500: 
COMP.          Pioneer Natural Resources: COMPANY
WELL.           Parklane 43-34: WELL
FLD.           Purgatorie River: FIELD
LOC.           1704' FSL & 1119' FEL--: LOCATION
PROV.                       CO: PROVINCE
CNTY.               Las Animas: COUNTRY
SRVC.                         : SERVICE COMPANY
DATE.          Thu Oct 14 14:49:09 2004: LOG DATE
UWI.           005 071 08162  : UNIQUE WELL ID
~Curve Information Block
DEPT.FT            0 000 00 00: Depth
GR.GAPI                       : Gamma Ray
CCL.                          : Casing Collar Locator
TT3.usec                      : CBL 3' Travel Time
AMP3.mV                       : CBL 3' Amplitude
~Parameter Information Block
~A  Depth        GR         CCL         TT3         AMP3    
# ...
   733.7500    130.3139      0.0000    744.6364      6.1974
   734.0000    135.0246      0.0000    748.8375      6.0931
   734.2500    139.8992      0.0000    751.2523      5.9933
   734.5000    143.5343      0.0000    752.7676      5.9059
   734.7500    144.7748      0.0000    754.4752      5.8322
   735.0000    142.7460      0.0000    757.3506      5.7615
   735.2500    137.2562      0.0000    761.9289      5.6732
   735.5000    129.6363      0.0000    767.8323      5.5529
   735.7500    122.5914      0.0000    773.7806      5.4095
   736.0000    118.2068      0.0000    778.5505      5.2738
   736.2500    115.8056      0.0000    781.8068      5.1760
   736.5000    112.3193      0.0000    783.6431      5.1260
   736.7500    105.1559      0.0000    783.7281      5.1109
   737.0000     94.3812      0.0000    781.7043      5.1132
   737.2500     82.0534      0.0000    778.3851      5.1303
   737.5000     70.1520      0.0000    775.9330      5.1705
   737.7500     59.6213      0.0000    776.4373      5.2254
   738.0000     50.9342      0.0000    780.1709      5.2569
   738.2500     44.7330      0.0000    785.3406      5.2256
   738.5000     41.5857      0.0000    789.6718      5.1309
   738.7500     41.3716      0.0000    792.0695      5.0123
   739.0000     43.2858      0.0000    792.7094      4.9125
   739.2500     46.6112      0.0000    791.9834      4.8470
   739.5000     51.3722      0.0000    789.7961      4.8095
   739.7500     57.8621      0.0000    785.9760      4.7917
   740.0000     65.3809      0.0000    781.3253      4.7887
   740.2500     71.8346      0.0000    777.9052      4.7898
   740.5000     75.0899      0.0000    777.6931      4.7773
   740.7500     74.7655      0.0000    780.7881      4.7410
   741.0000     72.4056      0.0000    785.3407      4.6891
   741.2500     69.9226      0.0000    789.2633      4.6412
   741.5000     68.1471      0.0000    791.6648      4.6112
   741.7500     66.7429      0.0000    792.7933      4.6010
   742.0000     65.0132      0.0000    793.2365      4.6077
   742.2500     62.6183      0.0000    793.4127      4.6282
   742.5000     59.7715      0.0000    793.5103      4.6562
   742.7500     57.0116      0.0000    793.5870      4.6822
   743.0000     54.9409      0.0000    793.6599      4.7007
   743.2500     54.1067      0.0000    793.7465      4.7175
   743.5000     54.7213      0.0000    793.8596      4.7428
   743.7500     56.2897      0.0000    793.9898      4.7789
   744.0000     57.8917      0.0000    794.1091      4.8189
   744.2500     59.0908      0.0000    794.1902      4.8550
   744.5000     60.2781      0.0000    794.2168      4.8853
   744.7500     61.9110      0.0000    794.1829      4.9113
   745.0000     63.6741      0.0000    794.0986      4.9335
   745.2500     64.7542      0.0000    793.9706      4.9505
   745.5000     65.1470      0.0000    793.7239      4.9589
   745.7500     66.6046      0.0000    793.0708      4.9492
   746.0000     71.7443      0.0000    791.4712      4.9020
   746.2500     81.5599      0.0000    788.3812      4.7960
   746.5000     93.8025      0.0000    783.6184      4.6267
   746.7500    104.3544      0.0000    777.4824      4.4211
   747.0000    110.4861      0.0000    770.6002      4.2277
   747.2500    112.6662      0.0000    763.7473      4.0844
   747.5000    113.2811      0.0000    757.4865      3.9964
   747.7500    114.2209      0.0000    751.6674      3.9505
   748.0000    115.9712      0.0000    745.5731      3.9467
   748.2500    118.4636      0.0000    738.8452      4.0045
   748.5000    122.0040      0.0000    732.0650      4.1362
   748.7500    126.9341      0.0000    726.3093      4.3206
   749.0000    132.5093      0.0000    722.2880      4.5089
   749.2500    136.8050      0.0000    719.9578      4.6510
   749.5000    138.4283      0.0000    718.8023      4.7152
   749.7500    138.1483      0.0000    718.2834      4.6934
   750.0000    138.3167      0.0000    718.0526      4.5986
   750.2500    140.5621      0.0000    717.9777      4.4549
   750.5000    144.1162      0.0000    718.1866      4.2838
   750.7500    146.4996      0.0000    719.1840      4.0992
   751.0000    146.0099      0.0000    721.8436      3.9132
   751.2500    143.3925      0.0000    727.0684      3.7438
   751.5000    140.8505      0.0000    735.1601      3.6123
   751.7500    139.8039      0.0000    745.4216      3.5328
   752.0000    140.1281      0.0000    756.3181      3.5045
   752.2500    141.0665      0.0000    765.8155      3.5130
   752.5000    141.9458      0.0000    771.6903      3.5410
   752.7500    142.0784      0.0000    772.2587      3.5766
   753.0000    140.8401      0.0000    767.3364      3.6167
   753.2500    138.2133      0.0000    758.3646      3.6648
   753.5000    135.0360      0.0000    747.5957      3.7278
   753.7500    132.5623      0.0000    737.2731      3.8096
   754.0000    131.8454      0.0000    729.1085      3.9018
   754.2500    133.4008      0.0000    723.8164      3.9834
   754.5000    137.0890      0.0000    721.1284      4.0371
   754.7500    142.0787      0.0000    720.7059      4.0649
   755.0000    147.1781      0.0000    723.4833      4.0844
   755.2500    151.5982      0.0000    732.0958      4.1082
   755.5000    155.3475      0.0000    748.6848      4.1295
   755.7500    158.7822      0.0000    770.4875      4.1280
   756.0000    162.0513      0.0000    788.3227      4.0871
   756.2500    164.9581      0.0000    792.6740      4.0066
   756.5000    166.9479      0.0000    782.3740      3.9063
   756.7500    167.1184      0.0000    765.2652      3.8190
   757.0000    164.6414      0.0000    750.1565      3.7743
   757.2500    159.4527      0.0000    740.2615      3.7804
   757.5000    152.3857      0.0000    734.0173      3.8228
   757.7500    144.5836      0.0000    729.2333      3.8816
   758.0000    137.0676      0.0000    725.2029      3.9477
   758.2500    130.8658      0.0000    722.1614      4.0216
   758.5000    127.1644      0.0000    720.2559      4.1017
   758.7500    126.9754      0.0000    719.3360      4.1778
   759.0000    130.3717      0.0000    719.3464      4.2320
   759.2500    135.8196      0.0000    720.4984      4.2471
   759.5000    140.6897      0.0000    722.9431      4.2187
   759.7500    143.0670      0.0000    726.3133      4.1615
   760.0000    142.8140      0.0000    729.7002      4.1012
   760.2500    140.5943      0.0000    732.1261      4.0585
   760.5000    136.9174      0.0000    732.9431      4.0399
   760.7500    132.8528      0.0000    731.7301      4.0411
   761.0000    130.3654      0.0000    728.0935      4.0576
   761.2500    130.4936      0.0000    721.9333      4.0913
   761.5000    131.6487      0.0000    714.1146      4.1457
   761.7500    130.8740      0.0000    706.9753      4.2114
   762.0000    126.9333      0.0000    703.9185      4.2655
   762.2500    121.7598      0.0000    707.6650      4.2917
   762.5000    118.8478      0.0000    718.2807      4.2970
   762.7500    120.2123      0.0000    733.1135      4.3030
   763.0000    124.5632      0.0000    748.8439      4.3250
   763.2500    128.1712      0.0000    763.2394      4.3626
   763.5000    127.8315      0.0000    775.1475      4.4052
   763.7500    123.4476      0.0000    783.8923      4.4418
   764.0000    117.8095      0.0000    789.3307      4.4650
   764.2500    113.9344      0.0000    792.0533      4.4619
   764.5000    112.7427      0.0000    793.0082      4.4033
   764.7500    112.9246      0.0000    792.8746      4.2605
   765.0000    112.4645      0.0000    791.7395      4.0520
   765.2500    110.2643      0.0000    789.2248      3.8637
   765.5000    106.8169      0.0000    785.0877      3.7816
   765.7500    103.8575      0.0000    780.0444      3.7895
   766.0000    103.3357      0.0000    775.9211      3.7749
   766.2500    105.9772      0.0000    774.4716      3.6586
   766.5000    110.2907      0.0000    776.1348      3.4788
   766.7500    113.3468      0.0000    780.3942      3.3265
   767.0000    113.2192      0.0000    786.6951      3.2426
