~Version Information
 VERS.                      2.0: CWLS Log ASCII Standard - VERSION 2.0
 WRAP.                       NO: One line per depth step
 ~Well Information Block
 STRT.FT               130.0000: 
 STOP.FT              1766.9000: 
 STEP.FT                 0.1000: 
 NULL.                -999.2500: 
 COMP.          Petrogulf Corporation: COMPANY
 WELL.           Parsons 23-15V: WELL
 FLD.           Purgatorie River: FIELD
 LOC.           2095' FSL & 1817' FWL--API 05 071 07556 00----: LOCATION
 CNTY.               Las Animas: COUNTY
 SRVC.                         : SERVICE COMPANY
 DATE.          Fri Apr 19 17:40:55 2002: LOG DATE
 UWI.                          : UNIQUE WELL ID
 STAT.                       CO: STATE
 PROV.                         :Province
 ~Curve Information Block
 DEPT.FT            0 000 00 00: Depth
 DCAL.in                       : CDL Caliper
 RHOB.g/cc                     : CDL Bulk Density
 RHOC.g/cc                     : CDL Density Correction
 DPOR.pu                       : CDL Density Porosity
 GR.GAPI                       : Gamma Ray
 NPOR.pu                       : Neutron Porosity
 ~Parameter Information Block
 ~A  Depth       DCAL        RHOB        RHOC        DPOR         GR         NPOR    
# ...
   360.4000      7.9816      2.6282      0.0437      1.3188    111.4652     20.9251
   360.5000      7.9755      2.6287      0.0474      1.2923    109.3319     21.2690
   360.6000      7.9755      2.6283      0.0504      1.3174    107.6673     21.6405
   360.7000      7.9755      2.6269      0.0525      1.3994    106.6040     22.0374
   360.8000      7.9675      2.6246      0.0538      1.5405    106.2366     22.4569
   360.9000      7.9675      2.6213      0.0544      1.7393    106.6089     22.8939
   361.0000      7.9618      2.6172      0.0545      1.9906    107.7114     23.3410
   361.1000      7.9618      2.6123      0.0543      2.2863    109.4779     23.7879
   361.2000      7.9618      2.6068      0.0541      2.6155    111.7934     24.2231
   361.3000      7.9591      2.6011      0.0540      2.9654    114.5053     24.6351
   361.4000      7.9591      2.5952      0.0542      3.3222    117.4431     25.0141
   361.5000      7.9581      2.5894      0.0548      3.6715    120.4429     25.3525
   361.6000      7.9581      2.5840      0.0558      3.9999    123.3632     25.6464
   361.7000      7.9581      2.5791      0.0572      4.2951    126.1031     25.8949
   361.8000      7.9584      2.5750      0.0589      4.5466    128.6070     26.1000
   361.9000      7.9584      2.5717      0.0608      4.7462    130.8679     26.2651
   362.0000      7.9615      2.5693      0.0630      4.8881    132.9170     26.3957
   362.1000      7.9615      2.5680      0.0654      4.9690    134.8132     26.4985
   362.2000      7.9615      2.5677      0.0680      4.9883    136.6303     26.5823
   362.3000      7.9702      2.5684      0.0710      4.9474    138.4447     26.6570
   362.4000      7.9702      2.5700      0.0743      4.8503    140.3228     26.7344
   362.5000      7.9829      2.5724      0.0781      4.7028    142.3136     26.8261
   362.6000      7.9829      2.5755      0.0822      4.5124    144.4477     26.9427
   362.7000      7.9829      2.5793      0.0864      4.2877    146.7318     27.0911
   362.8000      7.9901      2.5834      0.0908      4.0385    149.1478     27.2740
   362.9000      7.9901      2.5877      0.0949      3.7751    151.6538     27.4870
   363.0000      7.9919      2.5921      0.0985      3.5076    154.1869     27.7205
   363.1000      7.9919      2.5964      0.1014      3.2462    156.6662     27.9596
   363.2000      7.9919      2.6005      0.1032      2.9997    158.9992     28.1864
   363.3000      7.9943      2.6042      0.1037      2.7760    161.0891     28.3836
   363.4000      7.9943      2.6074      0.1029      2.5811    162.8438     28.5370
   363.5000      8.0031      2.6101      0.1006      2.4192    164.1828     28.6378
   363.6000      8.0031      2.6122      0.0969      2.2919    165.0511     28.6842
   363.7000      8.0031      2.6137      0.0919      2.1989    165.4232     28.6808
   363.8000      8.0171      2.6147      0.0859      2.1376    165.3067     28.6369
   363.9000      8.0171      2.6153      0.0792      2.1036    164.7405     28.5645
   364.0000      8.0256      2.6155      0.0720      2.0907    163.7911     28.4757
   364.1000      8.0256      2.6155      0.0648      2.0919    162.5426     28.3811
   364.2000      8.0256      2.6154      0.0580      2.0996    161.0869     28.2877
   364.3000      8.0277      2.6152      0.0517      2.1065    159.5130     28.1998
   364.4000      8.0277      2.6153      0.0462      2.1056    157.8994     28.1193
   364.5000      8.0281      2.6155      0.0416      2.0912    156.3102     28.0464
   364.6000      8.0281      2.6160      0.0380      2.0592    154.7875     27.9820
   364.7000      8.0281      2.6169      0.0354      2.0071    153.3583     27.9276
   364.8000      8.0280      2.6181      0.0336      1.9343    152.0316     27.8864
   364.9000      8.0280      2.6196      0.0326      1.8418    150.8073     27.8626
   365.0000      8.0288      2.6214      0.0321      1.7320    149.6804     27.8609
   365.1000      8.0288      2.6235      0.0320      1.6084    148.6450     27.8857
   365.2000      8.0288      2.6257      0.0321      1.4753    147.7048     27.9405
   365.3000      8.0306      2.6279      0.0322      1.3370    146.8740     28.0262
   365.4000      8.0306      2.6302      0.0321      1.1975    146.1756     28.1415
   365.5000      8.0319      2.6325      0.0317      1.0604    145.6434     28.2816
   365.6000      8.0319      2.6347      0.0311      0.9282    145.3068     28.4397
   365.7000      8.0319      2.6368      0.0302      0.8030    145.1935     28.6058
   365.8000      8.0326      2.6387      0.0290      0.6861    145.3177     28.7693
   365.9000      8.0326      2.6405      0.0277      0.5779    145.6767     28.9195
   366.0000      8.0325      2.6421      0.0265      0.4790    146.2514     29.0474
   366.1000      8.0325      2.6436      0.0255      0.3896    147.0142     29.1463
   366.2000      8.0325      2.6449      0.0248      0.3105    147.9292     29.2130
   366.3000      8.0317      2.6460      0.0244      0.2423    148.9618     29.2474
   366.4000      8.0317      2.6469      0.0244      0.1864    150.0801     29.2530
   366.5000      8.0314      2.6476      0.0246      0.1441    151.2571     29.2339
   366.6000      8.0314      2.6481      0.0251      0.1167    152.4643     29.1957
   366.7000      8.0314      2.6483      0.0257      0.1053    153.6696     29.1427
   366.8000      8.0328      2.6482      0.0264      0.1105    154.8281     29.0781
   366.9000      8.0328      2.6478      0.0271      0.1323    155.8888     29.0034
   367.0000      8.0349      2.6472      0.0278      0.1699    156.7950     28.9196
   367.1000      8.0349      2.6463      0.0287      0.2220    157.4886     28.8272
   367.2000      8.0349      2.6453      0.0299      0.2869    157.9245     28.7287
   367.3000      8.0355      2.6440      0.0313      0.3626    158.0790     28.6286
   367.4000      8.0355      2.6426      0.0330      0.4474    157.9557     28.5339
   367.5000      8.0350      2.6411      0.0350      0.5400    157.5827     28.4538
   367.6000      8.0350      2.6394      0.0370      0.6398    157.0104     28.3983
   367.7000      8.0350      2.6377      0.0389      0.7470    156.2937     28.3770
   367.8000      8.0344      2.6358      0.0403      0.8625    155.4869     28.3961
   367.9000      8.0344      2.6337      0.0411      0.9879    154.6296     28.4580
   368.0000      8.0317      2.6314      0.0410      1.1251    153.7413     28.5598
   368.1000      8.0317      2.6289      0.0400      1.2760    152.8236     28.6933
   368.2000      8.0317      2.6262      0.0380      1.4426    151.8688     28.8464
   368.3000      8.0251      2.6232      0.0351      1.6257    150.8710     29.0052
   368.4000      8.0251      2.6199      0.0315      1.8255    149.8398     29.1553
   368.5000      8.0171      2.6163      0.0274      2.0407    148.8101     29.2854
   368.6000      8.0171      2.6126      0.0230      2.2691    147.8414     29.3873
   368.7000      8.0171      2.6086      0.0185      2.5070    147.0233     29.4572
   368.8000      8.0120      2.6046      0.0142      2.7496    146.4613     29.4946
   368.9000      8.0120      2.6006      0.0102      2.9917    146.2626     29.5021
   369.0000      8.0109      2.5968      0.0068      3.2270    146.5229     29.4836
   369.1000      8.0109      2.5931      0.0040      3.4501    147.3149     29.4429
   369.2000      8.0109      2.5897      0.0021      3.6552    148.6695     29.3835
   369.3000      8.0110      2.5867      0.0009      3.8379    150.5738     29.3089
   369.4000      8.0110      2.5841      0.0007      3.9951    152.9691     29.2239
   369.5000      8.0087      2.5819      0.0015      4.1253    155.7509     29.1358
   369.6000      8.0087      2.5802      0.0032      4.2284    158.7789     29.0545
   369.7000      8.0087      2.5789      0.0057      4.3067    161.8944     28.9930
   369.8000      8.0045      2.5780      0.0090      4.3639    164.9212     28.9657
   369.9000      8.0045      2.5773      0.0130      4.4052    167.6935     28.9860
