~Version Information
VERS.                      2.0: CWLS Log ASCII Standard - VERSION 2.0
WRAP.                       NO: One line per depth step
~Well Information Block
STRT.FT               460.5000: 
STOP.FT              2197.0000: 
STEP.FT                 0.2500: 
NULL.                -999.2500: 
COMP.          Petrogulf Corporation: COMPANY
WELL.              Silva 1-43R: WELL
FLD.           Purgatorie River: FIELD
LOC.           1971' FSL & 526' FEL: LOCATION
CNTY.               Las Animas: COUNTY
SRVC.                Patterson: SERVICE COMPANY
DATE.          Sun Jun 18 03:37:26 2006: LOG DATE
UWI.           05 071 08372 00: UNIQUE WELL ID
STAT.                 Colorado: STATE
~Curve Information Block
DEPT.FT            0 000 00 00: Depth
SN.Ohm-m                      : IEL Short Normal
SP.mV                         : IEL Spontaneous Potential
DIR.Ohm-m                     : IEL Induction Resistivity
GR.GAPI                       : Gamma Ray
~Parameter Information Block
~A  Depth        SN          SP         DIR          GR     
# ...
  1164.0000     35.5158     21.3743     23.9829     75.1949
  1164.2500     38.9901     21.1451     25.3234     75.2481
  1164.5000     42.4300     20.8781     26.9099     73.3415
  1164.7500     45.5307     20.5977     28.6798     70.8515
  1165.0000     47.9951     20.3423     30.5261     66.3642
  1165.2500     49.7666     20.1406     32.3221     63.5212
  1165.5000     51.1277     19.9951     33.9640     60.1574
  1165.7500     52.5347     19.8904     35.3990     58.7862
  1166.0000     54.2735     19.8128     36.6199     58.3769
  1166.2500     56.2456     19.7589     37.6377     59.1129
  1166.5000     58.1091     19.7332     38.4580     60.9231
  1166.7500     59.5726     19.7416     39.0771     62.0215
  1167.0000     60.4953     19.7857     39.4858     62.9845
  1167.2500     60.8312     19.8629     39.6765     63.2445
  1167.5000     60.6139     19.9721     39.6458     63.6011
  1167.7500     59.9624     20.1188     39.3962     64.1628
  1168.0000     59.0342     20.3093     38.9359     65.7428
  1168.2500     57.9260     20.5430     38.2847     67.1170
  1168.5000     56.6089     20.8100     37.4793     69.0421
  1168.7500     54.9834     21.0936     36.5672     70.0576
  1169.0000     52.9656     21.3711     35.5846     71.7348
  1169.2500     50.5327     21.6146     34.5396     73.5580
  1169.5000     47.7923     21.7981     33.4171     77.6483
  1169.7500     45.0240     21.9103     32.2045     80.6455
  1170.0000     42.5349     21.9643     30.9131     84.0314
  1170.2500     40.4246     21.9903     29.5788     85.3791
  1170.5000     38.5391     22.0178     28.2475     87.6092
  1170.7500     36.6471     22.0617     26.9609     90.5436
  1171.0000     34.6389     22.1206     25.7528     98.0142
  1171.2500     32.5989     22.1844     24.6518    104.2841
  1171.5000     30.7096     22.2405     23.6843    113.0372
  1171.7500     29.0974     22.2781     22.8751    117.1256
  1172.0000     27.7808     22.2907     22.2467    119.7295
  1172.2500     26.7171     22.2766     21.8133    119.2957
  1172.5000     25.8561     22.2367     21.5723    116.4194
  1172.7500     25.1801     22.1726     21.4975    113.7690
  1173.0000     24.7160     22.0853     21.5411    109.5815
  1173.2500     24.5118     21.9751     21.6503    106.6343
  1173.5000     24.5981     21.8439     21.7904    101.2352
  1173.7500     24.9495     21.6993     21.9559     96.7111
  1174.0000     25.4685     21.5565     22.1605     89.3824
  1174.2500     26.0367     21.4355     22.4136     85.2623
  1174.5000     26.6228     21.3525     22.7062     81.6923
  1174.7500     27.3486     21.3128     23.0154     80.9845
  1175.0000     28.4070     21.3084     23.3194     81.3117
  1175.2500     29.8374     21.3220     23.6068     82.0754
  1175.5000     31.3663     21.3336     23.8715     84.4508
  1175.7500     32.5350     21.3290     24.0986     87.1507
  1176.0000     33.0118     21.3093     24.2548     92.2146
  1176.2500     32.7754     21.2948     24.2943     95.3172
  1176.5000     32.0293     21.3175     24.1779     98.4409
  1176.7500     30.9834     21.4025     23.8938     99.6415
  1177.0000     29.7426     21.5525     23.4646    101.1531
  1177.2500     28.3829     21.7466     22.9379    102.4092
  1177.5000     27.0605     21.9541     22.3722    104.5969
  1177.7500     25.9720     22.1484     21.8248    105.8547
  1178.0000     25.1957     22.3091     21.3424    106.6585
  1178.2500     24.6256     22.4212     20.9494    106.2651
  1178.5000     24.0961     22.4792     20.6401    104.7723
  1178.7500     23.5490     22.4938     20.3850    103.9506
  1179.0000     23.0540     22.4908     20.1491    104.4409
  1179.2500     22.6866     22.4981     19.9114    106.3051
  1179.5000     22.4430     22.5309     19.6710    110.7775
  1179.7500     22.2740     22.5836     19.4388    113.9395
  1180.0000     22.1539     22.6380     19.2231    117.2333
  1180.2500     22.1034     22.6762     19.0243    117.8869
  1180.5000     22.1576     22.6894     18.8406    116.7906
  1180.7500     22.3087     22.6770     18.6757    115.4213
  1181.0000     22.4816     22.6415     18.5406    113.9843
  1181.2500     22.5828     22.5847     18.4457    114.0626
  1181.5000     22.5519     22.5052     18.3928    115.8182
  1181.7500     22.3655     22.4005     18.3726    117.6591
  1182.0000     22.0229     22.2714     18.3701    120.4295
  1182.2500     21.5316     22.1274     18.3702    121.7440
  1182.5000     20.8998     21.9883     18.3603    122.3163
  1182.7500     20.1328     21.8805     18.3305    121.7185
  1183.0000     19.2247     21.8270     18.2753    119.6157
  1183.2500     18.2044     21.8387     18.1977    117.5156
  1183.5000     17.2326     21.9093     18.1074    113.4454
  1183.7500     16.5732     22.0184     18.0158    110.4134
  1184.0000     16.4595     22.1401     17.9308    106.3292
  1184.2500     17.0410     22.2528     17.8588    104.4179
  1184.5000     18.3182     22.3442     17.8114    103.0382
  1184.7500     19.9749     22.4139     17.8084    102.9559
  1185.0000     21.4282     22.4720     17.8720    103.8485
  1185.2500     22.2215     22.5355     18.0139    105.1786
  1185.5000     22.3091     22.6214     18.2244    108.3108
  1185.7500     21.9449     22.7399     18.4741    110.7669
  1186.0000     21.4369     22.8904     18.7265    113.6421
  1186.2500     21.0129     23.0625     18.9517    114.2707
  1186.5000     20.7777     23.2400     19.1284    113.0638
  1186.7500     20.7421     23.4033     19.2370    111.4990
  1187.0000     20.9041     23.5328     19.2577    109.7796
  1187.2500     21.2611     23.6136     19.1791    109.7003
  1187.5000     21.7162     23.6422     19.0087    111.0076
  1187.7500     22.0532     23.6300     18.7745    112.3541
  1188.0000     22.0934     23.5995     18.5135    114.6573
  1188.2500     21.8362     23.5727     18.2570    116.4743
  1188.5000     21.3895     23.5624     18.0224    119.8725
  1188.7500     20.8387     23.5706     17.8128    122.5301
  1189.0000     20.2231     23.5919     17.6211    126.5450
  1189.2500     19.5825     23.6170     17.4339    128.7728
  1189.5000     18.9939     23.6348     17.2367    130.7670
  1189.7500     18.5311     23.6354     17.0179    131.0033
  1190.0000     18.1986     23.6132     16.7727    129.7459
  1190.2500     17.9388     23.5655     16.5026    128.0983
  1190.5000     17.6739     23.4895     16.2113    125.4123
  1190.7500     17.3463     23.3824     15.9036    124.2077
  1191.0000     16.9742     23.2434     15.5870    124.0455
  1191.2500     16.6409     23.0782     15.2747    124.9945
  1191.5000     16.4075     22.9020     14.9867    127.3070
  1191.7500     16.2694     22.7407     14.7441    128.7852
  1192.0000     16.1786     22.6241     14.5634    129.5851
  1192.2500     16.0876     22.5696     14.4502    128.7475
  1192.5000     15.9903     22.5698     14.3966    126.1304
  1192.7500     15.9194     22.5978     14.3846    124.4252
  1193.0000     15.9044     22.6231     14.3976    123.0068
  1193.2500     15.9494     22.6243     14.4341    122.7601
  1193.5000     16.0544     22.5934     14.5119    122.6349
  1193.7500     16.2346     22.5374     14.6562    122.1604
  1194.0000     16.5137     22.4751     14.8769    120.0531
  1194.2500     16.8922     22.4302     15.1536    117.5211
  1194.5000     17.3195     22.4233     15.4380    112.5172
  1194.7500     17.7186     22.4643     15.6766    109.1149
  1195.0000     18.0367     22.5493     15.8368    105.5285
  1195.2500     18.2697     22.6618     15.9193    105.0024
  1195.5000     18.4587     22.7768     15.9476    107.7302
  1195.7500     18.6596     22.8684     15.9474    111.6246
  1196.0000     18.8939     22.9176     15.9337    119.0949
  1196.2500     19.1202     22.9205     15.9112    124.2589
  1196.5000     19.2368     22.8900     15.8794    131.6594
  1196.7500     19.1081     22.8497     15.8343    136.4539
  1197.0000     18.6287     22.8208     15.7677    143.4455
  1197.2500     17.7919     22.8126     15.6668    147.6682
