~Version Information
VERS.                      2.0: CWLS Log ASCII Standard - VERSION 2.0
WRAP.                       NO: One line per depth step
~Well Information Block
STRT.FT               -13.5000: 
STOP.FT              2474.2500: 
STEP.FT                 0.2500: 
NULL.                -999.2500: 
COMP.          Pioneer Natural Resources: COMPANY
WELL.              Tiaga 23-14: WELL
FLD.           Purgatorie River: FIELD
LOC.           2168' FSL & 2030' FWL--: LOCATION
PROV.                       CO: PROVINCE
CNTY.               Las Animas: COUNTRY
SRVC.                         : SERVICE COMPANY
DATE.          Thu May 12 17:01:37 2005: LOG DATE
UWI.                          : UNIQUE WELL ID
~Curve Information Block
DEPT.FT            0 000 00 00: Depth
TT3.usec                      : CBL 3' Travel Time
AMP3.mV                       : CBL 3' Amplitude
GR.GAPI                       : Gamma Ray
CCL.                          : Casing Collar Locator
~Parameter Information Block
~A  Depth       TT3         AMP3         GR         CCL     
# ...
  2264.5000    505.3873      8.7328     51.8382      0.0000
  2264.7500    502.4577      8.6150     49.5336      0.0000
  2265.0000    526.7627      8.4932     48.9684      0.0000
  2265.2500    549.8478      8.4063     51.3564      0.0000
  2265.5000    545.7606      8.3469     56.6700      0.0000
  2265.7500    516.2983      8.2876     63.3743      0.0000
  2266.0000    483.4941      8.2153     69.4413      0.0000
  2266.2500    462.7588      8.1389     73.5191      0.0000
  2266.5000    452.4412      8.0695     75.1419      0.0000
  2266.7500    445.0792      8.0120     74.3507      0.0000
  2267.0000    437.4825      7.9715     71.6629      0.0000
  2267.2500    431.3747      7.9468     68.3444      0.0000
  2267.5000    428.9137      7.9190     66.1964      0.0000
  2267.7500    430.6313      7.8629     66.7094      0.0000
  2268.0000    435.9529      7.7699     70.1788      0.0000
  2268.2500    442.4154      7.6544     75.4175      0.0000
  2268.5000    446.6315      7.5463     80.2649      0.0000
  2268.7500    447.6654      7.4684     82.5878      0.0000
  2269.0000    447.3936      7.4191     81.3393      0.0000
  2269.2500    448.1557      7.3946     77.2537      0.0000
  2269.5000    452.5636      7.4083     72.5230      0.0000
  2269.7500    464.8994      7.4536     69.3633      0.0000
  2270.0000    488.1689      7.4927     68.6351      0.0000
  2270.2500    517.9999      7.5159     69.6900      0.0000
  2270.5000    544.6527      7.5615     71.3625      0.0000
  2270.7500    561.0794      7.6483     73.0058      0.0000
  2271.0000    565.9714      7.7304     74.5594      0.0000
  2271.2500    566.6362      7.7407     75.8104      0.0000
  2271.5000    577.0834      7.6683     75.9564      0.0000
  2271.7500    603.4657      7.5764     74.1595      0.0000
  2272.0000    637.9525      7.5406     70.4680      0.0000
  2272.2500    668.0247      7.5731     65.9401      0.0000
  2272.5000    684.4119      7.6113     61.7058      0.0000
  2272.7500    685.2619      7.5988     58.0538      0.0000
  2273.0000    678.3414      7.5527     54.5579      0.0000
  2273.2500    676.0024      7.5173     50.8786      0.0000
  2273.5000    683.1922      7.5039     47.2495      0.0000
  2273.7500    693.1865      7.4975     44.4299      0.0000
  2274.0000    697.5301      7.4625     43.4247      0.0000
  2274.2500    693.7589      7.3612     45.0931      0.0000
  2274.5000    685.4078      7.2143     49.7237      0.0000
  2274.7500    680.0761      7.1043     56.7590      0.0000
  2275.0000    681.6607      7.0810     64.8263      0.0000
  2275.2500    685.3602      7.1146     72.2275      0.0000
  2275.5000    686.1740      7.1607     77.7450      0.0000
  2275.7500    682.8026      7.2131     81.1465      0.0000
  2276.0000    669.2006      7.2609     82.8727      0.0000
  2276.2500    636.3300      7.2489     83.1793      0.0000
  2276.5000    587.8049      7.1541     81.7486      0.0000
  2276.7500    540.8098      7.0580     78.3380      0.0000
  2277.0000    506.7474      7.0493     73.6657      0.0000
  2277.2500    483.1004      7.1212     69.2379      0.0000
  2277.5000    464.8462      7.2111     66.1006      0.0000
  2277.7500    451.7994      7.2777     64.0518      0.0000
  2278.0000    444.4132      7.3214     62.3524      0.0000
  2278.2500    440.7436      7.3587     60.8301      0.0000
  2278.5000    438.5041      7.3892     59.8969      0.0000
  2278.7500    436.6701      7.3914     59.8096      0.0000
  2279.0000    435.0742      7.3509     60.3586      0.0000
  2279.2500    433.7944      7.2825     61.1819      0.0000
  2279.5000    432.9127      7.2229     62.0198      0.0000
  2279.7500    432.3179      7.2100     62.5558      0.0000
  2280.0000    431.7371      7.2543     62.2640      0.0000
  2280.2500    431.1065      7.3108     60.8137      0.0000
  2280.5000    430.6978      7.3105     58.6985      0.0000
  2280.7500    430.7595      7.2253     57.0647      0.0000
  2281.0000    431.1624      7.0917     56.6675      0.0000
  2281.2500    431.5170      6.9777     57.2085      0.0000
  2281.5000    431.6043      6.9245     57.8736      0.0000
  2281.7500    431.5841      6.9203     58.3343      0.0000
  2282.0000    431.8688      6.9366     58.9349      0.0000
  2282.2500    432.7592      6.9680     59.9594      0.0000
  2282.5000    434.0761      7.0220     61.1873      0.0000
  2282.7500    435.3039      7.0985     62.4285      0.0000
  2283.0000    436.0699      7.1924     64.1049      0.0000
  2283.2500    436.2844      7.2922     66.8320      0.0000
  2283.5000    436.0424      7.3577     70.4326      0.0000
  2283.7500    435.5526      7.3374     73.5522      0.0000
  2284.0000    434.7281      7.2307     74.3207      0.0000
  2284.2500    432.3909      7.1028     71.7112      0.0000
  2284.5000    426.2566      7.0205     66.7039      0.0000
  2284.7500    415.1926      6.9988     61.9738      0.0000
  2285.0000    401.9502      7.0065     59.9043      0.0000
  2285.2500    391.3463      6.9933     60.6816      0.0000
  2285.5000    385.3125      6.9221     62.3860      0.0000
  2285.7500    382.1862      6.8070     62.9156      0.0000
  2286.0000    379.8726      6.7131     61.8099      0.0000
  2286.2500    377.6155      6.6908     60.3410      0.0000
  2286.5000    375.6543      6.7099     60.0133      0.0000
  2286.7500    374.3591      6.6845     61.0968      0.0000
  2287.0000    373.7953      6.5660     62.5234      0.0000
  2287.2500    373.8344      6.3887     62.8841      0.0000
  2287.5000    374.2932      6.2305     61.3771      0.0000
  2287.7500    374.9702      6.1384     58.1380      0.0000
  2288.0000    375.7870      6.0924     54.1235      0.0000
  2288.2500    376.9694      6.0384     50.6994      0.0000
  2288.5000    379.8681      5.9468     48.9149      0.0000
  2288.7500    389.5680      5.8396     48.7758      0.0000
  2289.0000    416.4974      5.7604     49.1974      0.0000
  2289.2500    467.5875      5.7150     48.9337      0.0000
  2289.5000    530.7685      5.6809     47.6853      0.0000
  2289.7500    581.0073      5.6781     46.1675      0.0000
  2290.0000    606.2752      5.7513     45.1632      0.0000
  2290.2500    613.1437      5.8748     44.8821      0.0000
  2290.5000    611.2327      5.9583     45.2864      0.0000
  2290.7500    606.4565      5.9614     46.6477      0.0000
  2291.0000    603.9936      5.9277     49.4400      0.0000
  2291.2500    606.3820      5.9108     53.6621      0.0000
  2291.5000    610.0846      5.9180     58.4451      0.0000
  2291.7500    609.4669      5.9155     62.5598      0.0000
  2292.0000    602.4872      5.8736     65.3771      0.0000
  2292.2500    591.6130      5.8090     67.1944      0.0000
  2292.5000    580.3525      5.7645     68.6715      0.0000
  2292.7500    570.1786      5.7506     70.2402      0.0000
  2293.0000    563.6981      5.7330     72.0834      0.0000
  2293.2500    567.1669      5.6785     74.1674      0.0000
  2293.5000    583.0828      5.6028     75.9474      0.0000
  2293.7500    603.0848      5.5687     76.3483      0.0000
  2294.0000    615.9059      5.6237     74.4451      0.0000
  2294.2500    619.6906      5.7496     70.2827      0.0000
  2294.5000    619.6742      5.8849     65.0449      0.0000
  2294.7500    619.4619      5.9737     60.4232      0.0000
  2295.0000    619.6375      5.9829     57.7678      0.0000
  2295.2500    620.0444      5.9089     57.5962      0.0000
  2295.5000    620.7734      5.7887     59.4258      0.0000
  2295.7500    622.5715      5.6828     62.0188      0.0000
  2296.0000    625.8045      5.6249     64.3542      0.0000
  2296.2500    625.7021      5.5996     66.6013      0.0000
  2296.5000    612.1702      5.5837     69.6751      0.0000
  2296.7500    584.3679      5.5751     73.6445      0.0000
  2297.0000    558.1719      5.5731     77.1604      0.0000
  2297.2500    546.9177      5.5738     78.7929      0.0000
  2297.5000    547.6973      5.5842     78.5131      0.0000
  2297.7500    553.0610      5.6098     77.5053      0.0000
