~Version Information
 VERS.                                  2.0 : CWLS LAS VERSION
 WRAP.                                   NO : WRAPING MODE
 SWARE .                 MController 2.5.0N : SOFTWARE VERSION
~Well Information
 WELL.                    Corkscrew 33-12Tr : WELL
 COMP.    Pioneer Natural Resources USA Inc : COMPANY
 FLD.                      Purgatoire River : FIELD
 LOC.                   NW/SE Sec T33S R67W : LOCATION
 DATE.                      3/23-25,28/2005 : DATE(S) LOGGED
 SRVC.       Blanco Geological Services LLC : SERVICE COMPANY
 STAT.                                   CO : STATE
 CNTY.                           Las Animas : COUNTY
 CTRY.                                  USA : COUNTRY
 API.                       05-071-08295-00 : API NUMBER
 STRT.FT                             609.00 : START DEPTH
 STOP.FT                            1871.00 : STOP DEPTH
 STEP.FT                               1.00 : DEPTH INCREMENT
 NULL.                                -9999 : NULL VALUE
~Curve information
 DEPTH.FT                                   :
 ROP.MIN/FT                                 :
 GAS.UNITS                                  :
~ASCII Log data
# ...
       809.0         0.80          5.6 
       810.0         0.80          6.2 
       811.0         0.27          5.7 
       812.0         1.08          6.5 
       813.0         1.00          6.2 
       814.0         0.53          5.9 
       815.0         0.53          6.5 
       816.0         0.82          6.4 
       817.0         0.53          6.9 
       818.0         1.07          7.6 
       819.0         0.80          6.6 
       820.0         0.27          6.4 
       821.0         0.82          6.6 
       822.0         0.80          6.7 
       823.0         0.80          6.8 
       824.0         0.27          7.0 
       825.0         0.80          6.7 
       826.0         0.82          6.8 
       827.0         0.27          6.3 
       828.0         0.53          6.0 
       829.0         0.80          6.9 
       830.0         0.53          7.3 
       831.0         0.53          7.1 
       832.0         0.55          7.4 
       833.0         0.80          7.4 
       834.0         0.80          7.2 
       835.0         0.80          6.4 
       836.0         0.82          6.6 
       837.0         0.27          6.1 
       838.0         0.80          6.4 
       839.0         0.80          7.0 
       840.0         1.07          9.5 
       841.0         0.92          7.3 
       842.0         0.80          9.2 
       843.0         0.27          6.8 
       844.0         0.80          6.1 
       845.0         0.27          6.8 
       846.0         0.78          7.0 
       847.0         0.80          7.9 
       848.0         0.53          7.5 
       849.0         0.53          8.6 
       850.0         0.77          7.7 
       851.0         1.35          7.4 
       852.0         1.23          7.4 
       853.0         1.32          8.0 
       854.0         0.80          7.8 
       855.0         0.80          7.9 
       856.0         1.33          8.6 
       857.0         1.08         10.2 
       858.0         0.57          5.9 
       859.0         0.80          7.3 
       860.0         0.53          7.5 
       861.0         0.82          7.8 
       862.0         0.53          7.0 
       863.0         1.07          6.9 
       864.0         0.80          8.0 
       865.0         0.82          7.8 
       866.0         0.53          7.5 
       867.0         0.53          7.9 
       868.0         0.80          7.6 
       869.0         0.80          8.9 
       870.0         1.08         10.0 
       871.0         0.80          9.2 
       872.0         1.07          8.6 
       873.0         0.80          8.2 
       874.0         0.82          7.6 
       875.0         0.27          7.5 
       876.0         0.53          7.1 
       877.0         0.53          7.3 
       878.0         0.27          7.4 
       879.0         0.10          7.4 
       880.0         0.27          7.4 
       881.0         0.53          8.9 
       882.0         0.55         16.0 
       883.0         0.47         18.8 
       884.0         0.53         18.4 
       885.0         0.43         15.7 
       886.0         0.53         14.7 
       887.0         0.27         14.0 
       888.0         0.27         13.3 
       889.0         0.53         13.8 
       890.0         0.55         13.5 
       891.0         0.53         12.9 
       892.0         0.53         12.2 
       893.0         0.53         11.2 
       894.0         0.40         11.3 
       895.0         0.53         10.4 
       896.0         0.55         10.1 
       897.0         0.53         11.2 
       898.0         0.27         10.5 
       899.0         0.53         10.7 
       900.0         0.53         10.3 
       901.0         0.80         10.2 
       902.0         0.27         11.3 
       903.0         0.28         12.5 
       904.0         0.53         12.8 
       905.0         0.27         12.9 
       906.0         0.53         14.3 
       907.0         0.53         14.8 
       908.0         0.53         10.5 
       909.0         0.37         10.0 
       910.0         0.58         10.6 
       911.0         0.53          9.5 
       912.0         0.27          9.1 
       913.0         0.53          9.7 
       914.0         0.53         10.3 
       915.0         0.53         11.1 
       916.0         0.80         10.6 
       917.0         0.82         10.0 
       918.0         0.80          8.6 
       919.0         0.80          8.8 
       920.0         0.80         11.6 
       921.0         0.58          8.0 
       922.0         0.40          6.6 
       923.0         0.90          7.0 
       924.0         0.80          7.0 
       925.0         0.57          6.9 
       926.0         1.45          8.7 
       927.0         0.53         10.9 
       928.0         0.53         40.4 
       929.0         0.60         42.3 
       930.0         0.58         35.9 
       931.0         0.53         22.2 
       932.0         0.67         17.9 
       933.0         0.53         15.7 
       934.0         0.73         12.9 
       935.0         0.53         10.4 
       936.0         0.85          9.5 
       937.0         0.53          9.7 
       938.0         0.67          9.4 
       939.0         0.53          9.9 
       940.0         0.53          9.2 
       941.0         0.55          9.7 
       942.0         1.07          9.9 
       943.0         0.53          9.1 
       944.0         0.53          9.8 
       945.0         0.53         11.9 
       946.0         0.92          8.7 
       947.0         0.80          7.9 
       948.0         0.53          8.3 
       949.0         1.07          9.7 
       950.0         0.75          8.9 
       951.0         4.28         11.7 
       952.0         1.07          9.3 
       953.0         0.80          6.3 
       954.0         0.88          6.4 
       955.0         0.53          7.5 
       956.0         0.80          7.4 
       957.0         0.80          7.2 
       958.0         1.08          6.8 
       959.0         0.80          7.4 
       960.0         0.80          7.9 
       961.0         0.80          8.2 
       962.0         1.08          7.7 
       963.0         1.07          8.1 
       964.0         0.80         10.4 
       965.0         0.77          6.9 
       966.0         0.72          6.5 
       967.0         1.07          7.4 
       968.0         1.07          6.5 
       969.0         1.08          7.1 
       970.0         1.07          6.7 
       971.0         1.07          7.1 
       972.0         1.08          7.3 
       973.0         0.80          6.5 
       974.0         1.33          6.8 
       975.0         0.80          6.4 
       976.0         1.08          6.6 
       977.0         0.80          6.3 
       978.0         0.80          5.7 
       979.0         0.27          6.4 
       980.0         0.82          6.4 
       981.0         0.50          6.1 
       982.0         0.90          6.4 
       983.0         0.80          6.2 
       984.0         0.53          6.6 
       985.0         0.55          6.9 
       986.0         0.53          6.8 
       987.0         0.80          7.9 
       988.0         0.80          8.1 
       989.0         0.80          7.5 
       990.0         0.75          7.0 
       991.0         0.27          6.8 
       992.0         1.07         12.7 
       993.0         0.27          9.1 
       994.0         1.00          7.9 
       995.0         1.22          6.1 
       996.0         1.07          7.1 
       997.0         1.17          6.6 
       998.0         1.08          6.7 
       999.0         1.07          6.0 
      1000.0         1.07          6.6 
      1001.0         1.08          7.6 
      1002.0         0.53          6.9 
      1003.0         0.80          7.9 
      1004.0         0.27          8.1 
      1005.0         0.53          7.6 
      1006.0         0.55          7.1 
      1007.0         0.53          6.3 
      1008.0         0.80          5.8 
