~Version Information
VERS.                      2.0: CWLS Log ASCII Standard - VERSION 2.0
WRAP.                       NO: One line per depth step
~Well Information Block
STRT.FT                 0.0000: 
STOP.FT              2234.2500: 
STEP.FT                 0.2500: 
NULL.                -999.2500: 
COMP.          Pioner Natural Resources: COMPANY
WELL.          Casablanca 11-28 Tr: WELL
FLD.           Purgatoire River: FIELD
LOC.           422' FNL & 215' FWL--: LOCATION
PROV.                 Colorado: PROVINCE
CNTY.               Las Animas: COUNTRY
SRVC.                         : SERVICE COMPANY
DATE.          Fri Mar 11 13:02:46 2005: LOG DATE
UWI.           005 071 08314  : UNIQUE WELL ID
~Curve Information Block
DEPT.FT            0 000 00 00: Depth
CCL.                          : Casing Collar Locator
TT3.usec                      : CBL 3' Travel Time
AMP3.mV                       : CBL 3' Amplitude
AMP5.mV                       : CBL 5' Amplitude
GR.GAPI                       : Gamma Ray
~Parameter Information Block
~A  Depth       CCL         TT3         AMP3        AMP5         GR     
# ...
  2072.0000      0.0000    694.0120      4.6865     -1.0057     48.2358
  2072.2500      0.0000    672.7677      4.7309     -0.8316     56.0885
  2072.5000      0.0000    650.0521      4.7528     -0.6575     67.0622
  2072.7500      0.0000    629.3679      4.7455     -1.4409     79.0531
  2073.0000      0.0000    610.6354      4.7246     -1.5280     90.0105
  2073.2500      0.0000    590.3418      4.7200     -0.8316     99.2430
  2073.5000      0.0000    564.9137      4.7467     -1.8762    107.1829
  2073.7500      0.0000    535.3712      4.7906     -1.1798    114.1967
  2074.0000      0.0000    509.2234      4.8273     -1.3539    120.0912
  2074.2500      0.0000    496.8602      4.8453     -1.7891    124.4813
  2074.5000      0.0000    505.0352      4.8497     -1.0927    126.8691
  2074.7500      0.0000    532.9098      4.8525     -1.4409    126.2975
  2075.0000      0.0000    573.0291      4.8651     -1.7021    121.6651
  2075.2500      0.0000    615.3275      4.8924     -1.2668    112.8972
  2075.5000      0.0000    651.3015      4.9294     -0.9187    101.6546
  2075.7500      0.0000    676.5578      4.9669      0.0389     90.5343
  2076.0000      0.0000    691.0818      4.9995     -0.6575     81.5236
  2076.2500      0.0000    697.5446      5.0225     -1.6150     75.4242
  2076.5000      0.0000    698.9056      5.0232     -1.7891     72.6506
  2076.7500      0.0000    696.9216      4.9888     -1.7021     74.0190
  2077.0000      0.0000    692.3344      4.9234     -1.2668     80.3891
  2077.2500      0.0000    686.2098      4.8462     -1.3539     91.7489
  2077.5000      0.0000    680.8889      4.7698     -1.2668    106.9208
  2077.7500      0.0000    679.1793      4.6919     -1.0057    123.9163
  2078.0000      0.0000    682.2940      4.6101     -0.6575    140.2804
  2078.2500      0.0000    688.7351      4.5335     -1.4409    153.4665
  2078.5000      0.0000    695.5040      4.4739     -1.0057    161.6884
  2078.7500      0.0000    700.3309      4.4304     -1.4409    164.7993
  2079.0000      0.0000    702.7219      4.3897     -1.6150    164.1621
  2079.2500      0.0000    703.3772      4.3402     -1.2668    161.5262
  2079.5000      0.0000    703.1879      4.2821     -1.4409    158.0291
  2079.7500      0.0000    702.7475      4.2252     -1.4409    153.9562
  2080.0000      0.0000    702.3325      4.1805     -1.7891    149.0338
  2080.2500      0.0000    702.0198      4.1547     -1.4409    142.9049
  2080.5000      0.0000    701.7891      4.1459     -1.4409    135.6131
  2080.7500      0.0000    701.5761      4.1447     -1.5280    127.9274
  2081.0000      0.0000    701.2411      4.1443     -1.1798    121.3693
  2081.2500      0.0000    700.3245      4.1491     -1.5280    117.8875
  2081.5000      0.0000    697.5994      4.1699     -1.1798    119.1174
  2081.7500      0.0000    690.7304      4.2093     -1.0927    125.2729
  2082.0000      0.0000    677.1489      4.2574     -1.1798    134.3262
  2082.2500      0.0000    656.8559      4.3031     -1.2668    142.6213
  2082.5000      0.0000    634.8011      4.3450     -0.9187    147.0108
  2082.7500      0.0000    618.3748      4.3897     -1.2668    146.7333
  2083.0000      0.0000    610.7088      4.4416     -1.6150    143.1142
  2083.2500      0.0000    607.7888      4.4983     -1.7891    137.6627
  2083.5000      0.0000    603.6746      4.5535     -1.0927    130.9378
  2083.7500      0.0000    596.8599      4.6014     -0.6575    123.2200
  2084.0000      0.0000    590.0483      4.6398     -1.0927    115.6126
  2084.2500      0.0000    585.4127      4.6719     -1.4409    109.8731
  2084.5000      0.0000    582.2474      4.7040     -1.3539    107.1383
  2084.7500      0.0000    579.1346      4.7391     -1.8762    107.1115
  2085.0000      0.0000    576.9407      4.7748     -2.0503    108.4030
  2085.2500      0.0000    578.3112      4.8105     -1.6150    109.2693
  2085.5000      0.0000    583.9141      4.8522     -1.3539    108.3604
  2085.7500      0.0000    590.0200      4.9023     -1.2668    105.5590
  2086.0000      0.0000    590.9476      4.9467     -1.7021    102.1566
  2086.2500      0.0000    584.3402      4.9644     -1.1798     99.8745
  2086.5000      0.0000    574.4537      4.9486     -1.3539     99.8210
  2086.7500      0.0000    570.1911      4.9128     -1.3539    102.4932
  2087.0000      0.0000    578.7571      4.8748     -1.4409    108.3269
  2087.2500      0.0000    600.2813      4.8423     -1.0057    117.6378
  2087.5000      0.0000    628.2813      4.8122     -1.4409    129.6441
  2087.7500      0.0000    654.5076      4.7797     -1.1798    141.6465
  2088.0000      0.0000    672.9414      4.7447     -1.0057    150.0281
  2088.2500      0.0000    680.6472      4.7144     -0.4834    152.7815
  2088.5000      0.0000    677.3978      4.6994     -1.2668    150.8262
  2088.7500      0.0000    665.9002      4.7037     -1.0927    146.6749
  2089.0000      0.0000    651.6898      4.7187     -1.4409    142.3960
  2089.2500      0.0000    640.8107      4.7297     -0.9187    139.0644
  2089.5000      0.0000    636.3134      4.7261     -1.6150    137.3498
  2089.7500      0.0000    637.0700      4.7057     -1.1798    137.8058
  2090.0000      0.0000    640.1836      4.6724     -1.3539    140.4716
  2090.2500      0.0000    643.8584      4.6341     -1.0057    144.6484
  2090.5000      0.0000    647.7079      4.5994     -1.1798    149.4205
  2090.7500      0.0000    651.4319      4.5739     -1.3539    154.3218
  2091.0000      0.0000    654.3746      4.5563     -0.9187    159.1304
  2091.2500      0.0000    656.1514      4.5436     -1.2668    163.0540
  2091.5000      0.0000    656.9762      4.5365     -1.0057    164.9110
  2091.7500      0.0000    657.3354      4.5371     -1.1798    164.5623
  2092.0000      0.0000    657.6330      4.5406     -1.0057    163.4259
  2092.2500      0.0000    658.1992      4.5371     -1.3539    162.7640
  2092.5000      0.0000    659.5357      4.5247     -1.5280    162.0294
  2092.7500      0.0000    662.4579      4.5152     -1.3539    159.8186
  2093.0000      0.0000    667.6968      4.5247     -1.6150    155.9725
  2093.2500      0.0000    674.9063      4.5592     -1.2668    151.7326
  2093.5000      0.0000    681.8900      4.6098     -1.3539    148.2108
  2093.7500      0.0000    685.2169      4.6599     -1.0057    145.5363
  2094.0000      0.0000    682.3864      4.6948     -0.7446    143.1160
  2094.2500      0.0000    674.1588      4.7060     -1.3539    140.2171
  2094.5000      0.0000    664.9200      4.6949     -0.9187    136.8320
  2094.7500      0.0000    659.9191      4.6722     -0.8316    134.6193
  2095.0000      0.0000    661.1335      4.6515     -1.1798    136.4843
  2095.2500      0.0000    665.7860      4.6413     -1.0927    144.3417
  2095.5000      0.0000    669.3635      4.6419     -1.0057    156.9480
  2095.7500      0.0000    669.9999      4.6489     -1.0057    169.9458
  2096.0000      0.0000    669.6309      4.6590     -0.8316    178.1522
  2096.2500      0.0000    671.2973      4.6725     -1.0927    178.2900
  2096.5000      0.0000    675.8555      4.6889     -1.0927    170.4889
  2096.7500      0.0000    681.0745      4.7001     -0.9187    157.9479
  2097.0000      0.0000    683.4437      4.6951     -1.7021    144.9234
  2097.2500      0.0000    680.8636      4.6717     -1.3539    134.3264
  2097.5000      0.0000    673.8106      4.6392     -1.4409    126.8525
  2097.7500      0.0000    664.3336      4.6089     -1.1798    121.9430
  2098.0000      0.0000    654.6534      4.5857     -1.4409    118.9835
  2098.2500      0.0000    646.8880      4.5702     -1.3539    117.7106
  2098.5000      0.0000    642.9632      4.5661     -1.4409    118.1821
  2098.7500      0.0000    643.4712      4.5815     -0.8316    120.4683
  2099.0000      0.0000    646.7716      4.6205     -1.0057    123.9669
  2099.2500      0.0000    650.0772      4.6734     -1.0057    127.1303
  2099.5000      0.0000    651.8184      4.7210     -1.0927    128.3082
  2099.7500      0.0000    653.1456      4.7499     -1.2668    126.9800
