~Version Information
VERS.                      2.0: CWLS Log ASCII Standard - VERSION 2.0
WRAP.                       NO: One line per depth step
~Well Information Block
STRT.FT                -8.5000: 
STOP.FT              2286.0000: 
STEP.FT                 0.2500: 
NULL.                -999.2500: 
COMP.          Pioneer Natural Resources: COMPANY
WELL.             Culver 14-12: WELL
FLD.           Purgatorie River: FIELD
LOC.           913' FSL & 1140' FWL--: LOCATION
PROV.                       CO: PROVINCE
CNTY.               Las Animas: COUNTRY
SRVC.          Patterson Wireline: SERVICE COMPANY
DATE.          Wed Jun 15 13:05:36 2005: LOG DATE
UWI.           05 071 08386 00: UNIQUE WELL ID
~Curve Information Block
DEPT.FT            0 000 00 00: Depth
CCL.                          : Casing Collar Locator
TT3.usec                      : CBL 3' Travel Time
AMP3.mV                       : CBL 3' Amplitude
GR.GAPI                       : Gamma Ray
~Parameter Information Block
~A  Depth       CCL         TT3         AMP3         GR     
# ...
  1063.5000      0.0000    635.8274      3.4864    127.1469
  1063.7500      0.0000    619.6603      3.3891    127.4417
  1064.0000      0.0000    624.1722      3.1805    129.4670
  1064.2500      0.0000    648.4637      2.9701    132.3443
  1064.5000      0.0000    681.8173      2.8807    134.2873
  1064.7500      0.0000    709.3885      2.9428    133.6643
  1065.0000      0.0000    720.9438      3.0689    130.1117
  1065.2500      0.0000    716.2201      3.1340    124.7504
  1065.5000      0.0000    703.2469      3.0811    119.5432
  1065.7500      0.0000    691.8777      2.9587    116.2900
  1066.0000      0.0000    687.9167      2.8708    115.6203
  1066.2500      0.0000    691.4063      2.8948    116.4232
  1066.5000      0.0000    698.5524      3.0363    116.2039
  1066.7500      0.0000    704.3790      3.2482    112.4710
  1067.0000      0.0000    704.1708      3.4724    104.4611
  1067.2500      0.0000    695.7861      3.6646     93.9115
  1067.5000      0.0000    684.1827      3.8013     84.1345
  1067.7500     -2.0000    681.4841      3.8806     78.1177
  1068.0000      0.0000    697.0753      3.9232     77.1992
  1068.2500      0.0000    727.3989      3.9712     80.9233
  1068.5000      0.0000    759.1235      4.0712     87.5437
  1068.7500      0.0000    781.7108      4.2287     94.8370
  1069.0000      0.0000    793.5560      4.3776    101.1970
  1069.2500      0.0000    797.8088      4.4176    106.3656
  1069.5000      0.0000    796.8090      4.2962    111.0260
  1069.7500      0.0000    791.0472      4.0399    115.7508
  1070.0000      0.0000    781.1176      3.7197    120.4423
  1070.2500      0.0000    769.9224      3.4097    124.4882
  1070.5000      0.0000    763.1360      3.1640    126.9607
  1070.7500      0.0000    766.6036      2.9995    126.7500
  1071.0000      0.0000    781.9403      2.9053    123.1121
  1071.2500      0.0000    804.5228      2.8749    116.4239
  1071.5000      0.0000    826.5378      2.9052    108.4100
  1071.7500      0.0000    842.3677      2.9693    101.6346
  1072.0000      0.0000    851.1204      3.0333     98.3849
  1072.2500      0.0000    854.8895      3.0958     99.3443
  1072.5000      0.0000    855.9133      3.1725    103.2621
  1072.7500      0.0000    855.3680      3.2467    108.1940
  1073.0000      0.0000    853.4908      3.2830    112.8709
  1073.2500      0.0000    849.6388      3.2888    116.7374
  1073.5000      0.0000    842.3254      3.3232    119.2859
  1073.7500      0.0000    830.4907      3.4316    120.0568
  1074.0000      0.0000    815.7304      3.5987    119.0453
  1074.2500      0.0000    802.2490      3.7788    116.4839
  1074.5000      0.0000    792.6360      3.9498    112.4562
  1074.7500      0.0000    784.3558      4.1219    107.3388
  1075.0000      0.0000    773.3262      4.2975    102.1824
  1075.2500      0.0000    761.0626      4.4427     97.9440
  1075.5000      0.0000    754.9965      4.5074     94.7723
  1075.7500      0.0000    760.3209      4.4691     92.5090
  1076.0000      0.0000    773.5683      4.3528     91.1850
  1076.2500      0.0000    785.5717      4.2064     90.6766
  1076.5000      0.0000    789.7707      4.0581     90.6663
  1076.7500      0.0000    786.7744      3.8975     91.2981
  1077.0000      0.0000    781.9818      3.6969     93.1355
  1077.2500      0.0000    780.5314      3.4482     96.1093
  1077.5000      0.0000    784.3411      3.1842     99.0231
  1077.7500      0.0000    791.8143      2.9748    100.5250
  1078.0000      0.0000    799.2175      2.8963    100.3604
  1078.2500      0.0000    803.3392      2.9761     99.4991
  1078.5000      0.0000    803.8502      3.1537     99.3912
  1078.7500      0.0000    802.0905      3.3125    101.3397
  1079.0000      0.0000    796.6066      3.3701    106.1527
  1079.2500      0.0000    781.6281      3.3393    113.8675
  1079.5000      0.0000    752.2498      3.2908    123.6549
  1079.7500      0.0000    711.4093      3.2559    133.8394
  1080.0000      0.0000    671.3043      3.1847    141.9670
  1080.2500      0.0000    646.8867      3.0228    145.4427
  1080.5000      0.0000    644.7692      2.8156    142.9039
  1080.7500      0.0000    656.1567      2.7013    135.4170
  1081.0000      0.0000    662.5840      2.7838    126.1792
  1081.2500      0.0000    651.3097      3.0255    118.5463
  1081.5000      0.0000    625.3282      3.2751    113.8564
  1081.7500      0.0000    598.3478      3.3968    110.9088
  1082.0000      0.0000    581.5183      3.3708    107.4946
  1082.2500      0.0000    575.5508      3.2792    102.5444
  1082.5000      0.0000    574.0890      3.2089     97.0376
  1082.7500      0.0000    572.7894      3.1741     93.2417
  1083.0000      0.0000    574.3680      3.1320     93.3371
  1083.2500      0.0000    585.1582      3.0603     98.2653
  1083.5000      0.0000    607.7780      2.9954    106.9115
  1083.7500      0.0000    637.5190      2.9948    116.2127
  1084.0000      0.0000    665.1779      3.0799    122.8978
  1084.2500      0.0000    683.1049      3.2241    125.7208
  1084.5000      0.0000    689.6199      3.3798    125.8530
  1084.7500      0.0000    688.8915      3.5018    125.2584
  1085.0000      0.0000    686.9761      3.5546    125.2070
  1085.2500      0.0000    688.4789      3.5151    126.1315
  1085.5000      0.0000    697.1101      3.3833    127.9748
  1085.7500      0.0000    716.3743      3.1928    130.2572
  1086.0000      0.0000    746.0922      3.0079    132.3281
  1086.2500      0.0000    778.8971      2.8990    133.9388
  1086.5000      0.0000    802.4868      2.9035    135.2121
  1086.7500      0.0000    805.7548      3.0010    135.8959
  1087.0000      0.0000    784.4872      3.1283    135.4251
  1087.2500      0.0000    745.3003      3.2148    134.1297
  1087.5000      0.0000    704.8142      3.2066    133.5369
  1087.7500      0.0000    680.3090      3.0784    134.8197
  1088.0000      0.0000    677.7387      2.8517    137.6850
  1088.2500      0.0000    689.5380      2.6022    141.2624
  1088.5000      0.0000    703.9167      2.4226    144.9933
  1088.7500      0.0000    714.1245      2.3656    148.1598
  1089.0000      0.0000    719.7822      2.4256    149.7676
  1089.2500      0.0000    723.4830      2.5616    149.4831
  1089.5000      0.0000    728.4361      2.7123    147.6430
  1089.7500      0.0000    738.0020      2.8052    143.9941
  1090.0000      0.0000    754.8201      2.7938    137.5637
  1090.2500      0.0000    778.6993      2.7051    128.3076
  1090.5000      0.0000    805.4340      2.6336    118.1088
  1090.7500      0.0000    828.9130      2.6678    109.7026
  1091.0000      0.0000    845.0961      2.8131    105.0000
  1091.2500      0.0000    853.8898      2.9785    104.4341
  1091.5000      0.0000    857.7075      3.0399    107.2183
  1091.7500      0.0000    859.1082      2.9320    111.8569
  1092.0000      0.0000    859.6631      2.7026    116.7306
  1092.2500      0.0000    860.0052      2.4878    120.6407
  1092.5000      0.0000    860.2188      2.4152    123.1758
  1092.7500      0.0000    860.0861      2.5131    125.0338
  1093.0000      0.0000    859.0033      2.7011    127.8244
  1093.2500      0.0000    855.4797      2.8532    132.6538
  1093.5000      0.0000    846.8610      2.8734    138.7070
  1093.7500      0.0000    830.5092      2.7460    143.8985
  1094.0000      0.0000    806.6076      2.5480    146.7965
  1094.2500      0.0000    780.0904      2.4094    147.1623
  1094.5000      0.0000    758.9876      2.4329    145.1465
  1094.7500      0.0000    749.9482      2.6230    141.1116
  1095.0000      0.0000    754.0869      2.8838    135.8128
  1095.2500      0.0000    764.8186      3.0863    129.9084
  1095.5000      0.0000    768.8942      3.1549    123.7005
  1095.7500      0.0000    752.7382      3.1141    117.6733
  1096.0000      0.0000    712.0305      3.0677    112.7142
  1096.2500      0.0000    656.0172      3.1174    109.6020
  1096.5000      0.0000    601.0857      3.2834    108.5540
  1096.7500      0.0000    559.7916      3.4900    109.3071
