~Version Information
VERS.                      2.0: CWLS Log ASCII Standard - VERSION 2.0
WRAP.                       NO: One line per depth step
~Well Information Block
STRT.FT               440.0000: 
STOP.FT              1003.5000: 
STEP.FT                 0.2500: 
NULL.                -999.2500: 
COMP.          Pioneer Natural Resources: COMPANY
WELL.              Dylan 42-25: WELL
FLD.           Purgatoire River: FIELD
LOC.           2160' FNL & 855' FEL: LOCATION
PROV.                 Colorado: PROVINCE
CNTY.               Las Animas: COUNTRY
SRVC.                Patterson: SERVICE COMPANY
DATE.          Sat Apr 23 11:21:51 2005: LOG DATE
UWI.           05 071 08229 00: UNIQUE WELL ID
~Curve Information Block
DEPT.FT            0 000 00 00: Depth
SN.Ohm-m                      : IEL Short Normal
SP.mV                         : IEL Spontaneous Potential
DIR.Ohm-m                     : IEL Induction Resistivity
GR.GAPI                       : Gamma Ray
~Parameter Information Block
~A  Depth        SN          SP         DIR          GR     
# ...
   540.5000     60.8429    -48.2322     41.3855     52.4543
   540.7500     58.4114    -49.0006     38.6078     62.0653
   541.0000     55.4861    -49.9794     35.6590     71.1386
   541.2500     52.2971    -51.1945     32.6909     78.2103
   541.5000     48.9370    -52.6187     29.8228     89.2567
   541.7500     45.3788    -54.1586     27.1519    104.7370
   542.0000     41.5984    -55.6757     24.7496    115.5962
   542.2500     37.6635    -57.0350     22.6514    122.6212
   542.5000     33.6965    -58.1502     20.8527    133.3891
   542.7500     29.7775    -58.9995     19.3198    140.5863
   543.0000     25.9356    -59.6111     18.0080    149.9875
   543.2500     22.2555    -60.0343     16.8790    154.3394
   543.5000     18.9507    -60.3094     15.9061    157.6395
   543.7500     16.2948    -60.4514     15.0694    158.3655
   544.0000     14.4861    -60.4592     14.3497    158.4715
   544.2500     13.5592    -60.3453     13.7272    158.1663
   544.5000     13.3994    -60.1566     13.1863    157.5576
   544.7500     13.7886    -59.9604     12.7209    157.5760
   545.0000     14.4138    -59.8058     12.3330    158.9882
   545.2500     14.9411    -59.6971     12.0265    160.7050
   545.5000     15.1752    -59.5974     11.7987    163.2633
   545.7500     15.1224    -59.4558     11.6372    164.1932
   546.0000     14.9001    -59.2382     11.5218    163.6887
   546.2500     14.6418    -58.9448     11.4322    162.0394
   546.5000     14.4644    -58.6094     11.3565    157.9228
   546.7500     14.4315    -58.2819     11.2956    154.4648
   547.0000     14.5251    -58.0051     11.2614    149.2721
   547.2500     14.6969    -57.7990     11.2710    146.6499
   547.5000     14.9258    -57.6593     11.3415    145.3575
   547.7500     15.2057    -57.5678     11.4862    146.6555
   548.0000     15.5001    -57.5027     11.7141    151.3584
   548.2500     15.7251    -57.4460     12.0296    155.4968
   548.5000     15.7977    -57.3894     12.4327    161.5220
   548.7500     15.7289    -57.3359     12.9197    164.4885
   549.0000     15.6585    -57.2928     13.4847    165.8014
   549.2500     15.7970    -57.2561     14.1223    163.7872
   549.5000     16.3549    -57.2006     14.8312    155.9953
   549.7500     17.5033    -57.0850     15.6192    148.2080
   550.0000     19.3130    -56.8681     16.5065    134.6567
   550.2500     21.7000    -56.5226     17.5247    125.5521
   550.5000     24.4808    -56.0385     18.7123    112.9790
   550.7500     27.5204    -55.4215     20.1065    105.4951
   551.0000     30.7960    -54.6893     21.7346     95.4614
   551.2500     34.3078    -53.8676     23.6136     89.3885
   551.5000     37.9915    -52.9877     25.7618     80.8095
   551.7500     41.7524    -52.0846     28.2153     75.2185
   552.0000     45.5149    -51.1917     31.0268     66.9887
   552.2500     49.1913    -50.3316     34.2258     61.8754
   552.5000     52.6481    -49.5084     37.7477     55.4280
   552.7500     55.7209    -48.7083     41.3775     52.2456
   553.0000     58.2479    -47.9112     44.7634     49.2841
   553.2500     60.1068    -47.1062     47.5070     48.3125
   553.5000     61.2404    -46.3034     49.2607     47.6456
   553.7500     61.6590    -45.5361     49.7880     47.3580
   554.0000     61.4265    -44.8555     48.9994     46.9850
   554.2500     60.6332    -44.3171     46.9717     46.9095
   554.5000     59.3589    -43.9648     43.9539     47.5095
   554.7500     57.6478    -43.8187     40.3570     48.7400
   555.0000     55.5103    -43.8762     36.6888     52.5014
   555.2500     52.9462    -44.1221     33.4034     56.6358
   555.5000     49.9573    -44.5372     30.7622     65.7544
   555.7500     46.5498    -45.0970     28.8084     73.9636
   556.0000     42.7696    -45.7607     27.4374     89.3357
   556.2500     38.7792    -46.4572     26.4946    100.9396
   556.5000     34.9275    -47.0726     25.8391    117.7957
   556.7500     31.6775    -47.4474     25.3567    126.6738
   557.0000     29.3684    -47.4016     24.9405    133.6902
   557.2500     28.0410    -46.7999     24.4760    133.4781
   557.5000     27.4991    -45.6506     23.8565    126.0329
   557.7500     27.4827    -44.1696     23.0160    117.0147
   558.0000     27.7931    -42.7229     21.9533     99.7654
   558.2500     28.3400    -41.6412     20.7341     87.8582
   558.5000     29.1129    -41.0442     19.4714     73.2047
   558.7500     30.0362    -40.8215     18.2943     67.2887
   559.0000     30.7328    -40.7618     17.3128     65.7068
   559.2500     30.5145    -40.6929     16.5952     69.6103
   559.5000     28.9139    -40.5358     16.1572     81.7998
   559.7500     26.2421    -40.2869     15.9635     92.6802
   560.0000     23.3871    -39.9796     15.9380    109.3912
   560.2500     21.1159    -39.6541     15.9851    118.5341
   560.5000     19.6970    -39.3399     16.0178    127.0708
   560.7500     18.9993    -39.0482     15.9798    129.4826
   561.0000     18.7429    -38.7783     15.8476    129.7026
   561.2500     18.7068    -38.5276     15.6187    128.1040
   561.5000     18.8071    -38.2961     15.3006    122.9793
   561.7500     19.0313    -38.0796     14.9135    117.8501
   562.0000     19.3162    -37.8626     14.4974    109.0080
   562.2500     19.4973    -37.6214     14.1113    103.6159
   562.5000     19.4012    -37.3342     13.8148     98.3057
   562.7500     19.0019    -36.9897     13.6455     97.4863
   563.0000     18.4565    -36.5892     13.6026    100.8714
   563.2500     17.9732    -36.1459     13.6484    105.5971
   563.5000     17.6765    -35.6818     13.7224    113.7608
   563.7500     17.5586    -35.2193     13.7613    118.2172
   564.0000     17.4881    -34.7707     13.7155    122.0660
   564.2500     17.3223    -34.3323     13.5587    123.1375
   564.5000     17.0319    -33.8893     13.2912    124.0589
   564.7500     16.6713    -33.4278     12.9374    124.8974
   565.0000     16.2705    -32.9441     12.5371    127.0045
   565.2500     15.8179    -32.4443     12.1357    129.1281
   565.5000     15.3179    -31.9377     11.7746    133.4629
   565.7500     14.8189    -31.4313     11.4841    136.7868
   566.0000     14.3794    -30.9298     11.2780    141.1628
   566.2500     14.0263    -30.4394     11.1508    142.9964
   566.5000     13.7606    -29.9705     11.0821    143.9371
   566.7500     13.5855    -29.5368     11.0463    143.7497
   567.0000     13.5069    -29.1493     11.0245    142.9887
   567.2500     13.5134    -28.8104     11.0124    142.3412
   567.5000     13.5886    -28.5109     11.0218    141.1901
   567.7500     13.7430    -28.2328     11.0722    140.4738
   568.0000     13.9956    -27.9591     11.1819    140.2796
   568.2500     14.3124    -27.6840     11.3598    141.1973
   568.5000     14.5856    -27.4181     11.6045    143.9680
   568.7500     14.7168    -27.1833     11.9076    145.9450
   569.0000     14.7394    -27.0024     12.2566    147.3367
   569.2500     14.8164    -26.8893     12.6344    146.5463
   569.5000     15.1068    -26.8426     13.0195    142.5818
   569.7500     15.6653    -26.8462     13.3906    138.3088
   570.0000     16.4338    -26.8783     13.7385    130.1693
   570.2500     17.2734    -26.9267     14.0770    124.3437
   570.5000     18.0179    -26.9977     14.4403    116.8027
   570.7500     18.5597    -27.1107     14.8684    113.3700
   571.0000     18.9200    -27.2871     15.3885    110.3549
   571.2500     19.2383    -27.5381     16.0063    108.7203
   571.5000     19.6901    -27.8560     16.7094    104.9437
   571.7500     20.4104    -28.2114     17.4761    101.0108
   572.0000     21.4594    -28.5629     18.2812     92.9253
   572.2500     22.7996    -28.8782     19.0938     86.3311
   572.5000     24.3020    -29.1542     19.8717     75.8485
   572.7500     25.8319    -29.4205     20.5594     69.6645
   573.0000     27.3646    -29.7296     21.0957     63.5623
   573.2500     28.9606    -30.1420     21.4301     62.0899
   573.5000     30.5712    -30.7124     21.5364     63.3052
   573.7500     31.9044    -31.4767     21.4126     65.8704
