~Version Information
VERS.                      2.0: CWLS Log ASCII Standard - VERSION 2.0
WRAP.                       NO: One line per depth step
~Well Information Block
STRT.FT               -12.5000: 
STOP.FT              2284.7500: 
STEP.FT                 0.2500: 
NULL.                -999.2500: 
COMP.          Pioneer Natural Resources: COMPANY
WELL.          Hill Climb 22-2: WELL
FLD.           Purgatorie River: FIELD
LOC.           1820' FNL & 2193' FWL--: LOCATION
PROV.                       CO: PROVINCE
CNTY.               Las Animas: COUNTRY
SRVC.                         : SERVICE COMPANY
DATE.          Fri Oct 22 11:44:16 2004: LOG DATE
UWI.                          : UNIQUE WELL ID
~Curve Information Block
DEPT.FT            0 000 00 00: Depth
GR.GAPI                       : Gamma Ray
CCL.                          : Casing Collar Locator
TT3.usec                      : CBL 3' Travel Time
AMP3.mV                       : CBL 3' Amplitude
~Parameter Information Block
~A  Depth        GR         CCL         TT3         AMP3    
# ...
   758.0000    143.2458      0.0000    264.5294     66.7662
   758.2500    141.1295      0.0000    264.9999     67.6208
   758.5000    142.1594      0.0000    265.2180     68.5470
   758.7500    145.7415     -2.0000    265.3089     68.9894
   759.0000    150.1293     -2.0000    265.3691     68.6436
   759.2500    152.9787      0.0000    265.4482     67.2559
   759.5000    153.0154      0.0000    265.5222     64.8324
   759.7500    150.9718      0.0000    265.4605     62.1907
   760.0000    148.5125      0.0000    265.0578     61.0242
   760.2500    146.6752      0.0000    264.1710     62.8618
   760.5000    145.3457      0.0000    262.8674     67.6452
   760.7500    143.4470      0.0000    261.4275     73.5396
   761.0000    139.5802      0.0000    260.1783     78.3704
   761.2500    133.1624      0.0000    259.3102     81.1502
   761.5000    125.1561      0.0000    258.8233     82.2505
   761.7500    117.4536      0.0000    258.6013     82.5305
   762.0000    111.4509      0.0000    258.5162     82.5941
   762.2500    107.2689      0.0000    258.4844     82.6670
   762.5000    104.4110      0.0000    258.4683     82.7864
   762.7500    103.0170      0.0000    258.4540     82.9416
   763.0000    104.0122      0.0000    258.4351     83.1062
   763.2500    107.7078      0.0000    258.4108     83.2455
   763.5000    112.5938      0.0000    258.3878     83.3290
   763.7500    116.1079      0.0000    258.3762     83.3339
   764.0000    116.6957      0.0000    258.3815     83.2476
   764.2500    114.9160      0.0000    258.4027     83.0858
   764.5000    112.8353      0.0000    258.4346     82.9050
   764.7500    112.8680      0.0000    258.4687     82.7831
   765.0000    116.8055      0.0000    258.4929     82.7757
   765.2500    124.6946      0.0000    258.4978     82.8807
   765.5000    134.1273      0.0000    258.4848     83.0374
   765.7500    141.4675      0.0000    258.4651     83.1706
   766.0000    144.5775      0.0000    258.4509     83.2404
   766.2500    144.2682      0.0000    258.4488     83.2458
   766.5000    143.0852      0.0000    258.4581     83.1877
   766.7500    143.0374      0.0000    258.4724     83.0528
   767.0000    144.4272      0.0000    258.4843     82.8470
   767.2500    146.3236      0.0000    258.4905     82.6255
   767.5000    147.6174      0.0000    258.4934     82.4704
   767.7500    147.3157      0.0000    258.4982     82.4330
   768.0000    144.1448      0.0000    258.5099     82.4977
   768.2500    136.7677      0.0000    258.5290     82.5989
   768.5000    125.0110      0.0000    258.5507     82.6745
   768.7500    110.7933      0.0000    258.5666     82.7092
   769.0000     97.5703      0.0000    258.5698     82.7286
   769.2500     88.5976      0.0000    258.5588     82.7567
   769.5000     85.1238      0.0000    258.5378     82.7915
   769.7500     85.8511      0.0000    258.5142     82.8244
   770.0000     88.4647      0.0000    258.4940     82.8618
   770.2500     91.9561      0.0000    258.4789     82.9206
   770.5000     97.1209      0.0000    258.4689     83.0081
   770.7500    104.6380      0.0000    258.4662     83.1061
   771.0000    113.2807      0.0000    258.4755     83.1728
   771.2500    120.5996      0.0000    258.4975     83.1710
   771.5000    125.1524      0.0000    258.5242     83.1046
   771.7500    127.7242      0.0000    258.5431     83.0168
   772.0000    130.4266      0.0000    258.5449     82.9498
   772.2500    134.7621      0.0000    258.5307     82.9160
   772.5000    140.5227      0.0000    258.5112     82.9035
   772.7500    146.4851      0.0000    258.4974     82.8933
   773.0000    151.9560      0.0000    258.4918     82.8741
   773.2500    157.2098      0.0000    258.4887     82.8551
   773.5000    162.3783      0.0000    258.4829     82.8602
   773.7500    166.7214      0.0000    258.4748     82.8956
   774.0000    169.6922      0.0000    258.4697     82.9288
   774.2500    172.1664      0.0000    258.4748     82.9172
   774.5000    175.6849      0.0000    258.4925     82.8537
   774.7500    180.5663      0.0000    258.5168     82.7697
   775.0000    185.2846      0.0000    258.5356     82.7005
   775.2500    187.5173      0.0000    258.5411     82.6617
   775.5000    185.5734      0.0000    258.5369     82.6492
   775.7500    179.4377      0.0000    258.5338     82.6448
   776.0000    171.0721      0.0000    258.5381     82.6307
   776.2500    163.5667      0.0000    258.5460     82.6086
   776.5000    159.5298      0.0000    258.5482     82.5963
   776.7500    159.9289      0.0000    258.5397     82.6043
   777.0000    164.0981      0.0000    258.5229     82.6295
   777.2500    170.4623      0.0000    258.5023     82.6716
   777.5000    176.8788      0.0000    258.4786     82.7341
   777.7500    180.5010      0.0000    258.4520     82.8054
   778.0000    178.6633      0.0000    258.4296     82.8524
   778.2500    171.3113      0.0000    258.4228     82.8437
   778.5000    162.0880      0.0000    258.4353     82.7834
   778.7500    155.3511      0.0000    258.4578     82.7198
   779.0000    152.0815      0.0000    258.4768     82.7131
   779.2500    150.0857      0.0000    258.4845     82.7886
   779.5000    147.9076      0.0000    258.4799     82.9185
   779.7500    146.6615      0.0000    258.4673     83.0444
   780.0000    147.6438      0.0000    258.4546     83.1152
   780.2500    149.8216      0.0000    258.4492     83.1132
   780.5000    150.6933      0.0000    258.4530     83.0590
   780.7500    148.7434      0.0000    258.4613     82.9964
   781.0000    144.2607      0.0000    258.4668     82.9662
   781.2500    138.4419      0.0000    258.4626     82.9863
   781.5000    132.5198      0.0000    258.4465     83.0531
   781.7500    127.5040      0.0000    258.4242     83.1499
   782.0000    124.0474      0.0000    258.4061     83.2475
   782.2500    122.3435      0.0000    258.4008     83.3061
   782.5000    122.2657      0.0000    258.4119     83.3000
   782.7500    123.7967      0.0000    258.4367     83.2436
   783.0000    127.3943      0.0000    258.4689     83.1772
   783.2500    133.5294      0.0000    258.5005     83.1273
   783.5000    141.4711      0.0000    258.5245     83.0938
   783.7500    148.8678      0.0000    258.5362     83.0673
   784.0000    153.0759      0.0000    258.5335     83.0415
   784.2500    152.9526      0.0000    258.5190     83.0170
   784.5000    149.2811      0.0000    258.4991     83.0059
   784.7500    143.8305      0.0000    258.4807     83.0264
   785.0000    138.3488      0.0000    258.4668     83.0821
   785.2500    134.1983      0.0000    258.4573     83.1540
   785.5000    132.2310      0.0000    258.4531     83.2119
   785.7500    132.4635      0.0000    258.4568     83.2300
   786.0000    133.8448      0.0000    258.4709     83.1969
   786.2500    134.7320      0.0000    258.4940     83.1210
   786.5000    133.9963      0.0000    258.5184     83.0254
   786.7500    131.9035      0.0000    258.5338     82.9342
   787.0000    130.0336      0.0000    258.5351     82.8647
   787.2500    130.3680      0.0000    258.5260     82.8322
   787.5000    134.2777      0.0000    258.5135     82.8495
   787.7500    141.8585      0.0000    258.5018     82.9148
   788.0000    151.7576      0.0000    258.4926     83.0085
   788.2500    161.6190      0.0000    258.4867     83.1057
   788.5000    169.2374      0.0000    258.4836     83.1851
   788.7500    173.7321      0.0000    258.4822     83.2296
   789.0000    175.4505      0.0000    258.4832     83.2341
   789.2500    174.6997      0.0000    258.4874     83.2172
   789.5000    171.2023      0.0000    258.4935     83.2107
   789.7500    165.0696      0.0000    258.5002     83.2302
   790.0000    157.7201      0.0000    258.5103     83.2606
   790.2500    151.4793      0.0000    258.5270     83.2731
   790.5000    148.3050      0.0000    258.5471     83.2543
   790.7500    148.5907      0.0000    258.5616     83.2116
   791.0000    150.9799      0.0000    258.5635     83.1554
   791.2500    153.7026      0.0000    258.5521     83.0913
