~Version Information
VERS.                      2.0: CWLS Log ASCII Standard - VERSION 2.0
WRAP.                       NO: One line per depth step
~Well Information Block
STRT.FT               582.2500: 
STOP.FT              2642.5000: 
STEP.FT                 0.2500: 
NULL.                -999.2500: 
COMP.          Petrogulf Corporation: COMPANY
WELL.           Montoya 12-41V: WELL
FLD.           Purgatorie River: FIELD
LOC.           1081' FNL & 605' FEL: LOCATION
CNTY.               Las Animas: COUNTY
SRVC.                         : SERVICE COMPANY
DATE.          Tue Aug 10 10:59:28 2004: LOG DATE
UWI.           05 071 08094 00: UNIQUE WELL ID
STAT.                 Colorado: STATE
~Curve Information Block
DEPT.FT            0 000 00 00: Depth
SP.mV                         : DIL Spontaneous Potential
RILD.Ohm-m                    : DIL Deep Resistivity
RILM.Ohm-m                    : DIL Medium Resistivity
RLL3.Ohm-m                    : DIL Shallow Resistivity
GR.GAPI                       : Gamma Ray
~Parameter Information Block
~A  Depth        SP         RILD        RILM        RLL3         GR     
# ...
   890.2500   2000.0000     21.8188     20.5619   1998.0000    147.3036
   890.5000   2000.0000     21.2335     20.2685   1998.0000    151.8412
   890.7500   2000.0000     20.5991     19.8906   1998.0000    153.3438
   891.0000   -104.4744     19.9212     19.4509   1998.0000    152.5499
   891.2500   -101.1877     19.2244     18.9803   1998.0000    150.5408
   891.5000    -96.6608     18.5584     18.5135   1998.0000    147.2268
   891.7500    -91.1787     17.9876     18.0848   1998.0000    145.7454
   892.0000    -85.1266     17.5686     17.7253   1998.0000    144.8725
   892.2500    -78.9287     17.3313     17.4608   1998.0000    144.7839
   892.5000    -72.9711     17.2709     17.3118   1998.0000    144.9845
   892.7500    -67.5316     17.3520     17.2938   1998.0000    145.5054
   893.0000    -62.7420     17.5229     17.4188   1998.0000    147.0529
   893.2500    -58.5979     17.7336     17.6965   1998.0000    148.2396
   893.5000    -55.0061     17.9502     18.1361   1998.0000    149.0947
   893.7500    -51.8485     18.1609     18.7475   1998.0000    148.4995
   894.0000    -49.0426     18.3758     19.5431   1998.0000    145.6313
   894.2500    -46.5796     18.6246     20.5383   1998.0000    142.5845
   894.5000    -44.5302     18.9564     21.7506   1998.0000    136.7800
   894.7500    -43.0298     19.4341     23.1984   1998.0000    132.2725
   895.0000    -42.2372     20.1220     24.8992   1998.0000    124.4055
   895.2500    -42.2854     21.0644     26.8648   1998.0000    118.1476
   895.5000    -43.2304     22.2623     29.0974   1998.0000    107.2515
   895.7500    -45.0201     23.6545     31.5863   1998.0000     99.4553
   896.0000    -47.4871     25.1223     34.3040   1998.0000     87.7960
   896.2500    -50.3769     26.5304     37.2051   1998.0000     80.1809
   896.5000    -53.3960     27.7877     40.2186   1998.0000     69.1381
   896.7500    -56.2726     28.8831     43.2358   1998.0000     62.4519
   897.0000    -58.8011     29.8576     46.0796   1998.0000     54.4296
   897.2500    -60.8737     30.7315     48.4789   1998.0000     50.6910
   897.5000    -62.4785     31.4472     50.0114   1998.0000     47.1315
   897.7500    -63.6853     31.8641     50.4256   1998.0000     45.6499
   898.0000    -64.6148     31.8176     49.2802   1998.0000     44.0064
   898.2500    -65.4108     31.2103     46.6297   1998.0000     43.0606
   898.5000    -66.2091     30.0693     42.8204   1998.0000     42.0629
   898.7500    -67.1185     28.5380     38.4127   1998.0000     42.2439
   899.0000    -68.2050     26.8149     33.9613   1998.0000     49.9492
   899.2500    -69.4867     25.0806     29.8640   1998.0000     55.3845
   899.5000    -70.9390     23.4535     26.3128   1998.0000     68.6598
   899.7500    -72.5051     21.9799     23.4081   1998.0000     80.1394
   900.0000    -74.1061     20.6521     21.0768   1998.0000    107.5668
   900.2500    -75.6527     19.4394     20.0489   1998.0000    119.9035
   900.5000    -77.0492     18.3175     18.5587   1998.0000    134.0812
   900.7500    -78.2130     17.2829     17.4573   1998.0000    140.0303
   901.0000    -79.0959     16.3509     16.6624   1998.0000    144.2415
   901.2500    -79.7059     15.5415     16.1031   1998.0000    144.5644
   901.5000    -80.1147     14.8662     15.7134   1998.0000    142.2834
   901.7500    -80.4367     14.3235     15.4557   1998.0000    139.5963
   902.0000    -80.7788     13.9021     15.2692   1998.0000    146.6858
   902.2500    -81.1906     13.5874     15.6029   1998.0000    144.2313
   902.5000    -81.6391     13.3645     15.4535   1998.0000    141.1016
   902.7500    -82.0284     13.2175     15.2908   1998.0000    138.8060
   903.0000    -82.2554     13.1246     15.1034   1998.0000    135.1228
   903.2500    -82.2684     13.0573     14.8894   1998.0000    133.3772
   903.5000    -82.0986     12.9864     14.6553   1998.0000    133.4875
   903.7500    -81.8432     12.8936     14.4122     23.6793    135.8118
   904.0000    -81.6199     12.7808     14.1729     22.7167    142.2048
   904.2500    -81.5202     12.6692     14.3589     21.7892    147.4303
   904.5000    -81.5831     12.5859     14.1478     20.9567    153.9223
   904.7500    -81.8056     12.5497     13.9679     20.2455    155.6582
   905.0000    -82.1625     12.5607     13.8209     19.6571    153.3108
   905.2500    -82.6308     12.6030     13.7128     19.1880    149.3642
   905.5000    -83.1960     12.6555     13.6232     18.8434    142.7044
   905.7500    -83.8424     12.7047     13.5545     18.6399    139.1176
   906.0000    -84.5412     12.7519     13.5018     18.5945    136.2707
   906.2500    -85.2446     12.8102     13.4632     18.7163    136.2919
   906.5000    -85.8867     12.8954     13.4418     19.0095    138.3593
   906.7500    -86.3905     13.0188     13.4458     19.4872    139.7802
   907.0000    -86.6828     13.1860     13.4868     20.1797    139.7839
   907.2500    -86.7112     13.3988     13.5853     21.1250    138.2308
   907.5000    -86.4586     13.6553     13.7368     22.3375    135.2656
   907.7500    -85.9505     13.9476     13.9540     23.7775    133.8542
   908.0000    -85.2495     14.2570     14.2361     25.3422    132.9553
   908.2500    -84.4394     14.5553     14.5757     26.8911    133.0007
   908.5000    -83.6054     14.8130     14.9610     28.2893    134.1256
   908.7500    -82.8154     15.0114     15.3779     29.4357    135.6187
   909.0000    -82.1145     15.1500     15.8124     30.2681    138.0570
   909.2500    -81.5275     15.2444     16.2630     30.7556    138.9810
   909.5000    -81.0677     15.3167     16.6972     30.8977    139.0406
   909.7500    -80.7374     15.3862     17.1141     30.7314    138.9165
   910.0000    -80.5304     15.4650     17.5012     30.3286    139.6857
   910.2500    -80.4222     15.5585     17.8432     29.7750    140.8552
   910.5000    -80.3751     15.6666     18.1233     29.1412    142.9016
   910.7500    -80.3471     15.7829     18.3259     28.4700    144.0070
   911.0000    -80.3156     15.8917     18.4411     27.7882    144.3958
   911.2500    -80.2966     15.9674     18.4676     27.1271    143.3348
   911.5000    -80.3480     15.9794     18.4143     26.5337    139.8071
   911.7500    -80.5457     15.9057     18.2985     26.0649    136.9151
   912.0000    -80.9435     15.7449     18.1419     25.7689    133.7197
   912.2500    -81.5304     15.5179     17.9666     25.6669    133.3118
   912.5000    -82.2175     15.2567     17.7910     25.7401    135.7496
   912.7500    -82.8588     14.9892     17.6281     25.9281    138.8381
   913.0000    -83.3027     14.7333     17.4853     26.1411    143.6809
   913.2500    -83.4466     14.5024     17.3632     26.2894    145.7917
   913.5000    -83.2670     14.3124     17.2570     26.3170    145.9382
   913.7500    -82.8262     14.1832     17.1568     26.2162    144.1419
   914.0000    -82.2478     14.1307     17.0500     26.0124    140.3320
   914.2500    -81.6732     14.1581     16.9251     25.7319    138.2948
   914.5000    -81.2231     14.2526     16.7761     25.3763    137.1863
   914.7500    -80.9633     14.3924     16.6057     24.9262    137.8131
   915.0000    -80.8917     14.5564     16.4262     24.3675    140.4963
   915.2500    -80.9425     14.7292     16.2564     23.7180    143.0862
   915.5000    -81.0091     14.8973     16.1159     23.0349    147.0223
   915.7500    -80.9772     15.0428     16.0202     22.4038    149.0616
   916.0000    -80.7572     15.1438     15.9761     21.9188    151.3429
   916.2500    -80.3028     15.1855     15.9810     21.6661    152.9248
   916.5000    -79.6181     15.1731     16.0246     21.7101    155.7054
   916.7500    -78.7460     15.1363     16.0930     22.0730    157.1582
   917.0000    -77.7518     15.1187     16.1749     22.7129    157.0130
   917.2500    -76.7073     15.1599     16.2655     23.5124    155.0025
   917.5000    -75.6860     15.2795     16.3700     24.3044    150.5590
   917.7500    -74.7612     15.4726     16.5025     24.9310    148.1242
   918.0000    -74.0092     15.7161     16.6835     25.3155    146.5854
