~Version Information
VERS.                      2.0: CWLS Log ASCII Standard - VERSION 2.0
WRAP.                       NO: One line per depth step
~Well Information Block
STRT.FT               250.0000: 
STOP.FT               894.7000: 
STEP.FT                 0.1000: 
NULL.                -999.2500: 
COMP.          Pioneer Natural Resources: COMPANY
WELL.          Santisteven 13-22: WELL
FLD.           Purgatoire River: FIELD
LOC.           1861' FSL & 992' FWL----: LOCATION
PROV.                 Colorado: PROVINCE
CNTY.               Las Animas: COUNTRY
SRVC.                Patterson: SERVICE COMPANY
DATE.          Mon Apr 04 11:05:36 2005: LOG DATE
UWI.           05 071 08337 00: UNIQUE WELL ID
~Curve Information Block
DEPT.FT            0 000 00 00: Depth
DCAL.in                       : CDL Caliper
RHOB.g/cc                     : CDL Bulk Density
RHOC.g/cc                     : CDL Density Correction
DPOR.pu                       : CDL Density Porosity
NPOR.pu                       : Neutron Porosity
GR.GAPI                       : Gamma Ray
~Parameter Information Block
~A  Depth       DCAL        RHOB        RHOC        DPOR        NPOR         GR     
# ...
   499.6000      8.1308      2.6597      0.0967     -0.5856     19.9358    109.8354
   499.7000      8.1308      2.6389      0.1113      0.6753     19.7053    106.5898
   499.8000      8.1285      2.6146      0.0355      2.1483     19.3651     97.8369
   499.9000      8.1285      2.5995      0.1027      3.0611     19.2974     89.4133
   500.0000      8.1274      2.5935      0.0439      3.4260     19.4051     86.6888
   500.1000      8.1274      2.5957      0.0690      3.2922     19.4048     89.3816
   500.2000      8.1274      2.6115      0.0386      2.3350     19.1467     94.3895
   500.3000      8.1287      2.6369      0.0810      0.7939     18.7420     99.5630
   500.4000      8.1287      2.6491      0.1166      0.0539     18.2239    101.6478
   500.5000      8.1307      2.6332      0.0773      1.0206     17.8587     98.0592
   500.6000      8.1307      2.6045      0.0195      2.7570     18.2265     95.5675
   500.7000      8.1307      2.5869      0.0371      3.8240     19.2992    101.1808
   500.8000      8.1323      2.5867      0.0460      3.8333     20.2713    111.7360
   500.9000      8.1323      2.5931      0.0644      3.4499     20.6694    119.1611
   501.0000      8.1323      2.5892      0.0599      3.6861     20.6474    118.0164
   501.1000      8.1323      2.5709      0.0630      4.7915     20.3590    111.9111
   501.2000      8.1323      2.5530      0.0213      5.8801     19.9170    108.7560
   501.3000      8.1308      2.5489      0.0037      6.1252     19.5822    111.3209
   501.4000      8.1308      2.5531      0.0360      5.8716     19.5187    115.6489
   501.5000      8.1299      2.5566      0.0294      5.6600     19.4941    114.6131
   501.6000      8.1299      2.5639      0.0380      5.2202     19.1643    108.2195
   501.7000      8.1299      2.5777      0.0786      4.3823     18.4177    104.5287
   501.8000      8.1298      2.5839      0.0959      4.0066     17.5063    103.8361
   501.9000      8.1298      2.5670      0.0759      5.0328     16.9190    101.1424
   502.0000      8.1294      2.5410      0.0156      6.6044     16.8155     99.6851
   502.1000      8.1294      2.5352      0.0346      6.9561     16.9910    101.5114
   502.2000      8.1294      2.5462      0.1059      6.2908     17.2933    101.4641
   502.3000      8.1300      2.5535      0.0350      5.8512     17.6875     99.5894
   502.4000      8.1300      2.5534      0.0440      5.8539     18.2270    100.9783
   502.5000      8.1307      2.5490      0.0473      6.1188     18.8110    104.2936
   502.6000      8.1307      2.5513      0.0151      5.9795     19.2072    102.0393
   502.7000      8.1307      2.5715      0.0575      4.7586     19.2365     94.6348
   502.8000      8.1305      2.5942      0.1009      3.3827     18.9271     93.2462
   502.9000      8.1305      2.5985      0.0862      3.1209     18.6040    100.5991
   503.0000      8.1310      2.5900      0.0772      3.6337     18.6631    107.7598
   503.1000      8.1310      2.5825      0.0908      4.0931     19.3161    107.1516
   503.2000      8.1310      2.5775      0.0833      4.3933     20.2036     97.4211
   503.3000      8.1311      2.5695      0.0939      4.8776     20.6429     85.1526
   503.4000      8.1311      2.5596      0.0712      5.4778     20.4579     79.8498
   503.5000      8.1308      2.5627      0.0647      5.2929     19.8648     87.2308
   503.6000      8.1308      2.5799      0.0811      4.2509     19.1602    101.4367
   503.7000      8.1308      2.5923      0.1028      3.4975     18.6664    109.9163
   503.8000      8.1317      2.5924      0.0818      3.4935     18.3328    108.3797
   503.9000      8.1317      2.5903      0.0829      3.6200     17.9522    100.4434
   504.0000      8.1312      2.5935      0.0776      3.4238     17.6323     88.9081
   504.1000      8.1312      2.6008      0.0610      2.9798     17.5783     78.8326
   504.2000      8.1312      2.6045      0.0917      2.7556     17.6677     75.1780
   504.3000      8.1290      2.5986      0.0733      3.1182     17.8210     77.7207
   504.4000      8.1290      2.5909      0.0439      3.5792     18.1800     83.2959
   504.5000      8.1290      2.5909      0.0746      3.5794     18.7208     86.4101
   504.6000      8.1290      2.5981      0.0433      3.1437     19.1512     82.7329
   504.7000      8.1290      2.6082      0.1001      2.5322     19.0888     76.8503
   504.8000      8.1314      2.6156      0.0500      2.0876     18.6665     76.3579
   504.9000      8.1314      2.6139      0.0747      2.1907     18.4038     79.7471
   505.0000      8.1339      2.5986      0.1058      3.1168     18.3229     79.8842
   505.1000      8.1339      2.5832      0.0162      4.0461     18.1290     77.2286
   505.2000      8.1339      2.5857      0.0329      3.8974     18.0204     79.4584
   505.3000      8.1347      2.5888      0.0359      3.7099     18.2637     87.5214
   505.4000      8.1347      2.5692      0.0257      4.8950     18.6194     90.8944
   505.5000      8.1336      2.5460     -0.0140      6.3028     18.6524     84.6041
   505.6000      8.1336      2.5478      0.0509      6.1965     18.2997     77.9039
   505.7000      8.1336      2.5689      0.0260      4.9137     17.8601     76.1688
   505.8000      8.1333      2.5937      0.0564      3.4129     17.7482     76.3826
   505.9000      8.1333      2.6155      0.0745      2.0904     18.2271     76.8649
   506.0000      8.1348      2.6299      0.0676      1.2201     18.9268     78.1282
   506.1000      8.1348      2.6312      0.0756      1.1380     19.3748     80.3210
   506.2000      8.1348      2.6216      0.0593      1.7218     19.6116     83.3224
   506.3000      8.1361      2.6141      0.0316      2.1731     19.6437     86.4377
   506.4000      8.1361      2.6182      0.0914      1.9302     19.4127     86.7797
   506.5000      8.1359      2.6258      0.0957      1.4652     19.0791     85.0569
   506.6000      8.1359      2.6225      0.0915      1.6688     18.7691     85.7155
   506.7000      8.1359      2.6034      0.0455      2.8237     18.3921     89.2529
   506.8000      8.1346      2.5854      0.0181      3.9182     17.8948     92.5204
   506.9000      8.1346      2.5904      0.0245      3.6141     17.5476     94.0640
   507.0000      8.1349      2.6087      0.0898      2.5029     17.6452     93.4853
   507.1000      8.1349      2.6146      0.0413      2.1466     17.9540     90.0337
   507.2000      8.1349      2.6087      0.0505      2.5013     18.0816     84.5987
   507.3000      8.1363      2.5987      0.0607      3.1118     18.2867     81.0527
   507.4000      8.1363      2.5860      0.0260      3.8780     18.8823     82.8688
   507.5000      8.1382      2.5775      0.0243      4.3955     19.2836     87.4672
   507.6000      8.1382      2.5753      0.0322      4.5279     19.0196     90.3031
   507.7000      8.1382      2.5769      0.0661      4.4276     18.5681     90.8486
   507.8000      8.1382      2.5788      0.0365      4.3123     18.4929     88.4212
   507.9000      8.1382      2.5823      0.0110      4.1013     18.5940     84.4824
   508.0000      8.1360      2.5915      0.0396      3.5483     18.5295     84.7462
   508.1000      8.1360      2.6000      0.0524      3.0287     18.5669     90.8221
   508.2000      8.1360      2.5974      0.0556      3.1891     18.9482     96.5632
   508.3000      8.1342      2.5788      0.0561      4.3148     19.4307     97.0344
   508.4000      8.1342      2.5523      0.0170      5.9215     19.7922     93.3241
   508.5000      8.1345      2.5372     -0.0043      6.8389     20.1764     87.8744
   508.6000      8.1345      2.5367      0.0257      6.8651     20.5801     86.1109
   508.7000      8.1345      2.5366      0.0067      6.8741     20.7423     91.6749
   508.8000      8.1358      2.5348     -0.0060      6.9842     20.6085     98.8534
   508.9000      8.1358      2.5390      0.0249      6.7289     20.0917    104.5388
   509.0000      8.1364      2.5461      0.0413      6.2971     19.1366    112.3659
   509.1000      8.1364      2.5486      0.0396      6.1484     18.1265    116.6894
