~Version Information
VERS.                      2.0: CWLS Log ASCII Standard - VERSION 2.0
WRAP.                       NO: One line per depth step
~Well Information Block
STRT.FT                -4.0000: 
STOP.FT              2638.2500: 
STEP.FT                 0.2500: 
NULL.                -999.2500: 
COMP.          Petrogulf Corporation: COMPANY
WELL.            Montoya 6-14V: WELL
FLD.           Purgatorie River: FIELD
LOC.           318' FSL & 882' FWL--: LOCATION
PROV.                       CO: PROVINCE
CNTY.               Las Animas: COUNTRY
SRVC.                         : SERVICE COMPANY
DATE.          Mon May 02 08:32:04 2005: LOG DATE
UWI.      005 071 08020: UNIQUE WELL ID
~Curve Information Block
DEPT.FT            0 000 00 00: Depth
AMP3.mV                       : CBL 3' Amplitude
CCL.                          : Casing Collar Locator
GR.GAPI                       : Gamma Ray
TT3.usec                      : CBL 3' Travel Time
~Parameter Information Block
~A  Depth       AMP3        CCL          GR         TT3     
# ...
  1403.0000      4.7715      0.0000     33.2761    672.3037
  1403.2500      5.0460      0.0000     33.5056    682.2916
  1403.5000      5.3695      0.0000     33.8325    694.9495
  1403.7500      5.7277      0.0000     34.1048    705.8505
  1404.0000      6.0929      0.0000     34.7291    712.4293
  1404.2500      6.4372      0.0000     36.1697    714.7720
  1404.5000      6.7390      0.0000     38.0371    713.4515
  1404.7500      6.9834      0.0000     39.1557    708.4733
  1405.0000      7.1763      0.0000     38.5575    701.4715
  1405.2500      7.3678      0.0000     36.2446    696.3553
  1405.5000      7.6397      0.0000     33.0706    695.0912
  1405.7500      8.0583      0.0000     30.0527    693.4998
  1406.0000      8.6544      0.0000     27.7768    682.4677
  1406.2500      9.4608      0.0000     26.3498    652.9214
  1406.5000     10.5489      0.0000     25.8053    600.3456
  1406.7500     12.0128      0.0000     26.4795    528.1646
  1407.0000     13.9251      0.0000     29.0794    448.7581
  1407.2500     16.3269      0.0000     34.5956    378.2055
  1407.5000     19.2473      0.0000     44.0331    326.7964
  1407.7500     22.7001      0.0000     57.6905    294.6299
  1408.0000     26.6426      0.0000     74.3881    275.8511
  1408.2500     30.9595      0.0000     91.6344    264.8862
  1408.5000     35.5116      0.0000    106.7644    258.6041
  1408.7500     40.1936      0.0000    118.0569    255.3336
  1409.0000     44.8960      0.0000    125.0508    253.8737
  1409.2500     49.3543      0.0000    128.0426    253.3446
  1409.5000     53.0083      0.0000    127.3413    253.2383
  1409.7500     55.0455      0.0000    123.1454    253.3676
  1410.0000     54.7504      0.0000    116.1314    253.7289
  1410.2500     52.0776      0.0000    107.8166    254.3956
  1410.5000     48.0132      0.0000    100.0407    255.4049
  1410.7500     44.1791      0.0000     94.0125    256.6569
  1411.0000     41.7980      0.0000     89.6867    257.9084
  1411.2500     40.9663      0.0000     85.9396    258.9068
  1411.5000     40.9232      0.0000     81.5136    259.5422
  1411.7500     40.9026      0.0000     76.1710    259.8731
  1412.0000     40.6781      2.0000     71.1858    260.0254
  1412.2500     40.4782     -2.0000     68.8948    260.0911
  1412.5000     40.5792      2.0000     71.6286    260.0999
  1412.7500     41.0496      0.0000     80.4228    260.0347
  1413.0000     41.8349      0.0000     94.1063    259.8351
  1413.2500     42.9785      0.0000    109.6453    259.3889
  1413.5000     44.6578      0.0000    123.6014    258.5746
  1413.7500     47.0342      0.0000    133.2485    257.3896
  1414.0000     50.1437      0.0000    136.6659    256.0465
  1414.2500     53.8531      0.0000    133.0877    254.8761
  1414.5000     57.8440      0.0000    123.9772    254.1035
  1414.7500     61.7391      0.0000    112.8396    253.7372
  1415.0000     65.3083      0.0000    102.8863    253.6501
  1415.2500     68.4830      0.0000     95.0063    253.7096
  1415.5000     71.1701      0.0000     88.3533    253.8272
  1415.7500     73.1321      0.0000     82.4995    253.9423
  1416.0000     74.0668      0.0000     78.6268    254.0061
  1416.2500     73.7903      0.0000     78.7894    253.9882
  1416.5000     72.3288      0.0000     83.9738    253.8899
  1416.7500     69.8420      0.0000     92.7932    253.7432
  1417.0000     66.4730      0.0000    102.4897    253.5942
  1417.2500     62.2917      0.0000    111.1419    253.4899
  1417.5000     57.3560      0.0000    118.3012    253.4825
  1417.7500     51.8120      0.0000    123.9833    253.6681
  1418.0000     45.9527      0.0000    128.2734    254.2649
  1418.2500     40.1761      0.0000    131.8039    255.7243
  1418.5000     34.8552      0.0000    135.5738    258.7396
  1418.7500     30.2398      0.0000    139.9464    263.9093
  1419.0000     26.4781      0.0000    144.0577    271.0760
  1419.2500     23.6784      0.0000    146.3266    278.9796
  1419.5000     21.8905      0.0000    145.5087    285.8568
  1419.7500     21.0284      0.0000    141.3052    290.5595
  1420.0000     20.8452      0.0000    134.5260    293.0773
  1420.2500     21.0183      0.0000    127.1461    294.1201
  1420.5000     21.2822      0.0000    121.6585    294.4325
  1420.7500     21.5124      0.0000    119.6031    294.4286
  1421.0000     21.7028      0.0000    120.6560    294.1296
  1421.2500     21.8871      0.0000    123.2213    293.1631
  1421.5000     22.0972      0.0000    125.6542    290.8231
  1421.7500     22.3858      0.0000    126.8450    286.4242
  1422.0000     22.8330      0.0000    126.2065    279.9669
  1422.2500     23.4822      0.0000    123.7972    272.5468
  1422.5000     24.2794      0.0000    120.5104    265.8572
  1422.7500     25.1261      0.0000    117.4783    261.1046
  1423.0000     26.0053      0.0000    114.8713    258.4044
  1423.2500     27.0359      0.0000    111.6594    257.1042
  1423.5000     28.4057      0.0000    106.9042    256.4545
  1423.7500     30.2859      0.0000    100.9940    255.9837
  1424.0000     32.8121      0.0000     95.1636    255.5087
  1424.2500     36.0836      0.0000     89.9497    255.0112
  1424.5000     40.1046      0.0000     84.7339    254.5364
  1424.7500     44.6965      0.0000     79.0747    254.1344
  1425.0000     49.5048      0.0000     74.2131    253.8360
  1425.2500     54.1689      0.0000     72.8969    253.6451
  1425.5000     58.5312      0.0000     77.4028    253.5489
  1425.7500     62.6506      0.0000     87.3729    253.5311
  1426.0000     66.5832      0.0000     99.3383    253.5796
  1426.2500     70.1964      0.0000    108.5518    253.6808
  1426.5000     73.2474      0.0000    111.8849    253.8154
  1426.7500     75.6101      0.0000    109.5141    253.9626
  1427.0000     77.3695      0.0000    104.1805    254.1063
  1427.2500     78.7185      0.0000     98.9289    254.2350
  1427.5000     79.8168      0.0000     95.1733    254.3395
  1427.7500     80.7424      0.0000     92.4794    254.4159
  1428.0000     81.5205      0.0000     89.9948    254.4686
  1428.2500     82.1687      0.0000     87.9400    254.5082
  1428.5000     82.7267      0.0000     87.4991    254.5448
  1428.7500     83.2570      0.0000     89.3668    254.5855
  1429.0000     83.8124      0.0000     92.7389    254.6311
  1429.2500     84.3946      0.0000     95.7226    254.6738
  1429.5000     84.9427      0.0000     96.4767    254.6989
  1429.7500     85.3656      0.0000     94.0795    254.6949
  1430.0000     85.5862      0.0000     88.9002    254.6628
  1430.2500     85.5616      0.0000     82.4181    254.6160
  1430.5000     85.2842      0.0000     76.3422    254.5717
  1430.7500     84.7897      0.0000     71.6913    254.5416
  1431.0000     84.1699      0.0000     68.8394    254.5286
  1431.2500     83.5520      0.0000     68.1227    254.5274
  1431.5000     83.0263      0.0000     69.8296    254.5271
  1431.7500     82.5849      0.0000     73.6798    254.5168
  1432.0000     82.1433      0.0000     78.7357    254.4906
  1432.2500     81.6270      0.0000     83.9079    254.4506
  1432.5000     81.0302      0.0000     88.5961    254.4038
  1432.7500     80.3912      0.0000     93.0517    254.3573
  1433.0000     79.7180      0.0000     97.9779    254.3147
  1433.2500     78.9459      0.0000    103.5226    254.2763
  1433.5000     77.9941      0.0000    108.9965    254.2434
  1433.7500     76.8874      0.0000    113.9535    254.2208
  1434.0000     75.8006      0.0000    118.9482    254.2145
  1434.2500     74.9234      0.0000    124.5382    254.2243
  1434.5000     74.2789      0.0000    130.0274    254.2394
  1434.7500     73.7304      0.0000    134.0299    254.2438
  1435.0000     73.1830      0.0000    136.2074    254.2278
  1435.2500     72.7346      0.0000    137.9883    254.1966
  1435.5000     72.6037      0.0000    141.3017    254.1676
  1435.7500     72.9082      0.0000    146.2954    254.1559
  1436.0000     73.5020      0.0000    150.2929    254.1618
  1436.2500     74.0229      0.0000    149.6166    254.1709
