~Version Information
VERS.                      2.0: CWLS Log ASCII Standard - VERSION 2.0
WRAP.                       NO: One line per depth step
~Well Information Block
STRT.FT               698.9000: 
STOP.FT              2459.5000: 
STEP.FT                 0.1000: 
NULL.                -999.2500: 
COMP.          Petrogulf Corporation: COMPANY
WELL.             State 16-23V: WELL
FLD.           Purgatorie River: FIELD
LOC.           2414' FSL & 2215' FWL: LOCATION
PROV.                 Colorado: PROVINCE
CNTY.               Las Animas: COUNTRY
SRVC.                         : SERVICE COMPANY
DATE.          Mon Jun 09 12:47:39 2003: LOG DATE
UWI.           05 071 07865 00: UNIQUE WELL ID
~Curve Information Block
DEPT.FT            0 000 00 00: Depth
SP.mV                         : DIL Spontaneous Potential
RILD.Ohm-m                    : DIL Deep Resistivity
RILM.Ohm-m                    : DIL Medium Resistivity
RLL3.Ohm-m                    : DIL Shallow Resistivity
GR.GAPI                       : Gamma Ray
~Parameter Information Block
~A  Depth        SP         RILD        RILM        RLL3         GR     
# ...
  1404.5000     12.0424      8.2548      8.4309      9.4544    145.4124
  1404.6000     12.0424      8.2548      8.4309      9.4544    145.2844
  1404.7000     12.0424      8.2548      8.4309      9.4544    144.9420
  1404.8000     12.1149      8.2858      8.6464     10.4118    144.3988
  1404.9000     12.1149      8.2858      8.6464     10.4118    143.6907
  1405.0000     12.1651      8.2962      8.8538     11.9180    142.8674
  1405.1000     12.1651      8.2962      8.8538     11.9180    141.9849
  1405.2000     12.1651      8.2962      8.8538     11.9180    141.0970
  1405.3000     12.2024      8.2914      9.0162     13.6327    140.2504
  1405.4000     12.2024      8.2914      9.0162     13.6327    139.4819
  1405.5000     12.2525      8.2818      9.1165     14.8820    138.8195
  1405.6000     12.2525      8.2818      9.1165     14.8820    138.2901
  1405.7000     12.2525      8.2818      9.1165     14.8820    137.9188
  1405.8000     12.3324      8.2838      9.1663     15.0682    137.7290
  1405.9000     12.3324      8.2838      9.1663     15.0682    137.7420
  1406.0000     12.4349      8.3159      9.1983     14.1796    137.9654
  1406.1000     12.4349      8.3159      9.1983     14.1796    138.3908
  1406.2000     12.4349      8.3159      9.1983     14.1796    138.9851
  1406.3000     12.5436      8.3873      9.2488     12.7956    139.6881
  1406.4000     12.5436      8.3873      9.2488     12.7956    140.4230
  1406.5000     12.6513      8.4878      9.3435     11.5983    141.1021
  1406.6000     12.6513      8.4878      9.3435     11.5983    141.6415
  1406.7000     12.6513      8.4878      9.3435     11.5983    141.9760
  1406.8000     12.7560      8.5881      9.4867     10.9431    142.0672
  1406.9000     12.7560      8.5881      9.4867     10.9431    141.9070
  1407.0000     12.8504      8.6545      9.6615     10.8096    141.5152
  1407.1000     12.8504      8.6545      9.6615     10.8096    140.9348
  1407.2000     12.8504      8.6545      9.6615     10.8096    140.2163
  1407.3000     12.9265      8.6691      9.8397     11.0245    139.4150
  1407.4000     12.9265      8.6691      9.8397     11.0245    138.5783
  1407.5000     12.9875      8.6349      9.9958     11.4310    137.7416
  1407.6000     12.9875      8.6349      9.9958     11.4310    136.9293
  1407.7000     12.9875      8.6349      9.9958     11.4310    136.1544
  1407.8000     13.0418      8.5644     10.1104     11.8880    135.4228
  1407.9000     13.0418      8.5644     10.1104     11.8880    134.7429
  1408.0000     13.0888      8.4704     10.1673     12.2606    134.1226
  1408.1000     13.0888      8.4704     10.1673     12.2606    133.5741
  1408.2000     13.0888      8.4704     10.1673     12.2606    133.1121
  1408.3000     13.1212      8.3659     10.1559     12.4562    132.7489
  1408.4000     13.1212      8.3659     10.1559     12.4562    132.4907
  1408.5000     13.1306      8.2639     10.0797     12.4262    132.3279
  1408.6000     13.1306      8.2639     10.0797     12.4262    132.2322
  1408.7000     13.1306      8.2639     10.0797     12.4262    132.1541
  1408.8000     13.1105      8.1718      9.9557     12.1690    132.0293
  1408.9000     13.1105      8.1718      9.9557     12.1690    131.7834
  1409.0000     13.0620      8.0869      9.8050     11.7595    131.3444
  1409.1000     13.0620      8.0869      9.8050     11.7595    130.6590
  1409.2000     13.0620      8.0869      9.8050     11.7595    129.6978
  1409.3000     12.9911      8.0006      9.6434     11.3118    128.4673
  1409.4000     12.9911      8.0006      9.6434     11.3118    127.0079
  1409.5000     12.9014      7.9101      9.4777     10.8920    125.3889
  1409.6000     12.9014      7.9101      9.4777     10.8920    123.6989
  1409.7000     12.9014      7.9101      9.4777     10.8920    122.0301
  1409.8000     12.7937      7.8248      9.3085     10.5143    120.4657
  1409.9000     12.7937      7.8248      9.3085     10.5143    119.0685
  1410.0000     12.6726      7.7589      9.1341     10.2161    117.8705
  1410.1000     12.6726      7.7589      9.1341     10.2161    116.8708
  1410.2000     12.6726      7.7589      9.1341     10.2161    116.0379
  1410.3000     12.5503      7.7177      8.9537     10.0495    115.3119
  1410.4000     12.5503      7.7177      8.9537     10.0495    114.6203
  1410.5000     12.4418      7.6956      8.7739      9.9883    113.8777
  1410.6000     12.4418      7.6956      8.7739      9.9883    113.0059
  1410.7000     12.4418      7.6956      8.7739      9.9883    111.9416
  1410.8000     12.3526      7.6842      8.6111      9.9190    110.6403
  1410.9000     12.3526      7.6842      8.6111      9.9190    109.0914
  1411.0000     12.2740      7.6789      8.4867      9.7427    107.3159
  1411.1000     12.2740      7.6789      8.4867      9.7427    105.3690
  1411.2000     12.2740      7.6789      8.4867      9.7427    103.3360
  1411.3000     12.1941      7.6817      8.4196      9.4670    101.3274
  1411.4000     12.1941      7.6817      8.4196      9.4670     99.4609
  1411.5000     12.1118      7.6994      8.4221      9.2103     97.8550
  1411.6000     12.1118      7.6994      8.4221      9.2103     96.6146
  1411.7000     12.1118      7.6994      8.4221      9.2103     95.8126
  1411.8000     12.0320      7.7402      8.4976      9.1494     95.4882
  1411.9000     12.0320      7.7402      8.4976      9.1494     95.6392
  1412.0000     11.9561      7.8083      8.6390      9.4491     96.2194
  1412.1000     11.9561      7.8083      8.6390      9.4491     97.1510
  1412.2000     11.9561      7.8083      8.6390      9.4491     98.3303
  1412.3000     11.8839      7.9047      8.8287     10.1641     99.6410
  1412.4000     11.8839      7.9047      8.8287     10.1641    100.9661
  1412.5000     11.8121      8.0340      9.0462     11.1529    102.2027
  1412.6000     11.8121      8.0340      9.0462     11.1529    103.2700
  1412.7000     11.8121      8.0340      9.0462     11.1529    104.1223
  1412.8000     11.7337      8.2075      9.2800     12.1034    104.7479
  1412.9000     11.7337      8.2075      9.2800     12.1034    105.1724
  1413.0000     11.6472      8.4352      9.5353     12.7137    105.4568
  1413.1000     11.6472      8.4352      9.5353     12.7137    105.6852
  1413.2000     11.6472      8.4352      9.5353     12.7137    105.9556
  1413.3000     11.5573      8.7155      9.8294     12.9269    106.3643
  1413.4000     11.5573      8.7155      9.8294     12.9269    106.9935
  1413.5000     11.4621      9.0386     10.1821     12.9799    107.9022
  1413.6000     11.4621      9.0386     10.1821     12.9799    109.1159
  1413.7000     11.4621      9.0386     10.1821     12.9799    110.6311
  1413.8000     11.3506      9.3967     10.6112     13.1651    112.4169
  1413.9000     11.3506      9.3967     10.6112     13.1651    114.4239
  1414.0000     11.2126      9.7918     11.1355     13.6020    116.5910
  1414.1000     11.2126      9.7918     11.1355     13.6020    118.8503
  1414.2000     11.2126      9.7918     11.1355     13.6020    121.1303
  1414.3000     11.0485     10.2336     11.7712     14.3176    123.3562
  1414.4000     11.0485     10.2336     11.7712     14.3176    125.4523
  1414.5000     10.8731     10.7326     12.5271     15.4462    127.3424
  1414.6000     10.8731     10.7326     12.5271     15.4462    128.9586
  1414.7000     10.8731     10.7326     12.5271     15.4462    130.2467
  1414.8000     10.7072     11.2914     13.4056     17.1781    131.1721
  1414.9000     10.7072     11.2914     13.4056     17.1781    131.7289
  1415.0000     10.5626     11.9048     14.4088     19.4872    131.9327
  1415.1000     10.5626     11.9048     14.4088     19.4872    131.8196
  1415.2000     10.5626     11.9048     14.4088     19.4872    131.4330
  1415.3000     10.4411     12.5653     15.5414     22.0500    130.8116
  1415.4000     10.4411     12.5653     15.5414     22.0500    129.9820
  1415.5000     10.3422     13.2609     16.8131     24.5416    128.9549
  1415.6000     10.3422     13.2609     16.8131     24.5416    127.7259
