~Version Information
VERS.                      2.0: CWLS Log ASCII Standard - VERSION 2.0
WRAP.                       NO: One line per depth step
~Well Information Block
STRT.FT               830.0000: 
STOP.FT              3122.7000: 
STEP.FT                 0.1000: 
NULL.                -999.2500: 
COMP.          Pioneer Natural Resources: COMPANY
WELL.              Stones 24-8: WELL
FLD.           Purgatoire River: FIELD
LOC.           648' FSL & 2264' FWL: LOCATION
PROV.                 Colorado: PROVINCE
CNTY.               Las Animas: COUNTRY
SRVC.                Patterson: SERVICE COMPANY
DATE.          Wed Jan 19 15:33:00 2005: LOG DATE
UWI.           05 071 07945 00: UNIQUE WELL ID
~Curve Information Block
DEPT.FT            0 000 00 00: Depth
DCAL.in                       : CDL Caliper
RHOB.g/cc                     : CDL Bulk Density
RHOC.g/cc                     : CDL Density Correction
DPOR.pu                       : CDL Density Porosity
NPOR.pu                       : Neutron Porosity
GR.GAPI                       : Gamma Ray
~Parameter Information Block
~A  Depth       DCAL        RHOB        RHOC        DPOR        NPOR         GR     
# ...
  2337.2000      8.1315      2.5069      0.0836      8.6698     28.1384    132.4149
  2337.3000      8.1629      2.5065      0.0748      8.6958     27.6686    136.0709
  2337.4000      8.1629      2.5048      0.0679      8.7992     27.4496    142.5610
  2337.5000      8.2081      2.5075      0.0356      8.6392     27.3034    145.8500
  2337.6000      8.2081      2.5202      0.0559      7.8675     27.1295    140.4386
  2337.7000      8.2081      2.5376      0.0806      6.8128     27.1729    132.2756
  2337.8000      8.1845      2.5494      0.0787      6.0988     27.5055    133.2255
  2337.9000      8.1845      2.5548      0.0708      5.7681     27.5408    137.2391
  2338.0000      8.1091      2.5570      0.0910      5.6366     27.1960    134.9840
  2338.1000      8.1091      2.5542      0.0717      5.8091     27.0638    132.4292
  2338.2000      8.1091      2.5510      0.0489      6.0028     27.0239    137.0080
  2338.3000      8.0625      2.5566      0.0845      5.6610     26.8503    144.3447
  2338.4000      8.0625      2.5646      0.0715      5.1756     26.8354    146.5468
  2338.5000      8.0461      2.5648      0.0386      5.1655     27.0589    143.9205
  2338.6000      8.0461      2.5617      0.0667      5.3537     27.3128    141.0721
  2338.7000      8.0461      2.5562      0.0730      5.6872     27.3340    138.1239
  2338.8000      8.0359      2.5388      0.0420      6.7378     27.1482    131.8707
  2338.9000      8.0359      2.5092      0.0325      8.5328     27.1775    125.0152
  2339.0000      8.0292      2.4787      0.0230     10.3829     27.5922    125.1571
  2339.1000      8.0292      2.4611      0.0052     11.4475     28.0388    130.2265
  2339.2000      8.0292      2.4630      0.0326     11.3356     28.4272    130.9931
  2339.3000      8.0264      2.4811      0.0420     10.2393     28.9876    127.3154
  2339.4000      8.0264      2.5127      0.0538      8.3209     29.2817    127.4170
  2339.5000      8.0280      2.5528      0.0894      5.8914     28.8843    134.3079
  2339.6000      8.0280      2.5819      0.1326      4.1260     28.2923    143.5801
  2339.7000      8.0280      2.5872      0.1257      3.8056     28.2244    150.0639
  2339.8000      8.0311      2.5810      0.1246      4.1812     28.7055    151.0370
  2339.9000      8.0311      2.5810      0.1045      4.1792     29.2196    149.2692
  2340.0000      8.0323      2.5918      0.1377      3.5263     29.7369    153.1445
  2340.1000      8.0323      2.5982      0.2126      3.1403     30.2718    160.5819
  2340.2000      8.0323      2.5835      0.1352      4.0314     30.1318    159.4225
  2340.3000      8.0314      2.5527      0.0737      5.8958     29.1372    148.4064
  2340.4000      8.0314      2.5188      0.0387      7.9506     27.9851    138.1363
  2340.5000      8.0293      2.4864      0.0437      9.9162     27.3905    132.0897
  2340.6000      8.0293      2.4597      0.0061     11.5349     27.7826    127.8992
  2340.7000      8.0293      2.4463      0.0176     12.3433     28.7949    128.1494
  2340.8000      8.0279      2.4441      0.0104     12.4802     29.7153    131.6078
  2340.9000      8.0279      2.4430      0.0651     12.5446     30.2133    134.1562
  2341.0000      8.0283      2.4407      0.0240     12.6830     30.1823    139.5254
  2341.1000      8.0283      2.4391      0.0831     12.7845     29.9567    151.3007
  2341.2000      8.0283      2.4369      0.0514     12.9129     30.0195    165.6902
  2341.3000      8.0362      2.4437      0.0259     12.5032     30.5986    176.0663
  2341.4000      8.0362      2.4661      0.0745     11.1451     31.3635    178.1095
  2341.5000      8.0706      2.4842      0.1047     10.0471     31.6671    172.4945
  2341.6000      8.0706      2.4811      0.0489     10.2380     31.4298    166.3168
  2341.7000      8.0706      2.4655      0.0410     11.1813     31.2347    164.8138
  2341.8000      8.1263      2.4419      0.0860     12.6144     31.4292    162.4011
  2341.9000      8.1263      2.4039      0.0447     14.9144     31.8149    159.1961
  2342.0000      8.1604      2.3430      0.0489     18.6089     32.1253    159.4900
  2342.1000      8.1604      2.2433      0.0155     24.6511     32.5179    158.8791
  2342.2000      8.1604      2.1062     -0.0466     32.9581     33.1856    153.9333
  2342.3000      8.1688      1.9614     -0.0887     41.7327     33.6455    146.0541
  2342.4000      8.1688      1.8414     -0.1281     49.0054     33.6209    136.4703
  2342.5000      8.1690      1.7509     -0.1126     54.4904     33.6188    125.6639
  2342.6000      8.1690      1.6709     -0.1535     59.3408     33.9943    114.4653
  2342.7000      8.1690      1.6013     -0.1587     63.5562     34.6489    105.7292
  2342.8000      8.1905      1.5751     -0.1052     65.1429     35.0058    101.3191
  2342.9000      8.1905      1.6192     -0.0225     62.4753     34.2896     97.9136
  2343.0000      8.2908      1.7178      0.1534     56.4982     32.7944     91.9009
  2343.1000      8.2908      1.8364      0.2079     49.3119     31.3090     85.0493
  2343.2000      8.2908      1.9622      0.2584     41.6857     29.9789     80.6201
  2343.3000      8.4346      2.0868      0.3550     34.1324     28.6287     78.8095
  2343.4000      8.4346      2.1974      0.2871     27.4292     26.8983     78.6091
  2343.5000      8.4145      2.3021      0.2478     21.0845     24.6497     79.3431
  2343.6000      8.4145      2.4075      0.2721     14.6992     22.7013     80.5094
  2343.7000      8.4145      2.4928      0.2776      9.5268     21.5649     81.6836
  2343.8000      8.1981      2.5376      0.2223      6.8127     20.6814     81.4618
  2343.9000      8.1981      2.5522      0.1222      5.9249     20.0275     78.4364
  2344.0000      8.0281      2.5631      0.1095      5.2665     19.6983     73.2794
  2344.1000      8.0281      2.5789      0.1153      4.3061     19.2005     67.9334
  2344.2000      8.0281      2.5932      0.1084      3.4438     18.5801     64.0554
  2344.3000      7.9792      2.6007      0.0791      2.9890     18.1941     62.3824
  2344.4000      7.9792      2.5998      0.1026      3.0411     18.0524     64.7229
  2344.5000      7.9741      2.6004      0.0643      3.0065     18.1065     70.9181
  2344.6000      7.9741      2.6180      0.0863      1.9415     18.3198     77.2293
  2344.7000      7.9741      2.6392      0.1299      0.6545     18.7411     82.7558
  2344.8000      7.9739      2.6353      0.1238      0.8901     19.7482     86.1810
  2344.9000      7.9739      2.6046      0.0846      2.7540     21.3037     83.7916
  2345.0000      7.9740      2.5684      0.0482      4.9424     22.5724     79.0987
  2345.1000      7.9740      2.5404      0.0377      6.6425     23.0229     77.7890
  2345.2000      7.9740      2.5231      0.0069      7.6887     22.8093     80.1766
  2345.3000      7.9753      2.5204      0.0165      7.8527     22.2496     86.4288
  2345.4000      7.9753      2.5238      0.0438      7.6512     21.9035     97.1732
  2345.5000      7.9765      2.5199      0.0150      7.8878     22.3387    108.3214
  2345.6000      7.9765      2.5154      0.0310      8.1589     23.1297    112.0138
  2345.7000      7.9765      2.5211      0.0444      7.8113     23.4529    108.9498
  2345.8000      7.9755      2.5331      0.0772      7.0832     23.4163    108.6075
  2345.9000      7.9755      2.5373      0.0838      6.8279     23.4675    115.6974
  2346.0000      7.9735      2.5293      0.0641      7.3128     23.6184    129.2179
  2346.1000      7.9735      2.5283      0.0119      7.3736     23.9681    142.8657
  2346.2000      7.9735      2.5485      0.0688      6.1487     24.7033    147.8578
  2346.3000      7.9729      2.5716      0.1088      4.7498     25.5321    145.1771
  2346.4000      7.9729      2.5765      0.1134      4.4544     26.1608    143.8666
  2346.5000      7.9739      2.5680      0.0786      4.9675     26.4583    145.8545
  2346.6000      7.9739      2.5589      0.0787      5.5200     26.2479    144.1611
  2346.7000      7.9739      2.5524      0.0950      5.9167     25.8427    139.4974
