~Version Information
VERS.                      2.0: CWLS Log ASCII Standard - VERSION 2.0
WRAP.                       NO: One line per depth step
~Well Information Block
STRT.FT               -17.7500: 
STOP.FT              1590.5000: 
STEP.FT                 0.2500: 
NULL.                -999.2500: 
COMP.          Petrogulf Corporation: COMPANY
WELL.          Great Plains 22-21V: WELL
FLD.           Purgatorie River: FIELD
LOC.           63' FNL & 1895' FWL--: LOCATION
CNTY.               Las Animas: COUNTY
SRVC.          Superior Well Services: SERVICE COMPANY
DATE.          Fri Dec 08 14:45:19 2006: LOG DATE
UWI.           05 071 08346 00: UNIQUE WELL ID
STAT.                       CO: STATE
~Curve Information Block
DEPT.FT            0 000 00 00: Depth
CCL.                          : Casing Collar Locator
TT3.usec                      : CBL 3' Travel Time
AMP3.mV                       : CBL 3' Amplitude
GR.GAPI                       : Gamma Ray
~Parameter Information Block
~A  Depth       CCL         TT3         AMP3         GR     
# ...
   183.2500      0.0000    260.2071     71.1422     61.0435
   183.5000      0.0000    260.5950     68.9869     59.9283
   183.7500      0.0000    261.3258     66.3168     54.8949
   184.0000      0.0000    262.4172     63.1540     47.4668
   184.2500      0.0000    263.7257     59.5353     40.0931
   184.5000      0.0000    265.0007     55.8605     34.3974
   184.7500      0.0000    266.0235     52.8492     30.3734
   185.0000      0.0000    266.7096     50.9848     27.1343
   185.2500      0.0000    267.1041     50.1493     24.1987
   185.5000     -2.0000    267.3111     49.8586     21.9505
   185.7500      0.0000    267.4281     49.6882     21.0629
   186.0000      0.0000    267.5047     49.5091     21.7569
   186.2500      0.0000    267.4995     49.5719     23.6725
   186.5000      0.0000    267.2563     50.4164     26.3124
   186.7500      0.0000    266.5806     52.4761     29.4603
   187.0000      0.0000    265.4175     55.6673     33.1625
   187.2500      0.0000    263.9666     59.4812     37.4100
   187.5000      0.0000    262.5787     63.3909     41.8151
   187.7500      0.0000    261.5282     66.9784     45.5487
   188.0000      0.0000    260.8853     69.8535     47.6951
   188.2500      0.0000    260.5624     71.7707     47.8136
   188.5000      0.0000    260.4297     72.8008     46.2951
   188.7500      0.0000    260.3878     73.2443     44.3598
   189.0000      0.0000    260.3817     73.3999     43.6471
   189.2500      0.0000    260.3878     73.4451     45.3981
   189.5000      0.0000    260.3981     73.4595     49.8362
   189.7500      0.0000    260.4054     73.4729     56.4235
   190.0000      0.0000    260.3978     73.4927     64.5780
   190.2500      0.0000    260.3680     73.5118     73.9504
   190.5000      0.0000    260.3242     73.5211     84.0648
   190.7500      0.0000    260.2854     73.5202     93.7121
   191.0000      0.0000    260.2655     73.5140    100.7983
   191.2500      0.0000    260.2650     73.5034    103.3595
   191.5000      0.0000    260.2745     73.4852    101.2143
   191.7500      0.0000    260.2844     73.4589     96.4366
   192.0000      0.0000    260.2917     73.4284     91.8429
   192.2500      0.0000    260.2983     73.3964     89.0120
   192.5000      0.0000    260.3032     73.3626     87.7132
   192.7500      0.0000    260.2977     73.3330     86.8274
   193.0000      0.0000    260.2695     73.3249     85.5327
   193.2500      0.0000    260.2166     73.3516     83.8991
   193.5000      0.0000    260.1571     73.3995     82.6552
   193.7500      0.0000    260.1216     73.4316     82.3072
   194.0000      0.0000    260.1291     73.4228     82.4939
   194.2500      0.0000    260.1706     73.3823     82.3770
   194.5000      0.0000    260.2187     73.3361     81.4364
   194.7500      0.0000    260.2487     73.3020     79.6026
   195.0000      0.0000    260.2524     73.2873     76.8958
   195.2500      0.0000    260.2348     73.2947     73.3951
   195.5000      0.0000    260.2049     73.3191     69.5648
   195.7500      0.0000    260.1694     73.3488     66.2166
   196.0000      0.0000    260.1314     73.3755     63.7585
   196.2500      0.0000    260.0935     73.3990     61.5095
   196.5000      0.0000    260.0612     73.4174     58.1531
   196.7500      0.0000    260.0421     73.4221     53.1593
   197.0000      0.0000    260.0410     73.4027     47.6235
   197.2500      0.0000    260.0576     73.3546     43.4539
   197.5000      0.0000    260.0862     73.2852     41.7122
   197.7500      0.0000    260.1170     73.2128     41.9036
   198.0000      0.0000    260.1400     73.1539     42.8532
   198.2500      0.0000    260.1490     73.1094     43.9794
   198.5000      0.0000    260.1430     73.0709     45.4775
   198.7500      0.0000    260.1229     73.0391     47.5023
   199.0000      0.0000    260.0912     73.0244     49.5501
   199.2500      0.0000    260.0555     73.0262     50.7350
   199.5000      0.0000    260.0268     73.0275     50.6023
   199.7500      0.0000    260.0082     73.0149     49.6547
   200.0000      0.0000    259.9909     72.9950     49.0056
   200.2500      0.0000    259.9643     72.9832     49.4768
   200.5000      0.0000    259.9339     72.9764     51.0718
   200.7500      0.0000    259.9208     72.9452     53.2515
   201.0000      0.0000    259.9393     72.8577     55.3978
   201.2500      0.0000    259.9800     72.7102     56.8800
   201.5000      0.0000    260.0199     72.5294     57.0068
   201.7500      0.0000    260.0437     72.3525     55.4335
   202.0000      0.0000    260.0510     72.2067     52.7251
   202.2500      0.0000    260.0500     72.0959     50.0406
   202.5000      0.0000    260.0511     71.9987     47.9534
   202.7500      0.0000    260.0604     71.8862     45.9893
   203.0000      0.0000    260.0762     71.7472     43.5476
   203.2500      0.0000    260.0894     71.5961     40.7479
   203.5000      0.0000    260.0902     71.4579     38.1515
   203.7500      0.0000    260.0756     71.3477     36.2588
   204.0000      0.0000    260.0528     71.2603     35.5485
   204.2500      0.0000    260.0337     71.1742     36.4697
   204.5000      0.0000    260.0260     71.0688     39.0375
   204.7500      0.0000    260.0271     70.9419     42.5634
   205.0000      0.0000    260.0261     70.8093     45.7912
   205.2500      0.0000    260.0119     70.6804     47.3597
   205.5000      0.0000    259.9836     70.5373     46.5648
   205.7500      0.0000    259.9563     70.3455     44.0901
   206.0000      0.0000    259.9550     70.0840     41.9296
   206.2500      0.0000    259.9957     69.7651     42.2801
   206.5000      0.0000    260.0691     69.4327     46.2074
   206.7500      0.0000    260.1447     69.1455     53.0353
   207.0000      0.0000    260.1919     68.9513     60.8585
   207.2500      0.0000    260.2016     68.8605     67.8720
   207.5000      0.0000    260.1885     68.8429     73.4744
   207.7500      0.0000    260.1735     68.8546     78.0426
   208.0000      0.0000    260.1697     68.8641     81.6949
   208.2500      0.0000    260.1825     68.8528     83.6771
   208.5000      0.0000    260.2107     68.8172     83.2655
   208.7500      0.0000    260.2424     68.7800     81.0322
   209.0000      0.0000    260.2585     68.7808     78.8613
   209.2500      0.0000    260.2495     68.8396     78.6340
   209.5000      0.0000    260.2228     68.9378     80.7768
   209.7500      0.0000    260.1913     69.0432     83.8794
   210.0000      0.0000    260.1604     69.1424     85.7973
   210.2500      0.0000    260.1295     69.2440     85.4770
   210.5000      0.0000    260.0982     69.3617     83.9591
   210.7500      0.0000    260.0677     69.4992     83.5385
   211.0000      0.0000    260.0403     69.6468     85.6671
   211.2500      0.0000    260.0201     69.7841     89.5360
   211.5000      0.0000    260.0131     69.8890     92.8980
   211.7500      0.0000    260.0227     69.9499     94.3134
   212.0000      0.0000    260.0456     69.9766     94.3696
   212.2500      0.0000    260.0702     69.9976     94.7396
   212.5000      0.0000    260.0826     70.0420     96.3249
   212.7500      0.0000    260.0759     70.1219     98.4296
   213.0000      0.0000    260.0552     70.2326     99.5619
   213.2500      0.0000    260.0310     70.3704     98.6899
   213.5000      0.0000    260.0089     70.5420     95.5384
   213.7500      0.0000    259.9885     70.7509     90.1036
   214.0000      0.0000    259.9709     70.9766     82.5671
   214.2500      0.0000    259.9606     71.1780     73.8203
   214.5000      0.0000    259.9602     71.3210     65.6707
   214.7500      0.0000    259.9661     71.4023     60.2488
   215.0000      0.0000    259.9696     71.4446     58.9795
   215.2500      0.0000    259.9635     71.4704     61.7554
   215.5000      0.0000    259.9485     71.4846     66.9962
   215.7500      0.0000    259.9326     71.4824     72.7973
   216.0000      0.0000    259.9258     71.4709     78.2072
   216.2500      0.0000    259.9306     71.4787     83.3901
   216.5000      0.0000    259.9396     71.5441     88.7152
