~Version Information
VERS.                      2.0: CWLS Log ASCII Standard - VERSION 2.0
WRAP.                       NO: One line per depth step
~Well Information Block
STRT.FT               -10.0000: 
STOP.FT              2184.0000: 
STEP.FT                 0.2500: 
NULL.                -999.2500: 
COMP.          Petrogulf Corporation: COMPANY
WELL.              Silva 1-43R: WELL
FLD.           Purgatorie River: FIELD
LOC.           1971' FSL & 526' FEL--: LOCATION
CNTY.               Las Animas: COUNTY
SRVC.          Patterson Wireline: SERVICE COMPANY
DATE.          Thu Jul 13 13:08:17 2006: LOG DATE
UWI.           05 072 08372 00: UNIQUE WELL ID
STAT.                       CO: STATE
~Curve Information Block
DEPT.FT            0 000 00 00: Depth
CCL.                          : Casing Collar Locator
TT3.usec                      : CBL 3' Travel Time
AMP3.mV                       : CBL 3' Amplitude
GR.GAPI                       : Gamma Ray
~Parameter Information Block
~A  Depth       CCL         TT3         AMP3         GR     
   -10.0000   -999.2500   -999.2500   -999.2500    120.5116
    -9.7500   -999.2500   -999.2500   -999.2500    121.5749
    -9.5000   -999.2500   -999.2500   -999.2500    121.6021
    -9.2500   -999.2500   -999.2500   -999.2500    120.3051
    -9.0000   -999.2500   -999.2500   -999.2500    117.2176
    -8.7500   -999.2500   -999.2500   -999.2500    113.0704
    -8.5000   -999.2500   -999.2500   -999.2500    109.6110
    -8.2500   -999.2500   -999.2500   -999.2500    107.6677
    -8.0000   -999.2500   -999.2500   -999.2500    106.3611
    -7.7500   -999.2500   -999.2500   -999.2500    104.6649
    -7.5000   -999.2500   -999.2500   -999.2500    103.0409
    -7.2500   -999.2500   -999.2500   -999.2500    103.1169
    -7.0000   -999.2500   -999.2500   -999.2500    106.0703
    -6.7500   -999.2500   -999.2500   -999.2500    111.3065
    -6.5000   -999.2500   -999.2500   -999.2500    116.3629
    -6.2500   -999.2500   -999.2500   -999.2500    118.3280
    -6.0000   -999.2500   -999.2500   -999.2500    116.0355
    -5.7500   -999.2500   -999.2500   -999.2500    111.1543
    -5.5000   -999.2500   -999.2500   -999.2500    106.8803
    -5.2500   -999.2500   -999.2500   -999.2500    105.4020
    -5.0000   -999.2500   1161.0000      1.6629    106.5700
    -4.7500   -999.2500   1161.0000      1.6633    108.5146
    -4.5000   -999.2500   1161.0000      1.6613    109.0153
    -4.2500   -999.2500   1161.0000      1.6531    106.4875
    -4.0000   -999.2500   1161.0000      1.6398    100.4745
    -3.7500   -999.2500   1161.0000      1.6246     91.8479
    -3.5000   -999.2500   1161.0000      1.6116     82.5359
    -3.2500   -999.2500   1161.0000      1.6041     74.3869
    -3.0000   -999.2500   1161.0000      1.6047     67.7871
    -2.7500   -999.2500   1161.0000      1.6134     61.5375
    -2.5000   -999.2500   1161.0000      1.6276     54.3904
    -2.2500   -999.2500   1161.0000      1.6440     46.5693
    -2.0000   -999.2500   1161.0000      1.6599     39.6506
    -1.7500   -999.2500   1161.0000      1.6738     35.1842
    -1.5000   -999.2500   1161.0000      1.6846     33.5961
    -1.2500   -999.2500   1161.0000      1.6922     34.2378
    -1.0000   -999.2500   1161.0000      1.6969     36.2205
    -0.7500   -999.2500   1161.0000      1.6989     39.1229
    -0.5000   -999.2500   1161.0000      1.6910     48.3772
    -0.2500   -999.2500   1161.0000      1.6820     55.2323
     0.0000   -999.2500   1161.0000      1.6741     63.1227
     0.2500   -999.2500   1161.0000      1.6697     70.5843
     0.5000      0.0000   1161.0000      1.6670     75.8605
     0.7500      0.0000   1161.0000      1.6628     78.2743
     1.0000      0.0000   1161.0000      1.6566     78.7714
     1.2500      0.0000   1161.0000      1.6513     78.8498
     1.5000      0.0000   1161.0000      1.6492     79.1613
     1.7500      0.0000   1161.0000      1.6501     79.5161
     2.0000      0.0000   1161.0000      1.6521     79.9750
     2.2500      0.0000   1161.0000      1.6531     81.1750
     2.5000      0.0000   1161.0000      1.6508     83.5315
     2.7500      0.0000   1161.0000      1.6435     86.8406
     3.0000      0.0000   1161.0000      1.6324     90.8442
     3.2500      0.0000   1161.0000      1.6217     95.6705
     3.5000      0.0000   1161.0000      1.6158    101.6402
     3.7500      0.0000   1161.0000      1.6148    108.8418
     4.0000      0.0000   1161.0000      1.6153    116.6066
     4.2500      0.0000   1161.0000      1.6155    123.1429
     4.5000      0.0000   1161.0000      1.6180    126.1789
     4.7500      0.0000   1161.0000      1.6271    124.6464
     5.0000      0.0000   1161.0000      1.6428    119.6596
     5.2500      0.0000   1161.0000      1.6595    113.4066
     5.5000      0.0000   1160.9718      1.6715    107.4081
     5.7500      0.0000   1160.7562      1.6829    102.3841
     6.0000      0.0000   1159.6151      1.7187     99.0982
     6.2500      0.0000   1154.8680      1.8798     98.0904
     6.5000      0.0000   1139.3215      2.4967     98.5824
     6.7500      0.0000   1099.1794      4.3814     98.6048
     7.0000      0.0000   1017.3527      8.8976     96.7233
     7.2500      0.0000    885.5323     17.3414     93.3940
     7.5000     -2.0000    717.5908     29.6484     90.4687
     7.7500      0.0000    548.3414     43.6397     89.5248
     8.0000      0.0000    413.4494     56.0676     90.8742
     8.2500      0.0000    328.4847     64.7345     94.0718
     8.5000      0.0000    286.2344     69.5548     98.8818
     8.7500      0.0000    269.6696     71.8121    105.0747
     9.0000      0.0000    264.5586     72.8608    111.3366
     9.2500      0.0000    263.3246     73.4970    115.4310
     9.5000      0.0000    263.1011     74.0268    116.0455
     9.7500      0.0000    263.0874     74.5241    113.7147
    10.0000      0.0000    263.1084     74.9895    109.6182
    10.2500      0.0000    263.1297     75.4166    104.6718
    10.5000      0.0000    263.1500     75.8158    100.1823
    10.7500      0.0000    263.1684     76.2174     97.7905
    11.0000      0.0000    263.1839     76.6512     97.8714
    11.2500      0.0000    263.1969     77.1334     98.9652
    11.5000      0.0000    263.2097     77.6753     99.4511
    11.7500      0.0000    263.2253     78.2847     99.1656
    12.0000      0.0000    263.2452     78.9409     99.0277
    12.2500      0.0000    263.2680     79.5775     99.4631
    12.5000      0.0000    263.2906     80.1045     99.6394
    12.7500      0.0000    263.3104     80.4578     98.3592
    13.0000      0.0000    263.3265     80.6325     95.5327
    13.2500      0.0000    263.3393     80.6778     92.3098
    13.5000      0.0000    263.3487     80.6561     89.7090
    13.7500      0.0000    263.3542     80.6008     87.6229
    14.0000      0.0000    263.3563     80.5108     85.5192
    14.2500      0.0000    263.3569     80.3812     83.6487
    14.5000      0.0000    263.3582     80.2346     82.9651
    14.7500      0.0000    263.3612     80.1127     84.0841
    15.0000      0.0000    263.3662     80.0423     87.0029
    15.2500      0.0000    263.3730     80.0147     91.5172
    15.5000      0.0000    263.3806     79.9984     96.8824
    15.7500      0.0000    263.3873     79.9667    101.1599
    16.0000      0.0000    263.3919     79.9155    102.1340
    16.2500      0.0000    263.3947     79.8604     99.4286
    16.5000      0.0000    263.3971     79.8188     95.1548
    16.7500      0.0000    263.4001     79.7959     92.0291
    17.0000      0.0000    263.4037     79.7882     91.0415
    17.2500      0.0000    263.4080     79.7954     91.0519
    17.5000      0.0000    263.4131     79.8223     90.3652
    17.7500      0.0000    263.4187     79.8720     88.4498
    18.0000      0.0000    263.4239     79.9418     86.1636
    18.2500      0.0000    263.4280     80.0271     84.5642
    18.5000      0.0000    263.4311     80.1262     83.9579
    18.7500      0.0000    263.4340     80.2399     84.2639
    19.0000      0.0000    263.4377     80.3662     85.7087
    19.2500      0.0000    263.4426     80.4973     88.5346
    19.5000      0.0000    263.4482     80.6235     92.1725
    19.7500      0.0000    263.4539     80.7389     95.0742
    20.0000      0.0000    263.4594     80.8433     95.3082
    20.2500      0.0000    263.4653     80.9371     91.6229
    20.5000      0.0000    263.4725     81.0179     84.8483
    20.7500      0.0000    263.4813     81.0867     78.4507
    21.0000      0.0000    263.4911     81.1542     76.5958
    21.2500      0.0000    263.5008     81.2331     80.7846
    21.5000      0.0000    263.5099     81.3248     88.5510
    21.7500      0.0000    263.5185     81.4150     95.6375
    22.0000      0.0000    263.5266     81.4810     99.2264
    22.2500      0.0000    263.5341     81.5072     99.3343
    22.5000      0.0000    263.5414     81.4976     97.9362
    22.7500      0.0000    263.5495     81.4715     97.1369
    23.0000      0.0000    263.5590     81.4389     97.6040
    23.2500      0.0000    263.5704     81.3832     98.1377
