~Version Information
VERS.                      2.0: CWLS Log ASCII Standard - VERSION 2.0
WRAP.                       NO: One line per depth step
~Well Information Block
STRT.FT                -2.7500: 
STOP.FT              2141.2500: 
STEP.FT                 0.2500: 
NULL.                -999.2500: 
COMP.          Pioneer Nautural Resources: COMPANY
WELL.             Enzo 43-8 Tr: WELL
FLD.           Purgatorie River: FIELD
LOC.           2303' FSL & 604' FEL--: LOCATION
PROV.                       CO: PROVINCE
CNTY.               Las Animas: COUNTRY
SRVC.                         : SERVICE COMPANY
DATE.          Thu Nov 04 09:01:55 2004: LOG DATE
UWI.            05-071-08213  : UNIQUE WELL ID
~Curve Information Block
DEPT.FT            0 000 00 00: Depth
GR.GAPI                       : Gamma Ray
CCL.                          : Casing Collar Locator
TT3.usec                      : CBL 3' Travel Time
AMP3.mV                       : CBL 3' Amplitude
~Parameter Information Block
~A  Depth        GR         CCL         TT3         AMP3    
    -2.7500   -999.2500   -999.2500   -999.2500   -999.2500
    -2.5000   -999.2500   -999.2500   -999.2500   -999.2500
    -2.2500   -999.2500   -999.2500   -999.2500   -999.2500
    -2.0000   -999.2500   -999.2500   -999.2500   -999.2500
    -1.7500   -999.2500   -999.2500   -999.2500   -999.2500
    -1.5000   -999.2500   -999.2500    921.0000     -0.3119
    -1.2500   -999.2500   -999.2500    921.0000     -0.3353
    -1.0000   -999.2500   -999.2500    921.0000     -0.3584
    -0.7500   -999.2500   -999.2500    921.0000     -0.3790
    -0.5000   -999.2500   -999.2500    921.0000     -0.3870
    -0.2500   -999.2500   -999.2500    921.0000     -0.3751
     0.0000   -999.2500   -999.2500    921.0000     -0.3459
     0.2500   -999.2500   -999.2500    921.0000     -0.3050
     0.5000   -999.2500   -999.2500    921.0000     -0.2546
     0.7500   -999.2500   -999.2500    921.0000     -0.2004
     1.0000   -999.2500   -999.2500    921.0000     -0.1576
     1.2500   -999.2500   -999.2500    921.0000     -0.1428
     1.5000   -999.2500   -999.2500    921.0000     -0.1572
     1.7500   -999.2500   -999.2500    921.0000     -0.1839
     2.0000   -999.2500   -999.2500    921.0000     -0.2012
     2.2500   -999.2500   -999.2500    921.0000     -0.1979
     2.5000   -999.2500   -999.2500    921.0000     -0.1781
     2.7500   -999.2500   -999.2500    921.0000     -0.1567
     3.0000   -999.2500   -999.2500    921.0000     -0.1479
     3.2500   -999.2500   -999.2500    921.0000     -0.1571
     3.5000   -999.2500   -999.2500    921.0000     -0.1824
     3.7500   -999.2500      0.0000    921.0000     -0.2200
     4.0000   -999.2500      0.0000    921.0000     -0.2658
     4.2500   -999.2500      0.0000    921.0000     -0.3102
     4.5000   -999.2500      0.0000    921.0000     -0.3396
     4.7500   -999.2500      0.0000    921.0000     -0.3466
     5.0000   -999.2500      0.0000    921.0000     -0.3362
     5.2500   -999.2500      0.0000    921.0000     -0.3163
     5.5000   -999.2500      0.0000    920.9756     -0.2872
     5.7500   -999.2500      0.0000    920.7970     -0.2417
     6.0000   -999.2500      0.0000    919.8608     -0.1609
     6.2500   -999.2500      0.0000    916.0115      0.0621
     6.5000   -999.2500      0.0000    903.5743      0.8139
     6.7500   -999.2500      0.0000    871.9509      3.0086
     7.0000   -999.2500      0.0000    808.5817      8.0641
     7.2500   -999.2500      0.0000    708.3671     17.1617
     7.5000   -999.2500      0.0000    583.1516     29.9702
     7.7500   -999.2500      0.0000    459.4415     44.0920
     8.0000   -999.2500      0.0000    362.7648     56.2785
     8.2500   -999.2500      0.0000    303.0129     64.4937
     8.5000   -999.2500      0.0000    273.8214     68.8073
     8.7500     59.9178      0.0000    262.5528     70.5853
     9.0000     54.5271      0.0000    259.1067     71.2389
     9.2500     51.8743      0.0000    258.2582     71.6311
     9.5000     52.0640      0.0000    258.0864     72.1077
     9.7500     54.0703      0.0000    258.0794     72.6940
    10.0000     56.0488      0.0000    258.1259     73.2615
    10.2500     56.3757      0.0000    258.1903     73.6811
    10.5000     54.9457      0.0000    258.2510     73.9261
    10.7500     53.3677      0.0000    258.2967     74.0640
    11.0000     53.5757      0.0000    258.3284     74.1642
    11.2500     56.0832      0.0000    258.3526     74.2414
    11.5000     59.5873      0.0000    258.3729     74.2792
    11.7500     62.3133      0.0000    258.3895     74.2769
    12.0000     63.5546      0.0000    258.4015     74.2570
    12.2500     63.8068      0.0000    258.4081     74.2392
    12.5000     63.8150      0.0000    258.4080     74.2223
    12.7500     64.0652      0.0000    258.4008     74.1916
    13.0000     65.0581      0.0000    258.3899     74.1402
    13.2500     67.3178      0.0000    258.3838     74.0829
    13.5000     70.7491      0.0000    258.3908     74.0517
    13.7500     74.3546      0.0000    258.4115     74.0714
    14.0000     77.0118      0.0000    258.4373     74.1377
    14.2500     78.3963      0.0000    258.4579     74.2246
    14.5000     78.9565      0.0000    258.4698     74.3144
    14.7500     79.1299      0.0000    258.4774     74.4118
    15.0000     78.8546      0.0000    258.4875     74.5209
    15.2500     77.9482      0.0000    258.5033     74.6137
    15.5000     76.7864      0.0000    258.5215     74.6260
    15.7500     76.2356      0.0000    258.5360     74.4882
    16.0000     76.7076      0.0000    258.5422     74.1600
    16.2500     77.4903      0.0000    258.5392     73.6498
    16.5000     77.3368      0.0000    258.5269     73.0293
    16.7500     75.8027      0.0000    258.5036     72.4196
    17.0000     73.7966      0.0000    258.4838     71.8757
    17.2500     72.7366      0.0000    258.5360     71.1852
    17.5000     73.3416      0.0000    258.8427     69.7696
    17.7500     75.2656      0.0000    259.7595     66.9292
    18.0000     77.6256      0.0000    261.8338     62.3617
    18.2500     79.6453      0.0000    265.7207     56.4859
    18.5000     80.8405      0.0000    271.9270     50.1681
    18.7500     80.8276      0.0000    280.6272     44.1448
    19.0000     79.2650      0.0000    292.3973     38.7575
    19.2500     75.9852      0.0000    310.4876     34.0565
    19.5000     71.1351      0.0000    343.1002     29.9222
    19.7500     65.4713     -1.5363    401.3794     26.1527
    20.0000     60.6008      2.0000    490.8678     22.6104
    20.2500     58.3477      2.0000    602.5422     19.3028
    20.5000     59.3280      0.0000    714.3425     16.3237
    20.7500     62.3613      0.0000    804.4940     13.7808
    21.0000     65.6792      0.0000    863.8620     11.7705
    21.2500     68.5734      0.0000    896.4806     10.3229
    21.5000     71.5652      0.0000    911.7814      9.3495
    21.7500     75.1433      0.0000    917.9703      8.7081
    22.0000     78.7380      0.0000    920.0029      8.3043
    22.2500     81.1678      0.0000    920.0844      8.0887
    22.5000     81.9918      0.0000    918.5145      7.9965
    22.7500     82.0879      0.0000    914.4059      7.9575
    23.0000     82.6214      0.0000    906.6689      7.9454
    23.2500     83.5086      0.0000    895.4014      7.9764
    23.5000     83.2743      0.0000    882.7307      8.0590
    23.7500     80.6971      0.0000    871.9166      8.1556
    24.0000     76.3493      0.0000    865.1732      8.1990
    24.2500     72.1392      0.0000    862.0608      8.1446
    24.5000     69.5101      0.0000    859.9047      8.0059
    24.7500     68.4859      0.0000    856.1359      7.8309
    25.0000     68.1611      0.0000    850.6268      7.6537
    25.2500     67.5109      0.0000    845.5555      7.4811
    25.5000     66.0375      0.0000    843.2607      7.3166
    25.7500     64.3165      0.0000    845.2183      7.1736
    26.0000     63.6138      0.0000    852.6342      7.0584
    26.2500     64.2921      0.0000    865.9003      6.9543
    26.5000     64.8341      0.0000    882.8221      6.8324
    26.7500     63.2243      0.0000    898.9566      6.6806
    27.0000     59.3556      0.0000    910.6104      6.5206
    27.2500     55.3596      0.0000    917.0090      6.3967
    27.5000     53.4317      0.0000    919.5064      6.3405
    27.7500     54.0246      0.0000    919.4988      6.3509
    28.0000     56.2877      0.0000    917.1856      6.4087
    28.2500     59.3230      0.0000    911.9305      6.4966
    28.5000     62.4687      0.0000    903.8703      6.5973
    28.7500     64.9662      0.0000    895.2904      6.6856
    29.0000     66.0919      0.0000    889.4460      6.7401
    29.2500     65.6743      0.0000    887.3456      6.7606
    29.5000     64.1202      0.0000    887.0187      6.7679
    29.7500     61.8759      0.0000    887.0231      6.7909
    30.0000     59.2665      0.0000    888.9460      6.8528
    30.2500     56.9054      0.0000    894.8055      6.9595
    30.5000     55.7212      0.0000    903.5260      7.0938
