~Version Information
 VERS.                                  2.0 : CWLS LAS VERSION
 WRAP.                                   NO : WRAPING MODE
 SWARE .                 MController 2.5.0J : SOFTWARE VERSION
~Well Information
 WELL.                      Oink Oink 14-36 : WELL
 COMP.    Pioneer Natural Resources USA Ink : COMPANY
 FLD.                      Purgatoire River : FIELD
 LOC.                SW/SW Sec 36 T32S R37W : LOCATION
 DATE.                         6/07-08/2005 : DATE(S) LOGGED
 SRVC.       Blanco Geological Services LLC : SERVICE COMPANY
 STAT.                                   CO : STATE
 CNTY.                           Las Animas : COUNTY
 CTRY.                                  USA : COUNTRY
 API.                       05-071-08394-00 : API NUMBER
 STRT.FT                             514.00 : START DEPTH
 STOP.FT                            2457.00 : STOP DEPTH
 STEP.FT                               1.00 : DEPTH INCREMENT
 NULL.                                -9999 : NULL VALUE
~Curve information
 DEPTH.FT                                   :
 ROP.MIN/FT                                 :
 GAS.UNITS                                  :
~ASCII Log data
# ...
      1714.0         0.17       1440.3 
      1715.0         0.20       1365.0 
      1716.0         0.37       1263.3 
      1717.0         0.27       1092.8 
      1718.0         0.13        984.2 
      1719.0         0.07        946.6 
      1720.0         0.17        937.8 
      1721.0         0.27        937.1 
      1722.0         0.30        948.6 
      1723.0         0.35        937.4 
      1724.0         0.30        870.7 
      1725.0         0.30        935.1 
      1726.0         0.17        959.7 
      1727.0         0.27        979.3 
      1728.0         0.33        980.6 
      1729.0         0.20        973.1 
      1730.0         0.20        964.9 
      1731.0         0.33        947.9 
      1732.0         0.30        918.8 
      1733.0         0.40        884.1 
      1734.0         0.42        843.2 
      1735.0         0.13        846.5 
      1736.0         2.70       1102.6 
      1737.0         0.35       1433.7 
      1738.0         0.23       1600.6 
      1739.0         0.37       1688.9 
      1740.0         0.50       1672.5 
      1741.0         0.33       1447.8 
      1742.0         0.40       1276.4 
      1743.0         0.30       1112.8 
      1744.0         0.30       1009.4 
      1745.0         0.27        920.4 
      1746.0         0.27        906.7 
      1747.0         0.28        947.9 
      1748.0         0.37        977.7 
      1749.0         0.30        979.6 
      1750.0         0.27        972.4 
      1751.0         0.23        948.6 
      1752.0         0.27        937.8 
      1753.0         0.30        922.4 
      1754.0         0.27        894.9 
      1755.0         0.27        858.9 
      1756.0         0.30        823.3 
      1757.0         0.23        806.6 
      1758.0         0.32        800.0 
      1759.0         0.30        799.1 
      1760.0         0.20        778.1 
      1761.0         0.27        760.5 
      1762.0         0.17        738.2 
      1763.0         0.23        741.1 
      1764.0         0.23        752.9 
      1765.0         0.27        779.8 
      1766.0         2.45        846.2 
      1767.0         0.47       1269.5 
      1768.0         0.43       1630.0 
      1769.0         0.27       1784.1 
      1770.0         0.27       1868.5 
      1771.0         0.23       1878.0 
      1772.0         0.27       1850.8 
      1773.0         0.25       1725.9 
      1774.0         0.23       1634.3 
      1775.0         0.20       1495.6 
      1776.0         0.23       1384.6 
      1777.0         0.27       1275.7 
      1778.0         0.37       1171.3 
      1779.0         0.17       1040.5 
      1780.0         0.10       1010.1 
      1781.0         0.23        982.9 
      1782.0         0.27        958.0 
      1783.0         0.23        976.7 
      1784.0         0.27        984.9 
      1785.0         0.27        994.0 
      1786.0         0.30       1006.8 
      1787.0         0.28       1005.8 
      1788.0         0.23        990.1 
      1789.0         0.27        954.4 
      1790.0         0.30        925.3 
      1791.0         0.23        902.4 
      1792.0         0.20        866.1 
      1793.0         0.13        840.9 
      1794.0         0.20        828.2 
      1795.0         0.23        822.3 
      1796.0         3.05       1004.5 
      1797.0         0.43       1347.4 
      1798.0         0.57       1641.5 
      1799.0         0.37       1662.7 
      1800.0         0.22       1643.1 
      1801.0         0.33       1597.3 
      1802.0         0.33       1456.9 
      1803.0         0.43       1248.6 
      1804.0         0.33        968.2 
      1805.0         0.40        900.5 
      1806.0         0.30        996.7 
      1807.0         0.20       1056.8 
      1808.0         0.13       1086.9 
      1809.0         0.20       1119.0 
      1810.0         0.27       1134.7 
      1811.0         0.35       1134.1 
      1812.0         0.30       1092.8 
      1813.0         0.43       1015.3 
      1814.0         0.30        961.3 
      1815.0         0.23        937.1 
      1816.0         0.20        925.7 
      1817.0         0.17        901.8 
      1818.0         0.10        893.9 
      1819.0         0.17        889.7 
      1820.0         0.17        871.4 
      1821.0         0.13        855.7 
      1822.0         0.27        846.2 
      1823.0         0.23        831.4 
      1824.0         0.17        828.8 
      1825.0         0.25        857.6 
      1826.0         3.10       1220.4 
      1827.0         0.45       1577.7 
      1828.0         0.40       1852.5 
      1829.0         0.37       1976.8 
      1830.0         0.20       1993.8 
      1831.0         0.13       1986.3 
      1832.0         0.13       1940.5 
      1833.0         0.20       1878.3 
      1834.0         0.17       1767.4 
      1835.0         0.30       1666.0 
      1836.0         0.27       1485.7 
      1837.0         0.30       1371.6 
      1838.0         0.23       1237.1 
      1839.0         0.13       1156.3 
      1840.0         0.28       1115.1 
      1841.0         0.30       1043.4 
      1842.0         0.27       1012.0 
      1843.0         0.27       1049.0 
      1844.0         0.37       1071.2 
      1845.0         0.27       1066.0 
      1846.0         0.27       1046.1 
      1847.0         0.23       1021.2 
      1848.0         0.30       1009.7 
      1849.0         0.27       1003.5 
      1850.0         0.37        977.0 
      1851.0         0.25        915.5 
      1852.0         0.27        889.0 
      1853.0         0.27        864.8 
      1854.0         0.23        853.0 
      1855.0         0.27        853.7 
      1856.0         2.10        856.0 
      1857.0         0.18        743.4 
      1858.0         0.10        792.2 
      1859.0         0.50       1183.1 
      1860.0         0.37       1471.7 
      1861.0         0.53       1780.8 
      1862.0         0.57       1855.7 
      1863.0         0.20       1783.8 
      1864.0         0.13       1680.1 
      1865.0         0.23       1600.6 
      1866.0         0.30       1486.1 
      1867.0         0.28       1354.6 
      1868.0         0.27       1218.5 
      1869.0         0.27       1089.6 
      1870.0         0.40        918.1 
      1871.0         0.37        944.3 
      1872.0         0.30       1062.4 
      1873.0         0.27       1121.9 
      1874.0         0.17       1142.2 
      1875.0         0.13       1148.1 
      1876.0         0.23       1155.0 
      1877.0         0.17       1151.7 
      1878.0         0.13       1142.9 
      1879.0         0.20       1128.2 
      1880.0         0.28       1084.7 
      1881.0         0.23       1014.3 
      1882.0         0.23        957.4 
      1883.0         0.20        928.0 
      1884.0         0.20        904.7 
      1885.0         0.20        897.5 
      1886.0         3.35        911.9 
      1887.0         0.37       1187.7 
      1888.0         0.27       1413.4 
      1889.0         0.27       1613.3 
      1890.0         0.30       1785.1 
      1891.0         0.30       1897.3 
      1892.0         0.27       1909.7 
      1893.0         0.27       1878.6 
      1894.0         0.25       1770.7 
      1895.0         0.23       1656.2 
      1896.0         0.20       1537.4 
      1897.0         0.23       1438.3 
      1898.0         0.23       1325.8 
      1899.0         0.27       1207.3 
      1900.0         0.23       1096.4 
      1901.0         0.27       1028.7 
      1902.0         0.27        963.6 
      1903.0         0.23        948.2 
      1904.0         0.33        986.8 
      1905.0         0.23       1019.9 
      1906.0         0.30       1059.8 
      1907.0         0.28       1060.1 
      1908.0         0.27       1061.4 
      1909.0         0.30       1049.0 
      1910.0         0.23       1020.2 
      1911.0         0.27        990.8 
      1912.0         0.27        958.0 
      1913.0         0.37        928.9 
