~Version Information
VERS.                                  2.0 : CWLS LAS VERSION
WRAP.                                   NO : WRAPING MODE
SWARE .                 MController 2.5.0E : SOFTWARE VERSION
~Well Information
WELL.                         Warrior 32-1 : WELL
COMP.             Evergreen Operating Corp : COMPANY
FLD.                      Purgatorie River : FIELD
LOC.                SW/NE Sec 11 T33S R67W : LOCATION
DATE.                    10/02/04-10/03/04 : DATE(S) LOGGED
SRVC.       Blanco Geological Services LLC : SERVICE COMPANY
STAT.                                   CO : STATE
CNTY.                           Las Animas : COUNTY
CTRY.                                  USA : COUNTRY
API.                       05-071-08176-00 : API NUMBER
STRT.FT                             386.00 : START DEPTH
STOP.FT                            2265.00 : STOP DEPTH
STEP.FT                               1.00 : DEPTH INCREMENT
NULL.                                -9999 : NULL VALUE
~Curve information
DEPTH.FT                                   :
ROP.MIN/FT                                 :
GAS.UNITS                                  :
~ASCII Log data
# ...
     1004.00        0.267         14.2
     1005.00        0.267         13.3
     1006.00        0.267         12.3
     1007.00        0.300         12.2
     1008.00        0.267         11.5
     1009.00        0.267         12.5
     1010.00        0.267         12.5
     1011.00        0.267         12.8
     1012.00        0.267         12.5
     1013.00        0.267         13.3
     1014.00        0.283         13.8
     1015.00        0.267         13.4
     1016.00        0.267         11.1
     1017.00        0.267         11.0
     1018.00        0.267         10.6
     1019.00        0.200          8.7
     1020.00        0.267          8.3
     1021.00        0.333         11.3
     1022.00        0.267         14.6
     1023.00        8.483         11.7
     1024.00        0.233         12.8
     1025.00        0.300         13.0
     1026.00        0.300         11.2
     1027.00        0.267         10.4
     1028.00        0.267         10.2
     1029.00        0.267          9.9
     1030.00        0.267          9.2
     1031.00        0.200         11.4
     1032.00        0.200         13.2
     1033.00        0.233         14.1
     1034.00        0.250         13.4
     1035.00        0.267         12.4
     1036.00        0.167         11.2
     1037.00        0.100         11.6
     1038.00        0.133         11.3
     1039.00        0.233         11.7
     1040.00        0.233         11.6
     1041.00        0.133         11.5
     1042.00        0.333         12.4
     1043.00        0.233         12.7
     1044.00        0.233         12.8
     1045.00        0.233         12.5
     1046.00        0.267         13.3
     1047.00        0.167         13.2
     1048.00        0.283         13.0
     1049.00        0.300         13.0
     1050.00        0.200         11.6
     1051.00        0.167         12.7
     1052.00        0.233         13.4
     1053.00        6.533         65.9
     1054.00        0.133         61.9
     1055.00        0.300         41.0
     1056.00        0.467         19.2
     1057.00        0.300         14.2
     1058.00        0.300         12.7
     1059.00        0.267         11.7
     1060.00        0.133         11.8
     1061.00        0.167         13.0
     1062.00        0.267         14.0
     1063.00        0.250         13.9
     1064.00        0.233         13.1
     1065.00        0.233         12.5
     1066.00        0.267         11.9
     1067.00        0.200         12.5
     1068.00        0.233         13.7
     1069.00        0.233         13.9
     1070.00        0.167         13.5
     1071.00        0.100         13.8
     1072.00        0.100         13.4
     1073.00        0.300         12.2
     1074.00        0.300         13.2
     1075.00        0.267         13.0
     1076.00        0.300         13.1
     1077.00        0.267         14.6
     1078.00        0.283         18.0
     1079.00        0.267         19.6
     1080.00        0.233         20.1
     1081.00        0.233         18.6
     1082.00        0.200         17.8
     1083.00        5.050         49.7
     1084.00        0.200         54.2
     1085.00        0.417         72.8
     1086.00        0.333         58.0
     1087.00        0.267         37.8
     1088.00        0.167         27.9
     1089.00        0.133         22.6
     1090.00        0.100         20.1
     1091.00        0.100         18.3
     1092.00        0.133         16.1
     1093.00        0.300         16.1
     1094.00        0.267         17.8
     1095.00        0.300         17.5
     1096.00        0.267         16.2
     1097.00        0.233         14.7
     1098.00        0.233         14.3
     1099.00        0.233         14.2
     1100.00        0.317         13.7
     1101.00        0.233         13.8
     1102.00        0.233         12.9
     1103.00        0.200         12.6
     1104.00        0.200         12.5
     1105.00        0.267         12.1
     1106.00        0.233         11.8
     1107.00        0.233         12.8
     1108.00        0.233         13.4
     1109.00        0.333         13.2
     1110.00        0.267         12.8
     1111.00        0.233         12.0
     1112.00        0.233         11.3
     1113.00        6.733         39.3
     1114.00        0.100         32.8
     1115.00        0.217         23.0
     1116.00        0.267         15.9
     1117.00        0.233         13.3
     1118.00        0.267         13.3
     1119.00        0.200         12.4
     1120.00        0.233         11.8
     1121.00        0.233         10.8
     1122.00        0.200         11.0
     1123.00        0.167         12.2
     1124.00        0.167         13.2
     1125.00        0.133         13.5
     1126.00        0.133         13.5
     1127.00        0.267         13.5
     1128.00        0.133         13.7
     1129.00        0.167         12.8
     1130.00        0.167         13.4
     1131.00        0.100         13.1
     1132.00        0.133         12.2
     1133.00        0.283         11.0
     1134.00        0.300         10.9
     1135.00        0.200         12.8
     1136.00        0.167         12.9
     1137.00        0.167         12.7
     1138.00        0.167         12.9
     1139.00        0.200         12.8
     1140.00        0.200         12.8
     1141.00        0.200         12.6
     1142.00        0.200         13.4
     1143.00        6.600         33.9
     1144.00        0.067         34.6
     1145.00        0.167         41.0
     1146.00        0.567         46.4
     1147.00        0.233         32.7
     1148.00        0.333         19.2
     1149.00        0.217         15.0
     1150.00        0.300         12.5
     1151.00        0.267         11.3
     1152.00        0.233         13.2
     1153.00        0.267         13.7
     1154.00        0.300         14.0
     1155.00        0.300         13.5
     1156.00        0.233         12.6
     1157.00        0.267         12.8
     1158.00        0.267         12.0
     1159.00        0.233         12.1
     1160.00        0.200         11.6
     1161.00        0.200         11.9
     1162.00        0.217         11.7
     1163.00        0.133         11.6
     1164.00        0.233         11.7
     1165.00        0.267         10.6
     1166.00        0.200         11.1
     1167.00        0.200         10.7
     1168.00        0.133         10.9
     1169.00        0.167         11.0
     1170.00        0.100         10.5
     1171.00        0.233         12.2
     1172.00        0.200         14.1
     1173.00        6.667         31.4
     1174.00        0.233         37.3
     1175.00        0.233         46.4
     1176.00        0.367         55.4
     1177.00        0.300         43.6
     1178.00        0.317         29.4
     1179.00        0.200         23.2
     1180.00        0.200         20.0
     1181.00        0.233         19.2
     1182.00        0.233         19.6
     1183.00        0.233         19.8
     1184.00        0.233         20.0
     1185.00        0.233         19.2
     1186.00        0.233         18.1
     1187.00        0.167         17.6
     1188.00        0.233         16.8
     1189.00        0.367         16.1
     1190.00        0.433         15.9
     1191.00        0.417         14.8
     1192.00        0.267         14.5
     1193.00        0.133         14.6
     1194.00        0.133         15.1
     1195.00        0.200         15.4
     1196.00        0.233         15.5
     1197.00        0.300         14.8
     1198.00        0.233         14.3
     1199.00        0.133         14.1
     1200.00        0.100         14.1
     1201.00        0.133         13.9
     1202.00        0.300         13.9
     1203.00        7.267         21.6
     1204.00        0.517         31.9
     1205.00        0.333         40.4
     1206.00        0.300         41.6
     1207.00        0.300         32.5
     1208.00        0.300         23.1
     1209.00        0.233         18.0
