~Version Information
VERS.                      2.0: CWLS Log ASCII Standard - VERSION 2.0
WRAP.                       NO: One line per depth step
~Well Information Block
STRT.FT                -7.0000: 
STOP.FT              1863.5000: 
STEP.FT                 0.2500: 
NULL.                -999.2500: 
COMP.          Pioneer Natural Resources: COMPANY
WELL.            Formula 23-11: WELL
FLD.           Purgatorie River: FIELD
LOC.           1976' FSL & 1935' FWL--: LOCATION
PROV.                       CO: PROVINCE
CNTY.               Las Animas: COUNTRY
SRVC.          Patterson Wireline: SERVICE COMPANY
DATE.          Wed Jun 15 14:44:40 2005: LOG DATE
UWI.           05 071 08399 00: UNIQUE WELL ID
~Curve Information Block
DEPT.FT            0 000 00 00: Depth
CCL.                          : Casing Collar Locator
TT3.usec                      : CBL 3' Travel Time
AMP3.mV                       : CBL 3' Amplitude
GR.GAPI                       : Gamma Ray
~Parameter Information Block
~A  Depth       CCL         TT3         AMP3         GR     
# ...
   495.5000      0.0000    875.8944      5.7886    137.5224
   495.7500      0.0000    876.2385      5.7858    139.3698
   496.0000      0.0000    876.4948      5.8203    139.4663
   496.2500      0.0000    876.6237      5.8610    138.0740
   496.5000      0.0000    876.6625      5.8721    135.5195
   496.7500      0.0000    876.6865      5.8366    131.8167
   497.0000      0.0000    876.6824      5.7594    127.1711
   497.2500      0.0000    876.4357      5.6563    122.8137
   497.5000      0.0000    875.5145      5.5472    120.5247
   497.7500      0.0000    873.3987      5.4559    120.9402
   498.0000      0.0000    869.7846      5.4057    122.7062
   498.2500      0.0000    864.9103      5.4062    123.6668
   498.5000      0.0000    859.5871      5.4501    122.9484
   498.7500      0.0000    854.8118      5.5228    121.6994
   499.0000      0.0000    851.2523      5.6127    121.5331
   499.2500      0.0000    848.9124      5.7097    122.4219
   499.5000      0.0000    847.2744      5.7995    122.6320
   499.7500      0.0000    845.9553      5.8670    120.7339
   500.0000      0.0000    845.0463      5.9037    117.1190
   500.2500      0.0000    844.4983      5.9113    113.4420
   500.5000      0.0000    843.6440      5.8996    111.0741
   500.7500      0.0000    841.9993      5.8800    110.4462
   501.0000      0.0000    840.3426      5.8598    111.5466
   501.2500      0.0000    840.4901      5.8417    114.3449
   501.5000      0.0000    843.9375      5.8272    118.4730
   501.7500      0.0000    850.6653      5.8170    122.8639
   502.0000      0.0000    858.9833      5.8066    126.0104
   502.2500      0.0000    866.5520      5.7872    126.5692
   502.5000      0.0000    871.8197      5.7516    123.9463
   502.7500      0.0000    874.6456      5.7029    118.9194
   503.0000      0.0000    875.8003      5.6546    113.7201
   503.2500      0.0000    876.1453      5.6210    110.5887
   503.5000      0.0000    876.2239      5.6087    109.8289
   503.7500      0.0000    876.2530      5.6166    109.8846
   504.0000      0.0000    876.2562      5.6384    109.3250
   504.2500      0.0000    876.2077      5.6639    107.9311
   504.5000      0.0000    876.1318      5.6846    105.7135
   504.7500      0.0000    876.1044      5.7036    101.9700
   505.0000      0.0000    876.1904      5.7339     96.0293
   505.2500      0.0000    876.3939      5.7807     88.4240
   505.5000      0.0000    876.6590      5.8299     80.6601
   505.7500      0.0000    876.8987      5.8563     74.0231
   506.0000      0.0000    877.0418      5.8443     69.0453
   506.2500      0.0000    877.0799      5.7994     65.8780
   506.5000      0.0000    877.0682      5.7374     64.5137
   506.7500      0.0000    877.0662      5.6646     64.5244
   507.0000      0.0000    877.0792      5.5732     65.0803
   507.2500      0.0000    877.0599      5.4619     65.5081
   507.5000      0.0000    876.9621      5.3548     65.5748
   507.7500      0.0000    876.7919      5.2915     65.1267
   508.0000      0.0000    876.6098      5.2969     63.7639
   508.2500      0.0000    876.4707      5.3598     61.0883
   508.5000      0.0000    876.3630      5.4366     57.2308
   508.7500      0.0000    876.2190      5.4751     53.0964
   509.0000      0.0000    875.9810      5.4424     50.0048
   509.2500      0.0000    875.6428      5.3458     48.8176
   509.5000      0.0000    875.2343      5.2315     49.1906
   509.7500      0.0000    874.7584      5.1556     49.7719
   510.0000      0.0000    874.0735      5.1452     49.2676
   510.2500      0.0000    872.7233      5.1837     47.3078
   510.5000      0.0000    869.8919      5.2308     44.4604
   510.7500      0.0000    864.7776      5.2477     41.8201
   511.0000      0.0000    857.3677      5.2119     40.5792
   511.2500      0.0000    848.9008      5.1233     41.4542
   511.5000      0.0000    841.2825      5.0054     44.0616
   511.7500      0.0000    835.8542      4.8941     46.8716
   512.0000      0.0000    832.7393      4.8171     48.1251
   512.2500      0.0000    831.2331      4.7831     47.1619
   512.5000      0.0000    830.5519      4.7872     45.0780
   512.7500      0.0000    830.2686      4.8178     44.0588
   513.0000      0.0000    830.3728      4.8596     45.8801
   513.2500      0.0000    831.1633      4.9029     50.8723
   513.5000      0.0000    832.9910      4.9577     58.2673
   513.7500      0.0000    835.7802      5.0491     67.2758
   514.0000      0.0000    838.6669      5.1867     77.5192
   514.2500      0.0000    840.4634      5.3425     88.4219
   514.5000      0.0000    840.9473      5.4657     98.5665
   514.7500      0.0000    841.5754      5.5188    105.9579
   515.0000      0.0000    844.4469      5.5005    109.0491
   515.2500      0.0000    850.3944      5.4439    107.7872
   515.5000      0.0000    858.1887      5.3905    103.9046
   515.7500      0.0000    865.5806      5.3598     99.8727
   516.0000      0.0000    870.9731      5.3504     97.0176
   516.2500      0.0000    874.1298      5.3636     94.6614
   516.5000      0.0000    875.6644      5.4124     91.4641
   516.7500      0.0000    876.2535      5.5063     87.4679
   517.0000      0.0000    876.2905      5.6403     84.3226
   517.2500      0.0000    875.9487      5.7952     83.4800
   517.5000      0.0000    875.2291      5.9452     84.7282
   517.7500      0.0000    873.8276      6.0706     86.6393
   518.0000      0.0000    870.9521      6.1667     87.8880
   518.2500      0.0000    865.6501      6.2392     87.7702
   518.5000      0.0000    858.0902      6.2953     86.0554
   518.7500      0.0000    850.8162      6.3416     83.0736
   519.0000      0.0000    847.7419      6.3845     79.8441
   519.2500      0.0000    850.8132      6.4258     77.6324
   519.5000      0.0000    858.0474      6.4577     77.1796
   519.7500      0.0000    865.5313      6.4680     78.2657
   520.0000      0.0000    870.7462      6.4544     79.7886
   520.2500      0.0000    873.5286      6.4362     80.2021
   520.5000      0.0000    874.8112      6.4430     78.2639
   520.7500      0.0000    875.3837      6.4869     73.8659
   521.0000      0.0000    875.5951      6.5499     68.1705
   521.2500      0.0000    875.4944      6.6059     62.5835
   521.5000      0.0000    874.9308      6.6468     57.7152
   521.7500      0.0000    873.6033      6.6797     53.7211
   522.0000      0.0000    871.2433      6.7065     51.2411
   522.2500      0.0000    868.0880      6.7159     51.1293
   522.5000      0.0000    865.2132      6.6926     53.1823
   522.7500      0.0000    863.9576      6.6205     55.7467
   523.0000      0.0000    864.5274      6.4748     56.8433
   523.2500      0.0000    865.3709      6.2340     55.4602
   523.5000      0.0000    864.3541      5.9128     51.7767
   523.7500      0.0000    860.4116      5.5691     46.7201
   524.0000      0.0000    853.7932      5.2647     41.7007
   524.2500      0.0000    845.2321      5.0333     38.3497
   524.5000     -2.0000    835.8381      4.8819     37.8005
   524.7500      0.0000    827.7751      4.8018     39.9644
   525.0000      0.0000    823.5678      4.7796     43.6208
   525.2500      0.0000    823.4338      4.8169     47.3278
   525.5000      0.0000    823.8812      4.9311     50.2529
   525.7500      0.0000    820.4899      5.1152     52.1394
   526.0000      0.0000    812.2771      5.3116     52.6674
   526.2500      0.0000    802.3417      5.4566     51.2910
   526.5000      0.0000    794.4064      5.5414     48.0471
   526.7500      0.0000    789.8471      5.6067     44.3214
   527.0000      0.0000    787.8523      5.6875     42.2404
   527.2500      0.0000    787.1067      5.7845     43.1114
   527.5000      0.0000    786.7955      5.8727     46.6544
   527.7500      0.0000    786.6292      5.9229     51.6101
   528.0000      0.0000    786.5516      5.9169     56.5930
   528.2500      0.0000    786.5479      5.8527     60.2871
   528.5000      0.0000    786.5933      5.7433     61.5830
   528.7500      0.0000    786.6684      5.6165     60.2512
