~Version Information
VERS.                      2.0: CWLS Log ASCII Standard - VERSION 2.0
WRAP.                       NO: One line per depth step
~Well Information Block
STRT.FT               -12.5000: 
STOP.FT              2742.5000: 
STEP.FT                 0.2500: 
NULL.                -999.2500: 
COMP.          Pioneer Natural Resources: COMPANY
WELL.            Rangely 22-28: WELL
FLD.           Purgatorie River: FIELD
LOC.           720' FSL & 1036' FEL--: LOCATION
PROV.                       CO: PROVINCE
CNTY.               Las Animas: COUNTRY
SRVC.                         : SERVICE COMPANY
DATE.          Wed Nov 10 08:59:10 2004: LOG DATE
UWI.                          : UNIQUE WELL ID
~Curve Information Block
DEPT.FT            0 000 00 00: Depth
GR.GAPI                       : Gamma Ray
CCL.                          : Casing Collar Locator
TT3.usec                      : CBL 3' Travel Time
AMP3.mV                       : CBL 3' Amplitude
~Parameter Information Block
~A  Depth        GR         CCL         TT3         AMP3    
# ...
  1629.0000    145.2150      0.0000    302.8463     29.7266
  1629.2500    147.3847      0.0000    304.1047     30.2142
  1629.5000    149.8078      0.0000    308.9454     30.6264
  1629.7500    152.6181      0.0000    323.2135     30.7919
  1630.0000    155.5319      0.0000    355.0316     30.4220
  1630.2500    157.6658      0.0000    407.4972     29.3045
  1630.5000    157.5125      0.0000    468.1180     27.5796
  1630.7500    153.8149      0.0000    509.0681     25.8076
  1631.0000    146.4632      0.0000    506.7263     24.6706
  1631.2500    136.3658      0.0000    463.1718     24.5475
  1631.5000    124.9322      0.0000    403.9472     25.3472
  1631.7500    114.1930      0.0000    355.1076     26.7049
  1632.0000    107.0808      0.0000    326.4524     28.3034
  1632.2500    106.4281      1.8933    313.7420     30.0230
  1632.5000    112.6943     -2.0000    309.0336     31.8538
  1632.7500    122.8262      0.0000    306.6443     33.7772
  1633.0000    132.0158      0.0000    303.4804     35.8520
  1633.2500    136.7330      0.0000    297.9496     38.4178
  1633.5000    136.0546      0.0000    289.7713     42.0225
  1633.7500    130.8078      0.0000    280.2286     46.9138
  1634.0000    122.5070      0.0000    271.5173     52.5832
  1634.2500    113.3149      0.0000    265.2851     57.9600
  1634.5000    106.0795      0.0000    261.7750     62.1304
  1634.7500    103.2463      0.0000    260.2082     64.8519
  1635.0000    105.0998      0.0000    259.6511     66.4530
  1635.2500    108.9192      0.0000    259.4983     67.4030
  1635.5000    110.2616      0.0000    259.4762     68.0208
  1635.7500    105.7499      0.0000    259.4865     68.4588
  1636.0000     95.0547      0.0000    259.4968     68.8021
  1636.2500     80.5400      0.0000    259.4955     69.1213
  1636.5000     65.6115      0.0000    259.4819     69.4582
  1636.7500     53.5100      0.0000    259.4597     69.8042
  1637.0000     46.7176      0.0000    259.4342     70.1124
  1637.2500     46.3762      0.0000    259.4095     70.3244
  1637.5000     51.7961      0.0000    259.3893     70.3927
  1637.7500     60.4463      0.0000    259.3762     70.3034
  1638.0000     68.4824      0.0000    259.3712     70.0980
  1638.2500     71.9665      0.0000    259.3725     69.8639
  1638.5000     68.7907      0.0000    259.3773     69.6902
  1638.7500     60.1640      0.0000    259.3842     69.6247
  1639.0000     50.0774      0.0000    259.3945     69.6602
  1639.2500     42.9390      0.0000    259.4115     69.7483
  1639.5000     41.4077      0.0000    259.4375     69.8292
  1639.7500     45.8874      0.0000    259.4699     69.8707
  1640.0000     55.2286      0.0000    259.4987     69.8832
  1640.2500     67.4987      0.0000    259.5139     69.8847
  1640.5000     80.6050      0.0000    259.5141     69.8507
  1640.7500     93.0497      0.0000    259.5064     69.7116
  1641.0000    104.3565      0.0000    259.4966     69.3969
  1641.2500    114.3909      0.0000    259.4853     68.8731
  1641.5000    122.2155      0.0000    259.4727     68.1518
  1641.7500    126.2634      0.0000    259.4636     67.2794
  1642.0000    125.8983      0.0000    259.4670     66.3191
  1642.2500    122.3132      0.0000    259.4913     65.3266
  1642.5000    117.7156      0.0000    259.5387     64.3385
  1642.7500    114.1028      0.0000    259.6028     63.3838
  1643.0000    112.7271      0.0000    259.6699     62.5042
  1643.2500    113.8343      0.0000    259.7252     61.7448
  1643.5000    116.4746      0.0000    259.7596     61.1187
  1643.7500    118.9980      0.0000    259.7715     60.5946
  1644.0000    119.8429      0.0000    259.7625     60.1317
  1644.2500    117.8006      0.0000    259.7327     59.7176
  1644.5000    112.3341      0.0000    259.6815     59.3699
  1644.7500    104.4633      0.0000    259.6103     59.1176
  1645.0000     96.9552      0.0000    259.5255     58.9844
  1645.2500     92.8124      0.0000    259.4391     58.9590
  1645.5000     93.5628      0.0000    259.3651     58.9621
  1645.7500     99.0639      0.0000    259.3122     58.8626
  1646.0000    108.1770      0.0000    259.2799     58.5514
  1646.2500    118.9959      0.0000    259.2637     58.0036
  1646.5000    129.0965      0.0000    259.2608     57.2795
  1646.7500    136.5973      0.0000    259.2695     56.4774
  1647.0000    141.0080      0.0000    259.2873     55.6785
  1647.2500    142.8627      0.0000    259.3131     54.9196
  1647.5000    142.8997      0.0000    259.3466     54.2127
  1647.7500    141.6242      0.0000    259.3823     53.5885
  1648.0000    139.0121      0.0000    259.4090     53.1085
  1648.2500    134.5954      0.0000    259.4200     52.8283
  1648.5000    128.5407      0.0000    259.4200     52.7506
  1648.7500    122.7056      0.0000    259.4198     52.8229
  1649.0000    119.8666      0.0000    259.4224     52.9878
  1649.2500    121.6496      0.0000    259.4197     53.2301
  1649.5000    127.4875      0.0000    259.4031     53.5573
  1649.7500    135.2670      0.0000    259.3777     53.9370
  1650.0000    142.6452      0.0000    259.3617     54.2816
  1650.2500    148.0979      0.0000    259.3720     54.5098
  1650.5000    151.2790      0.0000    259.4149     54.5961
  1650.7500    152.6216      0.0000    259.4883     54.5393
  1651.0000    152.7027      0.0000    259.5876     54.3032
  1651.2500    151.8862      0.0000    259.7071     53.8199
  1651.5000    150.2445      0.0000    259.8406     53.0587
  1651.7500    147.6318      0.0000    259.9814     52.0931
  1652.0000    143.8604      0.0000    260.1199     51.1075
  1652.2500    138.8201      0.0000    260.2409     50.3262
  1652.5000    132.5039      0.0000    260.3264     49.9020
  1652.7500    124.9771      0.0000    260.3664     49.8425
  1653.0000    116.3085      0.0000    260.3655     50.0331
  1653.2500    106.7230      0.0000    260.3401     50.3208
  1653.5000     97.1070      0.0000    260.3112     50.5708
  1653.7500     89.2653      0.0000    260.3004     50.6768
  1654.0000     85.2523      0.0000    260.3281     50.5672
  1654.2500     86.1176      0.0000    260.4090     50.2202
  1654.5000     91.2540      0.0000    260.5513     49.6565
  1654.7500     98.9309      0.0000    260.7581     48.9131
  1655.0000    107.4571      0.0000    261.0288     48.0235
  1655.2500    115.8777      0.0000    261.3588     47.0170
  1655.5000    123.6017      0.0000    261.7445     45.9248
  1655.7500    129.5895      0.0000    262.2193     44.7810
  1656.0000    132.5184      0.0000    262.9439     43.6235
  1656.2500    132.0833      0.0000    264.3400     42.4971
  1656.5000    129.7618      0.0000    267.1210     41.4420
  1656.7500    127.9922      0.0000    271.9557     40.4632
  1657.0000    128.7367      0.0000    278.7437     39.5266
  1657.2500    132.4863      0.0000    286.1169     38.6345
  1657.5000    137.9912      0.0000    291.8511     37.9335
  1657.7500    142.9877      0.0000    293.9686     37.7093
  1658.0000    145.5456      0.0000    291.6764     38.1953
  1658.2500    144.7798      0.0000    285.7502     39.3316
  1658.5000    140.5914      0.0000    278.3656     40.7161
  1658.7500    133.3302      0.0000    272.3043     41.8068
  1659.0000    123.8416      0.0000    269.8034     42.1962
  1659.2500    113.2892      0.0000    271.7136     41.7612
  1659.5000    102.6027      0.0000    277.2413     40.6599
  1659.7500     92.2312      0.0000    284.2146     39.2545
  1660.0000     82.6573      0.0000    289.8882     38.0294
  1660.2500     75.0097      0.0000    292.0334     37.5040
  1660.5000     70.8705      0.0000    289.7328     38.1092
  1660.7500     71.4799      0.0000    283.6544     40.0131
  1661.0000     77.2056      0.0000    275.7863     42.9870
  1661.2500     87.3915      0.0000    268.5008     46.4695
  1661.5000    100.4368      0.0000    263.3335     49.8604
  1661.7500    114.3541      0.0000    260.4619     52.8274
  1662.0000    127.4333      0.0000    259.1964     55.3693
  1662.2500    138.2373      0.0000    258.7628     57.6527
