~Version Information
VERS.                      2.0: CWLS Log ASCII Standard - VERSION 2.0
WRAP.                       NO: One line per depth step
~Well Information Block
STRT.FT               430.0000: 
STOP.FT              2827.0000: 
STEP.FT                 0.1000: 
NULL.                -999.2500: 
COMP.          Pioneer Natural Resources: COMPANY
WELL.           Ei-ei-oh 31-24: WELL
FLD.           Purgatoire River: FIELD
LOC.           235' FNL & 2001' FEL--: LOCATION
PROV.                 Colorado: PROVINCE
CNTY.               Las Animas: COUNTRY
SRVC.                Patterson: SERVICE COMPANY
DATE.          Thu Jun 16 07:14:41 2005: LOG DATE
UWI.           05 071 08403 00: UNIQUE WELL ID
~Curve Information Block
DEPT.FT            0 000 00 00: Depth
DCAL.in                       : CDL Caliper
DPOR.pu                       : CDL Density Porosity
NPOR.pu                       : Neutron Porosity
RHOB.g/cc                     : CDL Bulk Density
RHOC.g/cc                     : CDL Density Correction
GR.GAPI                       : Gamma Ray
~Parameter Information Block
~A  Depth       DCAL        DPOR        NPOR        RHOB        RHOC         GR     
# ...
  2503.6000      9.2643     21.2605     26.7977      2.2992      0.3847    136.4592
  2503.7000      9.2643     16.8948     25.4860      2.3712      0.3902    132.2154
  2503.8000      9.2194     11.8566     24.5924      2.4544      0.3771    128.4256
  2503.9000      9.2194      5.7732     24.5612      2.5547      0.4052    121.2774
  2504.0000      8.9381     -0.2788     25.2054      2.6546      0.4088    116.6490
  2504.1000      8.9381     -4.5381     26.0639      2.7249      0.3916    125.9236
  2504.2000      8.9381     -5.7895     26.8915      2.7455      0.3683    139.6103
  2504.3000      8.4946     -3.7825     27.4900      2.7124      0.3462    140.1059
  2504.4000      8.4946      0.6287     27.4923      2.6396      0.1691    133.2944
  2504.5000      8.2194      5.2189     26.7753      2.5639      0.0513    129.4434
  2504.6000      8.2194      7.9063     25.8451      2.5195     -0.0042    124.9669
  2504.7000      8.2194      8.7092     25.3846      2.5063      0.0482    118.5553
  2504.8000      8.1437      8.9859     25.5000      2.5017      0.0484    116.8268
  2504.9000      8.1437      9.0594     25.7663      2.5005      0.0519    123.0582
  2505.0000      8.1307      8.4177     25.6096      2.5111      0.0111    126.9248
  2505.1000      8.1307      7.3143     25.1201      2.5293      0.0560    119.8846
  2505.2000      8.1307      6.7752     25.1957      2.5382      0.0285    112.7740
  2505.3000      8.1289      7.0938     25.9130      2.5330      0.0594    113.2061
  2505.4000      8.1289      7.6444     26.4548      2.5239      0.0322    115.4319
  2505.5000      8.1280      7.7817     26.5150      2.5216      0.0510    118.2485
  2505.6000      8.1280      7.3498     26.1940      2.5287      0.0456    130.3514
  2505.7000      8.1280      6.4115     25.6972      2.5442      0.0439    144.4141
  2505.8000      8.1278      5.2857     25.2430      2.5628      0.0795    140.6351
  2505.9000      8.1278      4.8107     25.0457      2.5706      0.0820    120.6900
  2506.0000      8.1267      5.1933     25.3358      2.5643      0.0638    100.2764
  2506.1000      8.1267      5.7037     25.6688      2.5559      0.0668     88.1262
  2506.2000      8.1267      6.0887     25.4352      2.5495      0.0811     83.4680
  2506.3000      8.1241      6.2921     24.8638      2.5462      0.0393     84.2171
  2506.4000      8.1241      5.6443     24.3578      2.5569      0.0737     90.4865
  2506.5000      8.1234      4.6651     23.7479      2.5730      0.1001     99.1538
  2506.6000      8.1234      4.8504     23.1538      2.5700      0.0952    107.7213
  2506.7000      8.1234      6.1403     22.9206      2.5487      0.0782    123.7341
  2506.8000      8.1240      7.1718     22.8644      2.5317      0.0706    145.2309
  2506.9000      8.1240      6.8451     22.7001      2.5371      0.0489    153.5751
  2507.0000      8.1238      4.8045     22.6335      2.5707      0.0882    152.5522
  2507.1000      8.1238      0.9314     22.9252      2.6346      0.0661    156.4609
  2507.2000      8.1238     -4.4279     23.3536      2.7231      0.1086    160.5818
  2507.3000      8.1229     -9.5550     23.6104      2.8077      0.1543    165.6887
  2507.4000      8.1229    -12.4353     23.5320      2.8552      0.1650    171.7270
  2507.5000      8.1237    -12.2742     23.0265      2.8525      0.1519    166.8510
  2507.6000      8.1237     -9.9418     22.4863      2.8140      0.1095    146.7987
  2507.7000      8.1237     -7.2812     22.3281      2.7701      0.0398    125.0924
  2507.8000      8.1279     -4.8649     22.4243      2.7303      0.0325    114.3685
  2507.9000      8.1279     -1.6923     22.7197      2.6779     -0.0199    108.0447
  2508.0000      8.1359      2.2865     23.3127      2.6123     -0.0498    101.6181
  2508.1000      8.1359      5.7346     23.6390      2.5554     -0.0510    100.7349
  2508.2000      8.1359      7.7076     23.4110      2.5228      0.0119    106.7677
  2508.3000      8.1461      8.5020     23.3909      2.5097      0.0435    116.0040
  2508.4000      8.1461      8.9824     23.9649      2.5018      0.0662    127.5675
  2508.5000      8.1508      9.9630     24.8349      2.4856      0.0954    143.7414
  2508.6000      8.1508     11.8798     25.7472      2.4540      0.0646    162.0675
  2508.7000      8.1508     14.3950     26.4783      2.4125      0.0084    173.6515
  2508.8000      8.1506     17.1451     26.9323      2.3671      0.0355    173.4974
  2508.9000      8.1506     20.2296     27.3120      2.3162      0.0210    158.8572
  2509.0000      8.1485     23.5089     27.7745      2.2621      0.0256    130.7167
  2509.1000      8.1485     26.3972     28.2456      2.2144      0.0036    105.3508
  2509.2000      8.1485     28.4060     28.7878      2.1813      0.0319     96.7260
  2509.3000      8.1454     29.6973     29.5159      2.1600      0.0204    102.9293
  2509.4000      8.1454     30.4057     30.0690      2.1483      0.0366    113.5672
  2509.5000      8.1451     30.1818     30.0427      2.1520      0.0564    119.4798
  2509.6000      8.1451     28.8949     29.3797      2.1732      0.0812    120.2932
  2509.7000      8.1451     26.6360     28.1334      2.2105      0.0814    113.9460
  2509.8000      8.1470     23.4740     26.8292      2.2627      0.0976    100.6180
  2509.9000      8.1470     19.7218     26.0657      2.3246      0.1554     90.0001
  2510.0000      8.1480     16.0077     25.6454      2.3859      0.2145     86.7241
  2510.1000      8.1480     12.9068     25.3649      2.4370      0.2036     90.9133
  2510.2000      8.1480     10.5024     25.3756      2.4767      0.1184     98.6292
  2510.3000      8.1478      8.8411     25.3686      2.5041      0.0784    105.1039
  2510.4000      8.1478      8.2026     25.2253      2.5147      0.0959    110.7057
  2510.5000      8.1475      8.1001     24.9998      2.5163      0.0718    114.7513
  2510.6000      8.1475      7.3715     24.0330      2.5284      0.0700    115.3097
  2510.7000      8.1475      5.9010     22.4327      2.5526      0.1039    107.9289
  2510.8000      8.1478      4.5360     21.4686      2.5752      0.0541     91.3209
  2510.9000      8.1478      3.5402     21.5762      2.5916      0.0461     81.7697
  2511.0000      8.1489      2.8046     22.1174      2.6037      0.0923     88.4360
  2511.1000      8.1489      2.6325     22.4180      2.6066      0.0891     96.6630
  2511.2000      8.1489      3.4132     22.0292      2.5937      0.0967     98.4855
  2511.3000      8.1497      4.6073     20.9263      2.5740     -0.0009     98.3186
  2511.4000      8.1497      4.9912     19.5364      2.5676      0.0204     95.4943
  2511.5000      8.1479      4.4599     18.7460      2.5764      0.0663     89.4779
  2511.6000      8.1479      3.5159     19.1858      2.5920      0.0595     84.1643
  2511.7000      8.1479      2.3491     20.2803      2.6112      0.0704     76.5950
  2511.8000      8.1461      1.7665     20.7667      2.6209      0.0925     63.5872
  2511.9000      8.1461      2.4802     20.1008      2.6091      0.0742     57.5862
  2512.0000      8.1478      3.6986     18.8707      2.5890      0.0183     64.9398
  2512.1000      8.1478      4.1050     18.0113      2.5823      0.0643     72.0265
  2512.2000      8.1478      3.3087     18.1188      2.5954      0.0330     66.7970
  2512.3000      8.1509      2.5133     18.8863      2.6085      0.0937     58.5942
  2512.4000      8.1509      3.4605     19.4823      2.5929      0.0820     66.9018
  2512.5000      8.1514      5.7967     19.8019      2.5544      0.0311     89.6608
  2512.6000      8.1514      7.7564     20.1967      2.5220      0.0226    102.4548
  2512.7000      8.1514      8.4467     20.7263      2.5106     -0.0298     95.4762
  2512.8000      8.1506      7.8977     21.0849      2.5197     -0.0143     83.4765
  2512.9000      8.1506      7.1732     21.1600      2.5316      0.0436     79.6904
  2513.0000      8.1499      7.4261     21.4771      2.5275      0.0187     84.4462
  2513.1000      8.1499      7.8856     22.5264      2.5199     -0.0056     91.2522
