~Version Information
VERS.                      2.0: CWLS Log ASCII Standard - VERSION 2.0
WRAP.                       NO: One line per depth step
~Well Information Block
STRT.FT               260.0000: 
STOP.FT              1200.5000: 
STEP.FT                 0.2500: 
NULL.                -999.2500: 
COMP.          Evergreen Operating Corporation: COMPANY
WELL.             Justin 32-10: WELL
FLD.           Purgatorie River: FIELD
LOC.           2994' FNL & 1449' FEL: LOCATION
PROV.                 Colorado: PROVINCE
CNTY.               Las Animas: COUNTRY
SRVC.                         : SERVICE COMPANY
DATE.          Sun Aug 29 20:47:20 2004: LOG DATE
UWI.           05 071 08053 00: UNIQUE WELL ID
~Curve Information Block
DEPT.FT            0 000 00 00: Depth
LTEN.lb                       : Surface Line Tension
SN.Ohm-m                      : IEL Short Normal
SP.mV                         : IEL Spontaneous Potential
DIR.Ohm-m                     : IEL Induction Resistivity
GR.GAPI                       : Gamma Ray
~Parameter Information Block
~A  Depth       LTEN         SN          SP         DIR          GR     
# ...
   512.0000    642.3193   2000.0000   2000.0000     18.5291    143.0986
   512.2500    642.6382   2000.0000   2000.0000     19.6321    141.5925
   512.5000    642.4765   2000.0000   2000.0000     20.7304    140.6665
   512.7500    642.9159   2000.0000   2000.0000     21.7082    140.2944
   513.0000    644.0725   2000.0000   2000.0000     22.4685    138.1924
   513.2500    645.5897   2000.0000   2000.0000     22.9897    134.8926
   513.5000    646.6504   2000.0000   2000.0000     23.3153    127.1792
   513.7500    645.9045   2000.0000   2000.0000     23.4864    121.0399
   514.0000    642.5057   2000.0000   2000.0000     23.4995    112.1114
   514.2500    637.3038   2000.0000   2000.0000     23.3392    107.1927
   514.5000    632.3709   2000.0000   2000.0000     23.0500    102.3860
   514.7500    629.2961   2000.0000   2000.0000     22.7567    101.2047
   515.0000    628.3136   2000.0000   2000.0000     22.6067    102.3381
   515.2500    628.9948   2000.0000   2000.0000     22.6921    104.5960
   515.5000    631.2191   2000.0000   2000.0000     23.0073    109.3397
   515.7500    635.0733   2000.0000   2000.0000     23.4475    113.0564
   516.0000    639.9635   2000.0000   2000.0000     23.8499    118.9899
   516.2500    644.4637   2000.0000   2000.0000     24.0785    122.6565
   516.5000    647.3127   2000.0000   2000.0000     24.1175    126.4503
   516.7500    648.3154   2000.0000   2000.0000     24.0843    127.4534
   517.0000    648.3057   2000.0000   2000.0000     24.1388    127.3986
   517.2500    648.5253   2000.0000   2000.0000     24.3696    127.2318
   517.5000    649.7278   2000.0000   2000.0000     24.7442    127.8386
   517.7500    651.4126   2000.0000   2000.0000     25.1477    128.7323
   518.0000    652.1075   2000.0000   2000.0000     25.4826    129.6427
   518.2500    650.6870   2000.0000   2000.0000     25.7626    129.1247
   518.5000    647.3934   2000.0000   2000.0000     26.1200    125.9352
   518.7500    643.6400   2000.0000   2000.0000     26.7175    122.4240
   519.0000    641.0082   2000.0000   2000.0000     27.6470    116.0406
   519.2500    640.3255   2000.0000   2000.0000     28.8713    111.5631
   519.5000    641.4126   2000.0000   2000.0000     30.2156    105.2354
   519.7500    643.4251   2000.0000   2000.0000     31.4014    101.6549
   520.0000    645.2653   2000.0000   2000.0000     32.1418     97.6724
   520.2500    645.8740   2000.0000   2000.0000     32.2866     95.9725
   520.5000    644.7656   2000.0000   2000.0000     31.9057     94.5723
   520.7500    642.7529   2000.0000   2000.0000     31.1993     94.1548
   521.0000    641.8619   2000.0000   2000.0000     30.3141     93.9936
   521.2500    643.8672   2000.0000   2000.0000     29.2439     94.1489
   521.5000    648.5839   2000.0000   2000.0000     27.8968     94.6193
   521.7500    653.7690   2000.0000   2000.0000     26.2418     94.7701
   522.0000    656.8279   2000.0000   2000.0000     24.3852     94.2012
   522.2500    656.6011   2000.0000   2000.0000     22.5076     93.4324
   522.5000    653.6758   2000.0000   2000.0000     20.7542     92.9206
   522.7500    649.5872   2000.0000   2000.0000     19.1818     93.8448
   523.0000    645.8828   2000.0000   2000.0000     17.7776     97.7846
   523.2500    643.3328   2000.0000   2000.0000     16.5067    101.8833
   523.5000    641.7083   2000.0000   2000.0000     15.3461    109.4895
   523.7500    640.4871   2000.0000   2000.0000     14.2921    115.4048
   524.0000    639.6943   2000.0000   2000.0000     13.3484    125.9138
   524.2500    639.8616   2000.0000   2000.0000     12.5115    133.9739
   524.5000    641.2838   2000.0000   2000.0000     11.7654    146.2317
   524.7500    643.5302   2000.0000   2000.0000     11.0856    153.1689
   525.0000    645.6942   2000.0000   2000.0000     10.4497    160.0221
   525.2500    646.9897   2000.0000   2000.0000      9.8506    162.1297
   525.5000    647.1632   2000.0000   2000.0000      9.3020    162.7554
   525.7500    646.6057   2000.0000   2000.0000      8.8325    162.4776
   526.0000    646.1612   2000.0000   2000.0000      8.4712    162.5858
   526.2500    646.6502   2000.0000   2000.0000      8.2364    163.5156
   526.5000    648.3531   2000.0000   2000.0000      8.1347    165.8720
   526.7500    650.9304   2000.0000   2000.0000      8.1636    167.4203
   527.0000    653.6337   2000.0000   2000.0000      8.3138    168.8647
   527.2500    655.3755   2000.0000   2000.0000      8.5664    169.2440
   527.5000    655.0663   2000.0000   2000.0000      8.8925    169.3191
   527.7500    652.5681   2000.0000   2000.0000      9.2587    169.1414
   528.0000    649.2019   2000.0000   2000.0000      9.6404    168.4117
   528.2500    646.8627   2000.0000   2000.0000     10.0297    167.4860
   528.5000    646.6805   2000.0000   2000.0000     10.4334    165.1817
   528.7500    648.5918   2000.0000   2000.0000     10.8650    162.8083
   529.0000    651.7476   2000.0000   2000.0000     11.3436    157.3862
   529.2500    654.9161   2000.0000   2000.0000     11.9013    152.1323
   529.5000    656.8114   2000.0000   2000.0000     12.5862    141.3380
   529.7500    656.6608   2000.0000   2000.0000     13.4496    132.2127
   530.0000    654.6451   2000.0000   2000.0000     14.5212    116.4957
   530.2500    651.7859   2000.0000   2000.0000     15.7888    105.8388
   530.5000    649.5010   2000.0000   2000.0000     17.1965     92.3613
   530.7500    649.1006   2000.0000   2000.0000     18.6633     86.3973
   531.0000    651.1257   2000.0000   2000.0000     20.0972     82.5348
   531.2500    654.8554   2000.0000   2000.0000     21.3909     82.5325
   531.5000    658.6262   2000.0000   2000.0000     22.4171     83.9704
   531.7500    660.9465   2000.0000   2000.0000     23.0685     84.6121
   532.0000    661.5997   2000.0000   2000.0000     23.3319     84.1626
   532.2500    661.7720   2000.0000   2000.0000     23.3131     83.3178
   532.5000    662.8554   2000.0000   2000.0000     23.1640     83.1542
   532.7500    664.7239   2000.0000   2000.0000     22.9731     85.0566
   533.0000    665.3127   2000.0000   2000.0000     22.7080     92.0320
   533.2500    662.5102   2000.0000   2000.0000     22.2589     98.9321
   533.5000    656.5250   2000.0000   2000.0000     21.5508    109.9706
   533.7500    649.8317   2000.0000   2000.0000     20.6311    115.8329
   534.0000    644.8731   2000.0000   2000.0000     19.6583    120.1304
   534.2500    642.3969   2000.0000   2000.0000     18.8209    120.0359
   534.5000    641.7516   2000.0000   2000.0000     18.2632    117.6708
   534.7500    641.8836   2000.0000   2000.0000     18.0521    116.2573
   535.0000    641.8450   2000.0000   2000.0000     18.1704    116.1166
   535.2500    641.0385   2000.0000   2000.0000     18.5320    117.5757
   535.5000    639.5831   2000.0000   2000.0000     19.0191    121.8449
   535.7500    638.3032   2000.0000   2000.0000     19.5300    125.6987
   536.0000    637.9807   2000.0000   2000.0000     20.0065    131.3981
   536.2500    638.6423   2000.0000   2000.0000     20.4163    133.5970
   536.5000    639.6139   2000.0000   2000.0000     20.7136    132.2045
   536.7500    640.0099   2000.0000   2000.0000     20.8243    128.1554
   537.0000    639.2776   2000.0000   2000.0000     20.6827    119.9612
   537.2500    637.7574   2000.0000   2000.0000     20.2999    114.7825
   537.5000    636.7185   2000.0000   2000.0000     19.7881    108.2614
   537.7500    637.4626   2000.0000   2000.0000     19.2980    104.1702
   538.0000    640.1019   2000.0000   2000.0000     18.9272     97.9796
   538.2500    643.0630   2000.0000   2000.0000     18.6774     94.5360
   538.5000    644.1388   2000.0000   2000.0000     18.4746     91.9476
   538.7500    642.6109   2000.0000   2000.0000     18.2200     92.0289
   539.0000    640.1282   2000.0000   2000.0000     17.8392     93.7281
   539.2500    639.0359   2000.0000   2000.0000     17.3086     95.3506
   539.5000    640.2985   2000.0000   2000.0000     16.6577     98.7783
   539.7500    643.3607   2000.0000   2000.0000     15.9512    102.3995
