~Version Information
VERS.                      2.0: CWLS Log ASCII Standard - VERSION 2.0
WRAP.                       NO: One line per depth step
~Well Information Block
STRT.FT               -16.5000: 
STOP.FT              1244.7500: 
STEP.FT                 0.2500: 
NULL.                -999.2500: 
COMP.          Pioneer Natural Resources: COMPANY
WELL.          Bouncer41-27 Tr: WELL
FLD.           Purgatorie River: FIELD
LOC.           292' FNL & 222' FEL--------: LOCATION
PROV.                       CO: PROVINCE
CNTY.               Las Animas: COUNTRY
SRVC.                         : SERVICE COMPANY
DATE.          Fri Feb 11 15:34:51 2005: LOG DATE
UWI.                071-08291 : UNIQUE WELL ID
~Curve Information Block
DEPT.FT            0 000 00 00: Depth
CCL.                          : Casing Collar Locator
TT3.usec                      : CBL 3' Travel Time
AMP3.mV                       : CBL 3' Amplitude
GR.GAPI                       : Gamma Ray
~Parameter Information Block
~A  Depth       CCL         TT3         AMP3         GR     
# ...
   720.5000      0.0000    735.8990      4.9113     88.0529
   720.7500      0.0000    734.7562      4.9185     87.6463
   721.0000      0.0000    735.9925      4.9430     85.3695
   721.2500      0.0000    738.9832      4.9737     82.7473
   721.5000      0.0000    742.3110      4.9887     80.9929
   721.7500      0.0000    744.9586      4.9701     80.2036
   722.0000      0.0000    746.7292      4.9121     79.7974
   722.2500      0.0000    747.8602      4.8242     79.1244
   722.5000      0.0000    748.5784      4.7324     77.7533
   722.7500      0.0000    748.9719      4.6747     75.6368
   723.0000      0.0000    749.0623      4.6810     73.2837
   723.2500      0.0000    748.8802      4.7436     71.7294
   723.5000      0.0000    748.5043      4.8179     71.9973
   723.7500      0.0000    748.0780      4.8630     74.1854
   724.0000      0.0000    747.7972      4.8760     77.1417
   724.2500      0.0000    747.8145      4.8732     79.5012
   724.5000      0.0000    748.1221      4.8489     81.0982
   724.7500      0.0000    748.5435      4.7754     82.8762
   725.0000      0.0000    748.8409      4.6446     85.4411
   725.2500      0.0000    748.8328      4.4899     88.2510
   725.5000      0.0000    748.4584      4.3603     90.2612
   725.7500      0.0000    747.8080      4.2846     90.8747
   726.0000      0.0000    747.1083      4.2649     90.1397
   726.2500      0.0000    746.6177      4.2967     88.3686
   726.5000      0.0000    746.4553      4.3841     85.7699
   726.7500      0.0000    746.5126      4.5302     82.4609
   727.0000      0.0000    746.5693      4.7134     78.8169
   727.2500      0.0000    746.5029      4.8858     75.5203
   727.5000      0.0000    746.3536      5.0020     73.0123
   727.7500      0.0000    746.2000      5.0460     71.2247
   728.0000      0.0000    746.0508      5.0277     70.1184
   728.2500      0.0000    745.8920      4.9634     70.1428
   728.5000      0.0000    745.7757      4.8705     71.8801
   728.7500      0.0000    745.8036      4.7733     75.3854
   729.0000      0.0000    746.0223      4.6979     79.9762
   729.2500      0.0000    746.3652      4.6510     84.4594
   729.5000      0.0000    746.7067      4.6177     87.5371
   729.7500      0.0000    746.9528      4.5883     88.3281
   730.0000      0.0000    747.0701      4.5796     86.7451
   730.2500      0.0000    747.0608      4.6163     83.4369
   730.5000      0.0000    746.9457      4.6904     79.4291
   730.7500      0.0000    746.7635      4.7513     75.7228
   731.0000      0.0000    746.5622      4.7461     72.8725
   731.2500      0.0000    746.3801      4.6636     70.7797
   731.5000      0.0000    746.2355      4.5367     69.0762
   731.7500      0.0000    746.1296      4.4111     67.7550
   732.0000      0.0000    746.0098      4.3196     67.2570
   732.2500      0.0000    745.6454      4.2755     68.0160
   732.5000      0.0000    744.3398      4.2720     70.1831
   732.7500      0.0000    740.7112      4.2931     73.6824
   733.0000      0.0000    733.0549      4.3331     78.0982
   733.2500      0.0000    720.8066      4.3975     82.4819
   733.5000      0.0000    706.5183      4.4772     85.6875
   733.7500      0.0000    695.9945      4.5434     86.9916
   734.0000      0.0000    694.6554      4.5797     86.3080
   734.2500      0.0000    702.5026      4.5976     84.1058
   734.5000      0.0000    713.4120      4.6089     81.4293
   734.7500      0.0000    720.3451      4.6020     79.5934
   735.0000     -2.0000    721.0307      4.5593     79.2849
   735.2500      0.0000    718.6881      4.4845     79.9710
   735.5000      0.0000    718.2686      4.4088     80.4820
   735.7500      0.0000    722.2646      4.3768     80.1111
   736.0000      0.0000    729.2261      4.4190     78.9888
   736.2500      0.0000    735.5095      4.5222     77.6639
   736.5000      0.0000    738.4320      4.6366     76.7234
   736.7500      0.0000    738.2164      4.7255     76.6666
   737.0000      0.0000    737.2167      4.7961     77.6733
   737.2500      0.0000    737.4599      4.8696     79.4410
   737.5000      0.0000    739.0516      4.9411     81.4905
   737.7500      0.0000    740.7363      4.9851     83.5099
   738.0000      0.0000    741.2832      4.9892     85.0340
   738.2500      0.0000    740.0562      4.9724     84.9524
   738.5000      0.0000    736.9198      4.9767     82.1185
   738.7500      0.0000    732.2869      5.0374     76.8172
   739.0000      0.0000    727.2725      5.1551     71.2753
   739.2500      0.0000    723.5197      5.2938     68.2075
   739.5000      0.0000    722.6353      5.4100     68.7637
   739.7500      0.0000    725.3170      5.4762     71.9524
   740.0000      0.0000    730.6177      5.4810     75.8840
   740.2500      0.0000    736.3400      5.4231     79.2923
   740.5000      0.0000    740.5202      5.3186     81.9168
   740.7500      0.0000    742.4407      5.2074     83.7914
   741.0000      0.0000    742.1920      5.1271     84.5622
   741.2500      0.0000    739.6899      5.0748     83.6356
   741.5000      0.0000    734.5215      5.0072     80.8764
   741.7500      0.0000    726.8060      4.8909     77.0524
   742.0000      0.0000    717.9113      4.7449     73.6342
   742.2500      0.0000    709.9293      4.6261     72.1514
   742.5000      0.0000    704.3510      4.5796     73.4000
   742.7500      0.0000    701.4141      4.6066     76.8701
   743.0000      0.0000    700.6408      4.6772     80.9710
   743.2500      0.0000    701.5659      4.7615     83.9883
   743.5000      0.0000    703.6790      4.8403     84.9274
   743.7500      0.0000    705.9091      4.8910     83.7873
   744.0000      0.0000    706.8029      4.8855     81.4755
   744.2500      0.0000    705.6626      4.8119     79.2782
   744.5000      0.0000    703.3605      4.6930     77.8454
   744.7500      0.0000    701.7927      4.5728     76.5928
   745.0000      0.0000    702.6036      4.4832     74.5100
   745.2500      0.0000    706.2220      4.4297     71.4951
   745.5000      0.0000    711.4606      4.4086     68.3449
   745.7500      0.0000    716.0096      4.4260     65.5583
   746.0000      0.0000    718.0634      4.4876     63.0032
   746.2500      0.0000    717.7189      4.5748     60.9394
   746.5000      0.0000    716.4444      4.6411     60.5039
   746.7500      0.0000    715.3762      4.6432     62.5257
   747.0000      0.0000    714.5884      4.5789     66.3280
   747.2500      0.0000    713.5270      4.4883     70.4350
   747.5000      0.0000    711.5748      4.4169     74.1817
   747.7500      0.0000    708.5744      4.3853     77.8451
   748.0000      0.0000    705.1701      4.3908     81.4493
   748.2500      0.0000    702.4183      4.4224     84.2923
   748.5000      0.0000    701.0665      4.4681     85.6383
   748.7500      0.0000    701.4764      4.5189     85.2449
   749.0000      0.0000    704.0577      4.5701     83.2946
   749.2500      0.0000    709.2274      4.6172     80.4191
   749.5000      0.0000    716.6100      4.6524     77.7539
   749.7500      0.0000    724.4344      4.6727     76.4068
   750.0000      0.0000    730.2697      4.6853     76.6423
   750.2500      0.0000    732.7634      4.6982     77.6701
   750.5000      0.0000    732.6018      4.7104     78.3608
   750.7500      0.0000    731.4570      4.7175     78.2269
   751.0000      0.0000    729.9564      4.7184     77.7535
   751.2500      0.0000    727.0648      4.7081     77.8905
   751.5000      0.0000    721.7340      4.6762     79.2535
   751.7500      0.0000    714.7687      4.6211     81.7111
   752.0000      0.0000    708.6448      4.5577     84.8588
   752.2500      0.0000    705.6531      4.5050     88.9252
   752.5000      0.0000    706.3864      4.4701     94.7967
   752.7500      0.0000    709.6171      4.4493    102.9192
   753.0000      0.0000    713.2160      4.4401    112.6234
   753.2500      0.0000    715.4172      4.4462    122.6881
   753.5000      0.0000    715.7465      4.4729    131.9773
   753.7500      0.0000    714.9856      4.5200    139.2343
