~Version Information
VERS.                      2.0: CWLS Log ASCII Standard - VERSION 2.0
WRAP.                       NO: One line per depth step
~Well Information Block
STRT.FT                -8.0000: 
STOP.FT               973.2500: 
STEP.FT                 0.2500: 
NULL.                -999.2500: 
COMP.          Pioneer Natural Resources: COMPANY
WELL.              Oscar 41-31: WELL
FLD.           Purgatorie River: FIELD
LOC.           412' FNL & 1216' FEL--: LOCATION
PROV.                       CO: PROVINCE
CNTY.               Las Animas: COUNTRY
SRVC.          Patterson Wireline: SERVICE COMPANY
DATE.          Wed Mar 02 12:29:08 2005: LOG DATE
UWI.           05 071 08290 00: UNIQUE WELL ID
~Curve Information Block
DEPT.FT            0 000 00 00: Depth
CCL.                          : Casing Collar Locator
TT5.usec                      : CBL 5' Travel Time
AMP3.mV                       : CBL 3' Amplitude
GR.GAPI                       : Gamma Ray
~Parameter Information Block
~A  Depth       CCL         TT5         AMP3         GR     
# ...
   193.0000      0.0000   1200.0000      5.3555     96.5533
   193.2500      0.0000   1200.0000      5.3869     99.9826
   193.5000      0.0000   1200.0000      5.3873    104.1403
   193.7500      0.0000   1200.0000      5.3525    107.4911
   194.0000      0.0000   1200.0000      5.2921    108.8784
   194.2500      0.0000   1200.0000      5.2242    107.8282
   194.5000      0.0000   1200.0000      5.1695    104.4996
   194.7500      0.0000   1200.0000      5.1422     99.7266
   195.0000      0.0000   1200.0000      5.1426     95.0442
   195.2500      0.0000   1200.0000      5.1594     92.1213
   195.5000      0.0000   1200.0000      5.1780     91.7694
   195.7500      0.0000   1200.0000      5.1889     93.3563
   196.0000      0.0000   1200.0000      5.1917     95.2445
   196.2500      0.0000   1200.0000      5.1924     96.0690
   196.5000      0.0000   1200.0000      5.1924     95.7399
   196.7500      0.0000   1200.0000      5.1817     95.0630
   197.0000      0.0000   1200.0000      5.1458     94.4988
   197.2500      0.0000   1200.0000      5.0792     93.6649
   197.5000      0.0000   1200.0000      4.9924     92.0814
   197.7500      0.0000   1200.0000      4.9049     90.0390
   198.0000      0.0000   1200.0000      4.8337     88.5226
   198.2500      0.0000   1200.0000      4.7878     88.3456
   198.5000      0.0000   1200.0000      4.7683     89.3986
   198.7500      0.0000   1200.0000      4.7705     90.7711
   199.0000      0.0000   1200.0000      4.7890     91.6844
   199.2500      0.0000   1200.0000      4.8207     92.1879
   199.5000      0.0000   1200.0000      4.8605     92.7055
   199.7500      0.0000   1200.0000      4.8985     93.0168
   200.0000      0.0000   1200.0000      4.9255     92.2373
   200.2500      0.0000   1200.0000      4.9400     89.9771
   200.5000      0.0000   1200.0000      4.9451     87.0907
   200.7500      0.0000   1200.0000      4.9414     84.9652
   201.0000      0.0000   1200.0000      4.9238     84.2693
   201.2500      0.0000   1200.0000      4.8869     84.6231
   201.5000      0.0000   1200.0000      4.8334     85.3192
   201.7500      0.0000   1200.0000      4.7761     85.9207
   202.0000      0.0000   1200.0000      4.7304     85.9896
   202.2500      0.0000   1200.0000      4.7035     84.7804
   202.5000      0.0000   1200.0000      4.6929     81.9304
   202.7500      0.0000   1200.0000      4.6953     78.3420
   203.0000      0.0000   1200.0000      4.7123     75.6862
   203.2500      0.0000   1200.0000      4.7456     74.9416
   203.5000      0.0000   1200.0000      4.7896     75.9349
   203.7500      0.0000   1200.0000      4.8350     78.2899
   204.0000      0.0000   1200.0000      4.8800     82.0842
   204.2500      0.0000   1200.0000      4.9325     87.0959
   204.5000      0.0000   1200.0000      4.9983     91.9576
   204.7500      0.0000   1200.0000      5.0719     94.7704
   205.0000      0.0000   1200.0000      5.1388     94.4885
   205.2500      0.0000   1200.0000      5.1861     91.5048
   205.5000      0.0000   1200.0000      5.2087     87.3086
   205.7500      0.0000   1200.0000      5.2114     83.7825
   206.0000      0.0000   1200.0000      5.2075     82.2969
   206.2500      0.0000   1200.0000      5.2147     83.0112
   206.5000      0.0000   1200.0000      5.2425     85.0274
   206.7500      0.0000   1200.0000      5.2810     87.2753
   207.0000      0.0000   1200.0000      5.3055     89.2030
   207.2500      0.0000   1200.0000      5.2964     90.7433
   207.5000      0.0000   1200.0000      5.2577     91.9303
   207.7500      0.0000   1200.0000      5.2137     92.7291
   208.0000      0.0000   1200.0000      5.1881     93.0946
   208.2500      0.0000   1200.0000      5.1854     92.9716
   208.5000      0.0000   1200.0000      5.1946     92.2765
   208.7500      0.0000   1200.0000      5.2047     90.9807
   209.0000      0.0000   1200.0000      5.2137     89.1855
   209.2500      0.0000   1200.0000      5.2252     87.0969
   209.5000      0.0000   1200.0000      5.2409     85.1647
   209.7500      0.0000   1200.0000      5.2574     84.3928
   210.0000      0.0000   1200.0000      5.2680     85.9532
   210.2500      0.0000   1200.0000      5.2705     89.8259
   210.5000      0.0000   1200.0000      5.2719     94.1109
   210.7500      0.0000   1200.0000      5.2817     96.5301
   211.0000      0.0000   1200.0000      5.3021     96.6006
   211.2500      0.0000   1200.0000      5.3309     95.6764
   211.5000      0.0000   1200.0000      5.3699     94.9471
   211.7500      0.0000   1200.0000      5.4254     94.3464
   212.0000      0.0000   1200.0000      5.4973     93.5684
   212.2500      0.0000   1200.0000      5.5732     93.1886
   212.5000      0.0000   1200.0000      5.6359     94.1742
   212.7500      0.0000   1200.0000      5.6741     96.6679
   213.0000      0.0000   1200.0000      5.6885     99.7934
   213.2500      0.0000   1200.0000      5.6899    102.6766
   213.5000      0.0000   1200.0000      5.6916    105.2311
   213.7500      0.0000   1200.0000      5.7045    107.6079
   214.0000      0.0000   1200.0000      5.7339    109.2112
   214.2500      0.0000   1200.0000      5.7784    108.9384
   214.5000      0.0000   1200.0000      5.8310    106.3497
   214.7500      0.0000   1200.0000      5.8839    102.1353
   215.0000      0.0000   1200.0000      5.9366     97.4785
   215.2500      0.0000   1200.0000      5.9976     93.3390
   215.5000      0.0000   1200.0000      6.0689     90.1572
   215.7500      0.0000   1200.0000      6.1308     87.7026
   216.0000      0.0000   1200.0000      6.1530     85.1975
   216.2500      0.0000   1200.0000      6.1271     82.1162
   216.5000      0.0000   1200.0000      6.0804     78.8928
   216.7500      0.0000   1200.0000      6.0527     76.3932
   217.0000      0.0000   1200.0000      6.0623     74.8763
   217.2500      0.0000   1200.0000      6.0918     74.0594
   217.5000      0.0000   1200.0000      6.1024     73.9656
   217.7500      0.0000   1200.0000      6.0644     75.0267
   218.0000      0.0000   1200.0000      5.9820     77.5340
   218.2500      0.0000   1200.0000      5.8897     81.4533
   218.5000      0.0000   1200.0000      5.8090     86.4655
   218.7500      0.0000   1200.0000      5.7034     91.7479
   219.0000      0.0000   1200.0000      5.5030     95.9497
   219.2500      0.0000   1200.0000      5.1949     97.7744
   219.5000      0.0000   1200.0000      4.8670     96.6707
   219.7500      0.0000   1200.0000      4.6352     93.0257
   220.0000      0.0000   1200.0000      4.5413     87.9068
   220.2500      2.0000   1200.0000      4.5407     82.7956
   220.5000      2.0000   1200.0000      4.5705     79.3702
   220.7500      0.0000   1200.0000      4.6166     78.8778
   221.0000      0.0000   1200.0000      4.7258     81.2603
   221.2500      0.0000   1200.0000      4.9552     85.0507
   221.5000      0.0000   1200.0000      5.3010     88.3942
   221.7500      0.0000   1200.0000      5.6849     90.1057
   222.0000      0.0000   1200.0000      6.0243     89.6940
   222.2500      0.0000   1200.0000      6.2973     86.8116
   222.5000      0.0000   1200.0000      6.5222     81.3334
   222.7500      0.0000   1200.0000      6.7071     73.9111
   223.0000      0.0000   1200.0000      6.8442     65.9241
   223.2500      0.0000   1200.0000      6.9329     58.7642
   223.5000      0.0000   1200.0000      6.9868     53.3653
   223.7500      0.0000   1200.0000      7.0251     50.3027
   224.0000      0.0000   1200.0000      7.0615     49.9019
   224.2500      0.0000   1200.0000      7.1006     51.8836
   224.5000      0.0000   1200.0000      7.1414     55.0187
   224.7500      0.0000   1200.0000      7.1814     57.6632
   225.0000      0.0000   1200.0000      7.2131     59.0311
   225.2500      0.0000   1200.0000      7.2231     59.8038
   225.5000      0.0000   1200.0000      7.2021     61.1585
   225.7500      0.0000   1200.0000      7.1540     63.2826
   226.0000      0.0000   1200.0000      7.0929     65.1160
   226.2500      0.0000   1200.0000      7.0304     65.4181
