~Version Information
VERS.                      2.0: CWLS Log ASCII Standard - VERSION 2.0
WRAP.                       NO: One line per depth step
~Well Information Block
STRT.FT               -14.5000: 
STOP.FT              2676.5000: 
STEP.FT                 0.1000: 
NULL.                -999.2500: 
COMP.          Petrogulf Corporation: COMPANY
WELL.          Latiluppe 8-13V: WELL
FLD.           Purgatorie River: FIELD
LOC.           1069' FWL & 1647' FSL: LOCATION
CNTY.               Las Animas: COUNTY
SRVC.                         : SERVICE COMPANY
DATE.          Tue Nov 18 16:12:50 2003: LOG DATE
UWI.                          : UNIQUE WELL ID
STAT.                 Colorado: STATE
~Curve Information Block
DEPT.FT            0 000 00 00: Depth
CCL.                          : Casing Collar Locator
TT3.usec                      : CBL 3' Travel Time
AMP3.mV                       : CBL 3' Amplitude
GR.GAPI                       : Gamma Ray
~Parameter Information Block
~A  Depth       CCL         TT3         AMP3         GR     
   -14.5000   -999.2500   -999.2500   -999.2500    177.6426
   -14.4000   -999.2500   -999.2500   -999.2500    175.4036
   -14.3000   -999.2500   -999.2500   -999.2500    175.4036
   -14.2000   -999.2500   -999.2500   -999.2500    171.6663
   -14.1000   -999.2500   -999.2500   -999.2500    171.6663
   -14.0000   -999.2500   -999.2500   -999.2500    171.6663
   -13.9000   -999.2500   -999.2500   -999.2500    167.8737
   -13.8000   -999.2500   -999.2500   -999.2500    167.8737
   -13.7000   -999.2500   -999.2500   -999.2500    165.1849
   -13.6000   -999.2500   -999.2500   -999.2500    165.1849
   -13.5000   -999.2500   -999.2500   -999.2500    165.1849
   -13.4000   -999.2500   -999.2500   -999.2500    163.7003
   -13.3000   -999.2500   -999.2500   -999.2500    163.7003
   -13.2000   -999.2500   -999.2500   -999.2500    163.0527
   -13.1000   -999.2500   -999.2500   -999.2500    163.0527
   -13.0000   -999.2500   -999.2500   -999.2500    163.0527
   -12.9000   -999.2500   -999.2500   -999.2500    163.0356
   -12.8000   -999.2500   -999.2500   -999.2500    163.0356
   -12.7000   -999.2500   -999.2500   -999.2500    163.6262
   -12.6000   -999.2500   -999.2500   -999.2500    163.6262
   -12.5000   -999.2500   -999.2500   -999.2500    163.6262
   -12.4000   -999.2500   -999.2500   -999.2500    164.8544
   -12.3000   -999.2500   -999.2500   -999.2500    164.8544
   -12.2000   -999.2500   -999.2500   -999.2500    166.8267
   -12.1000   -999.2500   -999.2500   -999.2500    166.8267
   -12.0000   -999.2500   -999.2500   -999.2500    166.8267
   -11.9000   -999.2500   -999.2500   -999.2500    169.7098
   -11.8000   -999.2500   -999.2500   -999.2500    169.7098
   -11.7000   -999.2500   -999.2500   -999.2500    173.5802
   -11.6000   -999.2500   -999.2500   -999.2500    173.5802
   -11.5000   -999.2500   -999.2500   -999.2500    173.5802
   -11.4000   -999.2500   -999.2500   -999.2500    178.1488
   -11.3000   -999.2500   -999.2500   -999.2500    178.1488
   -11.2000   -999.2500   -999.2500   -999.2500    182.4947
   -11.1000   -999.2500   -999.2500   -999.2500    182.4947
   -11.0000   -999.2500   -999.2500   -999.2500    182.4947
   -10.9000   -999.2500   -999.2500   -999.2500    185.0934
   -10.8000   -999.2500   -999.2500   -999.2500    185.0934
   -10.7000   -999.2500   -999.2500   -999.2500    184.3697
   -10.6000   -999.2500   -999.2500   -999.2500    184.3697
   -10.5000   -999.2500   -999.2500   -999.2500    184.3697
   -10.4000   -999.2500   -999.2500   -999.2500    179.4515
   -10.3000   -999.2500   -999.2500   -999.2500    179.4515
   -10.2000   -999.2500   -999.2500   -999.2500    170.6712
   -10.1000   -999.2500   -999.2500   -999.2500    170.6712
   -10.0000   -999.2500   -999.2500   -999.2500    170.6712
    -9.9000   -999.2500   -999.2500   -999.2500    159.5838
    -9.8000   -999.2500   -999.2500   -999.2500    159.5838
    -9.7000   -999.2500   1480.0000      1.1435    148.3189
    -9.6000   -999.2500   1480.0000      1.1435    148.3189
    -9.5000   -999.2500   1480.0000      1.1435    148.3189
    -9.4000   -999.2500   1480.0000      1.1377    138.5006
    -9.3000   -999.2500   1480.0000      1.1377    138.5006
    -9.2000   -999.2500   1480.0000      1.1298    130.7428
    -9.1000   -999.2500   1480.0000      1.1298    130.7428
    -9.0000   -999.2500   1480.0000      1.1298    130.7428
    -8.9000   -999.2500   1480.0000      1.1214    125.2304
    -8.8000   -999.2500   1480.0000      1.1214    125.2304
    -8.7000   -999.2500   1480.0000      1.1129    122.2058
    -8.6000   -999.2500   1480.0000      1.1129    122.2058
    -8.5000   -999.2500   1480.0000      1.1129    122.2058
    -8.4000   -999.2500   1480.0000      1.1043    121.2876
    -8.3000   -999.2500   1480.0000      1.1043    121.2876
    -8.2000   -999.2500   1480.0000      1.0989    120.6950
    -8.1000   -999.2500   1480.0000      1.0989    120.6950
    -8.0000   -999.2500   1480.0000      1.0989    120.6950
    -7.9000   -999.2500   1480.0000      1.1017    118.1451
    -7.8000   -999.2500   1480.0000      1.1017    118.1451
    -7.7000   -999.2500   1480.0000      1.1125    112.9997
    -7.6000   -999.2500   1480.0000      1.1125    112.9997
    -7.5000   -999.2500   1480.0000      1.1125    112.9997
    -7.4000   -999.2500   1480.0000      1.1212    107.1179
    -7.3000   -999.2500   1480.0000      1.1212    107.1179
    -7.2000   -999.2500   1480.0000      1.1151    103.1021
    -7.1000   -999.2500   1480.0000      1.1151    103.1021
    -7.0000   -999.2500   1480.0000      1.1151    103.1021
    -6.9000   -999.2500   1480.0000      1.0930    101.8067
    -6.8000   -999.2500   1480.0000      1.0930    101.8067
    -6.7000   -999.2500   1480.0000      1.0687    101.6709
    -6.6000   -999.2500   1480.0000      1.0687    101.6709
    -6.5000   -999.2500   1480.0000      1.0687    101.6709
    -6.4000   -999.2500   1480.0000      1.0595     99.9967
    -6.3000   -999.2500   1480.0000      1.0595     99.9967
    -6.2000   -999.2500   1480.0000      1.0705     94.7723
    -6.1000   -999.2500   1480.0000      1.0705     94.7723
    -6.0000   -999.2500   1480.0000      1.0705     94.7723
    -5.9000   -999.2500   1480.0000      1.0909     86.0402
    -5.8000   -999.2500   1480.0000      1.0909     86.0402
    -5.7000   -999.2500   1480.0000      1.1060     76.0129
    -5.6000   -999.2500   1480.0000      1.1060     76.0129
    -5.5000   -999.2500   1480.0000      1.1060     76.0129
    -5.4000   -999.2500   1480.0000      1.1084     67.5860
    -5.3000   -999.2500   1480.0000      1.1084     67.5860
    -5.2000   -999.2500   1480.0000      1.0989     62.4196
    -5.1000   -999.2500   1480.0000      1.0989     62.4196
    -5.0000   -999.2500   1480.0000      1.0989     62.4196
    -4.9000   -999.2500   1480.0000      1.0814     60.2746
    -4.8000   -999.2500   1480.0000      1.0814     60.2746
    -4.7000   -999.2500   1480.0000      1.0608     59.8231
    -4.6000   -999.2500   1480.0000      1.0608     59.8231
    -4.5000   -999.2500   1480.0000      1.0608     59.8231
    -4.4000   -999.2500   1480.0000      1.0458     59.8759
    -4.3000   -999.2500   1480.0000      1.0458     59.8759
    -4.2000   -999.2500   1480.0000      1.0458     60.0344
    -4.1000   -999.2500   1480.0000      1.0458     60.0344
    -4.0000      0.0000   1480.0000      1.0458     60.0344
    -3.9000      0.0000   1480.0000      1.0626     60.4620
    -3.8000      0.0000   1480.0000      1.0626     60.4620
    -3.7000      0.0000   1480.0000      1.0880     61.3829
    -3.6000      0.0000   1480.0000      1.0880     61.3829
    -3.5000      0.0000   1480.0000      1.0880     61.3829
    -3.4000      0.0000   1480.0000      1.1116     62.9743
    -3.3000      0.0000   1480.0000      1.1116     62.9743
    -3.2000      0.0000   1480.0000      1.1293     65.2327
    -3.1000      0.0000   1480.0000      1.1293     65.2327
    -3.0000      0.0000   1480.0000      1.1293     65.2327
    -2.9000      0.0000   1480.0000      1.1452     67.5105
    -2.8000      0.0000   1480.0000      1.1452     67.5105
    -2.7000      0.0000   1480.0000      1.1621     68.6559
    -2.6000      0.0000   1480.0000      1.1621     68.6559
    -2.5000      0.0000   1480.0000      1.1621     68.6559
    -2.4000      0.0000   1480.0000      1.1756     68.0198
    -2.3000      0.0000   1480.0000      1.1756     68.0198
    -2.2000      0.0000   1480.0000      1.1803     65.9512
    -2.1000      0.0000   1480.0000      1.1803     65.9512
    -2.0000      0.0000   1480.0000      1.1803     65.9512
    -1.9000      0.0000   1480.0000      1.1792     63.2833
    -1.8000      0.0000   1480.0000      1.1792     63.2833
    -1.7000      0.0000   1480.0000      1.1788     60.9156
    -1.6000      0.0000   1480.0000      1.1788     60.9156
    -1.5000      0.0000   1480.0000      1.1788     60.9156
    -1.4000      0.0000   1480.0000      1.1775     59.7633
    -1.3000      0.0000   1480.0000      1.1775     59.7633
    -1.2000      0.0000   1480.0000      1.1675     60.3390
