~Version Information
VERS.                      2.0: CWLS Log ASCII Standard - VERSION 2.0
WRAP.                       NO: One line per depth step
~Well Information Block
STRT.FT               801.5000: 
STOP.FT              2513.0000: 
STEP.FT                 0.2500: 
NULL.                -999.2500: 
COMP.          Petrogulf Corporation: COMPANY
WELL.               YWAM 7-32V: WELL
FLD.           Purgatoire River: FIELD
LOC.           2423' FNL & 2412' FEL: LOCATION
PROV.                 Colorado: PROVINCE
CNTY.               Las Animas: COUNTRY
SRVC.                Patterson: SERVICE COMPANY
DATE.          Sun Dec 14 06:58:17 2003: LOG DATE
UWI.                          : UNIQUE WELL ID
~Curve Information Block
DEPT.FT            0 000 00 00: Depth
SP.mV                         : DIL Spontaneous Potential
RILD.Ohm-m                    : DIL Deep Resistivity
RILM.Ohm-m                    : DIL Medium Resistivity
RLL3.Ohm-m                    : DIL Shallow Resistivity
GR.GAPI                       : Gamma Ray
~Parameter Information Block
~A  Depth        SP         RILD        RILM        RLL3         GR     
# ...
  1921.5000   -303.8810     19.4752     16.4786     17.1076    175.4355
  1921.7500   -303.8892     19.3338     16.6207     18.6195    175.7954
  1922.0000   -303.8317     19.2549     16.8383     20.4572    174.3519
  1922.2500   -303.7055     19.3124     17.0746     22.3402    172.4365
  1922.5000   -303.5501     19.5750     17.3020     23.9692    169.0215
  1922.7500   -303.4183     20.0630     17.5420     25.2994    166.3642
  1923.0000   -303.3566     20.7302     17.8494     26.7201    160.1763
  1923.2500   -303.4030     21.4838     18.2737     28.8177    153.3214
  1923.5000   -303.5761     22.2370     18.8289     31.8158    137.9521
  1923.7500   -303.8456     22.9563     19.4890     35.2384    124.8054
  1924.0000   -304.1201     23.6638     20.2033     38.1756    103.0840
  1924.2500   -304.2793     24.3998     20.9174     39.8819     89.0669
  1924.5000   -304.2328     25.1868     21.5870     40.1587     71.3291
  1924.7500   -303.9646     26.0210     22.1864     39.3268     62.3719
  1925.0000   -303.5370     26.8835     22.7131     37.9783     52.9302
  1925.2500   -303.0566     27.7549     23.1833     36.6867     48.7153
  1925.5000   -302.6310     28.6234     23.6118     35.7450     44.5696
  1925.7500   -302.3448     29.4910     23.9937     35.0611     42.8689
  1926.0000   -302.2616     30.3712     24.3054     34.3383     41.5369
  1926.2500   -302.4300     31.2675     24.5290     33.4190     41.4212
  1926.5000   -302.8802     32.1290     24.6768     32.4606     42.4398
  1926.7500   -303.6186     32.8282     24.7937     31.7767     43.6995
  1927.0000   -304.6307     33.2145     24.9368     31.5467     45.3926
  1927.2500   -305.8820     33.2349     25.1487     31.7115     45.6692
  1927.5000   -307.3071     33.0005     25.4390     32.1049     44.4254
  1927.7500   -308.8094     32.7199     25.7826     32.6005     42.9590
  1928.0000   -310.2854     32.5711     26.1387     33.1203     41.2108
  1928.2500   -311.6534     32.6318     26.4817     33.6074     41.0021
  1928.5000   -312.8524     32.8894     26.8215     34.0974     42.1287
  1928.7500   -313.8359     33.2858     27.1969     34.8004     43.0967
  1929.0000   -314.5988     33.7552     27.6445     36.0167     43.3404
  1929.2500   -315.2022     34.2453     28.1617     37.9007     42.4229
  1929.5000   -315.7318     34.7217     28.6917     40.2983     40.4217
  1929.7500   -316.2098     35.1660     29.1469     42.8074     39.6271
  1930.0000   -316.5468     35.5736     29.4656     44.9689     40.4838
  1930.2500   -316.5716     35.9445     29.6571     46.3976     42.7023
  1930.5000   -316.1130     36.2726     29.7885     46.8218     48.4915
  1930.7500   -315.0874     36.5358     29.9229     46.1579     53.9612
  1931.0000   -313.5465     36.6984     30.0671     44.6553     64.5027
  1931.2500   -311.6598     36.7203     30.1681     42.8995     72.6616
  1931.5000   -309.6464     36.5628     30.1528     41.4801     84.7678
  1931.7500   -307.7049     36.1976     29.9696     40.5485     91.5656
  1932.0000   -305.9771     35.6217     29.6066     39.7654     99.2499
  1932.2500   -304.5408     34.8741     29.0909     38.7493    103.2281
  1932.5000   -303.4105     34.0338     28.4811     37.5009    108.1933
  1932.7500   -302.5430     33.1922     27.8568     36.3314    110.5158
  1933.0000   -301.8627     32.4165     27.2944     35.4831    111.5136
  1933.2500   -301.3005     31.7317     26.8357     34.9306    110.3675
  1933.5000   -300.8210     31.1283     26.4706     34.4946    106.4723
  1933.7500   -300.4234     30.5883     26.1530     34.0330    102.8404
  1934.0000   -300.1287     30.1108     25.8372     33.5173     96.4951
  1934.2500   -299.9666     29.7202     25.5089     32.9975     92.0749
  1934.5000   -299.9633     29.4528     25.1882     32.5292     85.5813
  1934.7500   -300.1279     29.3324     24.9132     32.1190     81.1556
  1935.0000   -300.4483     29.3518     24.7236     31.7259     73.6637
  1935.2500   -300.9100     29.4718     24.6507     31.3112     68.0523
  1935.5000   -301.5172     29.6376     24.7135     30.8981     59.7579
  1935.7500   -302.2845     29.7984     24.9154     30.6167     55.1398
  1936.0000   -303.1923     29.9153     25.2429     30.7156     50.1960
  1936.2500   -304.1484     29.9526     25.6627     31.5018     47.9798
  1936.5000   -304.9981     29.8744     26.1206     33.1894     45.6426
  1936.7500   -305.5780     29.6533     26.5443     35.7172     44.7023
  1937.0000   -305.7806     29.2883     26.8596     38.6393     44.7566
  1937.2500   -305.5967     28.8198     27.0163     41.1837     46.2755
  1937.5000   -305.1178     28.3338     27.0123     42.5422     51.7392
  1937.7500   -304.4944     27.9542     26.8952     42.3035     57.7359
  1938.0000   -303.8719     27.8173     26.7325     40.6986     69.0125
  1938.2500   -303.3384     28.0277     26.5704     38.3881     76.4288
  1938.5000   -302.9126     28.6122     26.4112     36.0096     84.8365
  1938.7500   -302.5746     29.4958     26.2319     33.9396     87.9997
  1939.0000   -302.3136     30.5182     26.0311     32.3457     88.9716
  1939.2500   -302.1443     31.4955     25.8593     31.2923     86.9915
  1939.5000   -302.0719     32.2963     25.8003     30.8171     79.9562
  1939.7500   -302.0565     32.8844     25.9252     31.0191     73.1309
  1940.0000   -302.0344     33.3053     26.2595     32.0832     62.0316
  1940.2500   -301.9793     33.6418     26.7790     34.1827     55.5884
  1940.5000   -301.9265     33.9759     27.4257     37.3392     49.0118
  1940.7500   -301.9374     34.3759     28.1263     41.3234     46.9030
  1941.0000   -302.0411     34.9019     28.8051     45.6349     46.6068
  1941.2500   -302.2020     35.6069     29.3973     49.6250     47.7101
  1941.5000   -302.3270     36.5285     29.8720     52.7485     50.2237
  1941.7500   -302.3032     37.6666     30.2604     54.7455     52.0568
  1942.0000   -302.0449     38.9665     30.6578     55.6117     54.9191
  1942.2500   -301.5333     40.3196     31.1817     55.4831     57.0348
  1942.5000   -300.8266     41.5960     31.9037     54.6320     60.6809
  1942.7500   -300.0326     42.7119     32.7998     53.5290     63.3699
  1943.0000   -299.2601     43.6938     33.7534     52.7401     67.4611
  1943.2500   -298.5805     44.6603     34.6099     52.6245     69.9963
  1943.5000   -298.0163     45.6931     35.2409     53.1003     73.2512
  1943.7500   -297.5614     46.6638     35.5746     53.7458     74.9319
  1944.0000   -297.2176     47.1673     35.5891     54.1396     76.1330
  1944.2500   -297.0150     46.7117     35.3035     54.0582     75.4479
  1944.5000   -296.9944     45.1065     34.7760     53.3924     71.4228
  1944.7500   -297.1679     42.6580     34.0876     52.0906     66.9603
  1945.0000   -297.4945     39.9359     33.2942     50.3004     59.1612
  1945.2500   -297.8833     37.4170     32.3846     48.4069     54.2771
  1945.5000   -298.2133     35.3388     31.2936     46.7445     48.5242
  1945.7500   -298.3629     33.7438     29.9717     45.2726     46.0370
  1946.0000   -298.2476     32.5669     28.4588     43.5788     45.0580
  1946.2500   -297.8593     31.7011     26.8938     41.1883     46.9305
  1946.5000   -297.2793     31.0366     25.4573     37.9304     54.4253
  1946.7500   -296.6426     30.4818     24.3010     34.1428     62.3104
  1947.0000   -296.0640     29.9672     23.5107     30.5658     76.2748
  1947.2500   -295.5751     29.4375     23.1038     27.9604     85.0437
  1947.5000   -295.1195     28.8476     23.0422     26.7282     94.5476
  1947.7500   -294.6014     28.1743     23.2440     26.8324     97.9518
  1948.0000   -293.9433     27.4327     23.5922     28.0114     99.8284
  1948.2500   -293.1197     26.6782     23.9481     29.9898     99.9030
  1948.5000   -292.1626     25.9847     24.1798     32.4408     98.8527
  1948.7500   -291.1468     25.4164     24.1999     34.8230     97.2051
  1949.0000   -290.1636     25.0103     23.9904     36.4131     93.5990
  1949.2500   -289.2936     24.7769     23.5951     36.6122     91.3784
