~Version Information
VERS.                      2.0: CWLS Log ASCII Standard - VERSION 2.0
WRAP.                       NO: One line per depth step
~Well Information Block
STRT.FT               652.0000: 
STOP.FT              1880.5000: 
STEP.FT                 0.2500: 
NULL.                -999.2500: 
COMP.          Pioneer Natural Resources: COMPANY
WELL.          Corkscrew 33-12 Tr: WELL
FLD.           Purgatoire River: FIELD
LOC.           1870' FSL & 1706' FEL: LOCATION
PROV.                 Colorado: PROVINCE
CNTY.               Las Animas: COUNTRY
SRVC.                Patterson: SERVICE COMPANY
DATE.          Mon Mar 28 22:58:28 2005: LOG DATE
UWI.           05 071 08295 00: UNIQUE WELL ID
~Curve Information Block
DEPT.FT            0 000 00 00: Depth
SN.Ohm-m                      : IEL Short Normal
SP.mV                         : IEL Spontaneous Potential
DIR.Ohm-m                     : IEL Induction Resistivity
GR.GAPI                       : Gamma Ray
~Parameter Information Block
~A  Depth        SN          SP         DIR          GR     
# ...
   819.5000   2000.0000   2000.0000     18.6309     51.9262
   819.7500   2000.0000   2000.0000     18.4644     54.9254
   820.0000   2000.0000   2000.0000     18.1769     61.7194
   820.2500   2000.0000   2000.0000     17.6842     67.6820
   820.5000   2000.0000   2000.0000     16.9551     78.2910
   820.7500   2000.0000   2000.0000     16.0642     85.9137
   821.0000   2000.0000   2000.0000     15.1677     96.9102
   821.2500   2000.0000   2000.0000     14.4127    103.3802
   821.5000   2000.0000   2000.0000     13.8631    111.5490
   821.7500   2000.0000   2000.0000     13.4854    116.0644
   822.0000   2000.0000   2000.0000     13.1855    121.2962
   822.2500   2000.0000   2000.0000     12.8701    123.4044
   822.5000   2000.0000   2000.0000     12.5001    123.9748
   822.7500   2000.0000   2000.0000     12.0983    122.6137
   823.0000   2000.0000   2000.0000     11.7140    118.4440
   823.2500   2000.0000   2000.0000     11.3826    114.8133
   823.5000   2000.0000   2000.0000     11.1106    109.7147
   823.7500   2000.0000   2000.0000     10.8878    107.7173
   824.0000   2000.0000   2000.0000     10.7092    108.1185
   824.2500   2000.0000   2000.0000     10.5870    110.5037
   824.5000   2000.0000   2000.0000     10.5421    115.7714
   824.7500   2000.0000   2000.0000     10.5857    119.3750
   825.0000   2000.0000   2000.0000     10.7067    123.5502
   825.2500   2000.0000   2000.0000     10.8782    125.0894
   825.5000   2000.0000   2000.0000     11.0764    125.4643
   825.7500   2000.0000   2000.0000     11.2946    124.6007
   826.0000   2000.0000   2000.0000     11.5372    121.9601
   826.2500   2000.0000   2000.0000     11.8004    119.6508
   826.5000   2000.0000   2000.0000     12.0619    116.6718
   826.7500   2000.0000   2000.0000     12.2933    115.9165
   827.0000   2000.0000   2000.0000     12.4814    117.2119
   827.2500   2000.0000   2000.0000     12.6342    119.1871
   827.5000   2000.0000   2000.0000     12.7629    122.0673
   827.7500   2000.0000   2000.0000     12.8590    122.9322
   828.0000   2000.0000   2000.0000     12.8884    121.8672
   828.2500   2000.0000   2000.0000     12.8087    119.9277
   828.5000   2000.0000   2000.0000     12.5946    116.6961
   828.7500   2000.0000   2000.0000     12.2547    115.1573
   829.0000   2000.0000   2000.0000     11.8275    114.3089
   829.2500   2000.0000   2000.0000     11.3654    114.5910
   829.5000   2000.0000   2000.0000     10.9172    116.0237
   829.7500   2000.0000   2000.0000     10.5185    117.6778
   830.0000   2000.0000   2000.0000     10.1873    121.1490
   830.2500   2000.0000   2000.0000      9.9237    123.8020
   830.5000   2000.0000   2000.0000      9.7109    127.6489
   830.7500   2000.0000   2000.0000      9.5200    129.9831
   831.0000   2000.0000   2000.0000      9.3206    133.0863
   831.2500   2000.0000   2000.0000      9.0935    134.7077
   831.5000   2000.0000   2000.0000      8.8373    136.0420
   831.7500   2000.0000   2000.0000      8.5668    136.1638
   832.0000   2000.0000   2000.0000      8.3037    135.5177
   832.2500   2000.0000   2000.0000      8.0680    134.7183
   832.5000   2000.0000   2000.0000      7.8725    133.2675
   832.7500   2000.0000   2000.0000      7.7201    132.5086
   833.0000   2000.0000   2000.0000      7.6011    132.5471
   833.2500   2000.0000   2000.0000      7.4932    133.6211
   833.5000   2000.0000   2000.0000      7.3676    136.5194
   833.7500   2000.0000   2000.0000      7.2023    138.9482
   834.0000   2000.0000   2000.0000      6.9953    142.9638
   834.2500   2000.0000   2000.0000      6.7663    145.9224
   834.5000   2000.0000   2000.0000      6.5468    150.8152
   834.7500   2000.0000   2000.0000      6.3663    154.0020
   835.0000   2000.0000   2000.0000      6.2454    157.4494
   835.2500   2000.0000   2000.0000      6.1932    158.3601
   835.5000   2000.0000   2000.0000      6.2082    157.8018
   835.7500   2000.0000   2000.0000      6.2784    156.7048
   836.0000   2000.0000   2000.0000      6.3838    155.2858
   836.2500   2000.0000   2000.0000      6.5009    155.2012
   836.5000   2000.0000   2000.0000      6.6096    156.6651
   836.7500   2000.0000   2000.0000      6.6982    158.0813
   837.0000   2000.0000   2000.0000      6.7626    159.0671
   837.2500   2000.0000   2000.0000      6.8040    158.1490
   837.5000   2000.0000   2000.0000      6.8274    154.2128
   837.7500   2000.0000   2000.0000      6.8428    150.4592
   838.0000   2000.0000   2000.0000      6.8648    144.7402
   838.2500   2000.0000   2000.0000      6.9085    141.7652
   838.5000   2000.0000   2000.0000      6.9809    139.5249
   838.7500   2000.0000   2000.0000      7.0733    139.6786
   839.0000   2000.0000   2000.0000      7.1610    141.9280
   839.2500   2000.0000   2000.0000      7.2140    143.9949
   839.5000   2000.0000   2000.0000      7.2165    146.3137
   839.7500   2000.0000   2000.0000      7.1795    146.9682
   840.0000   2000.0000   2000.0000      7.1334    147.4172
   840.2500   2000.0000   2000.0000      7.1071    147.9610
   840.5000   2000.0000   2000.0000      7.1118    149.2636
   840.7500   2000.0000   2000.0000      7.1411    150.1998
   841.0000   2000.0000   2000.0000      7.1854    151.4912
   841.2500   2000.0000   2000.0000      7.2480    152.2813
   841.5000   2000.0000   2000.0000      7.3483    153.3430
   841.7500   2000.0000   2000.0000      7.5111    153.9817
   842.0000   2000.0000   2000.0000      7.7486    155.0262
   842.2500   2000.0000   2000.0000      8.0488    155.9102
   842.5000   2000.0000   2000.0000      8.3739    157.3888
   842.7500   2000.0000   2000.0000      8.6732    157.9864
   843.0000   2000.0000   2000.0000      8.9069    156.7820
   843.2500   2000.0000   2000.0000      9.0687    153.7167
   843.5000   2000.0000   2000.0000      9.1882    145.2837
   843.7500   2000.0000   2000.0000      9.3118    137.5806
   844.0000   2000.0000   2000.0000      9.4750    124.5910
   844.2500   2000.0000   2000.0000      9.6843    116.3287
   844.5000   2000.0000   2000.0000      9.9175    107.2804
   844.7500   2000.0000   2000.0000     10.1402    104.8010
   845.0000   2000.0000   2000.0000     10.3298    106.7939
   845.2500   2000.0000   2000.0000     10.4879    110.7814
   845.5000   2000.0000   2000.0000     10.6339    117.3846
   845.7500   2000.0000   2000.0000     10.7848    120.2721
   846.0000   2000.0000   2000.0000     10.9433    120.2533
   846.2500   2000.0000   2000.0000     11.1012    117.1355
   846.5000   2000.0000   2000.0000     11.2540    109.3380
   846.7500   2000.0000   2000.0000     11.4089    103.9020
   847.0000   2000.0000   2000.0000     11.5807     98.9295
   847.2500   2000.0000   2000.0000     11.7760     98.9732
   847.5000   2000.0000   2000.0000     11.9763    103.5160
   847.7500   2000.0000   2000.0000     12.1297    107.9502
   848.0000   2000.0000   2000.0000     12.1630    113.7572
   848.2500   2000.0000   2000.0000     12.0211    116.1093
   848.5000   2000.0000   2000.0000     11.7112    117.1916
   848.7500   2000.0000   2000.0000     11.3109    116.4554
   849.0000   2000.0000   2000.0000     10.9273    113.2284
   849.2500   2000.0000   2000.0000     10.6453    109.8730
   849.5000   2000.0000   2000.0000     10.4982    104.3045
   849.7500   2000.0000   2000.0000     10.4627    101.1146
   850.0000   2000.0000   2000.0000     10.4666     97.6293
   850.2500   2000.0000   2000.0000     10.4139     95.9462
   850.5000   2000.0000   2000.0000     10.2326     94.4656
   850.7500   2000.0000   2000.0000      9.9208     94.8611
   851.0000   2000.0000   2000.0000      9.5480     98.6776
   851.2500   2000.0000   2000.0000      9.2076    103.2168
   851.5000   2000.0000   2000.0000      8.9691    111.4580
   851.7500   2000.0000   2000.0000      8.8621    117.0106
   852.0000   2000.0000   2000.0000      8.8845    124.6948
   852.2500   2000.0000   2000.0000      9.0144    129.1798
   852.5000   2000.0000   2000.0000      9.2135    134.5820
   852.7500   2000.0000   2000.0000      9.4267    137.3418
