~Version Information
VERS.                      2.0: CWLS Log ASCII Standard - VERSION 2.0
WRAP.                       NO: One line per depth step
~Well Information Block
STRT.FT               423.0000: 
STOP.FT              2306.0000: 
STEP.FT                 0.1000: 
NULL.                -999.2500: 
COMP.          Pioneer Natural Resources: COMPANY
WELL.             Culver 14-12: WELL
FLD.           Purgatoire River: FIELD
LOC.           913' FSL & 1140' FWL: LOCATION
PROV.                 Colorado: PROVINCE
CNTY.               Las Animas: COUNTRY
SRVC.                Patterson: SERVICE COMPANY
DATE.          Tue Jun 07 09:21:05 2005: LOG DATE
UWI.           05 071 08386 00: UNIQUE WELL ID
~Curve Information Block
DEPT.FT            0 000 00 00: Depth
DCAL.in                       : CDL Caliper
RHOB.g/cc                     : CDL Bulk Density
RHOC.g/cc                     : CDL Density Correction
DPOR.pu                       : CDL Density Porosity
GR.GAPI                       : Gamma Ray
NPOR.pu                       : Neutron Porosity
~Parameter Information Block
~A  Depth       DCAL        RHOB        RHOC        DPOR         GR         NPOR    
# ...
  1920.6000      7.9886      2.4201      0.0174     13.9323     46.2401     18.4481
  1920.7000      7.9886      2.4476      0.1011     12.2654     44.6679     17.9497
  1920.8000      8.0216      2.4776      0.0980     10.4488     46.5335     17.4260
  1920.9000      8.0216      2.4816      0.0935     10.2074     47.1017     16.7561
  1921.0000      8.0327      2.4712      0.0544     10.8349     44.5075     16.1663
  1921.1000      8.0327      2.4701      0.0933     10.9018     41.0230     15.3883
  1921.2000      8.0327      2.4795      0.0708     10.3339     38.4562     13.9998
  1921.3000      8.0288      2.4806      0.1166     10.2661     36.5517     13.0207
  1921.4000      8.0288      2.4572      0.0961     11.6829     34.8454     13.2092
  1921.5000      7.9971      2.4302      0.0357     13.3231     34.1196     13.7595
  1921.6000      7.9971      2.4447      0.0504     12.4396     33.1308     14.0786
  1921.7000      7.9971      2.5076      0.0582      8.6305     29.9605     14.8166
  1921.8000      8.0031      2.5697      0.1116      4.8682     27.1412     16.1428
  1921.9000      8.0031      2.5980      0.1358      3.1538     27.6139     17.0964
  1922.0000      8.0131      2.6222      0.0492      1.6865     29.6042     17.6283
  1922.1000      8.0131      2.6563      0.1518     -0.3788     32.1283     18.3072
  1922.2000      8.0131      2.6573      0.1724     -0.4429     36.4454     19.1801
  1922.3000      7.9969      2.6212      0.0772      1.7477     42.8452     20.3098
  1922.4000      7.9969      2.5908      0.0464      3.5907     50.3323     21.9064
  1922.5000      7.9966      2.5722      0.0480      4.7156     56.7422     23.7480
  1922.6000      7.9966      2.5464      0.0361      6.2770     63.3808     25.1711
  1922.7000      7.9966      2.5249     -0.0313      7.5819     73.7014     26.1479
  1922.8000      8.0075      2.5293      0.0507      7.3158     89.7199     27.0502
  1922.9000      8.0075      2.5470      0.0469      6.2414    108.2058     27.9748
  1923.0000      8.0255      2.5602      0.0546      5.4442    119.0087     28.6039
  1923.1000      8.0255      2.5721      0.0585      4.7224    122.3973     28.6899
  1923.2000      8.0255      2.5820      0.1038      4.1225    131.4082     28.9055
  1923.3000      8.0346      2.5683      0.1343      4.9506    147.4087     29.8206
  1923.4000      8.0346      2.5220      0.0877      7.7602    158.2767     30.8083
  1923.5000      8.1100      2.4719      0.0393     10.7961    158.6835     30.8200
  1923.6000      8.1100      2.4490      0.0462     12.1804    154.1022     29.5591
  1923.7000      8.1100      2.4591      0.0876     11.5685    149.0925     28.2219
  1923.8000      8.0715      2.4874      0.1444      9.8535    145.4082     27.7546
  1923.9000      8.0715      2.5154      0.1478      8.1548    143.1346     27.9233
  1924.0000      8.0076      2.5392      0.1239      6.7168    140.2248     27.9996
  1924.1000      8.0076      2.5657      0.1574      5.1082    137.4271     27.7401
  1924.2000      8.0076      2.5923      0.2791      3.4962    137.7384     27.7505
  1924.3000      7.9751      2.6085      0.2221      2.5153    140.9962     28.3201
  1924.4000      7.9751      2.6251      0.1445      1.5078    145.9568     29.0893
  1924.5000      8.0126      2.6514      0.1929     -0.0834    151.5838     29.5766
  1924.6000      8.0126      2.6607      0.1580     -0.6473    155.3050     29.3988
  1924.7000      8.0126      2.6317      0.1419      1.1102    152.4144     28.7922
  1924.8000      7.9853      2.5847      0.0575      3.9598    141.1334     28.3175
  1924.9000      7.9853      2.5619      0.0408      5.3368    129.0389     28.1831
  1925.0000      7.9881      2.5887      0.0987      3.7177    124.6827     28.3994
  1925.1000      7.9881      2.6458      0.0863      0.2536    125.0989     28.9091
  1925.2000      7.9881      2.6804      0.1937     -1.8435    123.5337     29.3270
  1925.3000      7.9838      2.6637      0.0935     -0.8328    120.7060     29.2641
  1925.4000      7.9838      2.6268      0.0914      1.4054    120.1028     28.8045
  1925.5000      8.0028      2.6015      0.0787      2.9387    121.1854     28.2506
  1925.6000      8.0028      2.5785      0.0958      4.3306    122.9143     27.6798
  1925.7000      8.0028      2.5497      0.0075      6.0801    123.3135     26.6350
  1925.8000      8.0722      2.5435     -0.0577      6.4561    120.1356     25.4549
  1925.9000      8.0722      2.5781      0.0213      4.3566    115.8380     25.1179
  1926.0000      8.1012      2.6173      0.0849      1.9824    116.0340     25.3319
  1926.1000      8.1012      2.6195      0.0788      1.8466    120.9525     25.4123
  1926.2000      8.1012      2.5991      0.0480      3.0871    123.4442     25.0605
  1926.3000      8.0579      2.5870      0.0393      3.8171    120.7795     24.3347
  1926.4000      8.0579      2.5831      0.0638      4.0539    119.0926     23.9935
  1926.5000      8.0541      2.5792      0.0469      4.2917    122.6053     24.4393
  1926.6000      8.0541      2.5793      0.0325      4.2851    127.5975     25.0556
  1926.7000      8.0541      2.5836      0.0492      4.0226    129.1775     25.3789
  1926.8000      8.0485      2.5834      0.0886      4.0393    128.5237     25.8881
  1926.9000      8.0485      2.5814     -0.0001      4.1571    132.3862     26.6329
  1927.0000      8.0447      2.5839      0.0704      4.0034    143.9397     26.5126
  1927.1000      8.0447      2.5830      0.0369      4.0588    156.7832     25.7046
  1927.2000      8.0447      2.5776      0.0114      4.3898    162.7226     25.2450
  1927.3000      8.0659      2.5722      0.0652      4.7165    158.8337     25.2335
  1927.4000      8.0659      2.5687      0.0198      4.9268    150.7691     25.6354
  1927.5000      8.0770      2.5680      0.0538      4.9693    147.5247     25.9984
  1927.6000      8.0770      2.5675     -0.0299      4.9973    148.8918     25.9295
  1927.7000      8.0770      2.5718      0.0377      4.7366    148.5103     25.6150
  1927.8000      8.1083      2.5854      0.0532      3.9140    145.2302     25.3731
  1927.9000      8.1083      2.6062      0.1084      2.6548    144.5244     25.4191
  1928.0000      8.0963      2.6287      0.0362      1.2905    151.5314     25.8945
  1928.1000      8.0963      2.6366      0.0800      0.8108    159.7476     26.8485
  1928.2000      8.0963      2.6169      0.0431      2.0031    156.7338     28.0570
  1928.3000      8.0887      2.5906      0.0165      3.5993    146.3503     29.1428
  1928.4000      8.0887      2.5844      0.0422      3.9731    136.6853     29.8411
  1928.5000      8.0988      2.5921      0.0950      3.5066    126.6026     30.0290
  1928.6000      8.0988      2.5925      0.0572      3.4844    121.4941     29.8215
  1928.7000      8.0988      2.5779      0.0184      4.3725    127.3815     29.3595
  1928.8000      8.0969      2.5573      0.0286      5.6193    134.7878     28.5700
  1928.9000      8.0969      2.5525      0.0319      5.9094    132.7358     27.7364
  1929.0000      8.0771      2.5674      0.0828      5.0061    127.1940     26.9669
  1929.1000      8.0771      2.5791      0.0748      4.2943    126.7523     25.9141
  1929.2000      8.0771      2.5795      0.0066      4.2700    130.5153     24.8125
  1929.3000      8.0435      2.5795      0.0607      4.2754    133.4624     23.9581
  1929.4000      8.0435      2.5809      0.0400      4.1900    129.8271     23.2093
  1929.5000      8.0581      2.5860      0.0456      3.8774    119.0334     22.7873
  1929.6000      8.0581      2.5993      0.0668      3.0735    108.1054     22.8507
  1929.7000      8.0581      2.6151      0.0381      2.1164    103.1027     22.9337
  1929.8000      8.0537      2.6264      0.0530      1.4279    104.2160     22.4150
  1929.9000      8.0537      2.6394      0.0697      0.6403    107.4341     21.6977
  1930.0000      8.0191      2.6683      0.0859     -1.1073    108.7660     21.7314
  1930.1000      8.0191      2.6993      0.1564     -2.9849    106.3649     22.3766
