~Version Information
VERS.                      2.0: CWLS Log ASCII Standard - VERSION 2.0
WRAP.                       NO: One line per depth step
~Well Information Block
STRT.FT               650.0000: 
STOP.FT              1999.0000: 
STEP.FT                 0.2500: 
NULL.                -999.2500: 
COMP.          Pioneer Natural Resources: COMPANY
WELL.           Firehawk 34-26: WELL
FLD.           Purgatoire River: FIELD
LOC.           1196' FSL & 1595' FEL--: LOCATION
STAT.                 Colorado: State
CNTY.               Las Animas: COUNTY
CTRY. USA : Country
SECT. 26 : Section
TOWN. 32S : Township
RANG. 66W : Range
SRVC.                Patterson: SERVICE COMPANY
DATE.          Sun Oct 16 16:57:28 2005: LOG DATE
API.           05 071 08389 00: UNIQUE WELL ID
~Curve Information Block
DEPT.FT            0 000 00 00: Depth
SN.Ohm-m                      : IEL Short Normal
SP.mV                         : IEL Spontaneous Potential
DIR.Ohm-m                     : IEL Induction Resistivity
GR.GAPI                       : Gamma Ray
~Parameter Information Block
~A  Depth        SN          SP         DIR          GR     
# ...
  1085.5000     14.7904    -60.5926     12.1215     99.2023
  1085.7500     15.0095    -60.7247     12.3064     99.4230
  1086.0000     14.9200    -60.9915     12.4893     99.0920
  1086.2500     14.6990    -61.4274     12.6347     97.5090
  1086.5000     14.5271    -61.9695     12.7015     91.7678
  1086.7500     14.5152    -62.4863     12.6568     85.6068
  1087.0000     14.7364    -62.8579     12.4916     74.4655
  1087.2500     15.2284    -63.0467     12.2267     67.4672
  1087.5000     15.9834    -63.1250     11.9064     60.4935
  1087.7500     16.9361    -63.2495     11.5842     59.1450
  1088.0000     17.8910    -63.5816     11.3090     61.8641
  1088.2500     18.5060    -64.1622     11.1158     65.8082
  1088.5000     18.4724    -64.8143     11.0223     72.5721
  1088.7500     17.7468    -65.1885     11.0286     76.5077
  1089.0000     16.5848    -64.9890     11.1192     80.4901
  1089.2500     15.3547    -64.2134     11.2673     81.6810
  1089.5000     14.3214    -63.1634     11.4407     81.3861
  1089.7500     13.5611    -62.2095     11.6080     80.0318
  1090.0000     13.0433    -61.5533     11.7463     76.7888
  1090.2500     12.7800    -61.1823     11.8469     74.0991
  1090.5000     12.8945    -60.9742     11.9200     69.7729
  1090.7500     13.5742    -60.8039     11.9938     67.1618
  1091.0000     14.9788    -60.5883     12.1095     64.6775
  1091.2500     17.1451    -60.2911     12.3131     64.3917
  1091.5000     19.8769    -59.9216     12.6492     66.0695
  1091.7500     22.6844    -59.5258     13.1563     68.3266
  1092.0000     24.9867    -59.1665     13.8641     72.4587
  1092.2500     26.5352    -58.9016     14.7879     74.7505
  1092.5000     27.5709    -58.7643     15.9198     75.6878
  1092.7500     28.4953    -58.7485     17.2185     74.1746
  1093.0000     29.5307    -58.8100     18.6035     69.5538
  1093.2500     30.7793    -58.8915     19.9606     66.0181
  1093.5000     32.4267    -58.9530     21.1688     61.5781
  1093.7500     34.6867    -58.9782     22.1417     59.3235
  1094.0000     37.5904    -58.9628     22.8589     56.1008
  1094.2500     40.9411    -58.9094     23.3621     53.5466
  1094.5000     44.4458    -58.8399     23.7169     49.1724
  1094.7500     47.7774    -58.7987     23.9710     46.3637
  1095.0000     50.5121    -58.8243     24.1334     43.1453
  1095.2500     52.2416    -58.9074     24.1744     41.9600
  1095.5000     52.8465    -58.9881     24.0358     41.8282
  1095.7500     52.4066    -59.0071     23.6465     42.8809
  1096.0000     50.8496    -58.9664     22.9453     46.2794
  1096.2500     48.0331    -58.9375     21.9112     49.7494
  1096.5000     44.1333    -59.0061     20.5867     56.2271
  1096.7500     39.6905    -59.2054     19.0736     60.7352
  1097.0000     35.2826    -59.4962     17.5021     66.6468
  1097.2500     31.2051    -59.7998     15.9888     69.8405
  1097.5000     27.4433    -60.0453     14.6084     74.3384
  1097.7500     23.9088    -60.1994     13.3892     77.8102
  1098.0000     20.6269    -60.2765     12.3276     83.7457
  1098.2500     17.6865    -60.3276     11.4073     87.2664
  1098.5000     15.0960    -60.4093     10.6128     89.7824
  1098.7500     12.7916    -60.5536      9.9329     88.9525
  1099.0000     10.7900    -60.7652      9.3574     84.5263
  1099.2500      9.2445    -61.0295      8.8736     80.4592
  1099.5000      8.3302    -61.2941      8.4661     74.3314
  1099.7500      8.1110    -61.4514      8.1191     70.8005
  1100.0000      8.4877    -61.3881      7.8194     66.9038
  1100.2500      9.2010    -61.0877      7.5569     65.5046
  1100.5000      9.8868    -60.6713      7.3250     65.3648
  1100.7500     10.2389    -60.3184      7.1183     66.4340
  1101.0000     10.1757    -60.1626      6.9316     69.5255
  1101.2500      9.8159    -60.2693      6.7602     72.5588
  1101.5000      9.3158    -60.6671      6.6008     78.2286
  1101.7500      8.7667    -61.3465      6.4522     82.0279
  1102.0000      8.2027    -62.2238      6.3147     85.7696
  1102.2500      7.6377    -63.1432      6.1893     85.8433
  1102.5000      7.0900    -63.9586      6.0777     81.4197
  1102.7500      6.6164    -64.6578      5.9824     75.7850
  1103.0000      6.3248    -65.4100      5.9080     65.0672
  1103.2500      6.3205    -66.4401      5.8601     57.5968
  1103.5000      6.6373    -67.7824      5.8440     47.3661
  1103.7500      7.2208    -69.1246      5.8636     41.6733
  1104.0000      7.9550    -69.9142      5.9214     35.2597
  1104.2500      8.7036    -69.7041      6.0181     32.4994
  1104.5000      9.3492    -68.5193      6.1538     30.6328
  1104.7500      9.8238    -66.9664      6.3270     30.8787
  1105.0000     10.1242    -65.9351      6.5351     33.2281
  1105.2500     10.2928    -66.0749      6.7748     35.6753
  1105.5000     10.3680    -67.4561      7.0430     39.6423
  1105.7500     10.3576    -69.6540      7.3387     42.0925
  1106.0000     10.2713    -72.1103      7.6647     45.4054
  1106.2500     10.1693    -74.4478      8.0273     47.4491
  1106.5000     10.1696    -76.5317      8.4348     50.1799
  1106.7500     10.4265    -78.2996      8.8951     51.6366
  1107.0000     11.1248    -79.5219      9.4147     53.1496
  1107.2500     12.4498    -79.6749      9.9975     53.7068
  1107.5000     14.4564    -78.0742     10.6441     53.7703
  1107.7500     16.8958    -74.2882     11.3490     53.2217
  1108.0000     19.1884    -68.5905     12.0947     51.7620
  1108.2500     20.6907    -62.0512     12.8457     50.8685
  1108.5000     21.1143    -56.1096     13.5457     50.7400
  1108.7500     20.7131    -51.9152     14.1253     51.8129
  1109.0000     20.0444    -49.8632     14.5214     54.7828
  1109.2500     19.5228    -49.5638     14.6992     56.9981
  1109.5000     19.1580    -50.1970     14.6641     59.5054
  1109.7500     18.6505    -50.9875     14.4565     60.3529
  1110.0000     17.7270    -51.5018     14.1355     60.9429
  1110.2500     16.4261    -51.6653     13.7599     61.6553
  1110.5000     15.0982    -51.6099     13.3783     64.4396
  1110.7500     14.1548    -51.5104     13.0259     67.6103
  1111.0000     13.7914    -51.4853     12.7259     73.4731
  1111.2500     13.9107    -51.5692     12.4881     77.3204
  1111.5000     14.2852    -51.7359     12.3074     81.9816
  1111.7500     14.7179    -51.9460     12.1639     84.1002
  1112.0000     15.0458    -52.1876     12.0305     85.7668
  1112.2500     15.1461    -52.4830     11.8839     86.0331
  1112.5000     14.9984    -52.8611     11.7132     85.8271
  1112.7500     14.6872    -53.3271     11.5209     85.8414
  1113.0000     14.3296    -53.8452     11.3178     86.8662
  1113.2500     13.9904    -54.3335     11.1143     88.2557
  1113.5000     13.6592    -54.6738     10.9165     90.6151
  1113.7500     13.2993    -54.7452     10.7263     91.7252
  1114.0000     12.8989    -54.4759     10.5441     92.0873
  1114.2500     12.4808    -53.8847     10.3713     91.6241
  1114.5000     12.0866    -53.0949     10.2116     90.7567
  1114.7500     11.7524    -52.3078     10.0693     90.5123
  1115.0000     11.4908    -51.7411      9.9475     90.6511
  1115.2500     11.2965    -51.5586      9.8466     90.6793
  1115.5000     11.1570    -51.8118      9.7634     89.9287
  1115.7500     11.0558    -52.3517      9.6929     88.7878
  1116.0000     10.9819    -52.7284      9.6314     86.4986
  1116.2500     10.9397    -52.2517      9.5787     85.0245
  1116.5000     10.9352    -50.4067      9.5392     83.6258
  1116.7500     10.9662    -47.4676      9.5193     83.4581
  1117.0000     11.0304    -44.6843      9.5240     84.3159
  1117.2500     11.1175    -43.5260      9.5537     85.4481
  1117.5000     11.1990    -44.4703      9.6035     87.4380
  1117.7500     11.2470    -46.5955      9.6663     88.5420
  1118.0000     11.2635    -48.4544      9.7359     89.4074
  1118.2500     11.2787    -49.2498      9.8092     89.5371
  1118.5000     11.3227    -49.1790      9.8852     89.5551
  1118.7500     11.4028    -48.9408      9.9636     89.6210
