~Version Information
VERS.                      2.0: CWLS Log ASCII Standard - VERSION 2.0
WRAP.                       NO: One line per depth step
~Well Information Block
STRT.FT               710.0000: 
STOP.FT              2922.5000: 
STEP.FT                 0.2500: 
NULL.                -999.2500: 
COMP.          Petrogulf Corporation: COMPANY
WELL.            Montoya 1-41V: WELL
FLD.           Purgatorie River: FIELD
LOC.           610' FNL & 1205' FEL: LOCATION
PROV.                 Colorado: PROVINCE
CNTY.               Las Animas: COUNTRY
SRVC.                Patterson: SERVICE COMPANY
DATE.          Mon Aug 22 08:00:56 2005: LOG DATE
UWI.                          : UNIQUE WELL ID
~Curve Information Block
DEPT.FT            0 000 00 00: Depth
SP.mV                         : DIL Spontaneous Potential
RILD.Ohm-m                    : DIL Deep Resistivity
RILM.Ohm-m                    : DIL Medium Resistivity
RLL3.Ohm-m                    : DIL Shallow Resistivity
GR.GAPI                       : Gamma Ray
~Parameter Information Block
~A  Depth        SP         RILD        RILM        RLL3         GR     
# ...
  1158.0000    -70.7672     43.7833     54.3058    128.6809     94.6372
  1158.2500    -70.8793     43.8384     55.6521    127.8562     99.7663
  1158.5000    -70.7362     40.1755     50.7601    120.7539     90.1584
  1158.7500    -70.4324     35.6117     46.9104    108.5599    102.7515
  1159.0000    -70.0087     37.9772     42.8000     99.7491    114.6517
  1159.2500    -69.5959     41.9511     36.8057     80.6190    115.1481
  1159.5000    -69.3464     38.7954     34.8194     46.9987    122.7754
  1159.7500    -69.4647     39.0252     30.6873     27.9304    146.9311
  1160.0000    -69.6817     37.5060     29.5886     24.8482    147.2966
  1160.2500    -69.9197     38.9953     30.7491     22.0609    152.4244
  1160.5000    -70.0404     38.8903     32.1098     30.9226    162.5741
  1160.7500    -69.9833     35.5031     35.1898     40.9580    145.2963
  1161.0000    -69.4994     40.4467     36.0638     51.6670    114.5541
  1161.2500    -68.5311     43.6990     39.1766     61.8361    107.0276
  1161.5000    -67.3170     39.6119     40.5062     67.3029    116.2042
  1161.7500    -65.9467     39.0307     42.7576     64.7400    107.6263
  1162.0000    -64.4797     41.3326     46.8119     63.6212     97.2266
  1162.2500    -62.7960     40.5434     54.1820     84.4479     89.7220
  1162.5000    -60.7126     45.0037     59.5037    104.0109     68.8926
  1162.7500    -58.2907     44.3941     56.5472    104.9079     78.0394
  1163.0000    -55.9301     41.0832     51.4033    118.5562     65.9246
  1163.2500    -53.5606     40.1440     57.6241    119.0882     90.3238
  1163.5000    -51.1727     41.4954     51.7832     90.7951     97.3585
  1163.7500    -48.8692     40.7730     45.8551     77.8613     99.4401
  1164.0000    -46.5132     39.7226     38.5517     66.2858    115.5007
  1164.2500    -44.0943     35.4571     36.4173     58.5771    114.2535
  1164.5000    -41.6530     33.7207     38.1928     38.0850    120.0614
  1164.7500    -38.9099     31.1666     32.5357     39.8789    112.3627
  1165.0000    -35.7025     27.5707     27.5010     55.6220    131.1814
  1165.2500    -32.2638     26.7059     25.3036     51.9330    150.7117
  1165.5000    -29.0855     26.3417     22.8294     31.2980    129.6776
  1165.7500    -26.7616     24.0121     20.7749     22.3325    125.8856
  1166.0000    -24.9623     24.0848     19.9480     21.7350    142.6799
  1166.2500    -23.5108     23.8154     19.2963     24.5717    153.4498
  1166.5000    -22.3765     23.1419     20.0662     27.9904    158.2222
  1166.7500    -21.3916     22.7944     20.5556     32.4169    147.1605
  1167.0000    -20.5589     23.7285     20.3193     36.3275    131.2931
  1167.2500    -19.8513     24.2007     21.0674     35.8484    139.4356
  1167.5000    -19.1982     22.8127     21.1853     32.9773    147.8602
  1167.7500    -18.7130     23.5949     21.8665     31.6501    142.0545
  1168.0000    -18.3220     24.3758     22.3655     34.5373    128.6407
  1168.2500    -17.8689     25.2888     23.3520     39.3129    111.6315
  1168.5000    -17.5817     26.9951     25.1554     36.1903    102.3412
  1168.7500    -17.4565     26.8617     27.8378     41.9061    105.2766
  1169.0000    -17.5307     27.4020     29.5408     42.1655     99.0103
  1169.2500    -17.6392     30.7080     30.4134     51.9291    103.9490
  1169.5000    -17.7726     32.2614     33.0043     59.0294    124.3387
  1169.7500    -18.1154     32.2795     31.7345     55.1221    115.5331
  1170.0000    -18.8090     34.3239     31.2743     49.4731    113.8646
  1170.2500    -20.0115     36.7459     31.9863     42.5167    114.5500
  1170.5000    -21.6328     37.1241     34.5618     38.6934    120.9805
  1170.7500    -23.8427     38.4835     32.4162     38.3906    122.0514
  1171.0000    -26.8116     38.9213     33.0185     43.4553    104.3162
  1171.2500    -30.2730     40.1576     35.5718     51.9733     98.7245
  1171.5000    -33.8288     41.7858     36.6430     54.5428     99.2539
  1171.7500    -37.0498     41.9356     38.0796     53.2150     98.6297
  1172.0000    -40.0691     39.9610     39.3657     54.1436    115.4676
  1172.2500    -42.4284     41.8725     39.1576     54.5061    110.6116
  1172.5000    -44.1780     38.8906     40.7416     48.6084    111.7732
  1172.7500    -45.4053     39.4592     43.4757     53.1101     99.4275
  1173.0000    -46.4542     41.9197     41.0294     60.1399    112.6633
  1173.2500    -47.5185     39.9988     40.8155     63.1291    108.6902
  1173.5000    -48.4518     41.1278     41.4427     58.4807    122.0651
  1173.7500    -49.1647     40.0179     40.3438     49.5754    130.4375
  1174.0000    -49.5182     37.3017     37.9109     51.8560    115.0231
  1174.2500    -49.6106     38.6415     38.5465     51.7255     96.3385
  1174.5000    -49.6775     40.3940     37.4159     45.4661    126.7426
  1174.7500    -49.7149     37.8829     37.4132     41.1641    131.2449
  1175.0000    -49.8126     37.6019     35.0693     40.6413    157.5084
  1175.2500    -49.9888     35.8183     33.3441     39.7823    150.8832
  1175.5000    -50.3012     33.3973     34.2279     41.6876    143.3648
  1175.7500    -50.8459     32.2678     31.5567     48.8355    148.1280
  1176.0000    -51.2590     30.0076     29.2462     53.3382    140.4801
  1176.2500    -51.5630     29.0099     28.8212     48.1057    141.7815
  1176.5000    -51.7739     28.0236     24.9545     40.0213    133.8844
  1176.7500    -51.9877     27.9946     22.7018     35.4009    154.2377
  1177.0000    -52.1087     25.9263     23.0436     32.9711    134.5116
  1177.2500    -52.2814     24.5122     21.9493     31.4481    133.0068
  1177.5000    -52.4366     26.4975     22.2836     30.6865    131.0836
  1177.7500    -52.4292     26.3559     22.1979     30.5731    140.0636
  1178.0000    -52.1086     26.0641     21.6580     31.4650    145.6613
  1178.2500    -51.4953     26.7021     21.5293     30.6280    161.2649
  1178.5000    -50.3848     25.1189     22.7445     27.8049    194.0958
  1178.7500    -48.6805     27.4594     23.6393     33.7071    165.1090
  1179.0000    -46.4747     27.0826     23.5859     44.9014    132.5338
  1179.2500    -43.6788     28.1593     24.3935     56.4289    141.9645
  1179.5000    -40.6234     30.3269     25.4837     45.7604    142.0774
  1179.7500    -37.3929     32.0166     26.6867     34.9713    137.2298
  1180.0000    -34.5311     34.2659     28.7986     47.9477    133.7533
  1180.2500    -32.5150     34.0604     32.1284     80.9916    131.6002
  1180.5000    -30.7391     33.6228     35.9485    144.5328    117.3012
  1180.7500    -28.9050     37.8436     37.1071    188.3227    119.6732
  1181.0000    -27.0640     41.6533     42.6001    140.2123    134.6557
  1181.2500    -25.3725     43.8817     39.0131     82.6768    129.2857
  1181.5000    -24.1832     40.3044     38.5256     59.9463    142.7482
  1181.7500    -23.7485     41.9100     40.3027     57.0480    151.9834
  1182.0000    -23.9208     45.4059     40.2000     60.0347    144.0335
  1182.2500    -24.4354     47.1335     42.0635     65.0193    150.7087
  1182.5000    -25.3058     51.5910     40.1476     71.6989    137.7069
  1182.7500    -26.1366     53.6330     46.8409     74.0157    129.7386
  1183.0000    -26.9902     52.6241     45.7750     67.0251    128.5451
  1183.2500    -28.0353     53.8713     42.3449     60.8659    155.8498
  1183.5000    -29.1627     54.3579     39.9607     59.3113    153.2448
  1183.7500    -30.3384     57.4221     41.8526     60.1832    165.3423
  1184.0000    -31.8418     57.3914     43.6974     64.1535    164.7765
  1184.2500    -33.6702     50.6694     50.5833     71.1372    163.6034
  1184.5000    -36.0667     56.5861     47.2530     78.9593    152.5169
  1184.7500    -39.0576     63.0078     50.0384     84.7054    147.9333
  1185.0000    -42.4064     61.0944     50.8420     88.0147    138.1731
  1185.2500    -46.2426     65.1447     57.2080     91.9974    134.2826
  1185.5000    -50.2508     63.9817     60.1046     99.3368    128.5806
  1185.7500    -54.3473     69.7317     57.4457    105.9983    125.5293
