~Version Information
VERS.                      2.0: CWLS Log ASCII Standard - VERSION 2.0
WRAP.                       NO: One line per depth step
~Well Information Block
STRT.FT               660.8000: 
STOP.FT              2375.1000: 
STEP.FT                 0.1000: 
NULL.                -999.2500: 
COMP.          Petrogulf Corporation: COMPANY
WELL.             State 16-34V: WELL
FLD.           Purgatorie River: FIELD
LOC.           1146' FSL & 1393' FEL: LOCATION
CNTY.               Las Animas: COUNTY
SRVC.                         : SERVICE COMPANY
DATE.          Sat Jun 07 20:51:20 2003: LOG DATE
UWI.           05 071 07724 00: UNIQUE WELL ID
STAT.                 Colorado: STATE
~Curve Information Block
DEPT.FT            0 000 00 00: Depth
DCAL.in                       : Caliper from Density Tool
RHOB.g/cc                     : Bulk Density
RHOC.g/cc                     : Density Correction
DPOR.pu                       : Density Porosity
GR.GAPI                       : Gamma Ray
NPOR.pu                       : Neutron Porosity
~Parameter Information Block
~A  Depth       DCAL        RHOB        RHOC        DPOR         GR         NPOR    
# ...
  1688.0000      7.8244      2.4388      0.1248     12.8030    158.6552     26.1556
  1688.1000      7.8244      2.4388      0.1248     12.8030    159.2131     26.2228
  1688.2000      7.8244      2.4388      0.1248     12.8030    159.5394     26.2988
  1688.3000      7.8924      2.4440      0.0885     12.4863    159.5978     26.3872
  1688.4000      7.8924      2.4440      0.0885     12.4863    159.3728     26.4879
  1688.5000      8.0307      2.4483      0.0680     12.2232    158.8734     26.5980
  1688.6000      8.0307      2.4483      0.0680     12.2232    158.1282     26.7131
  1688.7000      8.0307      2.4483      0.0680     12.2232    157.1827     26.8279
  1688.8000      8.0291      2.4603      0.0474     11.4940    156.0921     26.9379
  1688.9000      8.0291      2.4603      0.0474     11.4940    154.9147     27.0402
  1689.0000      7.9103      2.4706      0.0400     10.8743    153.7067     27.1337
  1689.1000      7.9103      2.4706      0.0400     10.8743    152.5176     27.2190
  1689.2000      7.9103      2.4706      0.0400     10.8743    151.3841     27.2983
  1689.3000      7.8660      2.4855      0.0353      9.9686    150.3313     27.3740
  1689.4000      7.8660      2.4855      0.0353      9.9686    149.3689     27.4483
  1689.5000      7.8592      2.4944      0.0349      9.4315    148.4910     27.5222
  1689.6000      7.8592      2.4944      0.0349      9.4315    147.6773     27.5948
  1689.7000      7.8592      2.4944      0.0349      9.4315    146.8959     27.6634
  1689.8000      7.8408      2.5067      0.0366      8.6857    146.1091     27.7239
  1689.9000      7.8408      2.5067      0.0366      8.6857    145.2781     27.7712
  1690.0000      7.8044      2.5149      0.0387      8.1851    144.3698     27.8003
  1690.1000      7.8044      2.5149      0.0387      8.1851    143.3642     27.8068
  1690.2000      7.8044      2.5149      0.0387      8.1851    142.2554     27.7880
  1690.3000      7.7724      2.5280      0.0423      7.3968    141.0557     27.7428
  1690.4000      7.7724      2.5280      0.0423      7.3968    139.7903     27.6729
  1690.5000      7.7667      2.5367      0.0448      6.8655    138.4966     27.5819
  1690.6000      7.7667      2.5367      0.0448      6.8655    137.2147     27.4759
  1690.7000      7.7667      2.5367      0.0448      6.8655    135.9847     27.3622
  1690.8000      7.7588      2.5486      0.0485      6.1435    134.8376     27.2489
  1690.9000      7.7588      2.5486      0.0485      6.1435    133.7935     27.1443
  1691.0000      7.7539      2.5549      0.0508      5.7663    132.8583     27.0553
  1691.1000      7.7539      2.5549      0.0508      5.7663    132.0255     26.9868
  1691.2000      7.7539      2.5549      0.0508      5.7663    131.2772     26.9411
  1691.3000      7.7844      2.5608      0.0545      5.4085    130.5926     26.9181
  1691.4000      7.7844      2.5608      0.0545      5.4085    129.9493     26.9150
  1691.5000      7.8025      2.5625      0.0572      5.3015    129.3340     26.9274
  1691.6000      7.8025      2.5625      0.0572      5.3015    128.7436     26.9496
  1691.7000      7.8025      2.5625      0.0572      5.3015    128.1867     26.9758
  1691.8000      7.7994      2.5628      0.0624      5.2867    127.6822     27.0005
  1691.9000      7.7994      2.5628      0.0624      5.2867    127.2554     27.0191
  1692.0000      7.7900      2.5618      0.0667      5.3443    126.9288     27.0275
  1692.1000      7.7900      2.5618      0.0667      5.3443    126.7181     27.0233
  1692.2000      7.7900      2.5618      0.0667      5.3443    126.6268     27.0041
  1692.3000      7.7332      2.5592      0.0750      5.5039    126.6451     26.9684
  1692.4000      7.7332      2.5592      0.0750      5.5039    126.7536     26.9153
  1692.5000      7.6886      2.5567      0.0816      5.6568    126.9295     26.8440
  1692.6000      7.6886      2.5567      0.0816      5.6568    127.1539     26.7542
  1692.7000      7.6886      2.5567      0.0816      5.6568    127.4183     26.6460
  1692.8000      7.7025      2.5515      0.0919      5.9705    127.7273     26.5203
  1692.9000      7.7025      2.5515      0.0919      5.9705    128.0993     26.3787
  1693.0000      7.7368      2.5468      0.0981      6.2543    128.5625     26.2236
  1693.1000      7.7368      2.5468      0.0981      6.2543    129.1471     26.0590
  1693.2000      7.7368      2.5468      0.0981      6.2543    129.8785     25.8900
  1693.3000      7.7640      2.5374      0.1048      6.8251    130.7723     25.7230
  1693.4000      7.7640      2.5374      0.1048      6.8251    131.8284     25.5655
  1693.5000      7.7002      2.5296      0.1072      7.2974    133.0307     25.4255
  1693.6000      7.7002      2.5296      0.1072      7.2974    134.3492     25.3113
  1693.7000      7.7002      2.5296      0.1072      7.2974    135.7418     25.2302
  1693.8000      7.6327      2.5173      0.1088      8.0443    137.1629     25.1885
  1693.9000      7.6327      2.5173      0.1088      8.0443    138.5683     25.1903
  1694.0000      7.6543      2.5105      0.1103      8.4535    139.9232     25.2372
  1694.1000      7.6543      2.5105      0.1103      8.4535    141.2084     25.3282
  1694.2000      7.6543      2.5105      0.1103      8.4535    142.4211     25.4592
  1694.3000      7.6666      2.5060      0.1160      8.7298    143.5783     25.6234
  1694.4000      7.6666      2.5060      0.1160      8.7298    144.7075     25.8122
  1694.5000      7.6733      2.5075      0.1222      8.6383    145.8419     26.0154
  1694.6000      7.6733      2.5075      0.1222      8.6383    147.0082     26.2225
  1694.7000      7.6733      2.5075      0.1222      8.6383    148.2195     26.4232
  1694.8000      7.7063      2.5150      0.1324      8.1845    149.4668     26.6090
  1694.9000      7.7063      2.5150      0.1324      8.1845    150.7206     26.7732
  1695.0000      7.7313      2.5215      0.1371      7.7905    151.9359     26.9120
  1695.1000      7.7313      2.5215      0.1371      7.7905    153.0601     27.0245
  1695.2000      7.7313      2.5215      0.1371      7.7905    154.0436     27.1124
  1695.3000      7.7493      2.5311      0.1386      7.2073    154.8487     27.1794
  1695.4000      7.7493      2.5311      0.1386      7.2073    155.4544     27.2305
  1695.5000      7.7311      2.5377      0.1371      6.8072    155.8568     27.2703
  1695.6000      7.7311      2.5377      0.1371      6.8072    156.0668     27.3025
  1695.7000      7.7311      2.5377      0.1371      6.8072    156.1033     27.3288
  1695.8000      7.7081      2.5508      0.1388      6.0108    155.9908     27.3481
  1695.9000      7.7081      2.5508      0.1388      6.0108    155.7536     27.3571
  1696.0000      7.7482      2.5629      0.1477      5.2766    155.4155     27.3501
  1696.1000      7.7482      2.5629      0.1477      5.2766    155.0032     27.3200
  1696.2000      7.7482      2.5629      0.1477      5.2766    154.5445     27.2601
  1696.3000      7.8317      2.5825      0.1758      4.0935    154.0724     27.1644
  1696.4000      7.8317      2.5825      0.1758      4.0935    153.6251     27.0296
  1696.5000      7.9521      2.5906      0.2007      3.6001    153.2443     26.8552
  1696.6000      7.9521      2.5906      0.2007      3.6001    152.9727     26.6442
  1696.7000      7.9521      2.5906      0.2007      3.6001    152.8507     26.4035
  1696.8000      8.0278      2.5860      0.2351      3.8763    152.9115     26.1425
  1696.9000      8.0278      2.5860      0.2351      3.8763    153.1793     25.8732
  1697.0000      7.9932      2.5706      0.2501      4.8102    153.6641     25.6088
  1697.1000      7.9932      2.5706      0.2501      4.8102    154.3625     25.3626
  1697.2000      7.9932      2.5706      0.2501      4.8102    155.2547     25.1468
  1697.3000      7.9387      2.5353      0.2583      6.9524    156.3064     24.9712
  1697.4000      7.9387      2.5353      0.2583      6.9524    157.4691     24.8423
  1697.5000      7.8553      2.5094      0.2564      8.5215    158.6828     24.7628
