~Version Information
VERS.                      2.0: CWLS Log ASCII Standard - VERSION 2.0
WRAP.                       NO: One line per depth step
~Well Information Block
STRT.FT               240.0000: 
STOP.FT              1453.0000: 
STEP.FT                 0.2500: 
NULL.                -999.2500: 
COMP.          Petrogulf Corporation: COMPANY
WELL.          Robinson 15-12R: WELL
FLD.           Purgatorie River: FIELD
LOC.           1752' FNL & 561' FWL: LOCATION
PROV.                 Colorado: PROVINCE
CNTY.               Las Animas: COUNTRY
SRVC.                Patterson: SERVICE COMPANY
DATE.          Tue Sep 13 15:11:42 2005: LOG DATE
UWI.                          : UNIQUE WELL ID
~Curve Information Block
DEPT.FT            0 000 00 00: Depth
SP.mV                         : DIL Spontaneous Potential
RILD.Ohm-m                    : DIL Deep Resistivity
RILM.Ohm-m                    : DIL Medium Resistivity
RLL3.Ohm-m                    : DIL Shallow Resistivity
GR.GAPI                       : Gamma Ray
~Parameter Information Block
~A  Depth        SP         RILD        RILM        RLL3         GR     
# ...
   716.0000    191.2108     15.0886     13.9580     15.2670    162.3950
   716.2500    190.1671     15.5187     14.4721     15.6792    156.5301
   716.5000    189.3166     16.1144     15.6755     17.0303    137.9322
   716.7500    188.3921     17.0173     16.8117     19.0746    145.2362
   717.0000    187.5023     18.2565     18.3009     23.4860    129.8462
   717.2500    186.7403     18.8792     19.5481     29.1617    119.1346
   717.5000    185.7963     19.2879     21.6908     34.7674    126.2558
   717.7500    184.8508     20.5470     23.6372     38.9105    111.1337
   718.0000    184.1122     22.1140     25.3620     41.1792    110.9168
   718.2500    183.1672     22.8548     27.6111     43.4120    114.9060
   718.5000    182.4266     22.5365     29.3759     46.3521     98.8981
   718.7500    181.6388     23.3722     32.5287     51.5246     97.7109
   719.0000    180.8474     24.4399     34.7090     56.6413     87.7696
   719.2500    180.1656     23.7705     35.6609     58.0847     78.8631
   719.5000    179.1569     22.5047     36.0769     59.2212     90.7244
   719.7500    178.2038     22.8731     33.3893     64.2754     86.8482
   720.0000    178.2071     23.2424     29.5327     63.2430    103.9030
   720.2500    178.6456     21.8204     27.0886     44.3588    117.5659
   720.5000    178.9003     21.2089     23.9130     25.2457    137.5261
   720.7500    178.4517     21.4611     21.9620     17.7026    133.1893
   721.0000    177.5297     21.1076     20.3650     16.2804    130.5662
   721.2500    176.8788     19.9959     19.9279     16.3286    148.7842
   721.5000    176.7460     19.6286     19.5847     16.8263    134.7181
   721.7500    176.8224     19.0328     19.0043     18.4470    141.7748
   722.0000    176.7970     18.6337     18.8214     19.7399    133.5744
   722.2500    176.4812     18.0336     19.1114     20.2973    131.1458
   722.5000    176.0546     17.7200     18.3566     20.5146    117.7872
   722.7500    175.3870     17.3894     17.8045     20.6246    122.7564
   723.0000    175.0495     17.7117     17.8778     20.1944    136.3686
   723.2500    174.9661     18.1513     18.2752     19.7253    132.3789
   723.5000    174.4327     18.3151     17.9114     19.5423    121.4087
   723.7500    173.7225     17.8995     18.0165     19.6850    131.1362
   724.0000    172.8166     18.5412     19.7360     20.3704    126.2254
   724.2500    171.9509     19.2274     20.4742     23.2040    124.4421
   724.5000    170.9945     19.4164     20.9181     30.5075     98.7960
   724.7500    169.9914     19.1598     21.5179     41.8045     94.7115
   725.0000    169.2195     19.6148     22.1636     42.6920     96.9001
   725.2500    168.8991     20.0173     22.1072     33.4734     92.8215
   725.5000    168.1867     20.5089     22.5809     31.6448    105.4695
   725.7500    167.4188     20.3383     22.5896     32.5917    116.0063
   726.0000    166.8971     21.3172     22.4181     30.8540    116.1230
   726.2500    166.0144     21.0975     22.9148     29.5774    116.6726
   726.5000    165.2740     21.5729     23.9760     27.7037    122.2274
   726.7500    164.5206     22.1139     22.7482     25.5701    116.1982
   727.0000    164.3044     21.8664     22.9538     24.7450    130.0419
   727.2500    164.2275     22.0437     23.8773     25.7862    151.4039
   727.5000    163.9551     22.9894     25.2706     28.8766    127.4535
   727.7500    163.6410     22.8789     24.3995     32.6619    103.9144
   728.0000    163.5591     22.4617     24.0775     32.9005    107.5880
   728.2500    163.2639     22.8520     24.3591     29.6256    113.1642
   728.5000    162.6208     23.7008     24.9871     26.9023    139.5280
   728.7500    162.1450     24.2405     25.4377     26.5548    129.7870
   729.0000    161.5053     23.7755     25.9555     27.1881    138.2746
   729.2500    160.6124     23.7877     27.4481     28.6218    136.6039
   729.5000    159.6707     25.6415     29.7154     34.1924    106.0985
   729.7500    159.0208     26.1464     29.9844     46.2423     90.4600
   730.0000    158.4961     26.0504     32.2969     63.2482     63.6546
   730.2500    157.9473     26.6725     34.3573     71.3750     68.2330
   730.5000    157.1477     28.5296     35.6046     70.8590     49.4800
   730.7500    156.4527     29.8845     37.9960     71.4001     49.2302
   731.0000    156.0043     29.5987     38.7164     75.7218     51.6172
   731.2500    155.9152     31.7716     38.5127     80.2885     64.2584
   731.5000    155.9509     30.6649     42.4095     83.3500     60.3749
   731.7500    156.1129     33.5387     43.4523     88.0151     62.7029
   732.0000    156.7005     32.4117     44.9872     91.3765     55.8443
   732.2500    157.5990     35.0136     46.4025     85.8702     61.8637
   732.5000    158.5160     36.3598     49.5517     74.2939     59.0182
   732.7500    159.2561     38.8572     53.5022     66.6306     45.5479
   733.0000    159.5490     38.3360     54.8847     67.4796     54.1039
   733.2500    159.6120     39.1658     50.6012     72.8538     61.0114
   733.5000    159.8244     39.4663     50.2663     76.9466     61.0977
   733.7500    159.9178     40.2233     56.4392     76.2546     60.3657
   734.0000    159.8414     38.1227     56.7797     71.6023     57.3516
   734.2500    159.4906     40.5921     55.7774     70.6170     59.5682
   734.5000    159.2643     36.5376     53.7069     78.8561     67.3126
   734.7500    159.4906     36.9854     62.1759     89.4145     58.4809
   735.0000    160.0999     37.6505     62.0086     95.0422     44.3985
   735.2500    160.9654     35.6864     63.6083     97.9463     41.0642
   735.5000    162.3621     38.5069     61.4672     93.1316     63.5825
   735.7500    163.7475     38.6562     67.2629     74.2351     57.6524
   736.0000    164.8986     37.2369     54.2525     67.7153     47.8353
   736.2500    166.0237     36.4284     56.3543     75.4420     46.5452
   736.5000    167.0928     36.0351     56.3992     79.8322     44.4143
   736.7500    168.7089     35.7416     55.1673     79.0462     47.3328
   737.0000    171.0959     34.5785     54.7103     81.7059     49.5338
   737.2500    173.5423     32.2357     52.4339     86.4841     55.5724
   737.5000    175.6183     28.8304     50.2026     91.5085     49.6663
   737.7500    177.6317     26.7996     45.3911     96.2114     45.8657
   738.0000    179.4320     25.4032     39.0883     97.4153     72.3389
   738.2500    181.0401     23.0474     33.7792     86.0723     76.2818
   738.5000    182.5442     21.6221     28.3517     57.5568    100.7032
   738.7500    184.2437     19.9503     23.6003     30.9093    126.0211
   739.0000    186.1508     18.7950     21.1748     19.8908    135.1447
   739.2500    187.7763     17.2132     18.2609     17.4012    156.8475
   739.5000    189.2250     16.9065     16.4771     16.5880    178.6881
   739.7500    190.5761     16.1200     15.4555     16.9541    179.4271
   740.0000    192.0754     15.5025     14.4711     17.3628    172.1583
   740.2500    193.3498     15.3330     13.5906     16.3444    150.5684
   740.5000    194.8372     14.9202     13.0682     14.2139    174.0688
   740.7500    196.2641     14.9033     12.5376     12.8510    166.9520
   741.0000    197.7006     15.1421     12.7153     12.5665    170.9098
   741.2500    198.7222     15.4872     13.2367     13.2806    155.5020
   741.5000    199.9947     15.7777     14.3577     15.3774    126.2606
   741.7500    201.7266     15.8565     15.9463     23.5101    110.4345
   742.0000    203.3071     15.8867     17.8333     43.7036    102.2565
   742.2500    204.7587     15.7884     20.1542     75.7393     84.1926
   742.5000    205.7174     15.5857     22.5168    101.4110     74.0981
   742.7500    206.9668     15.5351     23.3962    123.3735     61.7408
   743.0000    208.5022     15.4475     24.9560    105.1184     52.7662
   743.2500    209.7362     15.5606     23.7286     83.3891     55.0668
   743.5000    210.9061     15.3242     22.6509     85.8369     59.8025
   743.7500    211.9906     15.2848     21.1856     73.4729     73.5495
