~Version Information
VERS.                      2.0: CWLS Log ASCII Standard - VERSION 2.0
WRAP.                       NO: One line per depth step
~Well Information Block
STRT.FT               554.1000: 
STOP.FT              2173.5000: 
STEP.FT                 0.1000: 
NULL.                -999.2500: 
COMP.          Petrogulf Corporation: COMPANY
WELL.            Montoya 6-14R: WELL
FLD.           Purgatorie River: FIELD
LOC.           867' FSL & 751' FWL: LOCATION
CNTY.               Las Animas: COUNTY
SRVC.                         : SERVICE COMPANY
DATE.          Mon Nov 15 06:14:10 2004: LOG DATE
UWI.           05 071 08242 00: UNIQUE WELL ID
STAT.                 Colorado: STATE
~Curve Information Block
DEPT.FT            0 000 00 00: Depth
DCAL.in                       : CDL Caliper
RHOB.g/cc                     : CDL Bulk Density
RHOC.g/cc                     : CDL Density Correction
DPOR.pu                       : CDL Density Porosity
GR.GAPI                       : Gamma Ray
NPOR.pu                       : Neutron Porosity
~Parameter Information Block
~A  Depth       DCAL        RHOB        RHOC        DPOR         GR         NPOR    
# ...
   573.3000   -999.2500   -999.2500   -999.2500   -999.2500     38.2378     41.2720
   573.4000   -999.2500   -999.2500   -999.2500   -999.2500     36.1045     41.5769
   573.5000   -999.2500   -999.2500   -999.2500   -999.2500     37.0356     41.9318
   573.6000   -999.2500   -999.2500   -999.2500   -999.2500     38.9719     41.9298
   573.7000   -999.2500   -999.2500   -999.2500   -999.2500     40.5420     41.5701
   573.8000   -999.2500   -999.2500   -999.2500   -999.2500     41.2995     41.2552
   573.9000   -999.2500   -999.2500   -999.2500   -999.2500     40.2775     41.0347
   574.0000   -999.2500   -999.2500   -999.2500   -999.2500     37.6335     40.7751
   574.1000   -999.2500   -999.2500   -999.2500   -999.2500     35.3245     40.5985
   574.2000   -999.2500   -999.2500   -999.2500   -999.2500     33.2296     40.5212
   574.3000   -999.2500   -999.2500   -999.2500   -999.2500     30.8299     40.4557
   574.4000   -999.2500   -999.2500   -999.2500   -999.2500     29.9876     40.4128
   574.5000   -999.2500   -999.2500   -999.2500   -999.2500     31.4172     40.3416
   574.6000   -999.2500   -999.2500   -999.2500   -999.2500     33.5023     40.2850
   574.7000   -999.2500   -999.2500   -999.2500   -999.2500     35.2398     40.3345
   574.8000   -999.2500   -999.2500   -999.2500   -999.2500     36.7002     40.3797
   574.9000   -999.2500   -999.2500   -999.2500   -999.2500     37.9732     40.3212
   575.0000   -999.2500   -999.2500   -999.2500   -999.2500     40.3010     40.3036
   575.1000   -999.2500   -999.2500   -999.2500   -999.2500     43.5663     40.4521
   575.2000   -999.2500   -999.2500   -999.2500   -999.2500     45.7291     40.6252
   575.3000   -999.2500   -999.2500   -999.2500   -999.2500     46.2587     40.6853
   575.4000   -999.2500   -999.2500   -999.2500   -999.2500     45.1586     40.6456
   575.5000   -999.2500   -999.2500   -999.2500   -999.2500     43.0038     40.6199
   575.6000   -999.2500   -999.2500   -999.2500   -999.2500     41.9409     40.6882
   575.7000   -999.2500   -999.2500   -999.2500   -999.2500     42.5961     40.8749
   575.8000   -999.2500   -999.2500   -999.2500   -999.2500     42.7564     41.1178
   575.9000   -999.2500   -999.2500   -999.2500   -999.2500     41.5078     41.2050
   576.0000   -999.2500   -999.2500   -999.2500   -999.2500     39.9388     41.0076
   576.1000   -999.2500   -999.2500   -999.2500   -999.2500     39.2046     40.7392
   576.2000   -999.2500   -999.2500   -999.2500   -999.2500     39.7216     40.7075
   576.3000   -999.2500   -999.2500   -999.2500   -999.2500     41.1336     40.9285
   576.4000   -999.2500   -999.2500   -999.2500   -999.2500     44.3698     41.2489
   576.5000   -999.2500   -999.2500   -999.2500   -999.2500     48.5399     41.5479
   576.6000   -999.2500   -999.2500   -999.2500   -999.2500     48.6143     41.6778
   576.7000   -999.2500   -999.2500   -999.2500   -999.2500     44.1937     41.6338
   576.8000   -999.2500   -999.2500   -999.2500   -999.2500     41.8333     41.6453
   576.9000   -999.2500   -999.2500   -999.2500   -999.2500     44.5349     41.7117
   577.0000   -999.2500   -999.2500   -999.2500   -999.2500     50.1631     41.7351
   577.1000   -999.2500   -999.2500      0.3224   -999.2500     57.6028     41.9529
   577.2000   -999.2500   -999.2500      0.3223   -999.2500     63.3134     42.3224
   577.3000   -999.2500   -999.2500      0.3045   -999.2500     63.6947     42.4818
   577.4000   -999.2500   -999.2500      0.2758   -999.2500     61.7909     42.5590
   577.5000      2.3801   -999.2500      0.2773   -999.2500     62.4002     42.7377
   577.6000      2.3801      2.0580      0.3105     35.8760     66.8002     42.9006
   577.7000      2.3801      2.0725      0.3171     34.9981     73.0867     43.0882
   577.8000      2.3799      2.0765      0.3267     34.7577     80.0901     43.3413
   577.9000      2.3799      2.0694      0.3129     35.1874     86.3284     43.5107
   578.0000      2.3825      2.0594      0.3018     35.7949     90.3125     43.5385
   578.1000      2.3825      2.0554      0.2838     36.0361     93.8330     43.5316
   578.2000      2.3825      2.0573      0.3182     35.9227     98.0222     43.5382
   578.3000      2.3850      2.0588      0.3171     35.8295    101.6753     43.5602
   578.4000      2.3850      2.0588      0.2969     35.8282    102.4102     43.6614
   578.5000      2.3841      2.0603      0.3098     35.7368     99.2707     43.7864
   578.6000      2.3841      2.0642      0.3230     35.5024     94.4541     43.8038
   578.7000      2.3841      2.0696      0.3144     35.1779     91.1015     43.7589
   578.8000      2.3825      2.0767      0.3302     34.7481     90.4417     43.7567
   578.9000      2.3825      2.0867      0.3206     34.1364     88.2482     43.7876
   579.0000      2.3823      2.0976      0.3279     33.4781     83.2020     43.8168
   579.1000      2.3823      2.1010      0.3337     33.2742     80.8584     43.8167
   579.2000      2.3823      2.0906      0.3401     33.9010     83.0164     43.7586
   579.3000      2.3833      2.0723      0.3049     35.0102     86.5827     43.7138
   579.4000      2.3833      2.0606      0.2815     35.7184     89.8283     43.6429
   579.5000      2.3863      2.0619      0.3017     35.6445     91.2107     43.4715
   579.6000      2.3863      2.0701      0.3083     35.1444     88.0035     43.3710
   579.7000      2.3863      2.0773      0.3103     34.7071     79.5127     43.4604
   579.8000      2.3872      2.0770      0.3158     34.7258     69.7235     43.6218
   579.9000      2.3872      2.0686      0.3216     35.2353     67.5382     43.7383
   580.0000      2.3843      2.0612      0.3004     35.6852     73.6126     43.7421
   580.1000      2.3843      2.0644      0.3029     35.4933     78.3682     43.6887
   580.2000      2.3843      2.0751      0.3274     34.8405     78.3457     43.7243
   580.3000      2.3810      2.0830      0.3192     34.3655     78.3905     43.8028
   580.4000      2.3810      2.0848      0.3314     34.2527     81.3661     43.7649
   580.5000      2.3812      2.0869      0.3139     34.1262     83.6143     43.6629
   580.6000      2.3812      2.0935      0.3360     33.7291     81.2962     43.6306
   580.7000      2.3812      2.0967      0.3558     33.5307     77.7242     43.5642
   580.8000      2.3845      2.0900      0.3258     33.9382     77.3857     43.4187
   580.9000      2.3845      2.0812      0.3106     34.4726     80.2020     43.3481
   581.0000      2.3843      2.0781      0.3078     34.6578     83.8727     43.2662
   581.1000      2.3843      2.0770      0.3180     34.7251     86.5499     43.0893
   581.2000      2.3843      2.0728      0.3193     34.9819     86.4765     43.0355
   581.3000      2.3821      2.0688      0.3079     35.2253     82.1602     43.1761
   581.4000      2.3821      2.0699      0.3143     35.1557     76.6205     43.3561
   581.5000      2.3824      2.0734      0.3239     34.9477     74.7089     43.4516
   581.6000      2.3824      2.0732      0.3156     34.9588     74.1421     43.3550
   581.7000      2.3824      2.0692      0.3049     35.1970     70.7015     43.1782
   581.8000      2.3841      2.0661      0.3085     35.3860     66.1528     43.0362
   581.9000      2.3841      2.0644      0.3207     35.4881     62.9971     42.8025
   582.0000      2.3857      2.0610      0.3086     35.6999     61.3326     42.5541
   582.1000      2.3857      2.0588      0.3005     35.8310     61.6718     42.5294
   582.2000      2.3857      2.0637      0.3107     35.5329     65.3140     42.6204
   582.3000      2.3878      2.0725      0.3335     34.9991     69.2513     42.6490
   582.4000      2.3878      2.0770      0.3219     34.7297     69.0489     42.7232
   582.5000      2.3892      2.0760      0.3215     34.7892     66.6552     42.9103
   582.6000      2.3892      2.0737      0.3208     34.9265     67.0342     43.0101
   582.7000      2.3892      2.0708      0.3242     35.1030     71.2348     42.8261
   582.8000      2.3883      2.0680      0.3149     35.2749     75.8368     42.4797
