~Version Information
 VERS.                                  2.0 : CWLS LAS VERSION
 WRAP.                                   NO : WRAPING MODE
 SWARE .                 MController 2.5.0J : SOFTWARE VERSION
~Well Information
 WELL.                          GETEM 21-21 : WELL
 COMP.    PIONEER NATURAL RESOURCES USA INC : COMPANY
 FLD.                      PURGATOIRE RIVER : FIELD
 LOC.                NE/NW SEC 23 T32S R67W : LOCATION
 DATE.                             06/18/05 : DATE(S) LOGGED
 SRVC.       BLANCO GEOLOGICAL SERVICES LLC : SERVICE COMPANY
 STAT.                             COLORADO : STATE
 CNTY.                           LAS ANIMAS : COUNTY
 CTRY.                                  USA : COUNTRY
 API.                       05-071-08411-00 : API NUMBER
 STRT.FT                             321.00 : START DEPTH
 STOP.FT                            2815.00 : STOP DEPTH
 STEP.FT                               1.00 : DEPTH INCREMENT
 NULL.                                -9999 : NULL VALUE
~Curve information
 DEPTH.FT                                   :
 ROP.MIN/FT                                 :
 GAS.UNITS                                  :
~ASCII Log data
# ...
      1321.0         0.42         86.1 
      1322.0         0.53         86.9 
      1323.0         0.60         61.0 
      1324.0         0.73         47.9 
      1325.0         0.83         43.7 
      1326.0         0.92         37.9 
      1327.0         0.53         36.1 
      1328.0         0.23         34.2 
      1329.0         0.23         34.6 
      1330.0         0.37         34.1 
      1331.0         0.23         32.6 
      1332.0         0.27         33.2 
      1333.0         0.37         32.4 
      1334.0         0.37         33.2 
      1335.0         0.28         32.0 
      1336.0         0.43         34.3 
      1337.0         0.30         34.3 
      1338.0         0.33         32.1 
      1339.0         0.30         34.2 
      1340.0         0.30         34.1 
      1341.0         0.20         34.1 
      1342.0         0.10         34.5 
      1343.0         0.10         32.2 
      1344.0         0.10         33.9 
      1345.0         0.20         32.9 
      1346.0         1.58         51.5 
      1347.0         0.17         52.2 
      1348.0         0.17         52.6 
      1349.0         0.20         53.8 
      1350.0         0.17         56.0 
      1351.0         0.23         60.0 
      1352.0         0.17         64.1 
      1353.0         0.13         68.4 
      1354.0         0.10         72.2 
      1355.0         0.23         83.9 
      1356.0         0.27        103.3 
      1357.0         0.23        124.4 
      1358.0         0.27        144.2 
      1359.0         0.27        148.7 
      1360.0         0.28        136.9 
      1361.0         0.27        123.1 
      1362.0         0.23        112.7 
      1363.0         0.23        103.9 
      1364.0         0.27         94.7 
      1365.0         0.23         89.3 
      1366.0         0.23         86.8 
      1367.0         0.23         85.0 
      1368.0         0.20         83.0 
      1369.0         0.23         79.7 
      1370.0         0.20         76.6 
      1371.0         0.13         74.2 
      1372.0         0.20         70.9 
      1373.0         0.27         66.0 
      1374.0         0.32         61.8 
      1375.0         0.23         60.1 
      1376.0         1.90         31.2 
      1377.0         0.43         31.7 
      1378.0         0.30         34.6 
      1379.0         0.20         37.0 
      1380.0         0.10         37.5 
      1381.0         0.12         39.9 
      1382.0         0.10         41.0 
      1383.0         0.20         45.6 
      1384.0         0.23         51.5 
      1385.0         0.27         64.0 
      1386.0         0.27         81.0 
      1387.0         0.27         97.3 
      1388.0         0.40        105.3 
      1389.0         0.43        110.5 
      1390.0         0.23        107.1 
      1391.0         0.23         99.8 
      1392.0         0.27         90.0 
      1393.0         0.88         75.2 
      1394.0         0.30         75.2 
      1395.0         0.30         72.1 
      1396.0         0.23         64.1 
      1397.0         0.33         48.1 
      1398.0         0.23         39.4 
      1399.0         0.27         37.7 
      1400.0         0.27         42.8 
      1401.0         0.23         50.4 
      1402.0         0.17         53.8 
      1403.0         0.17         55.7 
      1404.0         0.13         55.5 
      1405.0         0.22         55.1 
      1406.0         1.57         59.9 
      1407.0         0.47         59.2 
      1408.0         0.33         63.1 
      1409.0         0.27         68.4 
      1410.0         0.23         75.4 
      1411.0         0.23         85.2 
      1412.0         0.17         94.5 
      1413.0         0.22        111.6 
      1414.0         0.27        141.5 
      1415.0         0.23        161.7 
      1416.0         0.27        166.0 
      1417.0         0.33        150.2 
      1418.0         0.23        133.3 
      1419.0         0.20        118.8 
      1420.0         0.23        104.8 
      1421.0         0.23         94.6 
      1422.0         0.27         88.0 
      1423.0         0.23         86.3 
      1424.0         0.23         85.9 
      1425.0         0.20         83.8 
      1426.0         0.17         80.3 
      1427.0         0.22         75.8 
      1428.0         0.20         72.3 
      1429.0         0.17         69.7 
      1430.0         0.23         67.8 
      1431.0         0.20         66.8 
      1432.0         0.23         65.9 
      1433.0         0.13         65.2 
      1434.0         0.10         65.0 
      1435.0         0.17         63.8 
      1436.0         2.35         40.4 
      1437.0         0.40         46.6 
      1438.0         0.27         52.1 
      1439.0         0.23         64.0 
      1440.0         0.23         81.7 
      1441.0         0.23        102.9 
      1442.0         0.20        120.4 
      1443.0         0.13        129.7 
      1444.0         0.20        137.7 
      1445.0         0.30        134.3 
      1446.0         0.27        120.6 
      1447.0         0.35        100.0 
      1448.0         0.37         80.6 
      1449.0         0.33         82.1 
      1450.0         0.27         91.3 
      1451.0         0.50         96.7 
      1452.0         0.40         89.1 
      1453.0         0.27         83.8 
      1454.0         0.20         80.2 
      1455.0         0.23         73.9 
      1456.0         0.23         65.2 
      1457.0         0.20         59.8 
      1458.0         0.20         57.1 
      1459.0         0.25         60.2 
      1460.0         0.17         65.7 
      1461.0         0.27         75.6 
      1462.0         0.23         80.9 
      1463.0         0.17         82.2 
      1464.0         0.13         81.7 
      1465.0         0.23         79.9 
      1466.0         1.60         76.3 
      1467.0         0.27         74.7 
      1468.0         0.32         76.0 
      1469.0         0.30         81.8 
      1470.0         0.30         92.4 
      1471.0         0.23        104.1 
      1472.0         0.23        122.8 
      1473.0         0.23        147.5 
      1474.0         0.23        172.8 
      1475.0         0.27        188.0 
      1476.0         0.30        180.7 
      1477.0         0.27        160.2 
      1478.0         0.30        134.3 
      1479.0         0.23        118.6 
      1480.0         0.13        111.1 
      1481.0         0.25        100.8 
      1482.0         0.27         94.3 
      1483.0         0.23         92.6 
      1484.0         0.27         92.2 
      1485.0         0.27         90.8 
      1486.0         0.23         88.3 
      1487.0         0.23         85.7 
      1488.0         0.23         82.6 
      1489.0         0.20         79.7 
      1490.0         0.23         76.6 
      1491.0         0.23         74.2 
      1492.0         0.20         72.4 
      1493.0         0.23         70.1 
      1494.0         0.20         68.3 
      1495.0         0.25         66.8 
      1496.0         1.87         44.9 
      1497.0         0.43         43.1 
      1498.0         0.30         45.8 
      1499.0         0.30         50.8 
      1500.0         0.23         57.7 
      1501.0         0.25         67.4 
      1502.0         0.23         81.2 
      1503.0         0.20         96.6 
      1504.0         0.20        114.2 
      1505.0         0.23        134.9 
      1506.0         0.23        148.5 
      1507.0         0.27        149.8 
      1508.0         0.27        138.8 
      1509.0         0.33        118.7 
      1510.0         0.27        104.4 
      1511.0         0.27         93.7 
      1512.0         0.27         87.0 
      1513.0         0.23         85.2 
      1514.0         0.25         84.2 
      1515.0         0.27         82.7 
      1516.0         0.23         81.0 
      1517.0         0.27         78.1 
      1518.0         0.27         73.3 
      1519.0         0.27         68.2 
      1520.0         0.20         65.7 
