~Version Information
VERS.                      2.0: CWLS Log ASCII Standard - VERSION 2.0
WRAP.                       NO: One line per depth step
~Well Information Block
STRT.FT               450.0000: 
STOP.FT              2753.5000: 
STEP.FT                 0.1000: 
NULL.                -999.2500: 
COMP.          Pioneer Natural Resources: COMPANY
WELL.             Squeal 11-26: WELL
FLD.           Purgatoire River: FIELD
LOC.           1186' FNL & 152' FWL: LOCATION
PROV.                 Colorado: PROVINCE
CNTY.               Las Animas: COUNTRY
SRVC.                Patterson: SERVICE COMPANY
DATE.          Wed Jun 15 09:11:52 2005: LOG DATE
UWI.           05 071 08404 00: UNIQUE WELL ID
~Curve Information Block
DEPT.FT            0 000 00 00: Depth
DCAL.in                       : CDL Caliper
RHOB.g/cc                     : CDL Bulk Density
RHOC.g/cc                     : CDL Density Correction
DPOR.pu                       : CDL Density Porosity
GR.GAPI                       : Gamma Ray
NPOR.pu                       : Neutron Porosity
~Parameter Information Block
~A  Depth       DCAL        RHOB        RHOC        DPOR         GR         NPOR    
# ...
  2427.6000      7.9625      2.6026      0.0600      2.8732     60.7255     22.3627
  2427.7000      7.9625      2.5935      0.0030      3.4218     63.8435     23.5662
  2427.8000      7.9602      2.5816     -0.0011      4.1436     66.2921     24.7763
  2427.9000      7.9602      2.5724      0.0658      4.7003     67.5319     25.4791
  2428.0000      7.9631      2.5619      0.0418      5.3376     69.6319     25.6847
  2428.1000      7.9631      2.5565      0.0567      5.6661     69.7672     24.9555
  2428.2000      7.9631      2.5545      0.0679      5.7864     67.7260     23.2577
  2428.3000      7.9632      2.5503      0.0473      6.0433     66.5539     21.9037
  2428.4000      7.9632      2.5511      0.0508      5.9968     65.0411     21.8832
  2428.5000      7.9551      2.5575      0.0629      5.6082     65.2871     22.6337
  2428.6000      7.9551      2.5547      0.1020      5.7731     70.0169     23.1541
  2428.7000      7.9551      2.5382      0.0686      6.7740     73.3386     22.8952
  2428.8000      7.9574      2.5274      0.0478      7.4311     73.1485     22.3905
  2428.9000      7.9574      2.5329      0.0483      7.0969     73.4549     22.7210
  2429.0000      7.9498      2.5363      0.0965      6.8887     75.7530     23.8549
  2429.1000      7.9498      2.5266      0.0616      7.4810     79.1729     24.8127
  2429.2000      7.9498      2.5182      0.0022      7.9895     81.3802     24.9121
  2429.3000      7.9501      2.5253     -0.0020      7.5603     80.3182     24.4240
  2429.4000      7.9501      2.5434      0.0553      6.4625     77.0136     24.2585
  2429.5000      7.9504      2.5538      0.0677      5.8283     73.5274     24.4942
  2429.6000      7.9504      2.5466      0.0213      6.2654     70.8517     24.5040
  2429.7000      7.9504      2.5297      0.0213      7.2934     69.9298     24.4709
  2429.8000      7.9485      2.5136      0.0193      8.2638     70.7875     24.8437
  2429.9000      7.9485      2.5038      0.0562      8.8622     72.8951     25.3327
  2430.0000      7.9512      2.4962     -0.0012      9.3193     76.1512     24.8605
  2430.1000      7.9512      2.4866     -0.0121      9.9037     80.0359     23.7578
  2430.2000      7.9512      2.4872     -0.0315      9.8694     83.2505     23.4664
  2430.3000      7.9561      2.5119      0.0234      8.3715     85.8048     23.9846
  2430.4000      7.9561      2.5377      0.0725      6.8035     88.4062     24.4535
  2430.5000      7.9816      2.5288      0.0975      7.3445     89.0788     24.5744
  2430.6000      7.9816      2.4883      0.0417      9.7983     87.3300     24.9140
  2430.7000      7.9816      2.4357      0.0845     12.9876     85.3221     25.7837
  2430.8000      8.0017      2.3719      0.0229     16.8518     82.7677     26.5658
  2430.9000      8.0017      2.2912      0.0113     21.7460     79.9162     27.0147
  2431.0000      8.0042      2.1782     -0.0014     28.5918     78.7521     27.4457
  2431.1000      8.0042      2.0265     -0.0723     37.7856     79.0271     27.9408
  2431.2000      8.0042      1.8672     -0.1021     47.4454     79.2004     28.6386
  2431.3000      7.9732      1.7408     -0.1445     55.1028     79.3309     29.6686
  2431.4000      7.9732      1.6523     -0.1057     60.4674     81.4519     30.6892
  2431.5000      7.9790      1.5748     -0.1350     65.1610     84.7506     31.2927
  2431.6000      7.9790      1.4980     -0.1647     69.8195     82.8580     31.5629
  2431.7000      7.9790      1.4454     -0.1150     73.0035     72.4970     31.8088
  2431.8000      7.9908      1.4422     -0.0079     73.2017     58.6425     32.3296
  2431.9000      7.9908      1.4839      0.0538     70.6736     48.8089     33.0985
  2432.0000      7.9961      1.5501      0.0955     66.6613     45.7968     33.4496
  2432.1000      7.9961      1.6344      0.0968     61.5520     47.4953     32.9120
  2432.2000      7.9961      1.7359      0.0984     55.4027     51.0994     32.1903
  2432.3000      7.9882      1.8336      0.1063     49.4761     54.0976     32.1639
  2432.4000      7.9882      1.9020      0.1805     45.3307     55.4556     32.9837
  2432.5000      7.9918      1.9312      0.1786     43.5663     56.0994     33.9871
  2432.6000      7.9918      1.9206      0.1704     44.2067     56.0875     34.2599
  2432.7000      7.9918      1.8739      0.0938     47.0349     55.4070     33.8785
  2432.8000      8.0328      1.8054      0.0220     51.1897     55.1852     33.2896
  2432.9000      8.0328      1.7461     -0.1153     54.7834     55.0861     32.6023
  2433.0000      8.0311      1.7320     -0.1003     55.6372     55.6151     32.0219
  2433.1000      8.0311      1.7729     -0.0359     53.1589     57.7025     31.9980
  2433.2000      8.0311      1.8520      0.0243     48.3621     59.1571     32.5482
  2433.3000      8.0117      1.9516      0.1408     42.3253     57.2586     32.9491
  2433.4000      8.0117      2.0662      0.1664     35.3835     52.6795     32.9948
  2433.5000      8.0227      2.2001      0.2365     27.2678     50.1440     33.0866
  2433.6000      8.0227      2.3536      0.2258     17.9651     51.9068     32.9675
  2433.7000      8.0227      2.5041      0.2519      8.8416     54.2641     32.3289
  2433.8000      8.0744      2.6072      0.2069      2.5952     54.2156     31.6958
  2433.9000      8.0744      2.6407      0.1599      0.5609     55.1419     31.0724
  2434.0000      8.0874      2.6254      0.1175      1.4882     61.0867     30.1190
  2434.1000      8.0874      2.5967      0.0757      3.2320     67.2949     29.3277
  2434.2000      8.0874      2.5772      0.0290      4.4095     68.4644     28.5549
  2434.3000      8.0276      2.5701      0.0642      4.8436     69.1862     26.9621
  2434.4000      8.0276      2.5647      0.0483      5.1693     72.6995     24.8536
  2434.5000      8.0106      2.5566     -0.0013      5.6602     75.5895     23.3901
  2434.6000      8.0106      2.5581     -0.0213      5.5670     76.4599     23.4627
  2434.7000      8.0106      2.5738      0.0437      4.6181     74.9201     24.5197
  2434.8000      8.0136      2.5857      0.0273      3.8999     71.8518     25.0300
  2434.9000      8.0136      2.5765      0.0486      4.4530     71.5809     24.5122
  2435.0000      8.0092      2.5551     -0.0093      5.7543     76.2670     23.3655
  2435.1000      8.0092      2.5453      0.0563      6.3477     81.5905     22.0478
  2435.2000      8.0092      2.5519      0.0265      5.9435     81.2283     21.3298
  2435.3000      7.9907      2.5636      0.0420      5.2390     74.8535     21.7727
  2435.4000      7.9907      2.5677      0.0563      4.9905     69.5267     23.0031
  2435.5000      7.9790      2.5608      0.0573      5.4083     71.6214     23.7980
  2435.6000      7.9790      2.5467     -0.0011      6.2580     78.7038     23.4092
  2435.7000      7.9790      2.5249      0.0428      7.5846     83.2574     22.5871
  2435.8000      7.9727      2.4975      0.0073      9.2410     81.8625     22.3835
  2435.9000      7.9727      2.4750      0.0175     10.6056     78.7413     23.1294
  2436.0000      7.9614      2.4583      0.0241     11.6152     77.6195     24.4046
  2436.1000      7.9614      2.4446     -0.0237     12.4513     77.9214     25.4675
  2436.2000      7.9614      2.4385     -0.0009     12.8178     78.9692     25.7502
  2436.3000      7.9533      2.4430      0.0492     12.5482     79.6917     25.3726
  2436.4000      7.9533      2.4537      0.0265     11.8959     80.0914     25.2965
  2436.5000      7.9520      2.4761      0.0233     10.5376     80.4425     25.7345
  2436.6000      7.9520      2.5115      0.1133      8.3916     80.1327     25.9016
  2436.7000      7.9520      2.5491      0.0838      6.1125     78.9746     25.3270
  2436.8000      7.9603      2.5987      0.0819      3.1089     76.6955     24.2174
  2436.9000      7.9603      2.6663      0.1496     -0.9904     73.4514     23.0179
  2437.0000      7.9463      2.7206      0.1445     -4.2760     70.1491     22.1314
  2437.1000      7.9463      2.7399      0.0678     -5.4466     66.6365     22.1976
