~Version Information
VERS.                      2.0: CWLS Log ASCII Standard - VERSION 2.0
WRAP.                       NO: One line per depth step
~Well Information Block
STRT.FT               -11.2500: 
STOP.FT              1597.0000: 
STEP.FT                 0.2500: 
NULL.                -999.2500: 
COMP.          Petrogulf Corporation: COMPANY
WELL.          Great Plains 22-21R: WELL
FLD.           Purgatorie River: FIELD
LOC.           73' FNL & 1992' FWL--: LOCATION
PROV.                       CO: PROVINCE
CNTY.               Las Animas: COUNTRY
SRVC.          Patterson Wireline: SERVICE COMPANY
DATE.          Fri Sep 09 09:02:35 2005: LOG DATE
UWI.           05 071 08343 00: UNIQUE WELL ID
~Curve Information Block
DEPT.FT            0 000 00 00: Depth
CCL.                          : Casing Collar Locator
TT3.usec                      : CBL 3' Travel Time
AMP3.mV                       : CBL 3' Amplitude
GR.GAPI                       : Gamma Ray
~Parameter Information Block
~A  Depth       CCL         TT3         AMP3         GR     
# ...
   524.7500      0.0000    570.4008     17.2194     89.4970
   525.0000      0.0000    527.1177     17.4266     88.4677
   525.2500      0.0000    478.1563     17.7027     87.1202
   525.5000      0.0000    435.0463     17.9675     85.7167
   525.7500      0.0000    405.8323     18.1674     84.6316
   526.0000      0.0000    391.9446     18.3043     84.5282
   526.2500      0.0000    391.7063     18.4062     85.6088
   526.5000      0.0000    404.8677     18.4805     87.0692
   526.7500      0.0000    431.9701     18.5081     87.8707
   527.0000      0.0000    468.6271     18.4824     87.7983
   527.2500      0.0000    501.8162     18.4421     87.3395
   527.5000      0.0000    515.3715     18.4498     86.9458
   527.7500      0.0000    502.1375     18.5326     86.8497
   528.0000      0.0000    470.8775     18.6410     87.1192
   528.2500      0.0000    440.6880     18.6681     87.3660
   528.5000      0.0000    429.0636     18.5142     86.6578
   528.7500      0.0000    443.7310     18.1532     84.3483
   529.0000      0.0000    480.9313     17.6537     81.1492
   529.2500      0.0000    528.2086     17.1379     79.0090
   529.5000      0.0000    570.8109     16.7129     79.5847
   529.7500      0.0000    598.9549     16.4351     82.8657
   530.0000      0.0000    610.3990     16.3159     87.3274
   530.2500      0.0000    607.7758     16.3348     91.1596
   530.5000      0.0000    596.1219     16.4489     93.2871
   530.7500      0.0000    582.8380     16.6144     93.7008
   531.0000      0.0000    575.6761     16.8118     93.1641
   531.2500      0.0000    576.9587     17.0464     92.4710
   531.5000      0.0000    581.0544     17.3209     92.0638
   531.7500      0.0000    580.8214     17.6106     92.2722
   532.0000      0.0000    576.3555     17.8678     93.2197
   532.2500      0.0000    574.9325     18.0538     94.2964
   532.5000      0.0000    582.2237     18.1649     94.6038
   532.7500      0.0000    596.1194     18.2257     94.2917
   533.0000      0.0000    609.9084     18.2607     94.5977
   533.2500      0.0000    619.0078     18.2768     96.2203
   533.5000      0.0000    623.2016     18.2716     98.4091
   533.7500      0.0000    624.3881     18.2481     99.7706
   534.0000      0.0000    623.9677     18.2100     99.1695
   534.2500      0.0000    621.6575     18.1518     95.9311
   534.5000      0.0000    614.9276     18.0678     90.1377
   534.7500      0.0000    599.1133     17.9741     82.8962
   535.0000      0.0000    569.9799     17.9148     75.8017
   535.2500      0.0000    528.9078     17.9307     70.0761
   535.5000      0.0000    486.5113     18.0179     66.2141
   535.7500      0.0000    459.1742     18.1226     64.0079
   536.0000      0.0000    459.2955     18.1829     62.7177
   536.2500      0.0000    486.9128     18.1759     61.5554
   536.5000      0.0000    529.6775     18.1299     60.3287
   536.7500      0.0000    571.1855     18.0993     59.5212
   537.0000      0.0000    600.7310     18.1259     59.6428
   537.2500      0.0000    616.8548     18.2118     60.6080
   537.5000      0.0000    623.9830     18.3186     61.8296
   537.7500      0.0000    627.7094     18.3872     62.8516
   538.0000      0.0000    633.0405     18.3649     63.7791
   538.2500      0.0000    644.8333     18.2266     64.8776
   538.5000      0.0000    667.2200     17.9809     65.8385
   538.7500      0.0000    700.8791     17.6593     65.8166
   539.0000      0.0000    740.8630     17.3021     64.2146
   539.2500      0.0000    778.3667     16.9511     61.0855
   539.5000      0.0000    805.6175     16.6512     56.8023
   539.7500      0.0000    819.5630     16.4440     51.7399
   540.0000      0.0000    822.0806     16.3493     46.3130
   540.2500      0.0000    817.8464     16.3449     41.0415
   540.5000      0.0000    811.6749     16.3708     36.4961
   540.7500      0.0000    806.5199     16.3609     33.1940
   541.0000      0.0000    802.8665     16.2805     31.5084
   541.2500      0.0000    799.3071     16.1388     31.6534
   541.5000      0.0000    793.4705     15.9687     33.7323
   541.7500      0.0000    783.0021     15.7988     37.8096
   542.0000      0.0000    766.8105     15.6425     43.9356
   542.2500      0.0000    745.9641     15.5079     51.9486
   542.5000      0.0000    723.5336     15.4034     61.0686
   542.7500      0.0000    703.3696     15.3229     69.8042
   543.0000      0.0000    687.8469     15.2351     76.7773
   543.2500      0.0000    675.2563     15.1026     81.9402
   543.5000      0.0000    660.0994     14.9122     86.5568
   543.7500      0.0000    638.8322     14.6782     91.4678
   544.0000      0.0000    615.8922     14.4176     95.6982
   544.2500      0.0000    601.8185     14.1350     97.4738
   544.5000      0.0000    604.5723     13.8239     96.4275
   544.7500      0.0000    624.0640     13.4700     94.1530
   545.0000      0.0000    654.6788     13.0617     92.8228
   545.2500      0.0000    689.9030     12.6081     93.7593
   545.5000      0.0000    723.9467     12.1434     96.8453
   545.7500      0.0000    752.3849     11.7101    100.4620
   546.0000      0.0000    773.2891     11.3456    102.1765
   546.2500      0.0000    787.0870     11.0824    100.4824
   546.5000      0.0000    795.1711     10.9332     96.3416
   546.7500      0.0000    798.6725     10.8630     92.6432
   547.0000      0.0000    797.4210     10.7847     91.9318
   547.2500      0.0000    789.2734     10.5977     94.7128
   547.5000      0.0000    771.7161     10.2412     99.5500
   547.7500      0.0000    746.4987      9.7316    104.3379
   548.0000      0.0000    723.0081      9.1612    107.6107
   548.2500      0.0000    714.4849      8.6494    108.9480
   548.5000      0.0000    729.1003      8.2769    108.3773
   548.7500      0.0000    764.9099      8.0661    105.7744
   549.0000      0.0000    812.4207      8.0049    101.0733
   549.2500      0.0000    859.1171      8.0586     94.9124
   549.5000      0.0000    892.3041      8.1655     88.8106
   549.7500      2.0000    902.8651      8.2582     84.5504
   550.0000      0.0000    890.0717      8.3091     83.2792
   550.2500      0.0000    862.6315      8.3672     84.9685
   550.5000      0.0000    833.6664      8.5447     88.4081
   550.7500      0.0000    813.5765      8.9272     91.5701
   551.0000      0.0000    806.2632      9.4573     92.3087
   551.2500      0.0000    809.8340      9.9327     89.4566
   551.5000      0.0000    819.3179     10.1785     83.8478
   551.7500      0.0000    829.8703     10.2052     78.2181
   552.0000      0.0000    839.8854     10.1607     75.5669
   552.2500      0.0000    851.4498     10.1627     77.0637
   552.5000      0.0000    866.2473     10.2220     81.2862
   552.7500      0.0000    880.2830     10.2938     85.5220
   553.0000      0.0000    885.0735     10.3462     87.9586
   553.2500      0.0000    876.1456     10.3830     88.7890
   553.5000      0.0000    858.6620     10.4265     89.3623
   553.7500      0.0000    842.4758     10.4921     90.4924
   554.0000      0.0000    833.3677     10.5720     91.7406
   554.2500      0.0000    830.8438     10.6409     92.1619
   554.5000      0.0000    832.0280     10.6772     91.4314
   554.7500      0.0000    834.7665     10.6816     90.2531
   555.0000      0.0000    837.7200     10.6750     89.8422
   555.2500      0.0000    839.6890     10.6767     91.0243
   555.5000      0.0000    839.4361     10.6872     93.5977
   555.7500      0.0000    835.4436     10.6909     96.2885
   556.0000      0.0000    826.0853     10.6726     97.5023
   556.2500      0.0000    811.1981     10.6306     96.4836
   556.5000      0.0000    793.6374     10.5752     93.7443
   556.7500      0.0000    777.1968     10.5199     90.2700
   557.0000      0.0000    761.6261     10.4738     86.6266
   557.2500      0.0000    741.4802     10.4416     83.1692
   557.5000      0.0000    711.4117     10.4256     80.7246
   557.7500      0.0000    671.3740     10.4263     80.3465
   558.0000      0.0000    626.5419     10.4399     82.3151
