~Version Information
VERS.                      2.0: CWLS Log ASCII Standard - VERSION 2.0
WRAP.                       NO: One line per depth step
~Well Information Block
STRT.FT                -3.5000: 
STOP.FT              1841.0000: 
STEP.FT                 0.2500: 
NULL.                -999.2500: 
COMP.          Pioneer Natural Resources: COMPANY
WELL.          Corkscrew 33-12 Tr: WELL
FLD.           Purgatorie River: FIELD
LOC.           1870' FSL  & 1706' FEL--------: LOCATION
PROV.                       CO: PROVINCE
CNTY.               Las Animas: COUNTRY
SRVC.          Patterson Wireline: SERVICE COMPANY
DATE.          Mon Apr 04 10:07:45 2005: LOG DATE
UWI.           05 071 08295 00: UNIQUE WELL ID
~Curve Information Block
DEPT.FT            0 000 00 00: Depth
CCL.                          : Casing Collar Locator
TT3.usec                      : CBL 3' Travel Time
AMP3.mV                       : CBL 3' Amplitude
GR.GAPI                       : Gamma Ray
~Parameter Information Block
~A  Depth       CCL         TT3         AMP3         GR     
# ...
  1068.5000      0.0000    746.5007      6.0809    129.8586
  1068.7500      0.0000    738.7715      6.0940    131.4085
  1069.0000      0.0000    737.4055      6.1113    131.4521
  1069.2500      0.0000    743.4285      6.1765    130.5371
  1069.5000      0.0000    754.0046      6.3090    128.9921
  1069.7500      0.0000    764.6612      6.4764    126.6662
  1070.0000      0.0000    772.3679      6.6116    123.9248
  1070.2500      0.0000    776.6168      6.6702    122.0686
  1070.5000      0.0000    778.4497      6.6664    122.3003
  1070.7500      0.0000    779.0570      6.6500    124.5748
  1071.0000      0.0000    779.0248      6.6550    127.7530
  1071.2500      0.0000    778.2568      6.6726    130.5469
  1071.5000      0.0000    776.5018      6.6697    132.1299
  1071.7500      0.0000    774.4302      6.6257    132.3896
  1072.0000      0.0000    774.2861      6.5378    132.0412
  1072.2500      0.0000    778.5104      6.4079    132.1277
  1072.5000      0.0000    786.9442      6.2509    133.1012
  1072.7500      0.0000    796.1141      6.1064    134.4138
  1073.0000      0.0000    802.2770      6.0137    134.8472
  1073.2500      0.0000    804.7432      5.9779    133.1807
  1073.5000      0.0000    805.4574      5.9773    128.9815
  1073.7500      0.0000    805.5986      5.9916    123.0700
  1074.0000      0.0000    803.5308      6.0158    117.2258
  1074.2500      0.0000    796.4832      6.0561    113.2353
  1074.5000      0.0000    783.6992      6.1171    111.7301
  1074.7500      0.0000    767.3755      6.1892    111.6528
  1075.0000      0.0000    750.7093      6.2495    111.1438
  1075.2500      0.0000    735.3634      6.2754    109.1763
  1075.5000      0.0000    720.5344      6.2638    106.2008
  1075.7500      0.0000    704.3100      6.2397    103.3643
  1076.0000      0.0000    686.4140      6.2398    101.5210
  1076.2500      0.0000    669.4637      6.2880    100.9120
  1076.5000      0.0000    657.2535      6.3814    101.2054
  1076.7500      0.0000    652.8820      6.4888    101.7433
  1077.0000      0.0000    658.5659      6.5724    102.2901
  1077.2500      0.0000    675.1720      6.6223    103.6710
  1077.5000      0.0000    700.8139      6.6598    107.1171
  1077.7500      0.0000    731.0042      6.6971    112.7759
  1078.0000      0.0000    760.9912      6.7160    119.3568
  1078.2500      0.0000    787.3755      6.6949    125.3424
  1078.5000      0.0000    807.6378      6.6369    129.9246
  1078.7500      0.0000    819.1550      6.5679    132.4057
  1079.0000      0.0000    819.1909      6.5196    131.5016
  1079.2500      0.0000    806.9707      6.5091    126.5044
  1079.5000      0.0000    787.2888      6.5164    119.2654
  1079.7500      0.0000    770.8150      6.4964    113.7426
  1080.0000      0.0000    767.2413      6.4356    112.6748
  1080.2500      0.0000    777.0442      6.3866    115.1871
  1080.5000      0.0000    791.8398      6.4188    118.2280
  1080.7500      0.0000    802.9589      6.5360    119.8511
  1081.0000      0.0000    807.9749      6.6636    120.4183
  1081.2500      0.0000    809.7111      6.7179    121.1827
  1081.5000      0.0000    811.6894      6.6744    122.7770
  1081.7500      0.0000    815.4292      6.5739    125.0614
  1082.0000      0.0000    820.4819      6.4741    127.5027
  1082.2500      0.0000    825.2963      6.3985    129.3056
  1082.5000      0.0000    827.9965      6.3330    129.4796
  1082.7500      0.0000    827.4247      6.2684    127.0652
  1083.0000      0.0000    824.0642      6.2228    121.6150
  1083.2500      0.0000    819.7433      6.2096    113.8937
  1083.5000      0.0000    816.3442      6.2065    106.1740
  1083.7500      0.0000    815.0004      6.1843    101.4703
  1084.0000      0.0000    816.1718      6.1520    101.9573
  1084.2500      0.0000    819.6125      6.1376    107.4959
  1084.5000      0.0000    823.9750      6.1313    115.3924
  1084.7500      0.0000    827.1139      6.0935    121.9824
  1085.0000      0.0000    827.6967      6.0187    125.0745
  1085.2500      0.0000    826.6648      5.9546    125.1088
  1085.5000      0.0000    826.5264      5.9597    124.1090
  1085.7500      0.0000    828.8120      6.0647    123.8876
  1086.0000      0.0000    832.4054      6.2613    125.1270
  1086.2500      0.0000    834.5807      6.4976    127.3826
  1086.5000      0.0000    833.5610      6.6915    129.4899
  1086.7500      0.0000    829.8485      6.7757    130.3604
  1087.0000      0.0000    825.1023      6.7367    129.9409
  1087.2500      0.0000    819.8903      6.6083    129.3319
  1087.5000      0.0000    812.6827      6.4417    129.6310
  1087.7500      0.0000    801.6116      6.2914    130.7483
  1088.0000      0.0000    788.0524      6.2064    131.6264
  1088.2500      0.0000    778.0577      6.2066    131.4941
  1088.5000      0.0000    778.2990      6.2670    130.7117
  1088.7500      0.0000    789.7501      6.3432    130.4898
  1089.0000      0.0000    806.5917      6.4074    131.7974
  1089.2500      0.0000    821.6999      6.4494    134.3522
  1089.5000      0.0000    831.9557      6.4619    136.6913
  1089.7500      0.0000    838.0842      6.4514    137.3174
  1090.0000      0.0000    841.0720      6.4465    135.7178
  1090.2500      0.0000    840.0321      6.4598    132.3315
  1090.5000      0.0000    832.8418      6.4502    127.8218
  1090.7500      0.0000    817.6273      6.3539    122.5543
  1091.0000      0.0000    794.0463      6.1541    116.7621
  1091.2500      0.0000    764.9000      5.8971    111.0659
  1091.5000      0.0000    736.9922      5.6432    106.5971
  1091.7500      0.0000    718.9786      5.4321    104.4132
  1092.0000      0.0000    717.0422      5.2922    104.7838
  1092.2500      0.0000    731.9715      5.2422    107.1407
  1092.5000      0.0000    759.0068      5.2619    110.7165
  1092.7500      2.0000    789.6928      5.2951    115.0284
  1093.0000      2.0000    815.5209      5.2993    119.6432
  1093.2500      0.0000    831.9780      5.2758    123.7196
  1093.5000      0.0000    839.6065      5.2512    126.2469
  1093.7500      0.0000    841.3096      5.2588    126.9233
  1094.0000      0.0000    839.5487      5.3383    126.5354
  1094.2500      0.0000    836.1716      5.5133    126.2193
  1094.5000      0.0000    833.1482      5.7508    126.4179
  1094.7500      0.0000    831.8317      5.9695    126.6973
  1095.0000      0.0000    831.6716      6.0999    126.6252
  1095.2500      0.0000    830.7289      6.1306    126.5394
  1095.5000      0.0000    827.2106      6.1100    127.0137
  1095.7500      0.0000    819.7030      6.1107    127.7122
  1096.0000      0.0000    806.8413      6.1748    127.4226
  1096.2500      0.0000    788.8041      6.2913    125.4172
  1096.5000      0.0000    769.1465      6.4338    122.3615
  1096.7500      0.0000    753.4582      6.5995    119.7165
  1097.0000      0.0000    745.6636      6.7823    118.4822
  1097.2500      0.0000    746.0066      6.9339    118.5924
  1097.5000      0.0000    751.8920      7.0040    119.2315
  1097.7500      0.0000    759.7129      7.0159    119.4041
  1098.0000      0.0000    766.2094      7.0517    118.3143
  1098.2500      0.0000    769.2247      7.1482    115.8845
  1098.5000      0.0000    768.0554      7.2434    113.2870
  1098.7500      0.0000    763.2833      7.2526    112.4391
  1099.0000      0.0000    756.1700      7.1629    114.4545
  1099.2500      0.0000    748.1818      7.0206    118.6572
  1099.5000      0.0000    740.6493      6.8533    123.1911
  1099.7500      0.0000    734.0781      6.6603    126.4550
  1100.0000      0.0000    727.7308      6.4728    128.0036
  1100.2500      0.0000    720.6074      6.3598    128.2741
  1100.5000      0.0000    712.9763      6.3489    127.6984
  1100.7500      0.0000    706.4523      6.3823    126.3800
  1101.0000      0.0000    702.6531      6.3794    124.7522
  1101.2500      0.0000    702.3116      6.3310    124.0840
  1101.5000      0.0000    705.4745      6.3052    125.6156
  1101.7500      0.0000    711.7003      6.3630    129.0559
