~Version Information
VERS.                      2.0: CWLS Log ASCII Standard - VERSION 2.0
WRAP.                       NO: One line per depth step
~Well Information Block
STRT.FT                -7.0000: 
STOP.FT              2389.2500: 
STEP.FT                 0.2500: 
NULL.                -999.2500: 
COMP.          Pioneer Natural Resources: COMPANY
WELL.            Victory 12-14: WELL
FLD.           Purgatorie River: FIELD
LOC.           2434' FNL & 188' FWL------: LOCATION
PROV.                       CO: PROVINCE
CNTY.               Las Animas: COUNTRY
SRVC.          Patterson Wireline: SERVICE COMPANY
DATE.          Fri Apr 22 14:29:17 2005: LOG DATE
UWI.           05 071 08332 00: UNIQUE WELL ID
~Curve Information Block
DEPT.FT            0 000 00 00: Depth
CCL.                          : Casing Collar Locator
TT3.usec                      : CBL 3' Travel Time
AMP3.mV                       : CBL 3' Amplitude
GR.GAPI                       : Gamma Ray
~Parameter Information Block
~A  Depth       CCL         TT3         AMP3         GR     
# ...
  2204.0000      0.0000    628.0569      8.2385     59.0854
  2204.2500      0.0000    625.5286      7.9681     57.2382
  2204.5000      0.0000    611.2798      7.8596     57.3994
  2204.7500      0.0000    589.6313      7.9047     59.6632
  2205.0000      0.0000    564.4269      7.9882     62.8554
  2205.2500      0.0000    537.8057      8.0153     65.4486
  2205.5000      0.0000    512.4497      7.9770     66.7610
  2205.7500      0.0000    494.2819      7.8875     67.1084
  2206.0000      0.0000    490.1040      7.7247     66.9818
  2206.2500      0.0000    501.5476      7.4743     66.4761
  2206.5000      0.0000    523.5419      7.1910     65.4667
  2206.7500      0.0000    549.1584      6.9690     63.9907
  2207.0000      0.0000    573.0358      6.8742     62.3383
  2207.2500      0.0000    590.2393      6.9272     60.9299
  2207.5000      0.0000    597.0106      7.1112     60.1695
  2207.7500      0.0000    595.3417      7.3577     60.2409
  2208.0000      0.0000    594.0450      7.5548     60.8296
  2208.2500      0.0000    602.4864      7.6109     61.1044
  2208.5000      0.0000    622.6771      7.5134     60.2222
  2208.7500      0.0000    646.8073      7.3289     57.9933
  2209.0000      0.0000    662.0685      7.1615     55.1060
  2209.2500      0.0000    659.1159      7.0987     52.7378
  2209.5000      0.0000    638.2662      7.1515     51.8234
  2209.7500      0.0000    609.0768      7.2323     52.4849
  2210.0000      0.0000    584.0219      7.2249     54.1334
  2210.2500      0.0000    571.9402      7.0951     56.1404
  2210.5000      0.0000    576.2169      6.9194     58.2645
  2210.7500      0.0000    595.9879      6.8075     60.4107
  2211.0000      0.0000    625.9196      6.8142     62.2288
  2211.2500      0.0000    655.3578      6.9076     63.1101
  2211.5000      0.0000    671.1710      6.9962     62.5659
  2211.7500      0.0000    664.1371      7.0079     60.7360
  2212.0000      0.0000    634.0313      6.9669     58.6229
  2212.2500      0.0000    590.5485      6.9714     57.6027
  2212.5000      0.0000    550.0114      7.0804     58.4141
  2212.7500      0.0000    528.0352      7.2521     60.5757
  2213.0000      0.0000    530.9662      7.3961     62.7825
  2213.2500      0.0000    553.0881      7.4536     63.8373
  2213.5000      0.0000    582.7654      7.4334     63.4459
  2213.7500      0.0000    610.0173      7.4058     62.4684
  2214.0000      0.0000    627.2305      7.4475     62.3288
  2214.2500      0.0000    626.5526      7.5616     63.7783
  2214.5000      0.0000    601.9349      7.6614     66.2205
  2214.7500      0.0000    555.1669      7.6525     68.5490
  2215.0000      0.0000    498.0944      7.5273     70.4324
  2215.2500      0.0000    446.5318      7.3789     72.2612
  2215.5000      0.0000    410.7421      7.3185     74.0498
  2215.7500      0.0000    391.3735      7.3705     75.0967
  2216.0000      0.0000    383.1299      7.4559     74.8501
  2216.2500      0.0000    380.6951      7.4921     73.7103
  2216.5000      0.0000    381.8399      7.4886     72.8058
  2216.7500      0.0000    387.5849      7.5258     73.0725
  2217.0000      0.0000    400.8504      7.6550     74.5336
  2217.2500      0.0000    423.8037      7.8409     76.3405
  2217.5000      0.0000    454.4900      8.0027     77.3850
  2217.7500      0.0000    485.4453      8.0957     76.8459
  2218.0000      0.0000    506.3361      8.1315     74.4156
  2218.2500      0.0000    508.9327      8.1273     70.3871
  2218.5000      0.0000    490.9366      8.0787     65.6414
  2218.7500      0.0000    457.1992      7.9957     61.3444
  2219.0000      0.0000    417.9937      7.9341     58.4432
  2219.2500      0.0000    384.3160      7.9490     57.3325
  2219.5000      0.0000    362.9527      8.0124     57.8652
  2219.7500      0.0000    355.5517      8.0141     59.4725
  2220.0000      0.0000    361.4901      7.8708     61.2198
  2220.2500      0.0000    379.6510      7.6174     62.1092
  2220.5000      0.0000    406.3759      7.3753     61.9024
  2220.7500      0.0000    433.1472      7.2450     61.7534
  2221.0000      0.0000    449.1644      7.2366     63.5406
  2221.2500      0.0000    448.0025      7.2982     68.2137
  2221.5000      0.0000    431.7024      7.4030     74.8501
  2221.7500      0.0000    408.2242      7.5815     81.2757
  2222.0000      0.0000    385.5639      7.8538     85.3678
  2222.2500      0.0000    368.2344      8.1688     85.9524
  2222.5000      0.0000    357.5422      8.4506     83.1631
  2222.7500      0.0000    353.1544      8.6875     78.4089
  2223.0000      0.0000    353.7830      8.9479     73.8399
  2223.2500      0.0000    357.0352      9.3170     71.3335
  2223.5000      0.0000    359.6634      9.8260     71.5501
  2223.7500      0.0000    358.9742     10.4335     73.7540
  2224.0000      0.0000    354.2875     11.0675     76.4578
  2224.2500      0.0000    346.7418     11.6831     78.2809
  2224.5000      0.0000    337.7805     12.2827     78.5364
  2224.7500      0.0000    328.3563     12.8882     77.5226
  2225.0000      0.0000    319.3887     13.5028     76.4372
  2225.2500      0.0000    312.0382     14.1066     76.6324
  2225.5000      0.0000    307.1011     14.6742     78.4575
  2225.7500      0.0000    304.4638     15.1786     80.7460
  2226.0000      0.0000    303.3593     15.5854     81.7452
  2226.2500      0.0000    302.9996     15.8654     80.6924
  2226.5000      0.0000    302.9277     16.0117     78.3021
  2226.7500      0.0000    303.0196     16.0341     75.8320
  2227.0000      0.0000    303.3810     15.9414     74.1015
  2227.2500      0.0000    304.2894     15.7357     73.2687
  2227.5000      0.0000    306.0498     15.4244     73.0526
  2227.7500      0.0000    308.6410     15.0301     73.2469
  2228.0000      0.0000    311.4493     14.5749     74.3223
  2228.2500      0.0000    313.7578     14.0610     77.3048
  2228.5000      0.0000    315.8321     13.4811     82.6581
  2228.7500      0.0000    319.5032     12.8439     89.3950
  2229.0000      0.0000    327.6870     12.1831     95.5386
  2229.2500      0.0000    344.0909     11.5401     99.3772
  2229.5000      0.0000    373.1055     10.9391    100.4305
  2229.7500      0.0000    417.2607     10.3718     99.6858
  2230.0000      0.0000    472.4005      9.8137     98.9917
  2230.2500      0.0000    527.7455      9.2634     99.7480
  2230.5000      0.0000    574.7150      8.7555    101.8273
  2230.7500      0.0000    614.4818      8.3256    103.7936
  2231.0000      0.0000    653.0910      7.9767    104.1981
  2231.2500      0.0000    690.8174      7.6918    102.4787
  2231.5000      0.0000    720.7605      7.4605     98.6866
  2231.7500      0.0000    737.5976      7.2774     93.0469
  2232.0000      0.0000    744.2891      7.1363     86.1867
  2232.2500      0.0000    749.4182      7.0363     79.1693
  2232.5000      0.0000    759.4981      6.9636     72.6274
  2232.7500      0.0000    774.2433      6.8644     66.1354
  2233.0000      0.0000    788.1119      6.6815     58.9441
  2233.2500      0.0000    795.7471      6.4345     51.1181
  2233.5000      0.0000    796.4044      6.2156     43.5339
  2233.7500      0.0000    793.9190      6.0748     37.0220
  2234.0000      0.0000    792.4870      5.9469     32.0093
  2234.2500      0.0000    792.7852      5.7285     28.8124
  2234.5000      0.0000    792.0110      5.4087     27.7417
  2234.7500      0.0000    786.5222      5.0836     28.7979
  2235.0000      0.0000    774.2887      4.8455     31.4716
  2235.2500      0.0000    756.9155      4.6930     34.9494
  2235.5000      0.0000    740.6190      4.5678     38.4918
  2235.7500      0.0000    733.7627      4.4575     41.6633
  2236.0000      0.0000    741.5136      4.4227     44.3888
  2236.2500      0.0000    762.1271      4.5219     47.0289
  2236.5000      0.0000    787.8339      4.7488     50.3630
  2236.7500     -2.0000    809.2396      5.0651     55.0910
  2237.0000     -2.0000    819.7286      5.4755     61.0955
  2237.2500     -2.0000    816.3880      6.0634     67.3452
