~Version Information
VERS.                      2.0: CWLS Log ASCII Standard - VERSION 2.0
WRAP.                       NO: One line per depth step
~Well Information Block
STRT.FT               -19.2500: 
STOP.FT              2421.5000: 
STEP.FT                 0.2500: 
NULL.                -999.2500: 
COMP.          Petrogulf Corporation: COMPANY
WELL.           Montoya 13-41V: WELL
FLD.           Purgatorie River: FIELD
LOC.           449' FNL & 891' FEL: LOCATION
CNTY.               Las Animas: COUNTY
SRVC.                         : SERVICE COMPANY
DATE.          Mon Sep 13 13:48:36 2004: LOG DATE
UWI.                       N/A: UNIQUE WELL ID
STAT.                 Colorado: STATE
~Curve Information Block
DEPT.FT            0 000 00 00: Depth
TT3.usec                      : CBL 3' Travel Time
AMP3.mV                       : CBL 3' Amplitude
GR.GAPI                       : Gamma Ray
CCL.                          : Casing Collar Locator
~Parameter Information Block
~A  Depth       TT3         AMP3         GR         CCL     
# ...
  1756.2500    766.6143      1.7511    156.5661      0.0000
  1756.5000    767.9583      1.7511    158.7620      0.0000
  1756.7500    769.1841      1.7738    158.7685      0.0000
  1757.0000    769.8547      1.8292    158.5760      0.0000
  1757.2500    770.2225      1.9273    159.7303      0.0000
  1757.5000    770.5985      2.0596    161.9955      0.0000
  1757.7500    770.7305      2.1954    164.0666      0.0000
  1758.0000    770.5679      2.2995    165.2636      0.0000
  1758.2500    770.8707      2.3589    166.1490      0.0000
  1758.5000    772.5962      2.3983    167.6307      0.0000
  1758.7500    776.8111      2.4618    169.8650      0.0000
  1759.0000    784.7159      2.5794    172.2361      0.0000
  1759.2500    794.0326      2.7568    174.0782      0.0000
  1759.5000    795.9222      2.9973    174.9376      0.0000
  1759.7500    780.5651      3.3074    174.4268      0.0000
  1760.0000    741.7521      3.6791    172.4782      0.0000
  1760.2500    678.0192      4.0820    169.6273      0.0000
  1760.5000    604.9948      4.4757    166.5937      0.0000
  1760.7500    556.5176      4.8352    163.7605      0.0000
  1761.0000    557.5903      5.1540    161.1812      0.0000
  1761.2500    605.4653      5.4173    158.8643      0.0000
  1761.5000    673.8127      5.5932    157.0160      0.0000
  1761.7500    729.9308      5.6567    156.0585      0.0000
  1762.0000    758.6332      5.6192    156.1824      0.0000
  1762.2500    767.9096      5.5360    156.8033      0.0000
  1762.5000    770.5146      5.4538    156.8471      0.0000
  1762.7500    771.8615      5.3470    155.6810      0.0000
  1763.0000    775.5068      5.1511    153.6276      0.0000
  1763.2500    785.4291      4.8454    151.7810      0.0000
  1763.5000    798.6336      4.4700    151.4398      0.0000
  1763.7500    804.9182      4.0775    153.2648      0.0000
  1764.0000    798.9071      3.6966    156.6143      0.0000
  1764.2500    786.3270      3.3359    159.7896      0.0000
  1764.5000    774.6754      2.9978    161.2485      0.0000
  1764.7500    766.4932      2.6849    160.7563      0.0000
  1765.0000    762.8213      2.4021    159.3649      0.0000
  1765.2500    763.4730      2.1567    158.3478      0.0000
  1765.5000    765.0992      1.9584    158.2357      0.0000
  1765.7500    764.8768      1.8079    158.6915      0.0000
  1766.0000    763.1481      1.6931    158.9144      0.0000
  1766.2500    761.1990      1.6059    158.1239      0.0000
  1766.5000    759.6069      1.5473    156.0415      0.0000
  1766.7500    758.4584      1.5160    153.0712      0.0000
  1767.0000    757.5118      1.5077    149.9031      0.0000
  1767.2500    756.3809      1.5168    146.9427      0.0000
  1767.5000    755.0793      1.5382    144.1092      0.0000
  1767.7500    754.1469      1.5718    140.9069      0.0000
  1768.0000    753.8823      1.6189    136.5309      0.0000
  1768.2500    753.3871      1.6706    130.2079      0.0000
  1768.5000    750.6287      1.7162    121.9380      0.0000
  1768.7500    744.0867      1.7730    112.9521      0.0000
  1769.0000    735.6976      1.8900    105.1403      0.0000
  1769.2500    731.2913      2.0936     99.9077      0.0000
  1769.5000    733.8472      2.3409     97.6382      0.0000
  1769.7500    738.0244      2.5584     97.8676      0.0000
  1770.0000    735.6968      2.7145     99.4413      0.0000
  1770.2500    723.9976      2.8046    100.9057      0.0000
  1770.5000    707.4965      2.7801    101.7340      0.0000
  1770.7500    693.9397      2.5786    103.2537      0.0000
  1771.0000    687.0764      2.2277    107.6834      0.0000
  1771.2500    685.0433      1.8400    116.0606      0.0000
  1771.5000    684.1512      1.5199    127.2149      0.0000
  1771.7500    681.7307      1.3171    138.4886      0.0000
  1772.0000    677.7755      1.2312    147.2219      0.0000
  1772.2500    675.3052      1.2261    151.7908      0.0000
  1772.5000    676.8362      1.2601    151.8512      0.0000
  1772.7500    681.8707      1.3083    148.1666      0.0000
  1773.0000    690.2181      1.3692    142.1975      0.0000
  1773.2500    702.2743      1.4704    135.3429      0.0000
  1773.5000    713.1276      1.6403    128.3023      0.0000
  1773.7500    714.4504      1.8470    121.2649      0.0000
  1774.0000    705.6893      1.9987    114.7609      0.0000
  1774.2500    695.1301      2.0263    110.1877      0.0000
  1774.5000    688.9506      1.9350    109.2486      0.0000
  1774.7500    686.7426      1.7735    112.6752      0.0000
  1775.0000    686.2078      1.5952    119.4580      0.0000
  1775.2500    686.9050      1.4429    127.4347      0.0000
  1775.5000    690.3391      1.3376    134.7131      0.0000
  1775.7500    698.6826      1.2735    140.6431      0.0000
  1776.0000    712.3076      1.2327    145.3852      0.0000
  1776.2500    726.9941      1.2206    148.6296      0.0000
  1776.5000    736.1816      1.2610    149.3112      0.0000
  1776.7500    738.2933      1.3389    146.8890      0.0000
  1777.0000    738.6996      1.3935    142.4476      0.0000
  1777.2500    742.1961      1.3904    138.1531      0.0000
  1777.5000    747.4969      1.3556    135.7875      0.0000
  1777.7500    751.3617      1.3277    135.7114      0.0000
  1778.0000    753.1357      1.3151    136.9017      0.0000
  1778.2500    753.7622      1.3031    138.1749      0.0000
  1778.5000    753.9767      1.2742    139.7108      0.0000
  1778.7500    754.0866      1.2215    143.1148      0.0000
  1779.0000    754.1597      1.1584    149.5695      0.0000
  1779.2500    754.1636      1.1171    158.1477      0.0000
  1779.5000    754.2852      1.1256    166.1727      0.0000
  1779.7500    755.2181      1.1865    171.0751      0.0000
  1780.0000    757.8444      1.2771    171.8653      0.0000
  1780.2500    762.0436      1.3616    169.3026      0.0000
  1780.5000    765.0164      1.4091    165.1215      0.0000
  1780.7500    761.8502      1.4310    161.0351      0.0000
  1781.0000    751.6669      1.4850    158.0475      0.0000
  1781.2500    742.2026      1.6195    156.2973      0.0000
  1781.5000    740.8904      1.8445    155.3759      0.0000
  1781.7500    745.5662      2.1429    154.8628      0.0000
  1782.0000    752.0423      2.4498    154.6793      0.0000
  1782.2500    761.5535      2.6587    154.7794      0.0000
  1782.5000    777.2546      2.7486    154.4315      0.0000
  1782.7500    799.5630      2.8281    152.2575      0.0000
  1783.0000    821.2440      2.9561    147.4001      0.0000
  1783.2500    828.2596      3.0669    140.5126      0.0000
  1783.5000    812.6075      3.1039    133.4412     -1.7166
  1783.7500    783.1078      3.0736    128.2107     -3.8269
  1784.0000    758.5324      2.9680    126.2021      0.0000
  1784.2500    747.9614      2.7667    127.4701      0.0000
  1784.5000    744.3400      2.5363    130.5707      0.0000
  1784.7500    740.0745      2.3792    133.6616      0.0000
  1785.0000    737.4302      2.2811    136.0249      0.0000
  1785.2500    739.2152      2.1486    138.1161      0.0000
  1785.5000    740.7604      1.9521    140.1799      0.0000
  1785.7500    738.2764      1.7359    141.4992      0.0000
  1786.0000    736.3353      1.5430    141.3227      0.0000
  1786.2500    739.9843      1.3974    140.1144      0.0000
  1786.5000    746.9744      1.3115    139.5198      0.0000
  1786.7500    753.0389      1.2764    141.0328      0.0000
  1787.0000    757.4540      1.2787    144.5342      0.0000
  1787.2500    760.9323      1.3085    148.0038      0.0000
  1787.5000    763.4722      1.3373    148.8063      0.0000
  1787.7500    765.0818      1.3400    145.3668      0.0000
  1788.0000    766.2251      1.3373    137.6036      0.0000
  1788.2500    767.2392      1.3611    126.2338      0.0000
  1788.5000    767.9640      1.3971    112.5154      0.0000
  1788.7500    768.1291      1.4156     98.7474      0.0000
  1789.0000    767.9047      1.4213     88.2429      0.0000
  1789.2500    767.5867      1.4296     84.1161      0.0000
  1789.5000    766.9271      1.4305     87.7911      0.0000
