~Version Information
VERS.                      2.0: CWLS Log ASCII Standard - VERSION 2.0
WRAP.                       NO: One line per depth step
~Well Information Block
STRT.FT              2246.0000: 
STOP.FT              2472.6000: 
STEP.FT                 0.1000: 
NULL.                -999.2500: 
COMP.          Petrogulf Corporation: COMPANY
WELL.           Schedler 9-23V: WELL
FLD.           Purgatorie River: FIELD
LOC.           2185' FSL & 2328' FWL: LOCATION
CNTY.               Las Animas: COUNTY
SRVC.                         : SERVICE COMPANY
DATE.          Thu Jul 10 10:29:30 2003: LOG DATE
UWI.           05 071 07876 00: UNIQUE WELL ID
STAT.                 Colorado: STATE
~Curve Information Block
DEPT.FT            0 000 00 00: Depth
DCAL.in                       : CDL Caliper
RHOB.g/cc                     : CDL Bulk Density
RHOC.g/cc                     : CDL Density Correction
DPOR.pu                       : CDL Density Porosity
GR.GAPI                       : Gamma Ray
NPOR.pu                       : Neutron Porosity
~Parameter Information Block
~A  Depth       DCAL        RHOB        RHOC        DPOR         GR         NPOR    
# ...
  2351.6000      7.9802      2.6098      0.0707      2.4388     59.7049     19.8619
  2351.7000      7.9802      2.6092      0.0696      2.4733     59.3757     19.7414
  2351.8000      7.9788      2.6086      0.0692      2.5098     59.2166     19.6031
  2351.9000      7.9788      2.6080      0.0693      2.5474     59.2265     19.4478
  2352.0000      7.9735      2.6073      0.0699      2.5858     59.3902     19.2800
  2352.1000      7.9735      2.6067      0.0706      2.6249     59.6799     19.1067
  2352.2000      7.9735      2.6060      0.0714      2.6646     60.0571     18.9369
  2352.3000      7.9655      2.6054      0.0721      2.7052     60.4764     18.7791
  2352.4000      7.9655      2.6047      0.0725      2.7459     60.8902     18.6405
  2352.5000      7.9612      2.6040      0.0726      2.7861     61.2537     18.5260
  2352.6000      7.9612      2.6034      0.0724      2.8243     61.5311     18.4378
  2352.7000      7.9612      2.6028      0.0719      2.8589     61.6990     18.3744
  2352.8000      7.9622      2.6024      0.0712      2.8876     61.7505     18.3325
  2352.9000      7.9622      2.6020      0.0703      2.9082     61.6956     18.3064
  2353.0000      7.9667      2.6018      0.0696      2.9187     61.5569     18.2892
  2353.1000      7.9667      2.6019      0.0690      2.9173     61.3687     18.2737
  2353.2000      7.9667      2.6021      0.0687      2.9031     61.1686     18.2538
  2353.3000      7.9737      2.6025      0.0686      2.8760     60.9918     18.2245
  2353.4000      7.9737      2.6032      0.0689      2.8366     60.8652     18.1828
  2353.5000      7.9781      2.6040      0.0694      2.7867     60.8036     18.1282
  2353.6000      7.9781      2.6050      0.0699      2.7288     60.8111     18.0624
  2353.7000      7.9781      2.6060      0.0702      2.6662     60.8818     17.9889
  2353.8000      7.9791      2.6071      0.0704      2.6023     61.0047     17.9121
  2353.9000      7.9791      2.6081      0.0702      2.5407     61.1702     17.8367
  2354.0000      7.9795      2.6090      0.0696      2.4849     61.3695     17.7666
  2354.1000      7.9795      2.6098      0.0686      2.4375     61.6023     17.7049
  2354.2000      7.9795      2.6104      0.0674      2.4010     61.8711     17.6529
  2354.3000      7.9796      2.6108      0.0659      2.3767     62.1795     17.6097
  2354.4000      7.9796      2.6110      0.0643      2.3655     62.5287     17.5725
  2354.5000      7.9807      2.6109      0.0628      2.3673     62.9117     17.5376
  2354.6000      7.9807      2.6107      0.0615      2.3817     63.3173     17.4999
  2354.7000      7.9807      2.6103      0.0605      2.4076     63.7291     17.4556
  2354.8000      7.9814      2.6097      0.0598      2.4440     64.1293     17.4025
  2354.9000      7.9814      2.6089      0.0595      2.4896     64.5095     17.3422
  2355.0000      7.9799      2.6080      0.0594      2.5432     64.8706     17.2801
  2355.1000      7.9799      2.6070      0.0597      2.6040     65.2281     17.2262
  2355.2000      7.9799      2.6059      0.0601      2.6712     65.6115     17.1926
  2355.3000      7.9783      2.6047      0.0606      2.7442     66.0565     17.1932
  2355.4000      7.9783      2.6034      0.0611      2.8227     66.5991     17.2396
  2355.5000      7.9778      2.6021      0.0614      2.9060     67.2690     17.3400
  2355.6000      7.9778      2.6006      0.0615      2.9934     68.0807     17.4967
  2355.7000      7.9778      2.5991      0.0613      3.0835     69.0276     17.7051
  2355.8000      7.9769      2.5976      0.0608      3.1744     70.0874     17.9546
  2355.9000      7.9769      2.5962      0.0601      3.2633     71.2168     18.2293
  2356.0000      7.9764      2.5948      0.0591      3.3466     72.3609     18.5101
  2356.1000      7.9764      2.5936      0.0582      3.4201     73.4581     18.7772
  2356.2000      7.9764      2.5926      0.0576      3.4790     74.4469     19.0130
  2356.3000      7.9757      2.5919      0.0576      3.5187     75.2722     19.2035
  2356.4000      7.9757      2.5917      0.0584      3.5350     75.8908     19.3405
  2356.5000      7.9735      2.5918      0.0604      3.5249     76.2757     19.4219
  2356.6000      7.9735      2.5925      0.0638      3.4868     76.4186     19.4514
  2356.7000      7.9735      2.5936      0.0685      3.4212     76.3268     19.4374
  2356.8000      7.9722      2.5950      0.0743      3.3308     76.0226     19.3916
  2356.9000      7.9722      2.5969      0.0811      3.2205     75.5367     19.3267
  2357.0000      7.9743      2.5989      0.0884      3.0972     74.9027     19.2543
  2357.1000      7.9743      2.6010      0.0955      2.9690     74.1505     19.1833
  2357.2000      7.9743      2.6031      0.1019      2.8449     73.3015     19.1183
  2357.3000      7.9769      2.6049      0.1072      2.7338     72.3686     19.0583
  2357.4000      7.9769      2.6064      0.1109      2.6435     71.3564     18.9981
  2357.5000      7.9782      2.6074      0.1126      2.5804     70.2684     18.9278
  2357.6000      7.9782      2.6079      0.1124      2.5485     69.1098     18.8364
  2357.7000      7.9782      2.6079      0.1104      2.5496     67.8971     18.7133
  2357.8000      7.9812      2.6074      0.1067      2.5825     66.6587     18.5512
  2357.9000      7.9812      2.6064      0.1017      2.6441     65.4363     18.3492
  2358.0000      7.9902      2.6050      0.0960      2.7293     64.2805     18.1131
  2358.1000      7.9902      2.6033      0.0899      2.8318     63.2445     17.8559
  2358.2000      7.9902      2.6014      0.0840      2.9452     62.3722     17.5953
  2358.3000      8.0025      2.5995      0.0786      3.0632     61.6962     17.3515
  2358.4000      8.0025      2.5975      0.0740      3.1809     61.2268     17.1432
  2358.5000      8.0090      2.5956      0.0704      3.2951     60.9536     16.9847
  2358.6000      8.0090      2.5938      0.0679      3.4050     60.8480     16.8837
  2358.7000      8.0090      2.5921      0.0663      3.5120     60.8673     16.8407
  2358.8000      8.0108      2.5903      0.0657      3.6199     60.9663     16.8502
  2358.9000      8.0108      2.5884      0.0657      3.7346     61.1081     16.9018
  2359.0000      8.0114      2.5863      0.0660      3.8633     61.2720     16.9841
  2359.1000      8.0114      2.5838      0.0665      4.0139     61.4612     17.0871
  2359.2000      8.0114      2.5808      0.0669      4.1944     61.7048     17.2049
  2359.3000      8.0114      2.5772      0.0668      4.4116     62.0554     17.3372
  2359.4000      8.0114      2.5729      0.0662      4.6706     62.5816     17.4895
  2359.5000      8.0118      2.5679      0.0650      4.9741     63.3577     17.6721
  2359.6000      8.0118      2.5622      0.0631      5.3219     64.4468     17.8987
  2359.7000      8.0118      2.5558      0.0607      5.7107     65.8902     18.1828
  2359.8000      8.0123      2.5488      0.0580      6.1350     67.6950     18.5359
  2359.9000      8.0123      2.5413      0.0555      6.5866     69.8290     18.9651
  2360.0000      8.0126      2.5336      0.0534      7.0561     72.2237     19.4704
  2360.1000      8.0126      2.5257      0.0520      7.5342     74.7803     20.0454
  2360.2000      8.0126      2.5178      0.0517      8.0122     77.3827     20.6764
  2360.3000      8.0143      2.5100      0.0526      8.4840     79.9157     21.3445
  2360.4000      8.0143      2.5024      0.0547      8.9469     82.2805     22.0281
  2360.5000      8.0186      2.4949      0.0578      9.4028     84.4050     22.7055
  2360.6000      8.0186      2.4873      0.0617      9.8590     86.2521     23.3575
  2360.7000      8.0186      2.4796      0.0663     10.3289     87.8164     23.9698
  2360.8000      8.0243      2.4713      0.0711     10.8319     89.1181     24.5341
  2360.9000      8.0243      2.4620      0.0758     11.3928     90.1903     25.0475
  2361.0000      8.0279      2.4513      0.0804     12.0415     91.0668     25.5121
  2361.1000      8.0279      2.4386      0.0844     12.8109     91.7698     25.9329
