~Version Information
VERS.                      2.0: CWLS Log ASCII Standard - VERSION 2.0
WRAP.                       NO: One line per depth step
~Well Information Block
STRT.FT               545.0000: 
STOP.FT              1920.5000: 
STEP.FT                 0.1000: 
NULL.                -999.2500: 
COMP.          Pioneer Natural Resources: COMPANY
WELL.            Summers 21-19: WELL
FLD.           Purgatoire River: FIELD
LOC.           900' FNL & 1950' FWL: LOCATION
PROV.                 Colorado: PROVINCE
CNTY.               Las Animas: COUNTRY
SRVC.                Patterson: SERVICE COMPANY
DATE.          Mon Oct 17 07:05:22 2005: LOG DATE
UWI.           05 071 08315 00: UNIQUE WELL ID
~Curve Information Block
DEPT.FT            0 000 00 00: Depth
DCAL.in                       : CDL Caliper
RHOB.g/cc                     : CDL Bulk Density
RHOC.g/cc                     : CDL Density Correction
DPOR.pu                       : CDL Density Porosity
GR.GAPI                       : Gamma Ray
NPOR.pu                       : Neutron Porosity
~Parameter Information Block
~A  Depth       DCAL        RHOB        RHOC        DPOR         GR         NPOR    
# ...
  1821.8000      7.9747      2.4351      0.0301     13.0258     69.8222     22.0376
  1821.9000      7.9747      2.4352     -0.0041     13.0166     70.3492     22.3656
  1822.0000      7.9722      2.4383      0.0214     12.8293     71.6394     22.0821
  1822.1000      7.9722      2.4357      0.0443     12.9874     72.5197     21.7379
  1822.2000      7.9722      2.4200      0.0472     13.9399     70.8249     21.9627
  1822.3000      7.9736      2.4056     -0.0233     14.8117     69.0587     22.6955
  1822.4000      7.9736      2.4160     -0.0153     14.1842     70.9328     23.3588
  1822.5000      7.9742      2.4433      0.0354     12.5271     74.9969     23.1263
  1822.6000      7.9742      2.4642      0.0457     11.2608     78.5288     21.9785
  1822.7000      7.9742      2.4732      0.0456     10.7164     80.1795     21.2688
  1822.8000      7.9798      2.4790      0.0250     10.3647     79.6718     21.4978
  1822.9000      7.9798      2.4843      0.0749     10.0401     76.2925     21.4792
  1823.0000      7.9817      2.4786      0.0729     10.3855     69.6598     20.5660
  1823.1000      7.9817      2.4548      0.0603     11.8276     64.1780     19.5551
  1823.2000      7.9817      2.4252     -0.0045     13.6254     66.1689     19.4824
  1823.3000      7.9794      2.4129     -0.0218     14.3688     76.3278     20.2637
  1823.4000      7.9794      2.4207     -0.0021     13.8950     86.5475     21.0389
  1823.5000      7.9747      2.4263      0.0536     13.5604     89.9037     21.2033
  1823.6000      7.9747      2.4206      0.0086     13.9037     87.7712     20.4618
  1823.7000      7.9747      2.4158     -0.0244     14.1952     82.5071     19.3549
  1823.8000      7.9753      2.4146      0.0055     14.2643     78.4148     19.0502
  1823.9000      7.9753      2.4139      0.0022     14.3120     78.6175     19.8688
  1824.0000      7.9777      2.4191     -0.0040     13.9966     80.3021     21.1961
  1824.1000      7.9777      2.4301      0.0403     13.3285     79.5523     22.2490
  1824.2000      7.9777      2.4313      0.0252     13.2556     77.0114     22.7188
  1824.3000      7.9748      2.4170      0.0208     14.1240     77.4036     22.5670
  1824.4000      7.9748      2.3979      0.0244     15.2762     82.0130     22.1451
  1824.5000      7.9768      2.3902     -0.0317     15.7483     82.8875     21.8238
  1824.6000      7.9768      2.4023      0.0171     15.0149     75.3919     21.7824
  1824.7000      7.9768      2.4196      0.0512     13.9663     67.1619     22.0534
  1824.8000      7.9758      2.4248      0.0386     13.6487     64.2592     22.6312
  1824.9000      7.9758      2.4259      0.0245     13.5806     64.3855     23.5135
  1825.0000      7.9816      2.4385      0.0184     12.8176     62.7944     24.2731
  1825.1000      7.9816      2.4522      0.1068     11.9883     58.8933     24.3881
  1825.2000      7.9816      2.4480      0.0525     12.2394     58.8022     23.8590
  1825.3000      7.9773      2.4370      0.0253     12.9069     65.1507     23.1394
  1825.4000      7.9773      2.4363      0.0305     12.9501     72.4427     22.6842
  1825.5000      7.9805      2.4375      0.0413     12.8799     76.6819     22.5786
  1825.6000      7.9805      2.4267      0.0159     13.5313     79.4797     22.8067
  1825.7000      7.9805      2.4084      0.0019     14.6417     82.4549     23.4484
  1825.8000      7.9948      2.3915      0.0478     15.6637     81.6769     23.8903
  1825.9000      7.9948      2.3779     -0.0088     16.4883     76.3969     23.8495
  1826.0000      7.9809      2.3765     -0.0439     16.5768     72.7119     23.7160
  1826.1000      7.9809      2.3914      0.0310     15.6746     72.3891     23.7857
  1826.2000      7.9809      2.4132     -0.0272     14.3529     72.6725     24.4251
  1826.3000      7.9760      2.4404      0.0219     12.7026     72.3242     25.3764
  1826.4000      7.9760      2.4717      0.0729     10.8056     71.7247     25.6834
  1826.5000      7.9745      2.4977      0.0831      9.2311     71.2897     25.0623
  1826.6000      7.9745      2.5119      0.0905      8.3693     71.7637     23.9815
  1826.7000      7.9745      2.5126      0.0590      8.3249     70.7653     22.9372
  1826.8000      7.9701      2.4976      0.0721      9.2338     66.4356     22.6141
  1826.9000      7.9701      2.4710      0.0525     10.8514     66.4388     23.4399
  1827.0000      7.9711      2.4476     -0.0149     12.2658     75.8086     24.4368
  1827.1000      7.9711      2.4386      0.0242     12.8119     86.2133     24.3844
  1827.2000      7.9711      2.4449     -0.0186     12.4286     89.5150     22.9725
  1827.3000      7.9730      2.4608      0.0464     11.4688     85.9633     20.8231
  1827.4000      7.9730      2.4721      0.0447     10.7803     79.2469     19.3239
  1827.5000      7.9691      2.4764      0.0195     10.5205     74.1917     19.3555
  1827.6000      7.9691      2.4808      0.0271     10.2518     73.1990     20.7929
  1827.7000      7.9691      2.4776      0.0286     10.4514     74.6232     22.6005
  1827.8000      7.9709      2.4616     -0.0105     11.4195     74.1062     23.2619
  1827.9000      7.9709      2.4457     -0.0041     12.3820     72.1214     22.3449
  1828.0000      7.9685      2.4349      0.0295     13.0382     73.5732     21.2293
  1828.1000      7.9685      2.4210     -0.0236     13.8816     76.4093     21.1028
  1828.2000      7.9685      2.4082     -0.0304     14.6539     76.5820     21.6523
  1828.3000      7.9639      2.4150     -0.0055     14.2412     74.3355     21.8441
  1828.4000      7.9639      2.4416      0.0381     12.6293     73.7969     21.0934
  1828.5000      7.9580      2.4647      0.0507     11.2329     78.4001     19.8422
  1828.6000      7.9580      2.4673      0.0607     11.0741     82.9804     19.0818
  1828.7000      7.9580      2.4515      0.0464     12.0332     82.4087     18.9885
  1828.8000      7.9487      2.4338      0.0400     13.1002     79.8743     18.8422
  1828.9000      7.9487      2.4331      0.0493     13.1426     77.9285     18.1852
  1829.0000      7.9473      2.4514      0.0453     12.0390     74.4922     17.3949
  1829.1000      7.9473      2.4791      0.0312     10.3589     69.3210     16.8538
  1829.2000      7.9473      2.5100      0.0651      8.4843     65.7604     16.3132
  1829.3000      7.9212      2.5391      0.0758      6.7201     65.9244     15.8951
  1829.4000      7.9212      2.5547      0.1175      5.7742     68.6336     15.8831
  1829.5000      7.9052      2.5525      0.1016      5.9072     71.0272     15.8989
  1829.6000      7.9052      2.5463      0.0929      6.2850     70.5465     15.6788
  1829.7000      7.9052      2.5465      0.0513      6.2731     68.1338     15.8100
  1829.8000      7.9022      2.5520      0.0448      5.9382     66.2236     16.3929
  1829.9000      7.9022      2.5585      0.0161      5.5479     63.9359     15.9440
  1830.0000      7.8836      2.5632     -0.0045      5.2590     61.2369     13.8130
  1830.1000      7.8836      2.5702      0.0147      4.8393     61.5267     11.9681
  1830.2000      7.8836      2.5807      0.0317      4.2001     64.2699     11.8779
  1830.3000      7.9051      2.5828      0.0791      4.0757     65.7792     12.7429
  1830.4000      7.9051      2.5673      0.0371      5.0143     65.4804     13.2113
  1830.5000      7.8926      2.5427      0.0495      6.5007     66.4556     13.1039
  1830.6000      7.8926      2.5226      0.0547      7.7234     70.7574     12.7506
  1830.7000      7.8926      2.5126      0.0382      8.3254     76.5504     12.3809
  1830.8000      7.8803      2.5076      0.0617      8.6279     78.9179     12.0018
  1830.9000      7.8803      2.4943      0.0332      9.4380     76.2095     11.5877
  1831.0000      7.8551      2.4698     -0.0004     10.9190     74.5454     11.4923
  1831.1000      7.8551      2.4505     -0.0527     12.0883     76.1385     12.0600
  1831.2000      7.8551      2.4468     -0.0010     12.3167     76.0336     13.2652
  1831.3000      7.8585      2.4465      0.0417     12.3331     72.9508     14.5245
