~Version Information
VERS.                      2.0: CWLS Log ASCII Standard - VERSION 2.0
WRAP.                       NO: One line per depth step
~Well Information Block
STRT.FT                 0.0000: 
STOP.FT              2159.0000: 
STEP.FT                 0.2500: 
NULL.                -999.2500: 
COMP.          Petrogulf Corporation: COMPANY
WELL.               Furu 6-23R: WELL
FLD.           Purgatoire River: FIELD
LOC.           2211' FSL & 1780' FWL: LOCATION
CNTY.               Las Animas: COUNTY
SRVC.                         : SERVICE COMPANY
DATE.          Fri Jul 14 16:00:32 2006: LOG DATE
UWI.           05 071 08266 00: UNIQUE WELL ID
STAT.                       CO: STATE
~Curve Information Block
DEPT.FT            0 000 00 00: Depth
GR.GAPI                       : Gamma Ray
CCL.                          : Casing Collar Locator
TT3.usec                      : CBL 3' Travel Time
AMP3.mV                       : CBL 3' Amplitude
~Parameter Information Block
~A  Depth        GR         CCL         TT3         AMP3    
# ...
  1541.0000    131.1972      0.0000    256.9246     75.1789
  1541.2500    132.6820      0.0000    256.9671     75.0224
  1541.5000    134.7323      0.0000    257.0046     74.8959
  1541.7500    136.1414      0.0000    257.0312     74.8217
  1542.0000    136.7203      0.0000    257.0485     74.8019
  1542.2500    137.5131      0.0000    257.0599     74.8243
  1542.5000    139.9484      0.0000    257.0682     74.8716
  1542.7500    144.3323      0.0000    257.0765     74.9267
  1543.0000    149.3333      0.0000    257.0871     74.9751
  1543.2500    153.5375      0.0000    257.1004     75.0053
  1543.5000    157.1337      0.0000    257.1149     75.0094
  1543.7500    161.0205      0.0000    257.1269     74.9845
  1544.0000    164.4384      0.0000    257.1317     74.9337
  1544.2500    164.7579      0.0000    257.1280     74.8650
  1544.5000    159.9744      0.0000    257.1186     74.7881
  1544.7500    150.5487      0.0000    257.1088     74.7113
  1545.0000    138.7122      0.0000    257.1013     74.6391
  1545.2500    127.1764      0.0000    257.0962     74.5722
  1545.5000    118.8514      0.0000    257.0930     74.5087
  1545.7500    116.3718      0.0000    257.0924     74.4465
  1546.0000    120.6114      0.0000    257.0952     74.3852
  1546.2500    129.7079      0.0000    257.1022     74.3279
  1546.5000    140.0506      0.0000    257.1151     74.2837
  1546.7500    148.4429      0.0000    257.1349     74.2688
  1547.0000    153.6670      0.0000    257.1598     74.3067
  1547.2500    156.7572      0.0000    257.1843     74.4258
  1547.5000    160.0250      0.0000    257.2016     74.6520
  1547.7500    165.1924      0.0000    257.2047     74.9986
  1548.0000    171.8966      0.0000    257.1883     75.4557
  1548.2500    178.0410      0.0000    257.1534     75.9861
  1548.5000    181.6289      0.0000    257.1103     76.5318
  1548.7500    182.1295      0.0000    257.0739     77.0306
  1549.0000    180.4630      0.0000    257.0534     77.4368
  1549.2500    178.2465      0.0000    257.0453     77.7360
  1549.5000    176.9922      0.0000    257.0387     77.9473
  1549.7500    177.3846      0.0000    257.0250     78.1160
  1550.0000    178.7148      0.0000    257.0031     78.2990
  1550.2500    179.1499      0.0000    256.9770     78.5507
  1550.5000    177.4466      0.0000    256.9519     78.9093
  1550.7500    174.4642      0.0000    256.9299     79.3862
  1551.0000    172.0605      0.0000    256.9089     79.9594
  1551.2500    170.6234      0.0000    256.8856     80.5765
  1551.5000    168.7953      0.0000    256.8595     81.1684
  1551.7500    165.6242      0.0000    256.8342     81.6717
  1552.0000    161.9984      0.0000    256.8140     82.0478
  1552.2500    159.8585      0.0000    256.8003     82.2911
  1552.5000    160.4344      0.0000    256.7915     82.4218
  1552.7500    163.0493      0.0000    256.7868     82.4684
  1553.0000    165.2463      0.0000    256.7867     82.4509
  1553.2500    164.1933      0.0000    256.7914     82.3740
  1553.5000    158.4472      0.0000    256.7991     82.2328
  1553.7500    148.8748      0.0000    256.8088     82.0242
  1554.0000    138.3287      0.0000    256.8246     81.7574
  1554.2500    130.3072      0.0000    256.8519     81.4552
  1554.5000    126.9020      0.0000    256.8905     81.1492
  1554.7500    127.0211      0.0000    256.9305     80.8693
  1555.0000    126.8553      0.0000    256.9585     80.6344
  1555.2500    122.8935      0.0000    256.9692     80.4476
  1555.5000    114.5509      0.0000    256.9702     80.2989
  1555.7500    103.8196      0.0000    256.9730     80.1736
  1556.0000     93.1402      0.0000    256.9830     80.0642
  1556.2500     84.1845      0.0000    256.9983     79.9772
  1556.5000     77.8409      0.0000    257.0137     79.9323
  1556.7500     74.3460      0.0000    257.0223     79.9518
  1557.0000     73.6007      0.0000    257.0162     80.0467
  1557.2500     75.9337      0.0000    256.9923     80.2070
  1557.5000     82.3831      0.0000    256.9567     80.4021
  1557.7500     93.5823      0.0000    256.9214     80.5911
  1558.0000    108.2213      0.0000    256.8962     80.7372
  1558.2500    123.0213      0.0000    256.8832     80.8191
  1558.5000    134.5944      0.0000    256.8808     80.8369
  1558.7500    141.5670      0.0000    256.8862     80.8099
  1559.0000    145.3060      0.0000    256.8928     80.7706
  1559.2500    148.7495      0.0000    256.8908     80.7531
  1559.5000    154.1191      0.0000    256.8749     80.7807
  1559.7500    161.3081      0.0000    256.8494     80.8555
  1560.0000    168.2801      0.0000    256.8237     80.9583
  1560.2500    172.8919      0.0000    256.8054     81.0604
  1560.5000    174.6291      0.0000    256.7963     81.1439
  1560.7500    175.2858      0.0000    256.7935     81.2154
  1561.0000    177.9482      0.0000    256.7908     81.3054
  1561.2500    184.5983      0.0000    256.7819     81.4493
  1561.5000    194.2456      0.0000    256.7645     81.6644
  1561.7500    203.3428      0.0000    256.7418     81.9361
  1562.0000    208.1022      0.0000    256.7174     82.2199
  1562.2500    206.7011      0.0000    256.6930     82.4573
  1562.5000    199.8272      0.0000    256.6749     82.5946
  1562.7500    189.7700      0.0000    256.6773     82.5981
  1563.0000    179.3657      0.0000    256.7130     82.4646
  1563.2500    171.4538      0.0000    256.7788     82.2252
  1563.5000    168.1716      0.0000    256.8568     81.9412
  1563.7500    169.6890      0.0000    256.9245     81.6880
  1564.0000    173.7679      0.0000    256.9625     81.5279
  1564.2500    177.5260      0.0000    256.9607     81.4837
  1564.5000    179.8666      0.0000    256.9285     81.5293
  1564.7500    181.4866      0.0000    256.8951     81.6033
  1565.0000    182.5333      0.0000    256.8895     81.6407
  1565.2500    181.6083      0.0000    256.9177     81.6048
  1565.5000    177.9121      0.0000    256.9640     81.5016
  1565.7500    173.3704      0.0000    257.0081     81.3708
  1566.0000    171.2503      0.0000    257.0383     81.2604
  1566.2500    172.7876      0.0000    257.0518     81.2012
  1566.5000    176.1376      0.0000    257.0544     81.1918
  1566.7500    178.4924      0.0000    257.0564     81.2027
  1567.0000    178.2539      0.0000    257.0634     81.1918
  1567.2500    175.1078      0.0000    257.0736     81.1235
  1567.5000    169.3445      0.0000    257.0828     80.9831
  1567.7500    162.1059      0.0000    257.0909     80.7812
  1568.0000    155.4774      0.0000    257.1001     80.5501
  1568.2500    151.1242      0.0000    257.1118     80.3337
  1568.5000    149.1257      0.0000    257.1250     80.1752
  1568.7500    148.5997      0.0000    257.1382     80.1037
  1569.0000    148.7241      0.0000    257.1490     80.1245
  1569.2500    148.7376      0.0000    257.1549     80.2160
  1569.5000    147.7245      0.0000    257.1555     80.3372
  1569.7500    145.1823      0.0000    257.1549     80.4429
  1570.0000    141.7865      0.0000    257.1586     80.5019
  1570.2500    139.0871      0.0000    257.1686     80.5071
  1570.5000    138.1577      0.0000    257.1811     80.4747
  1570.7500    138.5794      0.0000    257.1884     80.4263
  1571.0000    138.8370      0.0000    257.1853     80.3646
  1571.2500    137.6455      0.0000    257.1810     80.2434
  1571.5000    135.0345      0.0000    257.2134     79.9457
  1571.7500    132.3895      0.0000    257.4327     79.2738
  1572.0000    131.4426      0.0000    258.2686     77.9652
  1572.2500    132.9588      0.0000    260.6231     75.7460
  1572.5000    136.3033      0.0000    265.6278     72.4214
  1572.7500    140.1040      0.0000    273.5239     67.9793
  1573.0000    143.0388      0.0000    282.3686     62.6594
  1573.2500    144.1548      0.0000    288.4948     56.9392
  1573.5000    142.9851      0.0000    289.1571     51.4198
  1573.7500    139.6152      0.0000    284.7149     46.6560
  1574.0000    134.4240      0.0000    277.9727     43.0097
  1574.2500    127.7325      0.0000    271.8131     40.5948
