~Version Information
VERS.                      2.0: CWLS Log ASCII Standard - VERSION 2.0
WRAP.                       NO: One line per depth step
~Well Information Block
STRT.FT               850.0000: 
STOP.FT              1609.7000: 
STEP.FT                 0.1000: 
NULL.                -999.2500: 
COMP.          Petrogulf Corporation: COMPANY
WELL.          Great Plains 22-21R: WELL
FLD.           Purgatorie River: FIELD
LOC.           73' FNL & 1992' FWL: LOCATION
PROV.                 Colorado: PROVINCE
CNTY.               Las Animas: COUNTRY
SRVC.                Patterson: SERVICE COMPANY
DATE.          Wed Sep 14 12:10:29 2005: LOG DATE
UWI.                          : UNIQUE WELL ID
~Curve Information Block
DEPT.FT            0 000 00 00: Depth
NPOR.pu                       : Neutron Porosity
GR.GAPI                       : Gamma Ray
CCL.                          : Casing Collar Locator
~Parameter Information Block
~A  Depth       NPOR         GR         CCL     
# ...
  1334.3000     19.7528     75.0224      0.0000
  1334.4000     19.7528     75.0224      0.0000
  1334.5000     20.1131     79.9273      0.0000
  1334.6000     20.1131     79.9273      0.0000
  1334.7000     20.1131     79.9273      0.0000
  1334.8000     20.7301     85.2568      0.0000
  1334.9000     20.7301     85.2568      0.0000
  1335.0000     21.4229     90.7226      0.0000
  1335.1000     21.4229     90.7226      0.0000
  1335.2000     21.4229     90.7226      0.0000
  1335.3000     21.9597     96.1148      0.0000
  1335.4000     21.9597     96.1148      0.0000
  1335.5000     22.1925    100.7323      0.0000
  1335.6000     22.1925    100.7323      0.0000
  1335.7000     22.1925    100.7323      0.0000
  1335.8000     22.1406    103.4705      0.0000
  1335.9000     22.1406    103.4705      0.0000
  1336.0000     21.9422    103.7811      0.0000
  1336.1000     21.9422    103.7811      0.0000
  1336.2000     21.9422    103.7811      0.0000
  1336.3000     21.7502    102.6679      0.0000
  1336.4000     21.7502    102.6679      0.0000
  1336.5000     21.6758    102.4919      0.0000
  1336.6000     21.6758    102.4919      0.0000
  1336.7000     21.6758    102.4919      0.0000
  1336.8000     21.7895    105.4116      0.0000
  1336.9000     21.7895    105.4116      0.0000
  1337.0000     22.1229    111.8189      0.0000
  1337.1000     22.1229    111.8189      0.0000
  1337.2000     22.1229    111.8189      0.0000
  1337.3000     22.6473    120.3148      0.0000
  1337.4000     22.6473    120.3148      0.0000
  1337.5000     23.2718    129.1214      0.0000
  1337.6000     23.2718    129.1214      0.0000
  1337.7000     23.2718    129.1214      0.0000
  1337.8000     23.8913    137.3712      0.0000
  1337.9000     23.8913    137.3712      0.0000
  1338.0000     24.4469    145.0610      0.0000
  1338.1000     24.4469    145.0610      0.0000
  1338.2000     24.4469    145.0610      0.0000
  1338.3000     24.9402    152.1458      0.0000
  1338.4000     24.9402    152.1458      0.0000
  1338.5000     25.3941    157.9756      0.0000
  1338.6000     25.3941    157.9756      0.0000
  1338.7000     25.3941    157.9756      0.0000
  1338.8000     25.8077    161.6315      0.0000
  1338.9000     25.8077    161.6315      0.0000
  1339.0000     26.1471    162.7158      0.0000
  1339.1000     26.1471    162.7158      0.0000
  1339.2000     26.1471    162.7158      0.0000
  1339.3000     26.3638    161.6662      0.0000
  1339.4000     26.3638    161.6662      0.0000
  1339.5000     26.4163    159.3269      0.0000
  1339.6000     26.4163    159.3269      0.0000
  1339.7000     26.4163    159.3269      0.0000
  1339.8000     26.2834    156.4565      0.0000
  1339.9000     26.2834    156.4565      0.0000
  1340.0000     25.9694    153.4915      0.0000
  1340.1000     25.9694    153.4915      0.0000
  1340.2000     25.9694    153.4915      0.0000
  1340.3000     25.5010    150.2791      0.0000
  1340.4000     25.5010    150.2791      0.0000
  1340.5000     24.9221    146.0603      0.0000
  1340.6000     24.9221    146.0603      0.0000
  1340.7000     24.9221    146.0603      0.0000
  1340.8000     24.2906    140.2105      0.0000
  1340.9000     24.2906    140.2105      0.0000
  1341.0000     23.6742    133.0752      0.0000
  1341.1000     23.6742    133.0752      0.0000
  1341.2000     23.6742    133.0752      0.0000
  1341.3000     23.1452    125.7571      0.0000
  1341.4000     23.1452    125.7571      0.0000
  1341.5000     22.7688    119.1259      0.0000
  1341.6000     22.7688    119.1259      0.0000
  1341.7000     22.7688    119.1259      0.0000
  1341.8000     22.5765    113.3818      0.0000
  1341.9000     22.5765    113.3818      0.0000
  1342.0000     22.5417    108.4398      0.0000
  1342.1000     22.5417    108.4398      0.0000
  1342.2000     22.5417    108.4398      0.0000
  1342.3000     22.5914    104.2584      0.0000
  1342.4000     22.5914    104.2584      0.0000
  1342.5000     22.6537    100.7906      0.0000
  1342.6000     22.6537    100.7906      0.0000
  1342.7000     22.6537    100.7906      0.0000
  1342.8000     22.6969     98.1523      0.0000
  1342.9000     22.6969     98.1523      0.0000
  1343.0000     22.7228     96.9806      0.0000
  1343.1000     22.7228     96.9806      0.0000
  1343.2000     22.7228     96.9806      0.0000
  1343.3000     22.7473     98.0470      0.0000
  1343.4000     22.7473     98.0470      0.0000
  1343.5000     22.8110    101.2482      0.0000
  1343.6000     22.8110    101.2482      0.0000
  1343.7000     22.8110    101.2482      0.0000
  1343.8000     22.9819    105.4754      0.0000
  1343.9000     22.9819    105.4754      0.0000
  1344.0000     23.3010    109.7538      0.0000
  1344.1000     23.3010    109.7538      0.0000
  1344.2000     23.3010    109.7538      0.0000
  1344.3000     23.7220    114.0622      0.0000
  1344.4000     23.7220    114.0622      0.0000
  1344.5000     24.1338    118.8568      0.0000
  1344.6000     24.1338    118.8568      0.0000
  1344.7000     24.1338    118.8568      0.0000
  1344.8000     24.4497    124.2106      0.0000
  1344.9000     24.4497    124.2106      0.0000
  1345.0000     24.6503    129.5730      0.0000
  1345.1000     24.6503    129.5730      0.0000
  1345.2000     24.6503    129.5730      0.0000
  1345.3000     24.7438    134.1112      0.0000
  1345.4000     24.7438    134.1112      0.0000
  1345.5000     24.7175    137.1455      0.0000
  1345.6000     24.7175    137.1455      0.0000
  1345.7000     24.7175    137.1455      0.0000
  1345.8000     24.5514    138.2133      0.0000
  1345.9000     24.5514    138.2133      0.0000
  1346.0000     24.2562    136.8129      0.0000
  1346.1000     24.2562    136.8129      0.0000
  1346.2000     24.2562    136.8129      0.0000
  1346.3000     23.8631    132.5467      0.0000
  1346.4000     23.8631    132.5467      0.0000
  1346.5000     23.3889    125.7626      0.0000
  1346.6000     23.3889    125.7626      0.0000
  1346.7000     23.3889    125.7626      0.0000
  1346.8000     22.8546    117.7548      0.0000
  1346.9000     22.8546    117.7548      0.0000
  1347.0000     22.3470    110.1925      0.0000
  1347.1000     22.3470    110.1925      0.0000
  1347.2000     22.3470    110.1925      0.0000
  1347.3000     22.0214    104.5801      0.0000
  1347.4000     22.0214    104.5801      0.0000
  1347.5000     22.0283    102.0610      0.0000
  1347.6000     22.0283    102.0610      0.0000
  1347.7000     22.0283    102.0610      0.0000
  1347.8000     22.4304    103.0904      0.0000
  1347.9000     22.4304    103.0904      0.0000
  1348.0000     23.1561    107.1259      0.0000
  1348.1000     23.1561    107.1259      0.0000
  1348.2000     23.1561    107.1259      0.0000
  1348.3000     24.0069    112.9314      0.0000
  1348.4000     24.0069    112.9314      0.0000
  1348.5000     24.7457    119.2730      0.0000
  1348.6000     24.7457    119.2730      0.0000
  1348.7000     24.7457    119.2730      0.0000
  1348.8000     25.2332    125.2316      0.0000
  1348.9000     25.2332    125.2316      0.0000
  1349.0000     25.4926    130.1218      0.0000
  1349.1000     25.4926    130.1218      0.0000
  1349.2000     25.4926    130.1218      0.0000
  1349.3000     25.6438    133.4628      0.0000
  1349.4000     25.6438    133.4628      0.0000
  1349.5000     25.7833    135.1131      0.0000
  1349.6000     25.7833    135.1131      0.0000
  1349.7000     25.7833    135.1131      0.0000
  1349.8000     25.9162    135.4684      0.0000
  1349.9000     25.9162    135.4684      0.0000
  1350.0000     25.9856    135.5723      0.0000
  1350.1000     25.9856    135.5723      0.0000
  1350.2000     25.9856    135.5723      0.0000
  1350.3000     25.9530    136.8584      0.0000
  1350.4000     25.9530    136.8584      0.0000
  1350.5000     25.8472    140.4476      0.0000
  1350.6000     25.8472    140.4476      0.0000
  1350.7000     25.8472    140.4476      0.0000
  1350.8000     25.7481    146.3070      0.0000
  1350.9000     25.7481    146.3070      0.0000
