~Version Information
VERS.                      2.0: CWLS Log ASCII Standard - VERSION 2.0
WRAP.                       NO: One line per depth step
~Well Information Block
STRT.FT               840.0000: 
STOP.FT              2266.0000: 
STEP.FT                 0.1000: 
NULL.                -999.2500: 
COMP.          Pioneer Natural Resources: COMPANY
WELL.              Tonto 42-23: WELL
FLD.           Purgatoire River: FIELD
LOC.           2217' FNL & 423' FEL: LOCATION
PROV.                 Colorado: PROVINCE
CNTY.               Las Animas: COUNTRY
SRVC.                Patterson: SERVICE COMPANY
DATE.          Mon Apr 18 07:15:48 2005: LOG DATE
UWI.           05 071 08335 00: UNIQUE WELL ID
~Curve Information Block
DEPT.FT            0 000 00 00: Depth
DCAL.in                       : CDL Caliper
RHOB.g/cc                     : CDL Bulk Density
RHOC.g/cc                     : CDL Density Correction
DPOR.pu                       : CDL Density Porosity
GR.GAPI                       : Gamma Ray
NPOR.pu                       : Neutron Porosity
~Parameter Information Block
~A  Depth       DCAL        RHOB        RHOC        DPOR         GR         NPOR    
# ...
  1502.4000      8.4945      1.3576      0.0038     78.3248     42.5362     36.0767
  1502.5000      8.4797      1.3752      0.0294     77.2608     42.4495     36.7723
  1502.6000      8.4797      1.3884      0.0329     76.4634     41.1469     36.7850
  1502.7000      8.4797      1.3976      0.0101     75.9053     40.3838     36.0843
  1502.8000      8.8365      1.4132      0.0163     74.9553     41.6367     35.2277
  1502.9000      8.8365      1.4503      0.0374     72.7086     44.9996     34.7956
  1503.0000      9.0771      1.5268      0.0327     68.0719     48.5108     35.2512
  1503.1000      9.0771      1.6536      0.0733     60.3899     49.7373     36.2278
  1503.2000      9.0771      1.8056      0.1717     51.1780     49.7885     36.0703
  1503.3000      9.1822      1.9377      0.1831     43.1669     50.9859     34.3067
  1503.4000      9.1822      2.0488      0.1848     36.4385     53.9654     32.4993
  1503.5000      8.6515      2.1677      0.2219     29.2280     59.4000     31.6529
  1503.6000      8.6515      2.2841      0.2439     22.1759     66.9578     31.4109
  1503.7000      8.6515      2.3655      0.1810     17.2443     75.8815     31.0828
  1503.8000      8.3250      2.4177      0.0774     14.0759     84.6298     30.7724
  1503.9000      8.3250      2.4626      0.0952     11.3579     89.4944     30.9357
  1504.0000      8.1671      2.5073      0.0587      8.6502     90.4912     30.9104
  1504.1000      8.1671      2.5537      0.1046      5.8384     90.2318     29.7857
  1504.2000      8.1671      2.5935      0.0898      3.4259     88.9130     28.3039
  1504.3000      7.9671      2.6168      0.1704      2.0138     87.6665     27.6794
  1504.4000      7.9671      2.6284      0.1239      1.3088     87.6024     27.6705
  1504.5000      7.8261      2.6403      0.1374      0.5856     88.0124     27.1613
  1504.6000      7.8261      2.6442      0.1579      0.3530     88.6019     26.2713
  1504.7000      7.8261      2.6309      0.0933      1.1591     90.2088     25.9709
  1504.8000      7.8002      2.6130      0.1265      2.2426     91.8073     25.9711
  1504.9000      7.8002      2.5990      0.0824      3.0914     92.1952     26.0693
  1505.0000      7.7946      2.5894      0.1068      3.6743     92.8514     26.5346
  1505.1000      7.7946      2.5793      0.0478      4.2840     94.9937     26.2171
  1505.2000      7.7946      2.5680      0.0204      4.9667     98.9092     24.5243
  1505.3000      7.8834      2.5678      0.0218      4.9843    103.0263     23.0162
  1505.4000      7.8834      2.5805      0.0611      4.2141    103.9808     22.5129
  1505.5000      7.9632      2.5926      0.0258      3.4817     98.6214     22.3034
  1505.6000      7.9632      2.5918      0.0473      3.5259     87.7909     22.1245
  1505.7000      7.9632      2.5701      0.0162      4.8429     76.8514     22.0236
  1505.8000      7.9725      2.5468     -0.0637      6.2521     69.3507     21.8189
  1505.9000      7.9725      2.5565     -0.0453      5.6661     63.2418     21.6303
  1506.0000      7.9328      2.5827      0.0487      4.0771     57.2226     21.9932
  1506.1000      7.9328      2.5753      0.0515      4.5298     55.6320     23.1637
  1506.2000      7.9328      2.5320     -0.0558      7.1518     60.5677     24.4645
  1506.3000      7.9310      2.4988     -0.0093      9.1653     64.3294     24.9264
  1506.4000      7.9310      2.4911     -0.0089      9.6284     59.1229     24.5336
  1506.5000      7.9410      2.4901     -0.0336      9.6893     50.0992     23.9719
  1506.6000      7.9410      2.4912     -0.0261      9.6244     46.8104     23.4971
  1506.7000      7.9410      2.5015     -0.0301      8.9977     50.3301     22.8095
  1506.8000      7.9415      2.5213     -0.0108      7.7978     55.2295     22.0232
  1506.9000      7.9415      2.5353      0.0228      6.9517     57.4522     21.7172
  1507.0000      7.9420      2.5252     -0.0347      7.5640     58.0345     22.0368
  1507.1000      7.9420      2.5012     -0.0291      9.0205     59.0932     22.3358
  1507.2000      7.9420      2.4911     -0.0487      9.6296     59.0809     22.0416
  1507.3000      7.9373      2.5075     -0.0250      8.6338     56.4356     21.4922
  1507.4000      7.9373      2.5368      0.0495      6.8604     52.7847     21.5027
  1507.5000      7.9178      2.5517      0.0638      5.9570     50.5315     22.1003
  1507.6000      7.9178      2.5436      0.0415      6.4470     50.9160     22.5716
  1507.7000      7.9178      2.5359     -0.0051      6.9163     53.8398     22.7555
  1507.8000      7.9116      2.5411      0.0383      6.6000     58.4760     23.3663
  1507.9000      7.9116      2.5404      0.0268      6.6424     63.3896     24.4056
  1508.0000      7.9067      2.5334     -0.0069      7.0651     66.5641     24.6733
  1508.1000      7.9067      2.5440      0.0438      6.4259     67.4099     23.9105
  1508.2000      7.9067      2.5660      0.0719      5.0884     69.0103     23.0783
  1508.3000      7.9186      2.5751      0.0161      4.5384     73.1548     22.7220
  1508.4000      7.9186      2.5682      0.0379      4.9574     75.9607     22.5943
  1508.5000      7.9019      2.5531      0.0629      5.8712     76.3774     22.1001
  1508.6000      7.9019      2.5435      0.0793      6.4552     77.3599     21.3070
  1508.7000      7.9019      2.5527      0.0696      5.8965     76.6802     20.9234
  1508.8000      7.9005      2.5697      0.1096      4.8697     74.0350     21.1267
  1508.9000      7.9005      2.5791      0.0726      4.2989     73.7632     21.1153
  1509.0000      7.8615      2.5965      0.0957      3.2409     76.3740     20.5841
  1509.1000      7.8615      2.6325      0.1699      1.0585     78.1878     20.6602
  1509.2000      7.8615      2.6571      0.2359     -0.4293     74.8086     21.6298
  1509.3000      7.8530      2.6492      0.1239      0.0474     66.4453     22.2493
  1509.4000      7.8530      2.6282      0.1486      1.3195     59.9656     22.1673
  1509.5000      7.8496      2.6136      0.0935      2.2082     59.5001     21.9877
  1509.6000      7.8496      2.6153      0.0669      2.1036     64.3053     21.8419
  1509.7000      7.8496      2.6371      0.1206      0.7788     71.9273     21.7729
  1509.8000      7.8536      2.6628      0.1246     -0.7783     77.4439     22.0900
  1509.9000      7.8536      2.6710      0.1062     -1.2698     78.6559     22.4372
  1510.0000      7.8705      2.6568      0.1545     -0.4111     77.3656     22.3213
  1510.1000      7.8705      2.6322      0.0832      1.0805     76.4117     22.1899
  1510.2000      7.8705      2.6038      0.0835      2.7973     76.3570     22.6510
  1510.3000      7.8786      2.5738      0.0529      4.6169     76.0019     23.5420
  1510.4000      7.8786      2.5538      0.0612      5.8289     76.1511     24.2369
  1510.5000      7.8645      2.5501      0.0538      6.0539     76.5336     24.3140
  1510.6000      7.8645      2.5604     -0.0026      5.4316     74.2630     23.7946
  1510.7000      7.8645      2.5816     -0.0110      4.1461     70.1898     23.1879
  1510.8000      7.8844      2.6013      0.0809      2.9537     67.6534     22.8974
  1510.9000      7.8844      2.6049      0.0510      2.7343     67.5467     22.4460
  1511.0000      7.8864      2.6003      0.0694      3.0118     70.7522     21.6022
  1511.1000      7.8864      2.6049      0.0533      2.7315     76.3331     21.1582
  1511.2000      7.8864      2.6248      0.0285      1.5277     82.2906     21.5067
  1511.3000      7.8888      2.6448      0.0810      0.3141     87.2135     21.7329
  1511.4000      7.8888      2.6430      0.0536      0.4225     87.4602     21.2711
  1511.5000      7.8879      2.6192      0.0282      1.8686     81.7352     21.2832
  1511.6000      7.8879      2.5861      0.0120      3.8738     77.0149     22.7449
  1511.7000      7.8879      2.5507      0.0083      6.0212     77.5303     24.7347
  1511.8000      7.9197      2.5203     -0.0369      7.8620     78.5630     25.6972
  1511.9000      7.9197      2.5057     -0.0097      8.7483     80.2584     25.9120
