~Version Information
VERS.                      2.0: CWLS Log ASCII Standard - VERSION 2.0
WRAP.                       NO: One line per depth step
~Well Information Block
STRT.FT               675.0000: 
STOP.FT              2371.5000: 
STEP.FT                 0.1000: 
NULL.                -999.2500: 
COMP.          Pioneer Natural Resources: COMPANY
WELL.            Harrier 44-33: WELL
FLD.           Purgatoire River: FIELD
LOC.           456' FSL & 930' FEL: LOCATION
PROV.                 Colorado: PROVINCE
CNTY.               Las Animas: COUNTRY
SRVC.                Patterson: SERVICE COMPANY
DATE.          Mon Jun 20 10:36:59 2005: LOG DATE
UWI.           05 071 08398 00: UNIQUE WELL ID
~Curve Information Block
DEPT.FT            0 000 00 00: Depth
DCAL.in                       : CDL Caliper
RHOB.g/cc                     : CDL Bulk Density
RHOC.g/cc                     : CDL Density Correction
DPOR.pu                       : CDL Density Porosity
GR.GAPI                       : Gamma Ray
NPOR.pu                       : Neutron Porosity
~Parameter Information Block
~A  Depth       DCAL        RHOB        RHOC        DPOR         GR         NPOR    
# ...
  1347.0000      7.9736      2.4767      0.0345     10.5042     48.0498     14.9650
  1347.1000      7.9736      2.4933      0.0922      9.4958     47.3767     14.5792
  1347.2000      7.9736      2.5176      0.0883      8.0246     48.2274     13.8354
  1347.3000      7.9923      2.5175      0.1102      8.0313     50.6226     13.7563
  1347.4000      7.9923      2.4918      0.0711      9.5888     53.4691     14.2140
  1347.5000      7.9967      2.4703      0.0281     10.8926     56.2321     14.3395
  1347.6000      7.9967      2.4678      0.0718     11.0421     57.6887     13.6599
  1347.7000      7.9967      2.4661      0.0298     11.1446     56.4467     12.8807
  1347.8000      7.9967      2.4550      0.0685     11.8167     53.9610     12.9125
  1347.9000      7.9967      2.4450      0.0379     12.4264     53.3090     13.4372
  1348.0000      8.0110      2.4474      0.0371     12.2777     53.5351     13.6559
  1348.1000      8.0110      2.4610      0.0624     11.4568     52.9411     13.5952
  1348.2000      8.0110      2.4749      0.0561     10.6112     52.0135     13.8467
  1348.3000      8.0137      2.4823      0.0921     10.1607     51.8940     14.7126
  1348.4000      8.0137      2.4860      0.0773      9.9391     50.2796     15.7838
  1348.5000      8.0125      2.4935      0.0624      9.4872     44.0074     16.1794
  1348.6000      8.0125      2.5061      0.0964      8.7189     37.0737     15.3136
  1348.7000      8.0125      2.5138      0.0921      8.2524     34.6185     14.0310
  1348.8000      8.0162      2.5114      0.0627      8.3991     35.2002     13.6834
  1348.9000      8.0162      2.5070      0.0497      8.6666     35.7087     14.1280
  1349.0000      8.0147      2.5023      0.1069      8.9515     37.1031     14.4027
  1349.1000      8.0147      2.4917      0.0827      9.5944     40.7535     14.0450
  1349.2000      8.0147      2.4848      0.0675     10.0144     45.2909     13.2730
  1349.3000      8.0172      2.4961      0.0799      9.3273     48.1035     12.8775
  1349.4000      8.0172      2.5241      0.0903      7.6313     46.9999     13.2658
  1349.5000      8.0209      2.5547      0.0885      5.7749     43.2384     13.6595
  1349.6000      8.0209      2.5707      0.1324      4.8052     40.3613     13.6133
  1349.7000      8.0209      2.5634      0.0826      5.2476     41.4843     14.1370
  1349.8000      8.0188      2.5444      0.0851      6.4018     47.0273     15.4909
  1349.9000      8.0188      2.5333      0.0530      7.0712     52.3594     16.0249
  1350.0000      8.0195      2.5356      0.0784      6.9337     51.2794     15.2336
  1350.1000      8.0195      2.5370      0.0750      6.8494     44.9170     14.7372
  1350.2000      8.0195      2.5246      0.0862      7.6021     40.3591     14.9096
  1350.3000      8.0169      2.5014      0.0868      9.0055     40.2197     14.8850
  1350.4000      8.0169      2.4793      0.0441     10.3428     43.5029     14.4837
  1350.5000      8.0129      2.4678      0.0199     11.0410     48.3751     13.8329
  1350.6000      8.0129      2.4658      0.0502     11.1626     50.7786     12.9371
  1350.7000      8.0129      2.4613      0.0181     11.4370     48.8175     12.3698
  1350.8000      8.0114      2.4502     -0.0144     12.1081     47.3029     12.7488
  1350.9000      8.0114      2.4416      0.0271     12.6307     48.8639     14.1233
  1351.0000      7.9979      2.4351      0.0599     13.0232     49.3581     15.8212
  1351.1000      7.9979      2.4259      0.0540     13.5791     48.4106     16.6409
  1351.2000      7.9979      2.4227     -0.0041     13.7751     49.2992     16.2870
  1351.3000      8.0001      2.4302      0.0488     13.3198     49.6560     15.6039
  1351.4000      8.0001      2.4350      0.0945     13.0290     46.7697     15.3683
  1351.5000      8.0107      2.4256      0.0757     13.5999     44.5338     15.5744
  1351.6000      8.0107      2.4092      0.0507     14.5949     45.3888     15.7581
  1351.7000      8.0107      2.4009      0.0086     15.0988     47.3714     15.9978
  1351.8000      8.0150      2.4007      0.0856     15.1095     47.9706     16.6032
  1351.9000      8.0150      2.3877      0.0500     15.8942     45.9052     17.4290
  1352.0000      8.0205      2.3367      0.0301     18.9883     43.6252     18.4518
  1352.1000      8.0205      2.2374      0.0138     25.0078     45.1910     19.6378
  1352.2000      8.0205      2.1229     -0.0795     31.9447     49.6901     20.9880
  1352.3000      8.0279      2.0441     -0.0632     36.7241     53.0137     22.6774
  1352.4000      8.0279      2.0062     -0.0266     39.0197     55.3859     24.2687
  1352.5000      8.0489      1.9933     -0.0592     39.8002     60.5272     25.6031
  1352.6000      8.0489      2.0137      0.0066     38.5635     67.9188     27.2967
  1352.7000      8.0489      2.0722      0.0615     35.0174     75.4835     28.7281
  1352.8000      8.0360      2.1445      0.1972     30.6353     84.1454     29.2086
  1352.9000      8.0360      2.1869      0.2760     28.0680     92.7365     29.5476
  1353.0000      8.0364      2.1670      0.2510     29.2743     98.6767     29.8402
  1353.1000      8.0364      2.0909      0.1647     33.8848    100.5057     29.5381
  1353.2000      8.0364      1.9862      0.0803     40.2306     97.3737     28.8794
  1353.3000      8.1049      1.8705     -0.0052     47.2405     93.5415     28.1178
  1353.4000      8.1049      1.7486     -0.0643     54.6301     93.6197     27.6715
  1353.5000      8.1102      1.6294     -0.1088     61.8564     96.3391     27.5051
  1353.6000      8.1102      1.5292     -0.1427     67.9246     97.4067     27.4317
  1353.7000      8.1102      1.4496     -0.0598     72.7501     93.3662     27.9046
  1353.8000      8.1164      1.3804     -0.0811     76.9429     85.4028     29.0113
  1353.9000      8.1164      1.3269     -0.0287     80.1893     78.0495     30.2000
  1354.0000      8.1917      1.2971     -0.0084     81.9944     72.3736     31.1467
  1354.1000      8.1917      1.2854      0.0310     82.7023     64.9847     31.9832
  1354.2000      8.1917      1.2839     -0.0079     82.7914     54.3518     32.9706
  1354.3000      8.2695      1.2881      0.0328     82.5375     44.0359     33.7377
  1354.4000      8.2695      1.2902      0.0310     82.4138     37.8415     33.4590
  1354.5000      8.5250      1.2871      0.0303     82.5973     34.9472     32.1776
  1354.6000      8.5250      1.2829      0.0029     82.8564     33.3693     31.0081
  1354.7000      8.5250      1.2775      0.0357     83.1826     32.1576     31.0213
  1354.8000      9.0138      1.2680     -0.0015     83.7564     31.6354     31.9439
  1354.9000      9.0138      1.2594     -0.0184     84.2766     32.3716     32.8284
  1355.0000      9.3129      1.2590     -0.0070     84.3052     32.6111     32.9907
  1355.1000      9.3129      1.2650      0.0147     83.9383     31.7697     31.9036
  1355.2000      9.3129      1.2752     -0.0082     83.3221     32.7236     30.2489
  1355.3000      9.1662      1.2922      0.0244     82.2936     37.6484     29.6946
  1355.4000      9.1662      1.3246      0.0053     80.3293     44.0547     30.5989
  1355.5000      9.2275      1.3845      0.0252     76.6949     48.3168     31.6881
  1355.6000      9.2275      1.4679      0.0279     71.6421     52.3092     31.8700
  1355.7000      9.2275      1.5586      0.1235     66.1468     59.3131     31.6722
  1355.8000      8.7700      1.6655      0.1095     59.6640     67.9012     32.3001
  1355.9000      8.7700      1.8218      0.1479     50.1918     76.0631     33.4123
  1356.0000      8.3947      2.0202      0.2726     38.1683     84.2694     33.6106
  1356.1000      8.3947      2.1984      0.3139     27.3697     92.7418     31.9447
  1356.2000      8.3947      2.3141      0.3095     20.3549     99.5708     29.4604
  1356.3000      8.2784      2.3860      0.3042     16.0013    104.0293     28.5517
  1356.4000      8.2784      2.4562      0.2834     11.7468    108.9452     29.4109
  1356.5000      8.0373      2.5361      0.3001      6.9028    114.4577     29.9618
