~Version Information
 VERS.                                  2.0 : CWLS LAS VERSION
 WRAP.                                   NO : WRAPING MODE
 SWARE .                 MController 2.5.0J : SOFTWARE VERSION
~Well Information
 WELL.                           Elmo 14-21 : WELL
 COMP.    PIONEER NATURAL RESOURCES USA INC : COMPANY
 FLD.                      PURGATOIRE RIVER : FIELD
 LOC.               SW/SW Sec 21 T33S  R66W : LOCATION
 DATE.                         5/16-17/2005 : DATE(S) LOGGED
 SRVC.       Blanco Geological Services LLC : SERVICE COMPANY
 STAT.                                   CO : STATE
 CNTY.                           Las Animas : COUNTY
 CTRY.                                  USA : COUNTRY
 API.                       05-071-08360-00 : API NUMBER
 STRT.FT                             300.00 : START DEPTH
 STOP.FT                            1680.00 : STOP DEPTH
 STEP.FT                               1.00 : DEPTH INCREMENT
 NULL.                                -9999 : NULL VALUE
~Curve information
 DEPTH.FT                                   :
 ROP.MIN/FT                                 :
 GAS.UNITS                                  :
~ASCII Log data
# ...
      1300.0         0.18         78.8 
      1301.0         0.20         93.8 
      1302.0         0.27         94.5 
      1303.0         0.13         86.7 
      1304.0         0.23         84.0 
      1305.0         0.20         83.3 
      1306.0         0.13         88.6 
      1307.0         0.23         89.2 
      1308.0         0.20         81.4 
      1309.0         0.17         70.7 
      1310.0         0.13         65.8 
      1311.0         0.23         66.6 
      1312.0         0.10         61.2 
      1313.0         0.27         56.4 
      1314.0         0.13         58.1 
      1315.0         0.13         60.8 
      1316.0         0.40         63.4 
      1317.0         0.07         68.4 
      1318.0         0.22         80.5 
      1319.0         0.20         83.3 
      1320.0         0.27         86.8 
      1321.0         0.23         89.4 
      1322.0         0.20         85.3 
      1323.0         0.13         70.0 
      1324.0         0.13         63.1 
      1325.0         0.17         63.8 
      1326.0         0.13         70.3 
      1327.0         0.23         81.7 
      1328.0         0.17         81.4 
      1329.0         0.20         72.1 
      1330.0         0.10         60.4 
      1331.0         0.20         57.0 
      1332.0         0.23         61.1 
      1333.0         0.10         59.7 
      1334.0         0.17         58.3 
      1335.0         0.23         58.8 
      1336.0         0.22         59.3 
      1337.0         0.37         72.8 
      1338.0         0.20         80.0 
      1339.0         0.33         89.0 
      1340.0         0.27         76.8 
      1341.0         0.40         57.4 
      1342.0         0.33         60.1 
      1343.0         0.30         60.1 
      1344.0         0.50         55.7 
      1345.0         0.55         69.2 
      1346.0         0.40         68.8 
      1347.0         0.43         62.9 
      1348.0         0.37         66.2 
      1349.0         0.33         65.8 
      1350.0         0.30         61.9 
      1351.0         0.47         63.2 
      1352.0         0.53         49.2 
      1353.0         0.45         58.2 
      1354.0         0.50         73.8 
      1355.0         0.33         65.0 
      1356.0         0.43         59.4 
      1357.0         0.33         67.5 
      1358.0         0.53         63.4 
      1359.0         0.30         51.0 
      1360.0         0.70         67.2 
      1361.0         0.35         68.0 
      1362.0         0.63         64.2 
      1363.0         0.40         54.0 
      1364.0         0.20         47.6 
      1365.0         0.57         50.1 
      1366.0         0.60         59.1 
      1367.0         0.23         62.1 
      1368.0         0.43         58.9 
      1369.0         0.32         55.9 
      1370.0         0.20         60.8 
      1371.0         0.47         61.7 
      1372.0         0.27         50.4 
      1373.0         0.30         47.3 
      1374.0         0.27        103.0 
      1375.0         0.40        158.9 
      1376.0         0.50        126.7 
      1377.0         0.20         51.4 
      1378.0         0.40         73.3 
      1379.0         0.22         66.1 
      1380.0         0.20         58.2 
      1381.0         0.40         54.2 
      1382.0         0.43         54.8 
      1383.0         0.23         54.7 
      1384.0         0.33         57.9 
      1385.0         0.33         59.0 
      1386.0         0.33         59.8 
      1387.0         0.23         65.2 
      1388.0         0.27         67.5 
      1389.0         0.23         66.0 
      1390.0         0.20         67.1 
      1391.0         0.28         67.4 
      1392.0         0.43         63.1 
      1393.0         0.43         73.4 
      1394.0         0.17         73.4 
      1395.0         0.33         68.0 
      1396.0         0.30         69.5 
      1397.0         0.50         73.9 
      1398.0         0.40         74.6 
      1399.0         0.37         65.6 
      1400.0         0.42         67.4 
      1401.0         0.33         67.5 
      1402.0         0.20         69.1 
      1403.0         0.40         65.7 
      1404.0         0.40         69.8 
      1405.0         0.40         63.2 
      1406.0         0.33         81.8 
      1407.0         0.27         93.2 
      1408.0         0.23         98.7 
      1409.0         0.17         98.5 
      1410.0         0.33         92.4 
      1411.0         0.22         66.7 
      1412.0         0.30         56.6 
      1413.0         0.37         59.2 
      1414.0         0.47         55.5 
      1415.0         0.23         53.1 
      1416.0         0.50         97.2 
      1417.0         0.30         99.8 
      1418.0         0.37        110.2 
      1419.0         0.23        110.2 
      1420.0         0.17         98.2 
      1421.0         0.13         84.3 
      1422.0         0.25         74.2 
      1423.0         0.17         76.3 
      1424.0         0.23         80.5 
      1425.0         0.23         79.3 
      1426.0         0.07         77.5 
      1427.0         0.30         83.3 
      1428.0         0.17         80.8 
      1429.0         0.13         75.1 
      1430.0         0.10         73.7 
      1431.0         0.17         74.8 
      1432.0         0.20         73.6 
      1433.0         0.13         68.3 
      1434.0         0.17         72.4 
      1435.0         0.13         75.5 
      1436.0         0.23         76.4 
      1437.0         0.10         75.6 
      1438.0         0.20         72.4 
      1439.0         0.27         65.3 
      1440.0         0.17         57.3 
      1441.0         0.12         56.7 
      1442.0         0.20         70.4 
      1443.0         0.07         71.9 
      1444.0         0.20         71.7 
      1445.0         0.33         69.9 
      1446.0         0.17         56.0 
      1447.0         0.20         60.4 
      1448.0         0.10         63.3 
      1449.0         0.13         63.8 
      1450.0         0.23         62.2 
      1451.0         0.23         60.6 
      1452.0         0.13         69.2 
      1453.0         0.17         76.6 
      1454.0         0.10         77.6 
      1455.0         0.17         77.4 
      1456.0         0.07         74.1 
      1457.0         0.20         70.8 
      1458.0         0.07         58.9 
      1459.0         0.20         59.1 
      1460.0         0.30         74.7 
      1461.0         0.18         78.9 
      1462.0         0.13         83.9 
      1463.0         0.17         95.3 
      1464.0         0.17         98.5 
      1465.0         0.13         97.0 
      1466.0         0.17         89.6 
      1467.0         0.13         78.2 
      1468.0         0.20         73.9 
      1469.0         0.47         68.2 
      1470.0         0.50         58.3 
      1471.0         0.70         65.4 
      1472.0         0.27         54.9 
      1473.0         0.22         59.6 
      1474.0         0.23         59.3 
      1475.0         0.23         53.1 
      1476.0         0.23         50.1 
      1477.0         0.27         54.7 
      1478.0         0.27         55.1 
      1479.0         0.03         53.8 
      1480.0         0.23         54.0 
      1481.0         0.10         61.9 
      1482.0         0.17         73.8 
      1483.0         0.13         78.4 
      1484.0         0.23         79.1 
      1485.0         0.17         73.2 
      1486.0         0.20         63.4 
      1487.0         0.17         56.8 
      1488.0         0.20         57.0 
      1489.0         0.17         51.9 
      1490.0         0.13         50.9 
      1491.0         0.18         58.5 
      1492.0         0.13         59.1 
      1493.0         0.20         57.8 
      1494.0         0.20         51.9 
      1495.0         0.13         51.6 
      1496.0         0.20         53.3 
      1497.0         0.07         54.6 
      1498.0         0.23         56.3 
      1499.0         0.10         55.9 
