~Version Information
VERS.                      2.0: CWLS Log ASCII Standard - VERSION 2.0
WRAP.                       NO: One line per depth step
~Well Information Block
STRT.FT               440.0000: 
STOP.FT              1001.5000: 
STEP.FT                 0.1000: 
NULL.                -999.2500: 
COMP.          Pioneer Natural Resources: COMPANY
WELL.              Dylan 42-25: WELL
FLD.           Purgatoire River: FIELD
LOC.           2160' FNL & 855' FEL: LOCATION
PROV.                 Colorado: PROVINCE
CNTY.               Las Animas: COUNTRY
SRVC.                Patterson: SERVICE COMPANY
DATE.          Mon Apr 25 09:31:16 2005: LOG DATE
UWI.           05 071 08229 00: UNIQUE WELL ID
~Curve Information Block
DEPT.FT            0 000 00 00: Depth
DCAL.in                       : CDL Caliper
RHOB.g/cc                     : CDL Bulk Density
RHOC.g/cc                     : CDL Density Correction
DPOR.pu                       : CDL Density Porosity
GR.GAPI                       : Gamma Ray
NPOR.pu                       : Neutron Porosity
~Parameter Information Block
~A  Depth       DCAL        RHOB        RHOC        DPOR         GR         NPOR    
# ...
   660.8000      7.9592      2.4538      0.0915     11.8935    120.1630     31.1500
   660.9000      7.9592      2.4658      0.0326     11.1640    122.1461     30.5796
   661.0000      7.9403      2.4863      0.0685      9.9192    127.2739     29.6739
   661.1000      7.9403      2.4899      0.0912      9.7053    135.5678     29.2752
   661.2000      7.9403      2.4603      0.0739     11.4979    142.7087     29.5521
   661.3000      7.9638      2.4253     -0.0003     13.6153    145.9044     29.7425
   661.4000      7.9638      2.4161     -0.0276     14.1770    146.7813     29.6935
   661.5000      8.0584      2.4254      0.0488     13.6106    146.3677     29.7459
   661.6000      8.0584      2.4343     -0.0085     13.0730    144.6678     29.7326
   661.7000      8.0584      2.4434      0.0750     12.5222    141.7355     29.6455
   661.8000      8.0312      2.4556      0.0421     11.7822    139.0473     29.9579
   661.9000      8.0312      2.4648      0.0897     11.2257    138.7223     30.7386
   662.0000      8.0857      2.4664      0.0181     11.1258    141.2643     31.4301
   662.1000      8.0857      2.4666      0.0559     11.1123    144.1916     31.3945
   662.2000      8.0857      2.4661      0.0397     11.1478    145.7003     30.4811
   662.3000      8.0986      2.4580      0.0693     11.6391    146.3622     29.6937
   662.4000      8.0986      2.4498      0.0283     12.1324    145.2654     29.5889
   662.5000      8.1106      2.4623     -0.0091     11.3777    141.1921     29.6118
   662.6000      8.1106      2.4843      0.1239     10.0448    134.8385     29.4179
   662.7000      8.1106      2.4805      0.0174     10.2752    128.3972     29.1430
   662.8000      8.1172      2.4572     -0.0260     11.6855    125.4864     29.3969
   662.9000      8.1172      2.4500     -0.0439     12.1185    126.3565     29.8025
   663.0000      8.1030      2.4619      0.0455     11.3997    127.9464     29.2845
   663.1000      8.1030      2.4648      0.0135     11.2217    128.0869     28.3222
   663.2000      8.1030      2.4496     -0.0036     12.1481    124.3891     27.9789
   663.3000      8.0133      2.4342     -0.0014     13.0766    116.8491     27.8722
   663.4000      8.0133      2.4365      0.0125     12.9371    109.5818     27.4202
   663.5000      7.9793      2.4568      0.0006     11.7102    107.3848     27.2693
   663.6000      7.9793      2.4860      0.0207      9.9391    110.2682     27.7207
   663.7000      7.9793      2.5161      0.0290      8.1172    114.7609     28.1390
   663.8000      7.9712      2.5344      0.0418      7.0042    117.7591     27.8422
   663.9000      7.9712      2.5251      0.0580      7.5709    116.5902     26.8193
   664.0000      7.9725      2.5003     -0.0137      9.0745    113.2037     26.2366
   664.1000      7.9725      2.4982      0.0378      9.1997    111.9673     27.1064
   664.2000      7.9725      2.5218      0.0675      7.7668    112.3243     28.4183
   664.3000      7.9596      2.5381      0.1176      6.7803    109.3522     28.4506
   664.4000      7.9596      2.5327      0.0506      7.1083    104.4174     27.2922
   664.5000      7.9486      2.5165      0.0555      8.0887    103.4443     26.0735
   664.6000      7.9486      2.5001      0.0317      9.0848    105.9735     25.4060
   664.7000      7.9486      2.4869      0.0071      9.8852    107.8605     25.0699
   664.8000      7.9455      2.4739     -0.0065     10.6697    108.2411     24.7144
   664.9000      7.9455      2.4602     -0.0285     11.5016    109.5008     24.6136
   665.0000      7.9570      2.4597     -0.0448     11.5320    112.5939     24.9371
   665.1000      7.9570      2.4826      0.0126     10.1438    115.1362     25.2785
   665.2000      7.9570      2.5047      0.0561      8.8087    115.7598     25.5753
   665.3000      7.9723      2.5012      0.0188      9.0201    116.0377     25.6536
   665.4000      7.9723      2.4845     -0.0003     10.0308    116.0723     25.3612
   665.5000      7.9551      2.4757      0.0407     10.5650    115.6418     25.2804
   665.6000      7.9551      2.4814     -0.0103     10.2186    114.5806     25.1655
   665.7000      7.9551      2.4968      0.0255      9.2854    111.3146     24.6653
   665.8000      7.9171      2.5024      0.0482      8.9464    105.6506     24.5176
   665.9000      7.9171      2.4852      0.0353      9.9867    100.9928     24.7493
   666.0000      7.9112      2.4615      0.0353     11.4258     99.9448     24.7027
   666.1000      7.9112      2.4614     -0.0357     11.4311    100.8427     24.2605
   666.2000      7.9112      2.4936      0.0739      9.4787    102.5063     23.4525
   666.3000      7.9286      2.5334      0.0687      7.0655    106.6189     22.6236
   666.4000      7.9286      2.5636      0.0757      5.2387    113.1368     22.6911
   666.5000      7.9332      2.5848      0.1141      3.9538    115.4147     23.8346
   666.6000      7.9332      2.5895      0.1433      3.6657    108.1903     24.7417
   666.7000      7.9332      2.5778      0.0697      4.3745     98.7856     24.5390
   666.8000      7.9008      2.5705      0.0482      4.8176     94.3439     23.9329
   666.9000      7.9008      2.5771      0.1012      4.4182     93.2884     23.3658
   667.0000      7.9013      2.5880      0.0670      3.7570     92.8782     22.9698
   667.1000      7.9013      2.5924      0.1163      3.4883     92.8304     23.4429
   667.2000      7.9013      2.5804      0.0288      4.2190     92.4055     24.0298
   667.3000      7.8748      2.5567      0.0197      5.6547     90.7006     23.3204
   667.4000      7.8748      2.5323      0.0489      7.1352     88.5437     22.1039
   667.5000      7.9183      2.5002      0.0820      9.0783     85.7965     21.9504
   667.6000      7.9183      2.4609     -0.0422     11.4596     84.1192     22.9912
   667.7000      7.9183      2.4379     -0.0074     12.8549     87.1913     24.4580
   667.8000      7.9321      2.4391     -0.0238     12.7820     90.3015     25.5333
   667.9000      7.9321      2.4516     -0.0094     12.0271     87.1488     25.8984
   668.0000      7.9500      2.4626     -0.0193     11.3576     80.4643     25.5329
   668.1000      7.9500      2.4718     -0.0260     10.7981     74.7677     24.7621
   668.2000      7.9500      2.4827      0.0509     10.1407     73.4110     24.3478
   668.3000      7.9594      2.4900      0.0401      9.6988     75.6552     24.6674
   668.4000      7.9594      2.4940      0.0176      9.4523     74.5122     25.3787
   668.5000      7.9694      2.5021      0.0246      8.9606     70.7771     26.0699
   668.6000      7.9694      2.5172      0.0639      8.0512     70.6883     26.5978
   668.7000      7.9694      2.5391     -0.0050      6.7182     71.8876     26.5910
   668.8000      7.9793      2.5569      0.0884      5.6432     69.8325     26.2638
   668.9000      7.9793      2.5535      0.0028      5.8475     65.2981     26.3854
   669.0000      7.9551      2.5410     -0.0010      6.6073     60.7167     26.7111
   669.1000      7.9551      2.5349      0.0366      6.9764     59.3732     26.8761
   669.2000      7.9551      2.5265      0.0432      7.4870     61.6831     27.0728
   669.3000      7.9407      2.5077      0.0190      8.6216     64.0437     27.2735
   669.4000      7.9407      2.4837      0.0337     10.0769     64.4684     27.2751
   669.5000      7.9340      2.4652     -0.0319     11.2000     63.2747     27.1038
   669.6000      7.9340      2.4627     -0.0758     11.3500     60.9663     27.0321
   669.7000      7.9340      2.4748      0.0114     10.6173     57.1638     27.1676
   669.8000      7.9365      2.4906      0.0174      9.6590     52.1965     27.0893
   669.9000      7.9365      2.5060     -0.0253      8.7292     47.4433     26.8601
   670.0000      7.9472      2.5227     -0.0176      7.7158     46.1820     27.1488
   670.1000      7.9472      2.5416      0.0206      6.5687     48.9797     27.7456
   670.2000      7.9472      2.5595      0.0342      5.4847     50.9768     27.5646
   670.3000      7.9486      2.5638      0.0888      5.2268     50.1357     26.4865
