~Version Information
VERS.                      2.0: CWLS Log ASCII Standard - VERSION 2.0
WRAP.                       NO: One line per depth step
~Well Information Block
STRT.FT               784.0000: 
STOP.FT              1033.0000: 
STEP.FT                 0.1000: 
NULL.                -999.2500: 
COMP.          Pioneer Natural Resources: COMPANY
WELL.          Run-Away-Train 43-26: WELL
FLD.           Purgatoire River: FIELD
LOC.           1693' FSL & 1195' FEL: LOCATION
PROV.                 Colorado: PROVINCE
CNTY.               Las Animas: COUNTRY
SRVC.                Patterson: SERVICE COMPANY
DATE.          Wed Apr 06 07:23:28 2005: LOG DATE
UWI.           05 071 08188 00: UNIQUE WELL ID
~Curve Information Block
DEPT.FT            0 000 00 00: Depth
DCAL.in                       : CDL Caliper
RHOB.g/cc                     : CDL Bulk Density
RHOC.g/cc                     : CDL Density Correction
DPOR.pu                       : CDL Density Porosity
GR.GAPI                       : Gamma Ray
NPOR.pu                       : Neutron Porosity
~Parameter Information Block
~A  Depth       DCAL        RHOB        RHOC        DPOR         GR         NPOR    
# ...
   832.0000      7.9297      2.5653      0.1138      5.1334     89.0139     19.8772
   832.1000      7.9297      2.5719      0.0695      4.7304     85.5866     19.9438
   832.2000      7.9297      2.6069      0.1768      2.6139     81.9614     20.4874
   832.3000      7.8964      2.6405      0.2048      0.5769     78.4549     21.1873
   832.4000      7.8964      2.6403      0.2568      0.5899     76.6629     21.5817
   832.5000      7.8300      2.6092      0.1515      2.4701     77.8311     21.4507
   832.6000      7.8300      2.5677      0.1170      4.9878     81.5317     21.0666
   832.7000      7.8300      2.5250      0.1142      7.5782     85.5582     20.8949
   832.8000      7.8101      2.4930      0.0458      9.5156     88.2669     21.0855
   832.9000      7.8101      2.4840      0.0330     10.0636     88.3230     21.5231
   833.0000      7.8392      2.4950      0.0205      9.3968     85.8657     21.9904
   833.1000      7.8392      2.5229     -0.0094      7.7016     82.7067     22.2632
   833.2000      7.8392      2.5614      0.0939      5.3705     78.3809     22.1438
   833.3000      7.8865      2.6008      0.1289      2.9826     74.4233     21.6437
   833.4000      7.8865      2.6459      0.1444      0.2467     73.1811     21.1577
   833.5000      7.8651      2.6895      0.1908     -2.3964     72.8051     20.9413
   833.6000      7.8651      2.7102      0.1787     -3.6512     70.6004     20.7073
   833.7000      7.8651      2.7020      0.2279     -3.1496     66.2380     20.1441
   833.8000      7.8022      2.6682      0.1788     -1.1025     61.8308     19.4555
   833.9000      7.8022      2.6229      0.1058      1.6419     59.5345     19.0273
   834.0000      7.8409      2.5909      0.0456      3.5836     59.0112     18.7758
   834.1000      7.8409      2.5760      0.0412      4.4875     57.7184     18.4732
   834.2000      7.8409      2.5536      0.0667      5.8401     55.7439     18.2872
   834.3000      7.8830      2.5173      0.0444      8.0425     55.5423     18.3311
   834.4000      7.8830      2.4915      0.0043      9.6049     57.6909     18.4541
   834.5000      7.9110      2.4923      0.0360      9.5562     61.0954     18.7812
   834.6000      7.9110      2.5117      0.0453      8.3800     61.9624     19.2242
   834.7000      7.9110      2.5313      0.1179      7.1966     57.2826     19.2535
   834.8000      7.8946      2.5401      0.1086      6.6578     49.8217     18.8736
   834.9000      7.8946      2.5513      0.0463      5.9796     45.0721     18.5978
   835.0000      7.8736      2.5794      0.0967      4.2803     45.5141     18.7290
   835.1000      7.8736      2.6124      0.1334      2.2778     47.6832     19.1298
   835.2000      7.8736      2.6320      0.1637      1.0904     45.9964     19.4114
   835.3000      7.8719      2.6354      0.1362      0.8825     42.1306     19.4539
   835.4000      7.8719      2.6266      0.1550      1.4166     42.7148     19.3775
   835.5000      7.8654      2.6088      0.1041      2.4987     47.7290     19.0675
   835.6000      7.8654      2.5928      0.0963      3.4647     51.4383     18.6718
   835.7000      7.8654      2.5845      0.0561      3.9679     50.2550     18.6368
   835.8000      7.8501      2.5729      0.0653      4.6728     46.7299     18.8303
   835.9000      7.8501      2.5541      0.0122      5.8105     45.8246     18.8113
   836.0000      7.8517      2.5500     -0.0239      6.0624     48.8573     18.6393
   836.1000      7.8517      2.5711      0.0758      4.7807     53.2637     18.5369
   836.2000      7.8517      2.5929      0.0713      3.4623     53.6961     18.5033
   836.3000      7.8865      2.5963      0.0597      3.2538     47.8642     18.5521
   836.4000      7.8865      2.5911      0.0530      3.5715     39.9514     18.7232
   836.5000      7.9057      2.5981      0.0264      3.1439     34.7140     18.7563
   836.6000      7.9057      2.6145      0.0767      2.1500     33.5059     18.4069
   836.7000      7.9057      2.6070      0.0707      2.6069     34.9246     17.8679
   836.8000      7.9294      2.5713      0.0257      4.7668     37.9962     17.5059
   836.9000      7.9294      2.5454      0.0454      6.3392     41.5984     17.6070
   837.0000      7.9311      2.5349      0.0604      6.9782     44.1892     18.1943
   837.1000      7.9311      2.5061      0.0443      8.7196     47.7940     18.7814
   837.2000      7.9311      2.4655     -0.0754     11.1847     51.2662     18.9885
   837.3000      7.9187      2.4631     -0.0625     11.3268     49.6070     18.9772
   837.4000      7.9187      2.5040      0.0524      8.8468     46.6655     18.7978
   837.5000      7.9141      2.5418      0.0803      6.5584     47.9544     18.4047
   837.6000      7.9141      2.5579     -0.0236      5.5821     49.1578     18.1123
   837.7000      7.9141      2.5732      0.0452      4.6529     46.7628     18.0838
   837.8000      7.8865      2.5961      0.0675      3.2693     44.0190     18.0944
   837.9000      7.8865      2.6112      0.1337      2.3535     42.5852     17.9736
   838.0000      7.8828      2.6066      0.0907      2.6302     40.1930     17.8640
   838.1000      7.8828      2.5962      0.0322      3.2613     38.0631     18.1382
   838.2000      7.8828      2.5980      0.0729      3.1495     40.1279     18.5286
   838.3000      7.8879      2.6059      0.0483      2.6748     44.7948     18.3507
   838.4000      7.8879      2.6049      0.0301      2.7329     46.6341     17.9382
   838.5000      7.9017      2.5856      0.0641      3.9007     43.8908     17.8968
   838.6000      7.9017      2.5536      0.0284      5.8435     40.3762     18.0177
   838.7000      7.9017      2.5324     -0.0453      7.1292     39.5122     18.0902
   838.8000      7.8964      2.5329      0.0273      7.0967     40.3232     18.4068
   838.9000      7.8964      2.5395      0.0691      6.6998     40.2218     18.7230
   839.0000      7.9085      2.5473      0.0153      6.2231     37.1365     18.3461
   839.1000      7.9085      2.5676      0.0516      4.9923     32.5777     17.4993
   839.2000      7.9085      2.5960      0.0469      3.2738     30.8879     16.7185
   839.3000      7.8887      2.6126      0.0878      2.2668     32.4914     15.9251
   839.4000      7.8887      2.6053      0.0678      2.7081     36.4228     15.1994
   839.5000      7.8665      2.5860      0.0958      3.8769     41.6763     14.7487
   839.6000      7.8665      2.5714      0.0258      4.7640     45.5239     14.3385
   839.7000      7.8665      2.5478      0.1105      6.1922     47.9986     13.9977
   839.8000      7.8687      2.4855      0.0344      9.9721     49.4591     13.8132
   839.9000      7.8687      2.3872     -0.0253     15.9283     50.5565     13.4293
   840.0000      7.8722      2.2627     -0.0025     23.4745     51.3718     12.7654
   840.1000      7.8722      2.1107     -0.1139     32.6878     50.3495     12.0775
   840.2000      7.8722      1.9615     -0.1791     41.7280     48.7432     11.4979
   840.3000      7.8806      1.8541     -0.1776     48.2370     49.1844     10.9942
   840.4000      7.8806      1.7896     -0.1343     52.1479     51.0996     10.5735
   840.5000      7.8933      1.7456     -0.1032     54.8147     51.9770     10.3000
   840.6000      7.8933      1.7089     -0.0931     57.0384     52.3379      9.9763
   840.7000      7.8933      1.6776     -0.0089     58.9323     53.5203      9.5157
   840.8000      7.9151      1.6473      0.0872     60.7712     55.5483      9.3065
   840.9000      7.9151      1.6161      0.1441     62.6608     58.5974      9.5299
   841.0000      7.8828      1.5841      0.2211     64.6013     61.1392     10.0187
   841.1000      7.8828      1.5504      0.1269     66.6398     60.9227     10.8113
   841.2000      7.8828      1.5299      0.0317     67.8826     59.6066     11.8756
   841.3000      8.0545      1.5386      0.0338     67.3603     59.6257     13.0058
   841.4000      8.0545      1.5760     -0.0115     65.0924     59.6472     14.4360
   841.5000      8.3256      1.6361      0.0214     61.4505     60.0587     16.4290
