~Version Information
VERS.                      2.0: CWLS Log ASCII Standard - VERSION 2.0
WRAP.                       NO: One line per depth step
~Well Information Block
STRT.FT                -7.6500: 
STOP.FT              3097.2500: 
STEP.FT                 0.0500: 
NULL.                -999.2500: 
COMP.          Pioneer Natural Resources: COMPANY
WELL.            Paradise 13-8: WELL
FLD.           Purgatoire River: FIELD
LOC.           1896' FSL & 1120' FWL--: LOCATION
PROV.                 Colorado: PROVINCE
CNTY.               Las Animas: COUNTRY
SRVC.                Patterson: SERVICE COMPANY
DATE.          Fri Feb 04 16:52:25 2005: LOG DATE
UWI.           05 071 07946 00: UNIQUE WELL ID
~Curve Information Block
DEPT.FT            0 000 00 00: Depth
CCL.                          : Casing Collar Locator
TT3.usec                      : CBL 3' Travel Time
AMP3.mV                       : CBL 3' Amplitude
GR.GAPI                       : Gamma Ray
~Parameter Information Block
~A  Depth       CCL         TT3         AMP3         GR     
# ...
   407.7500      0.0000    769.5065      3.5390     50.7396
   407.8000      0.0000    769.5065      3.5390     50.7396
   407.8500      0.0000    769.5065      3.5390     50.7396
   407.9000      0.0000    769.5065      3.5390     50.7396
   407.9500      0.0000    769.5065      3.5390     50.7396
   408.0000      0.0000    779.0511      3.5165     49.1220
   408.0500      0.0000    779.0511      3.5165     49.1220
   408.1000      0.0000    779.0511      3.5165     49.1220
   408.1500      0.0000    779.0511      3.5165     49.1220
   408.2000      0.0000    779.0511      3.5165     49.1220
   408.2500      0.0000    790.6777      3.5032     49.0600
   408.3000      0.0000    790.6777      3.5032     49.0600
   408.3500      0.0000    790.6777      3.5032     49.0600
   408.4000      0.0000    790.6777      3.5032     49.0600
   408.4500      0.0000    790.6777      3.5032     49.0600
   408.5000      0.0000    805.8836      3.5032     50.2232
   408.5500      0.0000    805.8836      3.5032     50.2232
   408.6000      0.0000    805.8836      3.5032     50.2232
   408.6500      0.0000    805.8836      3.5032     50.2232
   408.7000      0.0000    805.8836      3.5032     50.2232
   408.7500      0.0000    824.9189      3.5117     52.2675
   408.8000      0.0000    824.9189      3.5117     52.2675
   408.8500      0.0000    824.9189      3.5117     52.2675
   408.9000      0.0000    824.9189      3.5117     52.2675
   408.9500      0.0000    824.9189      3.5117     52.2675
   409.0000      0.0000    844.1162      3.5155     55.0557
   409.0500      0.0000    844.1162      3.5155     55.0557
   409.1000      0.0000    844.1162      3.5155     55.0557
   409.1500      0.0000    844.1162      3.5155     55.0557
   409.2000      0.0000    844.1162      3.5155     55.0557
   409.2500      0.0000    858.6354      3.5043     58.4386
   409.3000      0.0000    858.6354      3.5043     58.4386
   409.3500      0.0000    858.6354      3.5043     58.4386
   409.4000      0.0000    858.6354      3.5043     58.4386
   409.4500      0.0000    858.6354      3.5043     58.4386
   409.5000      0.0000    866.0557      3.4800     61.9076
   409.5500      0.0000    866.0557      3.4800     61.9076
   409.6000      0.0000    866.0557      3.4800     61.9076
   409.6500      0.0000    866.0557      3.4800     61.9076
   409.7000      0.0000    866.0557      3.4800     61.9076
   409.7500      0.0000    865.9790      3.4540     64.3858
   409.8000      0.0000    865.9790      3.4540     64.3858
   409.8500      0.0000    865.9790      3.4540     64.3858
   409.9000      0.0000    865.9790      3.4540     64.3858
   409.9500      0.0000    865.9790      3.4540     64.3858
   410.0000      0.0000    857.5863      3.4380     64.5769
   410.0500      0.0000    857.5863      3.4380     64.5769
   410.1000      0.0000    857.5863      3.4380     64.5769
   410.1500      0.0000    857.5863      3.4380     64.5769
   410.2000      0.0000    857.5863      3.4380     64.5769
   410.2500      0.0000    839.4780      3.4360     62.0335
   410.3000      0.0000    839.4780      3.4360     62.0335
   410.3500      0.0000    839.4780      3.4360     62.0335
   410.4000      0.0000    839.4780      3.4360     62.0335
   410.4500      0.0000    839.4780      3.4360     62.0335
   410.5000      0.0000    812.5059      3.4405     57.9590
   410.5500      0.0000    812.5059      3.4405     57.9590
   410.6000      0.0000    812.5059      3.4405     57.9590
   410.6500      0.0000    812.5059      3.4405     57.9590
   410.7000      0.0000    812.5059      3.4405     57.9590
   410.7500      0.0000    781.9854      3.4369     54.4564
   410.8000      0.0000    781.9854      3.4369     54.4564
   410.8500      0.0000    781.9854      3.4369     54.4564
   410.9000      0.0000    781.9854      3.4369     54.4564
   410.9500      0.0000    781.9854      3.4369     54.4564
   411.0000      0.0000    756.0025      3.4136     52.7070
   411.0500      0.0000    756.0025      3.4136     52.7070
   411.1000      0.0000    756.0025      3.4136     52.7070
   411.1500      0.0000    756.0025      3.4136     52.7070
   411.2000      0.0000    756.0025      3.4136     52.7070
   411.2500      0.0000    741.2591      3.3718     52.0762
   411.3000      0.0000    741.2591      3.3718     52.0762
   411.3500      0.0000    741.2591      3.3718     52.0762
   411.4000      0.0000    741.2591      3.3718     52.0762
   411.4500      0.0000    741.2591      3.3718     52.0762
   411.5000      0.0000    740.5851      3.3241     51.1266
   411.5500      0.0000    740.5851      3.3241     51.1266
   411.6000      0.0000    740.5851      3.3241     51.1266
   411.6500      0.0000    740.5851      3.3241     51.1266
   411.7000      0.0000    740.5851      3.3241     51.1266
   411.7500      0.0000    752.5656      3.2824     49.3198
   411.8000      0.0000    752.5656      3.2824     49.3198
   411.8500      0.0000    752.5656      3.2824     49.3198
   411.9000      0.0000    752.5656      3.2824     49.3198
   411.9500      0.0000    752.5656      3.2824     49.3198
   412.0000      0.0000    770.9840      3.2442     47.5441
   412.0500      0.0000    770.9840      3.2442     47.5441
   412.1000      0.0000    770.9840      3.2442     47.5441
   412.1500      0.0000    770.9840      3.2442     47.5441
   412.2000      0.0000    770.9840      3.2442     47.5441
   412.2500      0.0000    785.6126      3.1915     47.1160
   412.3000      0.0000    785.6126      3.1915     47.1160
   412.3500      0.0000    785.6126      3.1915     47.1160
   412.4000      0.0000    785.6126      3.1915     47.1160
   412.4500      0.0000    785.6126      3.1915     47.1160
   412.5000      0.0000    787.9528      3.1046     48.5434
   412.5500      0.0000    787.9528      3.1046     48.5434
   412.6000      0.0000    787.9528      3.1046     48.5434
   412.6500      0.0000    787.9528      3.1046     48.5434
   412.7000      0.0000    787.9528      3.1046     48.5434
   412.7500      0.0000    778.8076      2.9811     51.1154
   412.8000      0.0000    778.8076      2.9811     51.1154
   412.8500      0.0000    778.8076      2.9811     51.1154
   412.9000      0.0000    778.8076      2.9811     51.1154
   412.9500      0.0000    778.8076      2.9811     51.1154
   413.0000      0.0000    768.8845      2.8420     53.3829
   413.0500      0.0000    768.8845      2.8420     53.3829
   413.1000      0.0000    768.8845      2.8420     53.3829
   413.1500      0.0000    768.8845      2.8420     53.3829
   413.2000      0.0000    768.8845      2.8420     53.3829
   413.2500      0.0000    770.3973      2.7155     54.1033
   413.3000      0.0000    770.3973      2.7155     54.1033
   413.3500      0.0000    770.3973      2.7155     54.1033
   413.4000      0.0000    770.3973      2.7155     54.1033
   413.4500      0.0000    770.3973      2.7155     54.1033
   413.5000      0.0000    787.4865      2.6158     53.0111
   413.5500      0.0000    787.4865      2.6158     53.0111
   413.6000      0.0000    787.4865      2.6158     53.0111
   413.6500      0.0000    787.4865      2.6158     53.0111
   413.7000      0.0000    787.4865      2.6158     53.0111
   413.7500      0.0000    813.7980      2.5402     50.7843
   413.8000      0.0000    813.7980      2.5402     50.7843
   413.8500      0.0000    813.7980      2.5402     50.7843
   413.9000      0.0000    813.7980      2.5402     50.7843
   413.9500      0.0000    813.7980      2.5402     50.7843
   414.0000      0.0000    838.2299      2.4828     48.4320
   414.0500      0.0000    838.2299      2.4828     48.4320
   414.1000      0.0000    838.2299      2.4828     48.4320
   414.1500      0.0000    838.2299      2.4828     48.4320
   414.2000      0.0000    838.2299      2.4828     48.4320
   414.2500      0.0000    852.9111      2.4411     46.8638
   414.3000      0.0000    852.9111      2.4411     46.8638
   414.3500      0.0000    852.9111      2.4411     46.8638
   414.4000      0.0000    852.9111      2.4411     46.8638
