~Version Information
VERS.                      2.0: CWLS Log ASCII Standard - VERSION 2.0
WRAP.                       NO: One line per depth step
~Well Information Block
STRT.FT                15.0000: 
STOP.FT              2620.5000: 
STEP.FT                 0.2500: 
NULL.                -999.2500: 
COMP.          Pioneer Natural Resources: COMPANY
WELL.               Zink 44-10: WELL
FLD.           Purgatoire River: FIELD
LOC.           548' FSL & 473' FEL: LOCATION
PROV.                 Colorado: PROVINCE
CNTY.               Las Animas: COUNTRY
SRVC.                Patterson: SERVICE COMPANY
DATE.          Tue Jun 21 13:36:23 2005: LOG DATE
UWI.           05 071 08380 00: UNIQUE WELL ID
~Curve Information Block
DEPT.FT            0 000 00 00: Depth
GR.GAPI                       : Gamma Ray
CCL.                          : Casing Collar Locator
TT3.usec                      : CBL 3' Travel Time
AMP3.mV                       : CBL 3' Amplitude
~Parameter Information Block
~A  Depth        GR         CCL         TT3         AMP3    
# ...
   517.5000     76.5420      0.0000    727.3527     15.8871
   517.7500     75.2940      0.0000    714.1938     15.9572
   518.0000     73.6965      0.0000    678.9212     16.0599
   518.2500     71.7789      0.0000    626.5967     16.1897
   518.5000     69.4593      0.0000    575.5648     16.3228
   518.7500     66.7740      0.0000    551.6105     16.4149
   519.0000     64.1059      0.0000    569.2570     16.4254
   519.2500     62.1027      0.0000    619.0813     16.3503
   519.5000     61.3090      0.0000    675.4708     16.2274
   519.7500     61.8279      0.0000    715.7153     16.1017
   520.0000     63.2758      0.0000    730.8409     15.9952
   520.2500     65.0210      0.0000    722.6177     15.9113
   520.5000     66.3937      0.0000    695.8035     15.8556
   520.7500     66.8643      0.0000    653.5722     15.8378
   521.0000     66.4223      0.0000    597.8528     15.8576
   521.2500     65.7768      0.0000    533.5804     15.8975
   521.5000     65.7832      0.0000    471.5227     15.9340
   521.7500     66.5551      0.0000    423.6309     15.9550
   522.0000     67.3340      0.0000    394.4491     15.9693
   522.2500     67.2949      0.0000    379.0665     15.9999
   522.5000     66.4124      0.0000    369.6400     16.0634
   522.7500     65.5344      0.0000    361.9534     16.1589
   523.0000     65.6055      0.0000    355.7981     16.2766
   523.2500     66.7906      0.0000    351.8273     16.4099
   523.5000     68.3439      0.0000    349.8053     16.5491
   523.7500     69.2819      0.0000    349.0014     16.6664
   524.0000     69.1138      0.0000    349.0291     16.7184
   524.2500     68.0848      0.0000    350.5347     16.6696
   524.5000     66.9822      0.0000    356.4633     16.5158
   524.7500     66.6816      0.0000    373.9698     16.2900
   525.0000     67.5700      0.0000    414.0585     16.0474
   525.2500     69.1377      0.0000    484.1672     15.8318
   525.5000     70.0802      0.0000    575.4153     15.6500
   525.7500     69.0888      0.0000    659.6210     15.4756
   526.0000     65.9902      0.0000    707.7892     15.2847
   526.2500     62.2517      0.0000    714.1318     15.0865
   526.5000     60.0535      0.0000    696.7815     14.9142
   526.7500     60.5648      0.0000    676.1640     14.7857
   527.0000     63.0727      0.0000    660.1941     14.6837
   527.2500     65.6784      0.0000    649.8331     14.5833
   527.5000     66.7178      0.0000    649.8120     14.4945
   527.7500     65.7487      0.0000    667.1638     14.4684
   528.0000     63.7044      0.0000    700.1758     14.5585
   528.2500     62.3070      0.0000    735.5179     14.7728
   528.5000     62.8791      0.0000    761.6189     15.0530
   528.7500     65.1569      0.0000    780.9069     15.3026
   529.0000     67.3109      0.0000    802.3682     15.4536
   529.2500     67.4763      0.0000    825.8161     15.5138
   529.5000     65.2459      0.0000    840.2868     15.5483
   529.7500     61.6581      0.0000    833.8669     15.6172
   530.0000     58.1213      0.0000    798.5896     15.7383
   530.2500     55.6292      0.0000    730.4401     15.8978
   530.5000     54.6151      0.0000    633.7290     16.0771
   530.7500     54.9175      0.0000    525.9789     16.2621
   531.0000     55.8297      0.0000    431.5840     16.4391
   531.2500     56.5608      0.0000    366.9784     16.5909
   531.5000     56.8058      0.0000    333.3466     16.6961
   531.7500     56.8321      0.0000    323.2657     16.7305
   532.0000     57.1595      0.0000    331.8774     16.6775
   532.2500     58.2113      0.0000    361.0470     16.5409
   532.5000     60.0184      0.0000    412.6069     16.3435
   532.7500     62.0683      0.0000    476.5514     16.1101
   533.0000     63.6267      0.0000    528.5224     15.8486
   533.2500     64.3519      0.0000    545.6017     15.5326
   533.5000     64.5231      0.0000    526.8599     15.1016
   533.7500     64.6570      0.0000    495.6417     14.4972
   534.0000     65.0401      0.0000    482.0381     13.7160
   534.2500     65.5691      0.0000    503.6193     12.8322
   534.5000     65.8193      0.0000    557.0612     11.9732
   534.7500     65.2389      0.0000    622.8059     11.2653
   535.0000     63.5704      0.0000    679.5729     10.7742
   535.2500     61.1904      0.0000    717.6947     10.4774
   535.5000     58.8315      0.0000    738.7668     10.2964
   535.7500     56.9130      0.0000    745.2349     10.1727
   536.0000     55.3648      2.5000    735.1429     10.1331
   536.2500     54.1158      2.5000    705.8583     10.3118
   536.5000     53.4737      0.0000    657.4135     10.8989
   536.7500     53.9343      0.0000    592.4554     11.9924
   537.0000     55.8214      0.0000    518.2111     13.4362
   537.2500     59.1129      0.0000    448.8183     14.8396
   537.5000     63.3201      0.0000    399.9842     15.8314
   537.7500     67.4517      0.0000    379.2432     16.3041
   538.0000     70.3849      0.0000    382.8198     16.4004
   538.2500     71.4344      0.0000    399.7952     16.3179
   538.5000     70.5091      0.0000    416.2174     16.1730
   538.7500     67.9174      0.0000    419.1811     16.0111
   539.0000     64.4621      0.0000    403.8850     15.8733
   539.2500     61.5105      0.0000    377.1596     15.8213
   539.5000     60.2675      0.0000    350.7520     15.9039
   539.7500     60.7113      0.0000    331.8777     16.1118
   540.0000     61.5690      0.0000    321.0163     16.3777
   540.2500     61.6275      0.0000    315.6083     16.6253
   540.5000     61.0319      0.0000    313.2285     16.8131
   540.7500     61.0778      0.0000    312.3437     16.9355
   541.0000     62.6895      0.0000    312.1103     17.0007
   541.2500     65.3277      0.0000    312.1056     17.0181
   541.5000     67.6104      0.0000    312.1014     17.0017
   541.7500     68.8740      0.0000    312.0143     16.9696
   542.0000     69.7265      0.0000    311.8827     16.9341
   542.2500     70.9898      0.0000    311.8154     16.8929
   542.5000     72.4084      0.0000    311.8965     16.8340
   542.7500     72.6432      0.0000    312.1133     16.7509
   543.0000     70.5510      0.0000    312.3549     16.6589
   543.2500     66.4502      0.0000    312.4762     16.5934
   543.5000     62.1370      0.0000    312.3922     16.5896
   543.7500     59.5665      0.0000    312.1322     16.6611
   544.0000     59.3839      0.0000    311.7971     16.8007
   544.2500     60.6220      0.0000    311.4640     16.9964
   544.5000     61.6689      0.0000    311.1457     17.2343
   544.7500     61.4944      0.0000    310.8322     17.4841
   545.0000     60.2698      0.0000    310.5457     17.6961
   545.2500     59.0914      0.0000    310.3396     17.8280
   545.5000     59.0008      0.0000    310.2498     17.8744
   545.7500     60.0390      0.0000    310.2556     17.8624
   546.0000     61.2449      0.0000    310.2932     17.8231
   546.2500     61.6614      0.0000    310.3039     17.7708
   546.5000     61.2193      0.0000    310.2726     17.7077
   546.7500     60.5482      0.0000    310.2227     17.6407
   547.0000     60.1896      0.0000    310.1814     17.5867
   547.2500     60.2797      0.0000    310.1550     17.5609
   547.5000     60.8223      0.0000    310.1346     17.5618
   547.7500     61.8959      0.0000    310.1108     17.5741
   548.0000     63.5058      0.0000    310.0828     17.5827
   548.2500     65.4430      0.0000    310.0634     17.5752
   548.5000     67.3891      0.0000    310.0771     17.5367
   548.7500     69.0419      0.0000    310.1407     17.4554
   549.0000     70.0853      0.0000    310.2430     17.3372
   549.2500     70.1320      0.0000    310.3476     17.2106
   549.5000     68.8299      0.0000    310.4117     17.1102
   549.7500     66.1615      0.0000    310.4050     17.0549
   550.0000     62.6934      0.0000    310.3228     17.0402
   550.2500     59.3925      0.0000    310.1916     17.0463
   550.5000     57.0223      0.0000    310.0555     17.0525
   550.7500     55.7843      0.0000    309.9514     17.0467
