~Version Information
VERS.                      2.0: CWLS Log ASCII Standard - VERSION 2.0
WRAP.                       NO: One line per depth step
~Well Information Block
STRT.FT               460.0000: 
STOP.FT               961.2500: 
STEP.FT                 0.2500: 
NULL.                -999.2500: 
COMP.          Pioneer Natural Resources: COMPANY
WELL.                Pug 33-19: WELL
FLD.           Purgatoire River: FIELD
LOC.           1381' FSL & 2140' FEL: LOCATION
PROV.                 Colorado: PROVINCE
CNTY.               Las Animas: COUNTRY
SRVC.                Patterson: SERVICE COMPANY
DATE.          Tue Dec 14 08:25:14 2004: LOG DATE
UWI.           05 071 08193 00: UNIQUE WELL ID
~Curve Information Block
DEPT.FT            0 000 00 00: Depth
SN.Ohm-m                      : IEL Short Normal
SP.mV                         : IEL Spontaneous Potential
DIR.Ohm-m                     : IEL Induction Resistivity
GR.GAPI                       : Gamma Ray
~Parameter Information Block
~A  Depth        SN          SP         DIR          GR     
# ...
   929.0000     20.5014     99.7814     17.5020     58.4228
   929.2500     20.5442     99.5284     17.5796     42.6190
   929.5000     20.4941     99.2200     17.6115     21.1729
   929.7500     20.3687     98.8763     17.5680     11.2710
   930.0000     20.2244     98.5192     17.4534      3.3733
   930.2500     20.1262     98.1693     17.3029      1.2612
   930.5000     20.1182     97.8427     17.1646      0.2177
   930.7500     20.2077     97.5490     17.0813      0.0545
   931.0000     20.3670     97.2938     17.0798      0.0032
   931.2500     20.5461     97.0826     17.1665   -999.2500
   931.5000     20.6910     96.9259     17.3273   -999.2500
   931.7500     20.7576     96.8387     17.5323   -999.2500
   932.0000     20.7210     96.8359     17.7428   -999.2500
   932.2500     20.5832     96.9243     17.9206   -999.2500
   932.5000     20.3784     97.0971     18.0349   -999.2500
   932.7500     20.1682     97.3344     18.0705   -999.2500
   933.0000     20.0226     97.6095     18.0363   -999.2500
   933.2500     19.9928     97.8968     17.9674   -999.2500
   933.5000     20.0906     98.1755     17.9145   -999.2500
   933.7500     20.2843     98.4274     17.9218   -999.2500
   934.0000     20.5117     98.6310     18.0075   -999.2500
   934.2500     20.7088     98.7586     18.1557   -999.2500
   934.5000     20.8395     98.7802     18.3256   -999.2500
   934.7500     20.9120     98.6752     18.4707   -999.2500
   935.0000     20.9686     98.4453     18.5617   -999.2500
   935.2500     21.0575     98.1215     18.5984   -999.2500
   935.5000     21.2030     97.7609     18.6059   -999.2500
   935.7500     21.3923     97.4325     18.6211   -999.2500
   936.0000     21.5820     97.1978     18.6758   -999.2500
   936.2500     21.7215     97.0955     18.7858   -999.2500
   936.5000     21.7793     97.1346     18.9463   -999.2500
   936.7500     21.7573     97.2984     19.1341   -999.2500
   937.0000     21.6830     97.5553     19.3163   -999.2500
   937.2500     21.5876     97.8708     19.4611   -999.2500
   937.5000     21.4844     98.2153     19.5465   -999.2500
   937.7500     21.3644     98.5669     19.5632   -999.2500
   938.0000     21.2108     98.9116     19.5122   -999.2500
   938.2500     21.0181     99.2406     19.4007   -999.2500
   938.5000     20.8036     99.5481     19.2398   -999.2500
   938.7500     20.6029     99.8280     19.0444   -999.2500
   939.0000     20.4528    100.0716     18.8341   -999.2500
   939.2500     20.3714    100.2668     18.6313   -999.2500
   939.5000     20.3499    100.3998     18.4546   -999.2500
   939.7500     20.3641    100.4583     18.3130   -999.2500
   940.0000     20.3958    100.4354     18.2056   -999.2500
   940.2500     20.4422    100.3320     18.1271   -999.2500
   940.5000     20.5086    100.1578     18.0755   -999.2500
   940.7500     20.5979     99.9296     18.0565   -999.2500
   941.0000     20.7096     99.6690     18.0817   -999.2500
   941.2500     20.8428     99.3992     18.1654   -999.2500
   941.5000     20.9950     99.1418     18.3185   -999.2500
   941.7500     21.1564     98.9144     18.5427   -999.2500
   942.0000     21.3069     98.7291     18.8242   -999.2500
   942.2500     21.4204     98.5925     19.1273   -999.2500
   942.5000     21.4756     98.5071     19.3968   -999.2500
   942.7500     21.4648     98.4751     19.5757   -999.2500
   943.0000     21.3956     98.5009     19.6328   -999.2500
   943.2500     21.2863     98.5915     19.5765   -999.2500
   943.5000     21.1583     98.7534     19.4411   -999.2500
   943.7500     21.0266     98.9869     19.2614   -999.2500
   944.0000     20.8944     99.2803     19.0584   -999.2500
   944.2500     20.7530     99.6077     18.8391   -999.2500
   944.5000     20.5921     99.9320     18.6018   -999.2500
   944.7500     20.4100    100.2117     18.3408   -999.2500
   945.0000     20.2184    100.4109     18.0545   -999.2500
   945.2500     20.0373    100.5065     17.7533   -999.2500
   945.5000     19.8843    100.4931     17.4615   -999.2500
   945.7500     19.7652    100.3819     17.2095   -999.2500
   946.0000     19.6710    100.1962     17.0197   -999.2500
   946.2500     19.5840     99.9654     16.8977   -999.2500
   946.5000     19.4888     99.7192     16.8324   -999.2500
   946.7500     19.3830     99.4843     16.8035   -999.2500
   947.0000     19.2799     99.2817     16.7917   -999.2500
   947.2500     19.2022     99.1241     16.7828   -999.2500
   947.5000     19.1693     99.0137     16.7675   -999.2500
   947.7500     19.1861     98.9397     16.7415   -999.2500
   948.0000     19.2397     98.8791     16.7101   -999.2500
   948.2500     19.3038     98.8017     16.9326   -999.2500
   948.5000     19.3492     98.6796     16.9565   -999.2500
   948.7500     19.3544     98.4986     17.0440   -999.2500
   949.0000     19.3097     98.2672     17.1938   -999.2500
   949.2500     19.2129     98.0186     17.3767   -999.2500
   949.5000     19.0643     97.8023     17.5474   -999.2500
   949.7500     18.8672     97.6697     17.6669   -999.2500
   950.0000     18.6338     97.6576     17.7198   -999.2500
   950.2500     18.3883     97.7772     17.7228   -999.2500
   950.5000     18.1613     98.0138     17.7314   -999.2500
   950.7500     17.9786     98.3343     17.8575   -999.2500
   951.0000     17.8522     98.6996     18.3065   -999.2500
   951.2500     17.7789     99.0747     19.4386   -999.2500
   951.5000     17.7433     99.4345     21.9078   -999.2500
   951.7500     17.7252     99.7646     26.3688   -999.2500
   952.0000     17.7074    100.0600     37.1504   -999.2500
   952.2500     17.6810    100.3226     65.8304   -999.2500
   952.5000     17.6449    100.5587    217.3512   -999.2500
   952.7500     17.6041    100.7758 100000.0000   -999.2500
   953.0000     17.5707    100.9799 100000.0000   -999.2500
   953.2500     17.5637    101.1733 100000.0000   -999.2500
   953.5000     17.6040    101.3543 100000.0000   -999.2500
   953.7500     17.7083    101.5212 100000.0000   -999.2500
   954.0000     17.8886    101.6718 100000.0000   -999.2500
   954.2500     18.1534    101.7973 100000.0000   -999.2500
   954.5000     18.5072    101.8647 100000.0000   -999.2500
   954.7500     18.9523    101.7849 100000.0000   -999.2500
   955.0000     19.4902    101.3805 100000.0000   -999.2500
   955.2500     20.1238    100.3767 100000.0000   -999.2500
   955.5000     20.8323     98.4480 100000.0000   -999.2500
   955.7500     21.4900     95.3305 100000.0000   -999.2500
   956.0000     21.7243     90.9655 100000.0000   -999.2500
   956.2500     20.8540     85.6003 100000.0000   -999.2500
   956.5000     18.1686     79.7697 100000.0000   -999.2500
   956.7500     13.5608     74.1437 100000.0000   -999.2500
   957.0000      7.9370     69.3114 100000.0000   -999.2500
   957.2500      2.7774     65.6108 100000.0000   -999.2500
   957.5000     -0.8490     63.0813 100000.0000   -999.2500
   957.7500     -2.8172     61.5369 100000.0000   -999.2500
   958.0000     -3.6452     60.6943 100000.0000   -999.2500
   958.2500     -3.9156     60.2833 100000.0000   -999.2500
   958.5000     -3.9843     60.1041 100000.0000   -999.2500
   958.7500     -3.9979     60.0342 100000.0000   -999.2500
   959.0000   -999.2500     60.0098 100000.0000   -999.2500
   959.2500   -999.2500     60.0022   4785.1538   -999.2500
   959.5000   -999.2500   -999.2500   2059.0430   -999.2500
   959.7500   -999.2500   -999.2500   1553.0935   -999.2500
   960.0000   -999.2500   -999.2500   1387.1024   -999.2500
   960.2500   -999.2500   -999.2500   1328.2032   -999.2500
   960.5000   -999.2500   -999.2500   1308.5598   -999.2500
   960.7500   -999.2500   -999.2500   1302.7566   -999.2500
   961.0000   -999.2500   -999.2500   1301.2759   -999.2500
   961.2500   -999.2500   -999.2500 100000.0000   -999.2500
