~Version Information
VERS.                      2.0: CWLS Log ASCII Standard - VERSION 2.0
WRAP.                       NO: One line per depth step
~Well Information Block
STRT.FT                10.0000: 
STOP.FT              1066.5000: 
STEP.FT                 0.2500: 
NULL.                -999.2500: 
COMP.          Pioneer Natural Resources: COMPANY
WELL.            Redland 23-24: WELL
FLD.           Purgatoire River: FIELD
LOC.           2356' FSL & 1880' FWL----: LOCATION
PROV.                 Colorado: PROVINCE
CNTY.               Las Animas: COUNTRY
SRVC.                         : SERVICE COMPANY
DATE.          Thu Mar 24 10:01:02 2005: LOG DATE
UWI.           05 071 08221   : UNIQUE WELL ID
~Curve Information Block
DEPT.FT            0 000 00 00: Depth
CCL.                          : Casing Collar Locator
TT3.usec                      : CBL 3' Travel Time
AMP3.mV                       : CBL 3' Amplitude
AMP5.mV                       : CBL 5' Amplitude
GR.GAPI                       : Gamma Ray
~Parameter Information Block
~A  Depth       CCL         TT3         AMP3        AMP5         GR     
# ...
   850.0000      0.0000    764.4940      6.4713      4.1301     97.2319
   850.2500      0.0000    771.1821      6.6952      3.6948     94.4257
   850.5000      0.0000    774.7619      6.9469      4.8264     94.1389
   850.7500      0.0000    768.7916      7.1755      3.7819     96.3756
   851.0000      0.0000    749.9836      7.3341      4.5653    100.4342
   851.2500      0.0000    722.3228      7.3946      4.2171    104.7379
   851.5000      0.0000    694.6881      7.3484      3.6948    107.1193
   851.7500      0.0000    674.4899      7.1863      2.9114    105.8238
   852.0000      0.0000    665.0820      6.8819      2.7373    100.5866
   852.2500      0.0000    667.8297      6.4092      2.3021     93.0478
   852.5000      0.0000    682.9414      5.7833      2.3891     86.0487
   852.7500      0.0000    707.3641      5.0774      1.8668     81.9240
   853.0000      0.0000    734.1352      4.3898      0.6482     81.0472
   853.2500      0.0000    755.3686      3.7883      1.0834     81.8049
   853.5000      0.0000    765.9210      3.2838      0.7352     81.8455
   853.7500      0.0000    764.5186      2.8472      0.3000     79.5944
   854.0000      0.0000    752.8269      2.4456      0.0389     75.0589
   854.2500      0.0000    734.2920      2.0660      0.6482     69.4904
   854.5000      0.0000    713.5129      1.7218      0.7352     64.3815
   854.7500      0.0000    696.2371      1.4482      0.3870     60.6800
   855.0000      0.0000    689.4157      1.2899      0.1259     58.6398
   855.2500      0.0000    699.3373      1.2808      0.5611     58.1640
   855.5000      0.0000    727.3808      1.4276      0.3870     59.2352
   855.7500      0.0000    766.7734      1.7030      0.7352     61.9503
   856.0000      0.0000    804.4802      2.0531      0.6482     66.1897
   856.2500      0.0000    828.0275      2.4197      0.7352     71.4792
   856.5000      0.0000    832.5245      2.7726      0.2130     77.1967
   856.7500      0.0000    822.5180      3.1381      0.8223     82.6916
   857.0000      0.0000    807.1487      3.5889      1.5187     87.2932
   857.2500      0.0000    792.8405      4.1849      2.4762     90.5137
   857.5000      0.0000    779.9347      4.9046      2.1280     92.4979
   857.7500      0.0000    765.2071      5.6431      0.6482     94.1437
   858.0000      0.0000    746.8293      6.2928      1.8668     96.2913
   858.2500      0.0000    727.3062      6.8192      1.3446     98.7869
   858.5000      0.0000    712.0190      7.2507      2.7373    100.9391
   858.7500      0.0000    704.3113      7.6080      4.1301    102.6876
   859.0000      0.0000    701.8273      7.8658      3.9560    104.3821
   859.2500      0.0000    698.4990      7.9809      3.5207    105.4801
   859.5000      0.0000    690.0642      7.9411      4.1301    104.6471
   859.7500      0.0000    676.8088      7.7812      4.6523    101.4846
   860.0000      0.0000    661.9662      7.5591      4.7394     97.3526
   860.2500      0.0000    649.6199      7.3238      5.3487     93.9829
   860.5000      0.0000    644.0433      7.1045      4.0430     91.7294
   860.7500      0.0000    648.8979      6.9215      4.8264     89.7152
   861.0000      0.0000    665.4829      6.7909      4.3912     87.4003
   861.2500      0.0000    691.3169      6.7144      4.3041     85.1432
   861.5000      0.0000    720.2197      6.6742      4.4782     83.1335
   861.7500      0.0000    744.5967      6.6502      4.7394     80.6996
   862.0000      0.0000    759.4914      6.6499      4.3041     77.0463
   862.2500      0.0000    765.4514      6.7123      4.0430     72.1288
   862.5000      0.0000    767.4088      6.8698      4.3912     66.6805
   862.7500      0.0000    770.7736      7.0996      4.3041     61.8607
   863.0000      0.0000    777.9243      7.3232      4.8264     58.8858
   863.2500      0.0000    787.3327      7.4597      6.0451     58.4796
   863.5000      0.0000    796.1517      7.4789      5.4358     60.3076
   863.7500      0.0000    803.8692      7.4047      2.6503     62.8930
   864.0000      0.0000    812.7415      7.2850      3.3466     64.3906
   864.2500      0.0000    824.6053      7.1788      5.3487     63.8959
   864.5000      0.0000    838.2425      7.1671      5.6098     62.1281
   864.7500      0.0000    850.2528      7.3310      5.5228     60.6516
   865.0000      0.0000    857.7341      7.6829      5.2617     60.4468
   865.2500      0.0000    859.8418      8.1221      5.0005     61.2988
   865.5000      0.0000    857.7900      8.4884      5.0005     62.3311
   865.7500      0.0000    854.3542      8.6698      5.6098     62.9880
   866.0000      0.0000    852.6441      8.6623      4.8264     63.6070
   866.2500      0.0000    853.9507      8.5352      4.7394     65.0715
   866.5000      0.0000    856.6374      8.3598      4.0430     67.7086
   866.7500      0.0000    858.0361      8.1749      4.4782     70.5451
   867.0000      0.0000    857.6518      8.0084      4.3912     71.8298
   867.2500      0.0000    857.9027      7.9019      4.5653     70.3604
   867.5000      0.0000    861.2088      7.8944      4.5653     66.4537
   867.7500      0.0000    866.6566      7.9773      5.0005     61.8630
   868.0000      0.0000    870.4139      8.0842      7.0896     58.5998
   868.2500      0.0000    869.1343      8.1383      5.6969     57.4408
   868.5000      0.0000    861.4949      8.1022      5.3487     57.6035
   868.7500      0.0000    846.8479      7.9760      5.8710     58.1097
   869.0000      0.0000    825.2099      7.7689      6.6544     59.2852
   869.2500      0.0000    799.6917      7.4924      5.9580     62.5250
   869.5000      0.0000    776.5575      7.1770      5.9580     68.4701
   869.7500      0.0000    761.0080      6.8693      4.8264     75.6353
   870.0000      0.0000    753.6293      6.6077      4.9135     81.2708
   870.2500      0.0000    751.4140      6.4070      4.9135     83.8979
   870.5000      0.0000    751.0424      6.2698      4.8264     84.5974
   870.7500      0.0000    750.7302      6.2038      3.6948     85.3092
   871.0000      0.0000    750.0914      6.2199      3.6078     86.5052
   871.2500      0.0000    749.3583      6.3116      2.8244     87.3679
   871.5000      0.0000    748.8110      6.4434      2.3021     87.4891
   871.7500      0.0000    748.5494      6.5630      3.1725     87.2955
   872.0000      0.0000    748.5229      6.6260      3.1725     87.3253
   872.2500      0.0000    748.6571      6.6126      3.5207     87.9434
   872.5000      0.0000    748.9435      6.5294      3.9560     89.3930
   872.7500      0.0000    749.4202      6.3992      3.9560     91.4967
   873.0000      0.0000    750.0818      6.2425      3.2596     93.5031
   873.2500      0.0000    750.8474      6.0615      3.4337     94.4470
   873.5000      0.0000    751.7053      5.8319      1.9539     93.5624
   873.7500      0.0000    753.0501      5.5111      1.5187     90.6968
   874.0000      0.0000    756.1752      5.0610      1.2575     86.7554
   874.2500      0.0000    763.4985      4.4797      1.5187     83.4168
   874.5000      0.0000    777.3917      3.8208      1.3446     81.7493
   874.7500      0.0000    797.2091      3.1764      1.2575     81.0127
   875.0000      0.0000    817.1010      2.6264      1.2575     79.1819
   875.2500      0.0000    828.2546      2.1956      0.2130     74.8270
   875.5000      0.0000    824.5145      1.8553      0.4741     68.4570
   875.7500      0.0000    805.7582      1.5609      0.1259     62.0264
   876.0000      0.0000    776.4882      1.2881      0.4741     57.1345
   876.2500      0.0000    742.8969      1.0430      0.2130     53.7463
   876.5000      0.0000    711.2057      0.8498      0.3000     50.7250
   876.7500      0.0000    686.4623      0.7328      0.2130     47.3860
   877.0000      0.0000    671.3269      0.7065      0.3870     44.1609
   877.2500      0.0000    666.3387      0.7737      0.2130     41.8140
   877.5000      0.0000    671.6580      0.9284      0.4741     40.4755
   877.7500      0.0000    687.6349      1.1576      0.4741     39.6219
