~Version Information
VERS.                      2.0: CWLS Log ASCII Standard - VERSION 2.0
WRAP.                       NO: One line per depth step
~Well Information Block
STRT.FT                -7.2500: 
STOP.FT               765.5000: 
STEP.FT                 0.2500: 
NULL.                -999.2500: 
COMP.          Pioneer Natural Resources: COMPANY
WELL.          Barrelman 41-27: WELL
FLD.           Purgatorie River: FIELD
LOC.           371' FNL & 493' FEL--: LOCATION
PROV.                       CO: PROVINCE
CNTY.               Las Animas: COUNTRY
SRVC.          Patterson Wireline: SERVICE COMPANY
DATE.          Wed May 25 09:32:20 2005: LOG DATE
UWI.           05 071 08334 00: UNIQUE WELL ID
~Curve Information Block
DEPT.FT            0 000 00 00: Depth
CCL.                          : Casing Collar Locator
TT3.usec                      : CBL 3' Travel Time
AMP3.mV                       : CBL 3' Amplitude
GR.GAPI                       : Gamma Ray
~Parameter Information Block
~A  Depth       CCL         TT3         AMP3         GR     
# ...
    26.2500      0.0000    838.5869      6.6819     76.0045
    26.5000      0.0000    838.3393      6.6480     76.7889
    26.7500      0.0000    839.9129      6.6259     78.9406
    27.0000      0.0000    841.4209      6.6179     81.4371
    27.2500      0.0000    842.1857      6.6232     81.9585
    27.5000      0.0000    842.9066      6.6387     79.0732
    27.7500      0.0000    844.4857      6.6612     73.6160
    28.0000      0.0000    846.8453      6.6886     67.6653
    28.2500      0.0000    849.1425      6.7200     62.7293
    28.5000      0.0000    850.7330      6.7534     59.2367
    28.7500      0.0000    851.5818      6.7835     57.0645
    29.0000      0.0000    851.9865      6.8038     55.8723
    29.2500      0.0000    852.2662      6.8112     55.2065
    29.5000      0.0000    852.8827      6.8101     54.8072
    29.7500      0.0000    854.9202      6.8097     54.8393
    30.0000      0.0000    860.5418      6.8182     55.7526
    30.2500      0.0000    872.1971      6.8406     58.0009
    30.5000      0.0000    889.5712      6.8791     61.7764
    30.7500      0.0000    906.6139      6.9325     66.6242
    31.0000      0.0000    913.9548      6.9955     71.2079
    31.2500      0.0000    906.8884      7.0595     73.8210
    31.5000      0.0000    890.0778      7.1174     73.5013
    31.7500      0.0000    872.8319      7.1694     70.7349
    32.0000      0.0000    861.2076      7.2234     67.0583
    32.2500      0.0000    855.7054      7.2918     63.9461
    32.5000      0.0000    854.2502      7.3817     61.9410
    32.7500      0.0000    855.0129      7.4877     60.6814
    33.0000      0.0000    856.6988      7.5939     59.6217
    33.2500      0.0000    857.7446      7.6866     58.6376
    33.5000      0.0000    856.5895      7.7616     57.9644
    33.7500      0.0000    853.1162      7.8215     57.7337
    34.0000      0.0000    849.2092      7.8668     57.7703
    34.2500      0.0000    847.1694      7.8935     57.8132
    34.5000      0.0000    848.3159      7.9009     57.7443
    34.7500      0.0000    853.6100      7.8976     57.5724
    35.0000      0.0000    864.4932      7.8967     57.4522
    35.2500      0.0000    881.5369      7.9054     57.8789
    35.5000      0.0000    901.8475      7.9224     59.5587
    35.7500      0.0000    918.2172      7.9425     62.6596
    36.0000      0.0000    922.5911      7.9615     66.2356
    36.2500      0.0000    912.6003      7.9763     68.7327
    36.5000      0.0000    894.4774      7.9841     69.2048
    36.7500      0.0000    877.9925      7.9822     68.0298
    37.0000      0.0000    868.9094      7.9704     66.4373
    37.2500      0.0000    866.6242      7.9527     65.3330
    37.5000      0.0000    866.9761      7.9352     64.6218
    37.7500      0.0000    865.6913      7.9214     63.6818
    38.0000      0.0000    860.1624      7.9113     62.2296
    38.2500      0.0000    849.8304      7.9047     60.4950
    38.5000      0.0000    835.8029      7.9034     58.7624
    38.7500      0.0000    820.1716      7.9056     57.0832
    39.0000      0.0000    805.5918      7.9049     55.5556
    39.2500      0.0000    794.7134      7.8962     54.7154
    39.5000      0.0000    789.0397      7.8819     55.3289
    39.7500      0.0000    787.9827      7.8663     57.6728
    40.0000      0.0000    789.3341      7.8471     61.1615
    40.2500      0.0000    790.9376      7.8154     64.8132
    40.5000      0.0000    792.1346      7.7646     68.0084
    40.7500      0.0000    793.7830      7.6988     70.7422
    41.0000      0.0000    796.8748      7.6286     73.2325
    41.2500      0.0000    801.0043      7.5616     75.4516
    41.5000      0.0000    804.2610      7.4945     77.2089
    41.7500      0.0000    804.6986      7.4168     78.7088
    42.0000      0.0000    801.7682      7.3202     80.6620
    42.2500      0.0000    796.6246      7.2064     83.5153
    42.5000      0.0000    792.0564      7.0748     86.7563
    42.7500      0.0000    792.9184      6.9027     89.2999
    43.0000      0.0000    806.1686      6.6492     90.5407
    43.2500      0.0000    838.7052      6.2943     90.8251
    43.5000      0.0000    892.9422      5.8796     90.9095
    43.7500      0.0000    962.7878      5.5080     91.1600
    44.0000      0.0000   1034.3011      5.2911     91.4151
    44.2500      0.0000   1092.6888      5.2744     91.4815
    44.5000      0.0000   1130.5250      5.4041     91.5169
    44.7500      0.0000   1149.7811      5.5740     91.9447
    45.0000     -2.0000   1156.8889      5.7025     93.1468
    45.2500      0.0000   1156.5686      5.7686     95.0700
    45.5000      0.0000   1148.7303      5.8067     96.8007
    45.7500      0.0000   1129.0823      5.8871     96.6460
    46.0000      0.0000   1093.3401      6.0784     93.2158
    46.2500      0.0000   1043.2754      6.4052     86.7172
    46.5000      0.0000    988.7336      6.8349     78.9991
    46.7500      0.0000    941.6279      7.3002     72.2684
    47.0000      0.0000    907.8176      7.7222     67.9260
    47.2500      0.0000    885.8862      8.0327     66.3668
    47.5000      0.0000    872.0511      8.2057     67.3115
    47.7500      0.0000    863.7090      8.2722     70.1083
    48.0000      0.0000    859.2366      8.2905     73.9468
    48.2500      0.0000    857.0770      8.3040     78.0044
    48.5000      0.0000    855.7756      8.3240     81.5745
    48.7500      0.0000    854.1945      8.3436     84.2692
    49.0000      0.0000    851.4171      8.3555     86.1930
    49.2500      0.0000    846.9085      8.3573     87.6826
    49.5000      0.0000    841.0460      8.3509     88.6819
    49.7500      0.0000    835.2385      8.3408     88.6031
    50.0000      0.0000    830.9812      8.3330     87.2127
    50.2500      0.0000    828.6842      8.3285     85.5711
    50.5000      0.0000    827.3755      8.3193     85.4542
    50.7500      0.0000    825.1608      8.2931     87.4166
    51.0000      0.0000    820.2847      8.2425     89.7532
    51.2500      0.0000    813.0063      8.1678     89.8862
    51.5000      0.0000    806.4264      8.0760     86.6987
    51.7500      0.0000    803.9597      7.9794     81.1888
    52.0000      0.0000    805.7564      7.8921     75.1032
    52.2500      0.0000    808.7938      7.8245     69.6357
    52.5000      0.0000    810.2413      7.7802     65.4895
    52.7500      0.0000    809.4348      7.7615     63.2677
    53.0000      0.0000    807.1132      7.7720     63.0444
    53.2500      0.0000    804.5889      7.8113     63.9321
    53.5000      0.0000    803.6915      7.8702     64.8344
    53.7500      0.0000    805.8878      7.9358     65.5179
    54.0000      0.0000    810.7214      8.0012     66.4984
    54.2500      0.0000    815.6010      8.0648     68.1081
    54.5000      0.0000    817.0810      8.1214     70.0471
    54.7500      0.0000    812.4717      8.1635     71.6782
    55.0000      0.0000    802.0160      8.1913     72.6600
    55.2500      0.0000    790.8961      8.2168     73.4511
    55.5000      0.0000    787.2217      8.2545     75.0621
    55.7500      0.0000    795.3323      8.3075     77.9719
    56.0000      0.0000    811.2646      8.3621     81.2384
    56.2500      0.0000    825.8715      8.3936     82.9411
    56.5000      0.0000    832.0098      8.3813     81.7195
    56.7500      0.0000    828.9315      8.3217     77.9894
    57.0000      0.0000    821.4703      8.2276     73.5917
    57.2500      0.0000    815.3648      8.1173     70.2323
    57.5000      0.0000    812.5070      8.0042     68.4410
    57.7500      0.0000    811.1568      7.8968     67.9655
    58.0000      0.0000    810.4811      7.8024     68.4353
    58.2500      0.0000    812.0384      7.7247     69.2576
    58.5000      0.0000    815.8215      7.6613     69.6436
    58.7500      0.0000    817.9258      7.6076     69.4674
    59.0000      0.0000    814.1945      7.5644     69.6025
    59.2500      0.0000    804.6368      7.5357     70.7129
    59.5000      0.0000    792.7717      7.5220     72.0573
