~Version Information
VERS.                      2.0: CWLS Log ASCII Standard - VERSION 2.0
WRAP.                       NO: One line per depth step
~Well Information Block
STRT.FT               519.6000: 
STOP.FT              2727.5000: 
STEP.FT                 0.1000: 
NULL.                -999.2500: 
COMP.          Petrogulf Corporation: COMPANY
WELL.              Silva 6-22V: WELL
FLD.           Purgatorie River: FIELD
LOC.           1936' FNL & 1798' FWL: LOCATION
CNTY.               Las Animas: COUNTY
SRVC.                         : SERVICE COMPANY
DATE.          Tue Nov 09 12:21:27 2004: LOG DATE
UWI.           05 071 08143 00: UNIQUE WELL ID
STAT.                 Colorado: STATE
~Curve Information Block
DEPT.FT            0 000 00 00: Depth
DCAL.in                       : CDL Caliper
RHOB.g/cc                     : CDL Bulk Density
RHOC.g/cc                     : CDL Density Correction
DPOR.pu                       : CDL Density Porosity
GR.GAPI                       : Gamma Ray
NPOR.pu                       : Neutron Porosity
~Parameter Information Block
~A  Depth       DCAL        RHOB        RHOC        DPOR         GR         NPOR    
# ...
  2574.0000      7.8541      2.5510      0.0383      6.0026     56.9328     10.6781
  2574.1000      7.8541      2.5559      0.0491      5.7025     53.2228     11.2671
  2574.2000      7.8541      2.5595      0.0354      5.4841     54.8541     11.9321
  2574.3000      7.8515      2.5557      0.0301      5.7176     58.0212     12.1544
  2574.4000      7.8515      2.5460      0.0198      6.3046     58.2549     11.9094
  2574.5000      7.8508      2.5459      0.0031      6.3117     58.0870     11.5127
  2574.6000      7.8508      2.5575      0.0549      5.6038     58.7422     11.3366
  2574.7000      7.8508      2.5644      0.0303      5.1850     55.8219     11.4300
  2574.8000      7.8463      2.5679      0.0239      4.9775     49.4418     11.3310
  2574.9000      7.8463      2.5795      0.0554      4.2753     45.7344     11.0813
  2575.0000      7.8419      2.5912      0.0563      3.5646     48.5129     11.0179
  2575.1000      7.8419      2.5915      0.0491      3.5459     54.4697     11.0174
  2575.2000      7.8419      2.5816      0.0473      4.1477     57.7092     11.1831
  2575.3000      7.8475      2.5640      0.0780      5.2117     56.4332     11.5933
  2575.4000      7.8475      2.5388      0.0347      6.7420     53.2914     11.8141
  2575.5000      7.8538      2.5133     -0.0062      8.2829     51.4815     11.5492
  2575.6000      7.8538      2.4998      0.0119      9.1000     53.1343     11.0466
  2575.7000      7.8538      2.5037     -0.0112      8.8668     56.7513     10.5901
  2575.8000      7.8492      2.5226     -0.0022      7.7209     58.5503     10.1803
  2575.9000      7.8492      2.5494      0.0096      6.0944     57.4470      9.8318
  2576.0000      7.8436      2.5733      0.0433      4.6489     56.5041      9.8524
  2576.1000      7.8436      2.5839      0.0692      4.0056     58.2028     10.2139
  2576.2000      7.8436      2.5842      0.0462      3.9885     59.3490     10.5043
  2576.3000      7.8464      2.5838      0.0692      4.0151     58.0802     10.9253
  2576.4000      7.8464      2.5817      0.0325      4.1368     57.7640     11.7677
  2576.5000      7.8606      2.5780      0.0521      4.3635     57.3969     12.6191
  2576.6000      7.8606      2.5767      0.0294      4.4450     53.9749     12.9981
  2576.7000      7.8606      2.5785      0.0469      4.3337     49.6148     12.7600
  2576.8000      7.8649      2.5824      0.0410      4.0983     46.9528     12.0762
  2576.9000      7.8649      2.5857      0.0522      3.8948     46.6518     11.3800
  2577.0000      7.8549      2.5820      0.0408      4.1227     48.3915     11.0827
  2577.1000      7.8549      2.5707      0.0215      4.8056     48.8888     11.3204
  2577.2000      7.8549      2.5625      0.0454      5.3046     46.7759     11.7501
  2577.3000      7.8478      2.5633      0.0306      5.2555     44.4591     11.9063
  2577.4000      7.8478      2.5667      0.0576      5.0505     42.8838     11.4677
  2577.5000      7.8448      2.5617      0.0210      5.3503     42.7307     10.7530
  2577.6000      7.8448      2.5515      0.0224      5.9706     45.7771     10.4873
  2577.7000      7.8448      2.5432      0.0283      6.4724     51.5113     10.5489
  2577.8000      7.8479      2.5371      0.0157      6.8397     55.5077     10.6045
  2577.9000      7.8479      2.5357      0.0293      6.9272     53.6056     11.0072
  2578.0000      7.8501      2.5377      0.0381      6.8036     48.7229     11.8228
  2578.1000      7.8501      2.5374      0.0230      6.8257     45.8617     12.4978
  2578.2000      7.8501      2.5332      0.0147      7.0805     47.1163     12.4747
  2578.3000      7.8451      2.5262      0.0290      7.5008     51.3719     11.7203
  2578.4000      7.8451      2.5216     -0.0070      7.7809     55.1357     10.8773
  2578.5000      7.8469      2.5282      0.0195      7.3822     57.3184     10.4424
  2578.6000      7.8469      2.5427      0.0508      6.5015     56.6905     10.2347
  2578.7000      7.8469      2.5546      0.0217      5.7825     53.6758     10.0967
  2578.8000      7.8494      2.5604      0.0338      5.4308     50.9927     10.2460
  2578.9000      7.8494      2.5595      0.0315      5.4823     49.0347     10.7147
  2579.0000      7.8467      2.5563     -0.0002      5.6776     48.6794     11.1836
  2579.1000      7.8467      2.5534      0.0457      5.8529     50.1107     11.3208
  2579.2000      7.8467      2.5448      0.0259      6.3731     51.3555     11.3406
  2579.3000      7.8454      2.5347      0.0239      6.9860     51.9384     11.8783
  2579.4000      7.8454      2.5324      0.0351      7.1277     54.1573     12.9700
  2579.5000      7.8419      2.5350      0.0525      6.9716     58.2908     13.7225
  2579.6000      7.8419      2.5357      0.0335      6.9273     59.7307     13.4403
  2579.7000      7.8419      2.5344     -0.0122      7.0039     56.6253     12.8648
  2579.8000      7.8362      2.5347      0.0073      6.9882     53.4309     12.8104
  2579.9000      7.8362      2.5367      0.0349      6.8664     52.5661     12.9708
  2580.0000      7.8364      2.5385      0.0185      6.7549     50.7571     12.7639
  2580.1000      7.8364      2.5365      0.0237      6.8818     47.8249     12.0681
  2580.2000      7.8364      2.5300      0.0219      7.2704     47.1358     11.2034
  2580.3000      7.8458      2.5283      0.0158      7.3750     47.8143     10.8553
  2580.4000      7.8458      2.5352      0.0139      6.9576     48.1878     11.3789
  2580.5000      7.8534      2.5408      0.0162      6.6186     50.2849     12.0333
  2580.6000      7.8534      2.5383      0.0468      6.7668     52.8631     11.8839
  2580.7000      7.8534      2.5363      0.0009      6.8935     53.1553     11.3852
  2580.8000      7.8545      2.5383      0.0495      6.7686     51.0078     11.2211
  2580.9000      7.8545      2.5344      0.0338      7.0046     45.5558     11.0328
  2581.0000      7.8543      2.5305      0.0127      7.2430     40.7976     10.5552
  2581.1000      7.8543      2.5412      0.0253      6.5969     41.5941     10.0344
  2581.2000      7.8543      2.5629      0.0190      5.2789     44.3288      9.6939
  2581.3000      7.8568      2.5784      0.0690      4.3395     44.8069      9.7774
  2581.4000      7.8568      2.5769      0.0708      4.4323     44.4122     10.1257
  2581.5000      7.8592      2.5696      0.0277      4.8738     45.5404     10.3782
  2581.6000      7.8592      2.5666      0.0811      5.0561     49.1136     10.7200
  2581.7000      7.8592      2.5631      0.0407      5.2678     52.7319     11.3728
  2581.8000      7.8544      2.5603      0.0343      5.4351     51.9985     11.8105
  2581.9000      7.8544      2.5582      0.0336      5.5626     47.2306     11.6298
  2582.0000      7.8477      2.5489      0.0310      6.1279     42.5463     11.3960
  2582.1000      7.8477      2.5354      0.0183      6.9453     39.7982     11.5958
  2582.2000      7.8477      2.5355      0.0111      6.9408     38.7327     12.0957
  2582.3000      7.8469      2.5568      0.0343      5.6467     40.0617     12.3454
  2582.4000      7.8469      2.5811      0.0581      4.1735     43.2596     11.8582
  2582.5000      7.8499      2.5889      0.0268      3.7049     46.0409     11.0861
  2582.6000      7.8499      2.5844      0.0263      3.9762     47.2477     10.8620
  2582.7000      7.8499      2.5769      0.0531      4.4317     45.7717     11.1771
  2582.8000      7.8532      2.5700      0.0390      4.8484     41.0829     11.3555
  2582.9000      7.8532      2.5711      0.0319      4.7838     36.9488     11.2312
  2583.0000      7.8594      2.5828      0.0462      4.0742     35.0581     11.2138
  2583.1000      7.8594      2.5935      0.0881      3.4254     31.6697     11.5809
  2583.2000      7.8594      2.5891      0.0740      3.6936     28.5872     12.6114
  2583.3000      7.8650      2.5667      0.0655      5.0460     30.0348     14.4655
  2583.4000      7.8650      2.5313      0.0035      7.1924     33.8168     16.6061
  2583.5000      7.8639      2.4797      0.0325     10.3225     36.6380     18.3003
