~Version Information
 VERS.                      2.0: CWLS Log ASCII Standard - VERSION 2.0
 WRAP.                       NO: One line per depth step
 ~Well Information Block
 STRT.FT               763.7500: 
 STOP.FT              2577.0000: 
 STEP.FT                 0.2500: 
 NULL.                -999.2500: 
 COMP.          Petrogulf Corporation: COMPANY
 WELL.               J&P 12-33V: WELL
 FLD.           Purgatorie River: FIELD
 LOC.           2005' FSL & 1928' FEL: LOCATION
 CNTY.               Las Animas: COUNTY
 SRVC.                         : SERVICE COMPANY
 DATE.          Sat Aug 28 09:00:36 2004: LOG DATE
 UWI.           05 071 08092 00: UNIQUE WELL ID
 STAT.                 Colorado: STATE
 PROV.                         :Province
 ~Curve Information Block
 DEPT.FT            0 000 00 00: Depth
 SP.mV                         : DIL Spontaneous Potential
 RILD.Ohm-m                    : DIL Deep Resistivity
 RILM.Ohm-m                    : DIL Medium Resistivity
 RLL3.Ohm-m                    : DIL Shallow Resistivity
 GR.GAPI                       : Gamma Ray
 ~Parameter Information Block
 ~A  Depth        SP         RILD        RILM        RLL3         GR     
# ...
  2555.7500      5.2031     12.8490     13.5802     15.2556   -999.2500
  2556.0000      5.0304     12.8464     13.5977     15.3804   -999.2500
  2556.2500      4.8976     12.7450     13.5418     15.5463   -999.2500
  2556.5000      4.8033     12.5813     13.4184     15.7290   -999.2500
  2556.7500      4.7351     12.4144     13.2394     15.8619   -999.2500
  2557.0000      4.6696     12.3222     13.0224     15.8307   -999.2500
  2557.2500      4.5757     12.4004     12.7878     15.5000   -999.2500
  2557.5000      4.4197     12.7707     12.5561     14.7875   -999.2500
  2557.7500      4.1727     13.6019     12.3460     13.7489   -999.2500
  2558.0000      3.8193     15.1576     12.1722     12.5981   -999.2500
  2558.2500      3.3634     17.8947     12.0443     11.6243   -999.2500
  2558.5000      2.8307     22.6902     11.9678     11.0514   -999.2500
  2558.7500      2.2635     30.8189     11.9434     10.9389   -999.2500
  2559.0000      1.7113     47.3446     11.9683     11.1852   -999.2500
  2559.2500      1.2181     84.9379     12.0370     11.6181   -999.2500
  2559.5000      0.8135    205.3287     12.1428     12.1014   -999.2500
  2559.7500      0.5084   3269.9795     12.2790     12.5924   -999.2500
  2560.0000      0.2965 100000.0000     12.4424     13.1279   -999.2500
  2560.2500      0.1611 100000.0000     12.6357     13.7564   -999.2500
  2560.5000      0.0814 100000.0000     12.8727     14.4598   -999.2500
  2560.7500      0.0382 100000.0000     13.1817     15.1101   -999.2500
  2561.0000      0.0166 100000.0000     13.6086     15.4949   -999.2500
  2561.2500      0.0067 100000.0000     14.2201     15.4105   -999.2500
  2561.5000      0.0024 100000.0000     15.1067     14.7707   -999.2500
  2561.7500      0.0008    599.9103     16.3898     13.6638   -999.2500
  2562.0000      0.0002    992.8054     18.2341     12.3147   -999.2500
  2562.2500   -999.2500   2208.1475     20.8672     10.9844   -999.2500
  2562.5000   -999.2500  27797.2461     24.6082      9.8813   -999.2500
  2562.7500   -999.2500 100000.0000     29.8979      9.1342   -999.2500
  2563.0000   -999.2500 100000.0000     37.3180      8.8128   -999.2500
  2563.2500   -999.2500 100000.0000     47.5508      8.9430   -999.2500
  2563.5000   -999.2500 100000.0000     61.1969      9.4921   -999.2500
  2563.7500   -999.2500 100000.0000     78.0803     10.3436   -999.2500
  2564.0000   -999.2500 100000.0000     98.0589     11.2995   -999.2500
  2564.2500   -999.2500 100000.0000    118.0559     12.1231   -999.2500
  2564.5000   -999.2500 100000.0000    135.5993     12.6083   -999.2500
  2564.7500   -999.2500 100000.0000    148.8649     12.6441   -999.2500
  2565.0000   -999.2500 100000.0000    157.6818     12.2509   -999.2500
  2565.2500   -999.2500 100000.0000    163.0525     11.5687   -999.2500
  2565.5000   -999.2500 100000.0000    166.2819     10.7979   -999.2500
  2565.7500   -999.2500 100000.0000    168.4574     10.1274   -999.2500
  2566.0000   -999.2500 100000.0000    170.3369      9.6894   -999.2500
  2566.2500   -999.2500 100000.0000    172.4130      9.5563   -999.2500
  2566.5000   -999.2500 100000.0000    764.0211      9.7539   -999.2500
  2566.7500   -999.2500 100000.0000    830.2402     10.2597   -999.2500
  2567.0000   -999.2500 100000.0000    925.9965     10.9875   -999.2500
  2567.2500   -999.2500 100000.0000   1063.8329     11.7897   -999.2500
  2567.5000   -999.2500 100000.0000   1261.8873     12.5054   -999.2500
  2567.7500   -999.2500 100000.0000   1546.4641     13.0314   -999.2500
  2568.0000   -999.2500 100000.0000   1954.7926     13.3604   -999.2500
  2568.2500   -999.2500   -999.2500   2536.0496     13.5467   -999.2500
  2568.5000   -999.2500   -999.2500   3345.4817     13.6345   -999.2500
  2568.7500   -999.2500   -999.2500   4422.3540     13.6218   -999.2500
  2569.0000   -999.2500   -999.2500   5745.8076     13.4936   -999.2500
  2569.2500   -999.2500   -999.2500   7190.3076     13.2736   -999.2500
  2569.5000   -999.2500   -999.2500   8543.1777     13.0246   -999.2500
  2569.7500   -999.2500   -999.2500   9612.3340     12.7943   -999.2500
  2570.0000   -999.2500   -999.2500  10329.7168     12.5619   -999.2500
  2570.2500   -999.2500   -999.2500  10747.6025     12.2373   -999.2500
  2570.5000   -999.2500   -999.2500  10964.6064     11.7094   -999.2500
  2570.7500   -999.2500   -999.2500  11067.3135     10.8949   -999.2500
  2571.0000   -999.2500   -999.2500  11112.3818      9.7440   -999.2500
  2571.2500   -999.2500   -999.2500  11130.8018      8.2148   -999.2500
  2571.5000   -999.2500   -999.2500 100000.0000      6.2765   -999.2500
  2571.7500   -999.2500   -999.2500 100000.0000      3.9743   -999.2500
  2572.0000   -999.2500   -999.2500 100000.0000      1.4986   -999.2500
  2572.2500   -999.2500   -999.2500 100000.0000     -0.8403   -999.2500
  2572.5000   -999.2500   -999.2500 100000.0000     -2.7455   -999.2500
  2572.7500   -999.2500   -999.2500 100000.0000     -4.0706   -999.2500
  2573.0000   -999.2500   -999.2500 100000.0000     -4.8541   -999.2500
  2573.2500   -999.2500   -999.2500 100000.0000     -5.2474   -999.2500
  2573.5000   -999.2500   -999.2500 100000.0000     -5.4149   -999.2500
  2573.7500   -999.2500   -999.2500 100000.0000     -5.4754   -999.2500
  2574.0000   -999.2500   -999.2500   -999.2500     -5.4940   -999.2500
  2574.2500   -999.2500   -999.2500   -999.2500     -5.4988   -999.2500
  2574.5000   -999.2500   -999.2500   -999.2500   -999.2500   -999.2500
  2574.7500   -999.2500   -999.2500   -999.2500   -999.2500   -999.2500
  2575.0000   -999.2500   -999.2500   -999.2500   -999.2500   -999.2500
  2575.2500   -999.2500   -999.2500   -999.2500   -999.2500   -999.2500
  2575.5000   -999.2500   -999.2500   -999.2500   -999.2500   -999.2500
  2575.7500   -999.2500   -999.2500   -999.2500   -999.2500   -999.2500
  2576.0000   -999.2500   -999.2500   -999.2500   -999.2500   -999.2500
  2576.2500   -999.2500   -999.2500   -999.2500   -999.2500   -999.2500
  2576.5000   -999.2500   -999.2500   -999.2500   -999.2500   -999.2500
  2576.7500   -999.2500   -999.2500   -999.2500   -999.2500   -999.2500
  2577.0000   -999.2500   -999.2500   -999.2500   -999.2500   -999.2500
