~Version Information
VERS.                      2.0: CWLS Log ASCII Standard - VERSION 2.0
WRAP.                       NO: One line per depth step
~Well Information Block
STRT.FT               480.0000: 
STOP.FT              1994.2000: 
STEP.FT                 0.1000: 
NULL.                -999.2500: 
COMP.          Evergreen Operating Corporation: COMPANY
WELL.          McCullough 34-32 Tr: WELL
FLD.           Purgatoire River: FIELD
LOC.           394' FSL & 2077' FEL: LOCATION
PROV.                 Colorado: PROVINCE
CNTY.               Las Animas: COUNTRY
SRVC.                Patterson: SERVICE COMPANY
DATE.          Mon Sep 20 07:30:00 2004: LOG DATE
UWI.           05 071 08157 00: UNIQUE WELL ID
~Curve Information Block
DEPT.FT            0 000 00 00: Depth
DCAL.in                       : CDL Caliper
RHOB.g/cc                     : CDL Bulk Density
RHOC.g/cc                     : CDL Density Correction
DPOR.pu                       : CDL Density Porosity
NPOR.pu                       : Neutron Porosity
GR.GAPI                       : Gamma Ray
~Parameter Information Block
~A  Depth       DCAL        RHOB        RHOC        DPOR        NPOR         GR     
# ...
  1968.0000      7.8189      2.5044      0.0978      8.8216     52.9775   -999.2500
  1968.1000      7.8189      2.5368      0.1178      6.8621     52.9826   -999.2500
  1968.2000      7.8189      2.5639      0.1484      5.2179   -999.2500   -999.2500
  1968.3000      7.7748      2.5806      0.1219      4.2080   -999.2500   -999.2500
  1968.4000      7.7748      2.5917      0.1156      3.5358   -999.2500   -999.2500
  1968.5000      7.7332      2.6029      0.1281      2.8556   -999.2500   -999.2500
  1968.6000      7.7332      2.6224      0.0695      1.6698   -999.2500   -999.2500
  1968.7000      7.7332      2.6497      0.1456      0.0170   -999.2500   -999.2500
  1968.8000      7.7140      2.6595      0.1335     -0.5752   -999.2500   -999.2500
  1968.9000      7.7140      2.6387      0.0995      0.6824   -999.2500   -999.2500
  1969.0000      7.7109      2.5997      0.0884      3.0473   -999.2500   -999.2500
  1969.1000      7.7109      2.5627      0.0259      5.2902   -999.2500   -999.2500
  1969.2000      7.7109      2.5482      0.0396      6.1696   -999.2500   -999.2500
  1969.3000      7.7121      2.5556      0.0953      5.7226   -999.2500   -999.2500
  1969.4000      7.7121      2.5595      0.0610      5.4829   -999.2500   -999.2500
  1969.5000      7.7140      2.5426      0.0419      6.5086   -999.2500   -999.2500
  1969.6000      7.7140      2.5189     -0.0226      7.9482   -999.2500   -999.2500
  1969.7000      7.7140      2.5120      0.0003      8.3623   -999.2500   -999.2500
  1969.8000      7.7161      2.5223      0.0031      7.7417   -999.2500   -999.2500
  1969.9000      7.7161      2.5277      0.0742      7.4136   -999.2500   -999.2500
  1970.0000      7.7163      2.5189      0.0114      7.9451   -999.2500   -999.2500
  1970.1000      7.7163      2.5175      0.0052      8.0287   -999.2500   -999.2500
  1970.2000      7.7163      2.5338      0.0618      7.0424   -999.2500   -999.2500
  1970.3000      7.7154      2.5491      0.0735      6.1131   -999.2500   -999.2500
  1970.4000      7.7154      2.5503      0.0439      6.0429   -999.2500   -999.2500
  1970.5000      7.7150      2.5421      0.0259      6.5394   -999.2500   -999.2500
  1970.6000      7.7150      2.5384      0.0027      6.7607   -999.2500   -999.2500
  1970.7000      7.7150      2.5457      0.0605      6.3212   -999.2500   -999.2500
  1970.8000      7.7109      2.5536      0.0658      5.8419   -999.2500   -999.2500
  1970.9000      7.7109      2.5525      0.0801      5.9087   -999.2500   -999.2500
  1971.0000      7.6944      2.5493      0.0217      6.1007   -999.2500   -999.2500
  1971.1000      7.6944      2.5562      0.0448      5.6870   -999.2500   -999.2500
  1971.2000      7.6944      2.5654      0.0669      5.1289   -999.2500   -999.2500
  1971.3000      7.6637      2.5663      0.0483      5.0722   -999.2500   -999.2500
  1971.4000      7.6637      2.5709      0.0223      4.7923   -999.2500   -999.2500
  1971.5000      7.6342      2.5857      0.0800      3.8962   -999.2500   -999.2500
  1971.6000      7.6342      2.5892      0.1086      3.6838   -999.2500   -999.2500
  1971.7000      7.6342      2.5667      0.0511      5.0515   -999.2500   -999.2500
  1971.8000      7.6175      2.5306      0.0508      7.2378   -999.2500   -999.2500
  1971.9000      7.6175      2.5001      0.0477      9.0872   -999.2500   -999.2500
  1972.0000      7.6084      2.4875      0.0256      9.8490   -999.2500   -999.2500
  1972.1000      7.6084      2.4959      0.0397      9.3390   -999.2500   -999.2500
  1972.2000      7.6084      2.5164      0.0352      8.0946   -999.2500   -999.2500
  1972.3000      7.6000      2.5344      0.0465      7.0047   -999.2500   -999.2500
  1972.4000      7.6000      2.5372      0.0578      6.8348   -999.2500   -999.2500
  1972.5000      7.5884      2.5228      0.0323      7.7093   -999.2500   -999.2500
  1972.6000      7.5884      2.5034      0.0331      8.8824   -999.2500   -999.2500
  1972.7000      7.5884      2.4971      0.0109      9.2694   -999.2500   -999.2500
  1972.8000      7.5702      2.5078      0.0472      8.6163   -999.2500   -999.2500
  1972.9000      7.5702      2.5154      0.0685      8.1590   -999.2500   -999.2500
  1973.0000      7.5390      2.5004      0.0426      9.0641   -999.2500   -999.2500
  1973.1000      7.5390      2.4729     -0.0178     10.7331   -999.2500   -999.2500
  1973.2000      7.5390      2.4587      0.0001     11.5961   -999.2500   -999.2500
  1973.3000      7.4949      2.4668      0.0177     11.1007   -999.2500   -999.2500
  1973.4000      7.4949      2.4773      0.0548     10.4651   -999.2500   -999.2500
  1973.5000      7.4405      2.4679      0.0421     11.0377   -999.2500   -999.2500
  1973.6000      7.4405      2.4505     -0.0178     12.0884   -999.2500   -999.2500
  1973.7000      7.4405      2.4532      0.0208     11.9248   -999.2500   -999.2500
  1973.8000      7.3699      2.4729      0.0501     10.7362   -999.2500   -999.2500
  1973.9000      7.3699      2.4842      0.0494     10.0485   -999.2500   -999.2500
  1974.0000      7.2803      2.4757      0.0773     10.5620   -999.2500   -999.2500
  1974.1000      7.2803      2.4574      0.0491     11.6744   -999.2500   -999.2500
  1974.2000      7.2803      2.4428      0.0803     12.5601   -999.2500   -999.2500
  1974.3000      7.1717      2.4307      0.0789     13.2913   -999.2500   -999.2500
  1974.4000      7.1717      2.4202      0.0393     13.9278   -999.2500   -999.2500
  1974.5000      7.0486      2.4166      0.0519     14.1478   -999.2500   -999.2500
  1974.6000      7.0486      2.4114      0.0716     14.4590   -999.2500   -999.2500
  1974.7000      7.0486      2.3969      0.0473     15.3398   -999.2500   -999.2500
  1974.8000      6.9171      2.3871      0.0450     15.9354   -999.2500   -999.2500
  1974.9000      6.9171      2.4074      0.0780     14.7047   -999.2500   -999.2500
  1975.0000      6.7321      2.4814      0.0929     10.2156   -999.2500   -999.2500
  1975.1000      6.7321      2.5007      0.0721      9.0503   -999.2500   -999.2500
  1975.2000      6.7321      2.0886      0.6077     34.0258   -999.2500   -999.2500
  1975.3000      6.2593      1.1863      0.0400     88.7118   -999.2500   -999.2500
  1975.4000      6.2593      0.4025      0.0400    136.2093   -999.2500   -999.2500
  1975.5000      4.9975      0.0765   -999.2500    155.9705   -999.2500   -999.2500
  1975.6000      4.9975      0.0079   -999.2500    160.1281   -999.2500   -999.2500
  1975.7000      4.9975      0.0004   -999.2500    160.5801   -999.2500   -999.2500
  1975.8000      3.2289      0.0000   -999.2500    160.6061   -999.2500   -999.2500
  1975.9000      3.2289      0.0000   -999.2500    160.6061   -999.2500   -999.2500
  1976.0000      2.2138   -999.2500   -999.2500   -999.2500   -999.2500   -999.2500
  1976.1000      2.2138   -999.2500   -999.2500   -999.2500   -999.2500   -999.2500
  1976.2000      2.2138   -999.2500   -999.2500   -999.2500   -999.2500   -999.2500
  1976.3000      1.9917   -999.2500   -999.2500   -999.2500   -999.2500   -999.2500
  1976.4000      1.9917   -999.2500   -999.2500   -999.2500   -999.2500   -999.2500
  1976.5000      1.9736   -999.2500   -999.2500   -999.2500   -999.2500   -999.2500
  1976.6000      1.9736   -999.2500   -999.2500   -999.2500   -999.2500   -999.2500
  1976.7000      1.9736   -999.2500   -999.2500   -999.2500   -999.2500   -999.2500
  1976.8000   -999.2500   -999.2500   -999.2500   -999.2500   -999.2500   -999.2500
  1976.9000   -999.2500   -999.2500   -999.2500   -999.2500   -999.2500   -999.2500
  1977.0000   -999.2500   -999.2500   -999.2500   -999.2500   -999.2500   -999.2500
  1977.1000   -999.2500   -999.2500   -999.2500   -999.2500   -999.2500   -999.2500
  1977.2000   -999.2500   -999.2500   -999.2500   -999.2500   -999.2500   -999.2500
  1977.3000   -999.2500   -999.2500   -999.2500   -999.2500   -999.2500   -999.2500
  1977.4000   -999.2500   -999.2500   -999.2500   -999.2500   -999.2500   -999.2500
  1977.5000   -999.2500   -999.2500   -999.2500   -999.2500   -999.2500   -999.2500
