~Version Information
VERS.                      2.0: CWLS Log ASCII Standard - VERSION 2.0
WRAP.                       NO: One line per depth step
~Well Information Block
STRT.FT               258.0000: 
STOP.FT              1001.0000: 
STEP.FT                 0.2500: 
NULL.                -999.2500: 
COMP.          Pioneer Natural Resources: COMPANY
WELL.          Piggyback 33-25: WELL
FLD.           Purgatoire River: FIELD
LOC.           1600' FSL & 1800' FEL: LOCATION
PROV.                 Colorado: PROVINCE
CNTY.               Las Animas: COUNTRY
SRVC.                Patterson: SERVICE COMPANY
DATE.          Fri Apr 29 14:22:38 2005: LOG DATE
UWI.           05 071 08233 00: UNIQUE WELL ID
~Curve Information Block
DEPT.FT            0 000 00 00: Depth
SN.Ohm-m                      : IEL Short Normal
SP.mV                         : IEL Spontaneous Potential
DIR.Ohm-m                     : IEL Induction Resistivity
GR.GAPI                       : Gamma Ray
~Parameter Information Block
~A  Depth        SN          SP         DIR          GR     
# ...
   727.0000     25.5322     71.9501     19.8795     73.2702
   727.2500     24.8511     72.0703     19.7362     73.4808
   727.5000     24.2504     72.1292     19.6146     74.8465
   727.7500     23.9648     72.1577     19.5344     76.7450
   728.0000     24.0193     72.1792     19.5229     80.6314
   728.2500     24.3162     72.2000     19.5959     83.2696
   728.5000     24.7302     72.2118     19.7460     86.1997
   728.7500     25.1930     72.2010     19.9470     87.1594
   729.0000     25.7265     72.1571     20.1735     87.2368
   729.2500     26.3904     72.0771     20.4213     86.5501
   729.5000     27.2066     71.9645     20.7142     84.2850
   729.7500     28.1431     71.8237     21.0954     81.7444
   730.0000     29.1590     71.6567     21.6092     76.7325
   730.2500     30.2762     71.4651     22.2849     73.4243
   730.5000     31.5833     71.2562     23.1284     70.0598
   730.7500     33.0995     71.0475     24.1228     69.0803
   731.0000     34.6387     70.8627     25.2356     68.4438
   731.2500     35.9022     70.7207     26.4313     67.7733
   731.5000     36.7136     70.6258     27.6780     65.7891
   731.7500     37.1483     70.5646     28.9396     63.9557
   732.0000     37.4770     70.5111     30.1530     61.2133
   732.2500     37.9618     70.4396     31.2196     60.0163
   732.5000     38.6521     70.3408     32.0458     59.9369
   732.7500     39.3911     70.2351     32.6186     60.7874
   733.0000     40.0156     70.1685     33.0354     61.6879
   733.2500     40.5059     70.1880     33.4374     61.0299
   733.5000     40.9584     70.3119     33.8977     58.0975
   733.7500     41.4893     70.5237     34.3611     55.7590
   734.0000     42.1637     70.7891     34.6810     53.1141
   734.2500     42.9415     71.0714     34.7237     51.9793
   734.5000     43.6815     71.3355     34.4516     50.4419
   734.7500     44.2342     71.5514     33.9143     49.2801
   735.0000     44.5435     71.7042     33.1743     47.8100
   735.2500     44.6197     71.8008     32.2535     47.5861
   735.5000     44.4041     71.8621     31.1471     49.2303
   735.7500     43.7292     71.9083     29.8671     51.8363
   736.0000     42.4174     71.9470     28.4633     57.6206
   736.2500     40.3655     71.9730     27.0032     62.1230
   736.5000     37.5801     71.9749     25.5485     68.6120
   736.7500     34.2137     71.9415     24.1527     72.2113
   737.0000     30.5685     71.8647     22.8676     76.1086
   737.2500     27.0723     71.7388     21.7372     77.7598
   737.5000     24.1703     71.5590     20.7828     79.2117
   737.7500     22.0816     71.3242     19.9964     79.7112
   738.0000     20.6829     71.0389     19.3491     79.9411
   738.2500     19.7176     70.7136     18.8039     79.8992
   738.5000     19.0532     70.3614     18.3232     79.9971
   738.7500     18.6756     69.9928     17.8688     80.3177
   739.0000     18.5645     69.6098     17.4056     80.9061
   739.2500     18.6686     69.2030     16.9151     81.0545
   739.5000     18.9117     68.7538     16.4062     80.5956
   739.7500     19.1855     68.2424     15.9108     79.9409
   740.0000     19.3759     67.6582     15.4623     79.2857
   740.2500     19.3901     67.0088     15.0772     79.8611
   740.5000     19.1715     66.3218     14.7500     83.2799
   740.7500     18.7288     65.6368     14.4627     87.1307
   741.0000     18.1332     64.9880     14.1968     93.6356
   741.2500     17.4609     64.3884     13.9391     97.3119
   741.5000     16.7460     63.8265     13.6811    100.9210
   741.7500     15.9991     63.2761     13.4161    102.2176
   742.0000     15.2665     62.7120     13.1401    102.8258
   742.2500     14.6385     62.1250     12.8562    102.1394
   742.5000     14.1876     61.5303     12.5778     99.0583
   742.7500     13.9182     60.9678     12.3251     95.8930
   743.0000     13.7814     60.4882     12.1169     90.8092
   743.2500     13.7268     60.1318     11.9635     87.9932
   743.5000     13.7217     59.9140     11.8649     85.0896
   743.7500     13.7395     59.8256     11.8151     83.7396
   744.0000     13.7692     59.8474     11.8084     81.9468
   744.2500     13.8428     59.9639     11.8437     80.8706
   744.5000     14.0129     60.1682     11.9253     79.8978
   744.7500     14.2880     60.4537     12.0618     79.8988
   745.0000     14.6310     60.8053     12.2633     80.6899
   745.2500     15.0168     61.1995     12.5399     81.3299
   745.5000     15.4474     61.6184     12.9006     81.7260
   745.7500     15.9195     62.0612     13.3498     81.4739
   746.0000     16.4086     62.5417     13.8835     80.6531
   746.2500     16.8978     63.0735     14.4864     80.1159
   746.5000     17.4080     63.6538     15.1338     79.6600
   746.7500     17.9820     64.2593     15.7991     79.6037
   747.0000     18.6485     64.8516     16.4620     79.6264
   747.2500     19.4051     65.3927     17.1119     79.4233
   747.5000     20.2281     65.8625     17.7441     78.2093
   747.7500     21.0941     66.2702     18.3548     76.5799
   748.0000     21.9944     66.6499     18.9401     73.1257
   748.2500     22.9441     67.0428     19.4993     70.6532
   748.5000     23.9663     67.4724     20.0351     67.7086
   748.7500     25.0404     67.9294     20.5455     66.5901
   749.0000     26.0865     68.3801     21.0136     66.1176
   749.2500     26.9890     68.7889     21.4117     66.3872
   749.5000     27.6069     69.1323     21.7218     67.4036
   749.7500     27.8247     69.3972     21.9531     68.4255
   750.0000     27.6461     69.5722     22.1354     70.4029
   750.2500     27.2041     69.6440     22.2957     72.0013
   750.5000     26.6675     69.5945     22.4420     74.6136
   750.7500     26.1536     69.4002     22.5674     75.9892
   751.0000     25.7124     69.0334     22.6643     76.1625
   751.2500     25.3617     68.4706     22.7344     74.6518
   751.5000     25.1213     67.7046     22.7896     70.8011
   751.7500     25.0245     66.7519     22.8467     68.0836
   752.0000     25.1443     65.6510     22.9242     64.8484
   752.2500     25.5806     64.4499     23.0436     63.4871
   752.5000     26.3553     63.1979     23.2340     62.6600
   752.7500     27.3546     61.9463     23.5325     62.6748
   753.0000     28.4084     60.7535     23.9743     62.7572
   753.2500     29.3882     59.6775     24.5732     62.4879
   753.5000     30.2357     58.7580     25.3078     61.6185
   753.7500     30.9785     58.0064     26.1246     60.9991
   754.0000     31.7350     57.4133     26.9597     60.3348
   754.2500     32.6250     56.9594     27.7690     60.0278
   754.5000     33.6323     56.6125     28.5437     59.5347
   754.7500     34.5932     56.3211     29.3020     59.1183
   755.0000     35.3584     56.0261     30.0603     58.3127
   755.2500     35.9338     55.6887     30.8146     57.5389
   755.5000     36.4481     55.3100     31.5454     55.8343
   755.7500     37.0162     54.9229     32.2420     54.4725
   756.0000     37.6597     54.5658     32.9150     52.7826
   756.2500     38.3535     54.2601     33.5811     52.2133
   756.5000     39.0707     54.0014     34.2359     51.9259
   756.7500     39.7520     53.7632     34.8409     51.5375
   757.0000     40.3267     53.5139     35.3389     49.9031
   757.2500     40.7879     53.2370     35.6856     48.2295
   757.5000     41.1897     52.9432     35.8770     45.6949
   757.7500     41.5982     52.6650     35.9548     44.3619
   758.0000     42.1020     52.4409     35.9904     42.9213
   758.2500     42.8163     52.3022     36.0574     42.1952
   758.5000     43.7646     52.2678     36.1987     41.4417
   758.7500     44.7552     52.3442     36.3961     41.3208
   759.0000     45.4666     52.5304     36.5611     42.0012
   759.2500     45.6744     52.8238     36.5725     43.0665
   759.5000     45.3762     53.2221     36.3526     45.3794
   759.7500     44.7351     53.7187     35.9260     47.1668
   760.0000     43.9433     54.2984     35.4031     49.6618
   760.2500     43.1285     54.9421     34.9045     50.8373
