~Version Information
VERS.                      2.0: CWLS Log ASCII Standard - VERSION 2.0
WRAP.                       NO: One line per depth step
~Well Information Block
STRT.FT               953.8000: 
STOP.FT              2226.0000: 
STEP.FT                 0.1000: 
NULL.                -999.2500: 
COMP.          Petrogulf Corporation: COMPANY
WELL.             Burson 8-13R: WELL
FLD.           Purgatorie River: FIELD
LOC.           1045' FNL & 2189' FEL: LOCATION
CNTY.               Las Animas: COUNTY
SRVC.                         : SERVICE COMPANY
DATE.          Fri Apr 30 07:30:36 2004: LOG DATE
UWI.           05 071 08039 00: UNIQUE WELL ID
STAT.                 Colorado: STATE
~Curve Information Block
DEPT.FT            0 000 00 00: Depth
DCAL.in                       : CDL Caliper
RHOB.g/cc                     : CDL Bulk Density
RHOC.g/cc                     : CDL Density Correction
DPOR.pu                       : CDL Density Porosity
NPOR.pu                       : Neutron Porosity
GR.GAPI                       : Gamma Ray
~Parameter Information Block
~A  Depth       DCAL        RHOB        RHOC        DPOR        NPOR         GR     
# ...
  2019.4000      7.9413      2.5602      0.0521      5.4408     27.3907    140.0310
  2019.5000      7.9561      2.5546      0.1025      5.7844     27.5042    138.9552
  2019.6000      7.9561      2.5476      0.0806      6.2067     27.9512    130.8503
  2019.7000      7.9561      2.5436      0.0611      6.4485     28.4273    115.6981
  2019.8000      7.9765      2.5523      0.0900      5.9193     28.5617    102.1329
  2019.9000      7.9765      2.5666      0.0477      5.0573     28.3841     97.7856
  2020.0000      7.9669      2.5733      0.0652      4.6507     28.0980    102.6467
  2020.1000      7.9669      2.5701      0.0579      4.8403     27.9782    111.8526
  2020.2000      7.9669      2.5676      0.1086      4.9957     27.9819    119.5746
  2020.3000      7.8999      2.5748      0.0884      4.5572     28.3129    121.7985
  2020.4000      7.8999      2.5924      0.0798      3.4879     29.2624    118.0267
  2020.5000      7.8914      2.6102      0.0846      2.4136     30.1140    110.8722
  2020.6000      7.8914      2.6097      0.1058      2.4453     30.1972    104.6752
  2020.7000      7.8914      2.5801      0.0927      4.2363     29.7766    104.0107
  2020.8000      7.8907      2.5371      0.0353      6.8396     29.2393    109.1585
  2020.9000      7.8907      2.5124      0.0008      8.3400     28.8152    116.7194
  2021.0000      7.8899      2.5195      0.0210      7.9093     28.7152    122.9107
  2021.1000      7.8899      2.5464      0.0536      6.2814     28.9191    123.8715
  2021.2000      7.8899      2.5687      0.1121      4.9268     29.3770    118.7937
  2021.3000      7.8934      2.5696      0.1139      4.8739     29.7527    111.9932
  2021.4000      7.8934      2.5555      0.0738      5.7278     29.6726    109.8777
  2021.5000      7.8885      2.5378      0.0794      6.7973     29.6417    116.3484
  2021.6000      7.8885      2.5180      0.0682      7.9998     30.4145    128.0966
  2021.7000      7.8885      2.5059      0.0500      8.7315     31.5573    135.5327
  2021.8000      7.8909      2.5126      0.0788      8.3251     31.8431    133.3789
  2021.9000      7.8909      2.5249      0.0897      7.5829     31.1771    128.0890
  2022.0000      7.8992      2.5209      0.0804      7.8220     30.4466    127.5742
  2022.1000      7.8992      2.4974      0.0574      9.2498     30.1307    129.1264
  2022.2000      7.8992      2.4711      0.0362     10.8413     30.1986    126.4973
  2022.3000      7.8936      2.4625      0.0314     11.3648     30.2598    120.7850
  2022.4000      7.8936      2.4722      0.0493     10.7730     30.4380    120.3788
  2022.5000      7.8947      2.4846      0.0799     10.0272     31.0683    127.0225
  2022.6000      7.8947      2.4832      0.1144     10.1093     31.4652    131.2963
  2022.7000      7.8947      2.4689      0.0682     10.9777     31.0182    129.6167
  2022.8000      7.8968      2.4680      0.0764     11.0302     30.1143    127.7086
  2022.9000      7.8968      2.4976      0.0736      9.2381     29.3919    128.6512
  2023.0000      7.9005      2.5336      0.1290      7.0571     29.2638    130.7153
  2023.1000      7.9005      2.5414      0.0955      6.5791     29.5210    131.6444
  2023.2000      7.9005      2.5181      0.1017      7.9952     29.6990    133.8404
  2023.3000      7.8985      2.4892      0.0705      9.7458     29.9631    140.7841
  2023.4000      7.8985      2.4775      0.1117     10.4530     30.4030    148.7513
  2023.5000      7.8983      2.4799      0.0895     10.3095     30.5191    152.3998
  2023.6000      7.8983      2.4876      0.0714      9.8412     30.3849    149.9865
  2023.7000      7.8983      2.4960      0.1300      9.3340     30.5585    142.0583
  2023.8000      7.8951      2.4935      0.1219      9.4849     31.0802    136.1249
  2023.9000      7.8951      2.4759      0.0760     10.5545     31.7498    137.1638
  2024.0000      7.8988      2.4538      0.0628     11.8924     32.3969    140.7613
  2024.1000      7.8988      2.4424      0.0345     12.5809     32.7959    141.5705
  2024.2000      7.8988      2.4470      0.1029     12.3020     32.8305    138.8257
  2024.3000      7.8964      2.4492      0.1142     12.1670     32.4611    133.8608
  2024.4000      7.8964      2.4283      0.0919     13.4365     31.9131    130.3852
  2024.5000      7.8881      2.3910      0.0688     15.6973     31.4528    134.9162
  2024.6000      7.8881      2.3625      0.0393     17.4269     30.9887    144.7972
  2024.7000      7.8881      2.3577      0.0487     17.7147     30.5292    148.1824
  2024.8000      7.8891      2.3755      0.0683     16.6390     30.2301    140.2354
  2024.9000      7.8891      2.4022      0.0997     15.0170     30.1931    129.9843
  2025.0000      7.8909      2.4181      0.1348     14.0549     30.5553    131.9122
  2025.1000      7.8909      2.4194      0.0887     13.9755     31.2011    148.0674
  2025.2000      7.8909      2.4231      0.0732     13.7502     31.5693    160.7543
  2025.3000      7.8880      2.4344      0.1424     13.0669     31.3312    157.8313
  2025.4000      7.8880      2.4389      0.1109     12.7926     30.6381    149.9369
  2025.5000      7.8886      2.4324      0.0951     13.1890     29.8492    151.4721
  2025.6000      7.8886      2.4269      0.0361     13.5227     29.3402    160.1009
  2025.7000      7.8886      2.4293      0.0481     13.3752     29.1990    161.1191
  2025.8000      7.8910      2.4341      0.0874     13.0860     29.2542    149.3353
  2025.9000      7.8910      2.4420      0.0631     12.6083     29.4650    137.5182
  2026.0000      7.8905      2.4629      0.0859     11.3424     29.7099    138.4106
  2026.1000      7.8905      2.4944      0.1322      9.4286     29.6803    149.3128
  2026.2000      7.8905      2.5237      0.1089      7.6556     29.2919    157.6108
  2026.3000      7.8946      2.5442      0.1205      6.4102     28.8190    153.9517
  2026.4000      7.8946      2.5529      0.1155      5.8870     28.6833    144.7242
  2026.5000      7.9009      2.5503      0.0864      6.0452     28.8792    138.7605
  2026.6000      7.9009      2.5460      0.0728      6.3057     28.9391    132.6085
  2026.7000      7.9009      2.5472      0.1180      6.2321     28.6697    126.0521
  2026.8000      7.8884      2.5522      0.0716      5.9289     28.3379    127.0332
  2026.9000      7.8884      2.5581      0.0870      5.5684     28.2064    134.6939
  2027.0000      7.8851      2.5569      0.0803      5.6403     28.1624    136.9570
  2027.1000      7.8851      2.5360      0.1230      6.9097     28.1038    129.0552
  2027.2000      7.8851      2.5019      0.0290      8.9775     28.1644    121.3790
  2027.3000      7.8800      2.4898      0.0026      9.7077     28.3551    124.1407
  2027.4000      7.8800      2.5141      0.0856      8.2341     28.6018    133.0514
  2027.5000      7.8894      2.5476      0.1024      6.2050     28.8441    138.3909
  2027.6000      7.8894      2.5595      0.1185      5.4829     29.1655    138.4886
  2027.7000      7.8894      2.5393      0.0959      6.7114     29.5507    137.4036
  2027.8000      7.8870      2.5068      0.0195      8.6771     29.7294    138.7228
  2027.9000      7.8870      2.4935      0.0276      9.4823     29.6933    141.2044
  2028.0000      7.8645      2.4985      0.0654      9.1812     29.7097    141.6755
  2028.1000      7.8645      2.4986      0.0510      9.1776     29.8531    140.6323
  2028.2000      7.8645      2.4955      0.0034      9.3645     30.0473    138.3487
  2028.3000      7.8969      2.5102     -0.0013      8.4715     30.4445    137.5978
  2028.4000      7.8969      2.5397      0.0715      6.6869     31.0005    141.2799
  2028.5000      7.8954      2.5620      0.0908      5.3353     31.0129    147.1515
  2028.6000      7.8954      2.5740      0.0295      4.6061     30.1344    152.6665
  2028.7000      7.8954      2.5864      0.0564      3.8516     29.1997    156.6307
  2028.8000      7.9030      2.5964      0.0882      3.2502     28.9654    156.9885
  2028.9000      7.9030      2.5924      0.1034      3.4928     29.1094    150.6315
