~Version Information
VERS.                      2.0: CWLS Log ASCII Standard - VERSION 2.0
WRAP.                       NO: One line per depth step
~Well Information Block
STRT.FT                -7.0000: 
STOP.FT              1656.2500: 
STEP.FT                 0.2500: 
NULL.                -999.2500: 
COMP.          Pioneer Natural Resources: COMPANY
WELL.               Elmo 14-21: WELL
FLD.           Purgatorie River: FIELD
LOC.           623' FSL & 450' FWL--: LOCATION
PROV.                       CO: PROVINCE
CNTY.               Las Animas: COUNTRY
SRVC.          Patterson Wireline: SERVICE COMPANY
DATE.          Mon Jun 27 15:45:41 2005: LOG DATE
UWI.           05 071 08360 00: UNIQUE WELL ID
~Curve Information Block
DEPT.FT            0 000 00 00: Depth
CCL.                          : Casing Collar Locator
TT3.usec                      : CBL 3' Travel Time
AMP3.mV                       : CBL 3' Amplitude
GR.GAPI                       : Gamma Ray
~Parameter Information Block
~A  Depth       CCL         TT3         AMP3         GR     
# ...
  1199.0000      0.0000    807.5483      5.5698     85.8755
  1199.2500      0.0000    793.7334      5.4979     97.9401
  1199.5000      0.0000    787.5208      5.3413    110.5497
  1199.7500      0.0000    790.9250      5.1706    121.9005
  1200.0000      0.0000    799.1461      4.9854    129.6203
  1200.2500      0.0000    805.4191      4.7531    132.4692
  1200.5000      0.0000    806.6788      4.4980    131.5145
  1200.7500      0.0000    805.0682      4.3321    129.2804
  1201.0000      0.0000    805.1114      4.3803    127.5798
  1201.2500      0.0000    809.7323      4.6655    126.2923
  1201.5000      0.0000    818.0969      5.0743    124.2910
  1201.7500      0.0000    826.6268      5.4443    121.1086
  1202.0000      0.0000    832.2375      5.6935    117.2932
  1202.2500      0.0000    834.7316      5.8632    113.4876
  1202.5000      0.0000    836.1889      6.0350    109.8456
  1202.7500      0.0000    838.4422      6.2189    106.4348
  1203.0000      0.0000    841.4050      6.3373    103.7583
  1203.2500      0.0000    843.3308      6.3064    102.6073
  1203.5000      0.0000    841.7095      6.1057    103.5402
  1203.7500      0.0000    833.7469      5.7734    106.6682
  1204.0000      0.0000    817.2184      5.3705    111.5793
  1204.2500      0.0000    792.3799      4.9591    116.9671
  1204.5000      0.0000    763.3446      4.5864    120.6492
  1204.7500      0.0000    736.9177      4.2687    120.7879
  1205.0000      0.0000    719.6609      4.0024    117.3492
  1205.2500      0.0000    715.3608      3.7884    111.8459
  1205.5000      0.0000    723.5176      3.6330    105.5796
  1205.7500      0.0000    739.0088      3.5354     98.6840
  1206.0000      0.0000    754.0156      3.5040     90.9242
  1206.2500      0.0000    762.0315      3.5707     82.7339
  1206.5000      0.0000    761.5103      3.7525     75.1662
  1206.7500      0.0000    756.2274      3.9896     69.1596
  1207.0000      0.0000    751.3212      4.1573     64.8843
  1207.2500      0.0000    748.4929      4.1649     61.5291
  1207.5000      0.0000    746.1413      4.0369     57.9323
  1207.7500      0.0000    744.0248      3.8841     53.7813
  1208.0000      0.0000    745.2253      3.8129     50.0279
  1208.2500      0.0000    752.2950      3.8647     47.9264
  1208.5000      0.0000    763.3425      4.0104     47.7847
  1208.7500      0.0000    773.6625      4.1935     48.6563
  1209.0000      0.0000    780.4694      4.3976     49.1692
  1209.2500      0.0000    784.8951      4.6641     48.6674
  1209.5000      0.0000    789.5572      5.0185     47.6427
  1209.7500      0.0000    795.1233      5.3960     47.0565
  1210.0000      0.0000    800.0398      5.6813     47.1827
  1210.2500      0.0000    803.1114      5.8140     47.1544
  1210.5000      0.0000    805.0483      5.8282     45.8331
  1210.7500      0.0000    807.3835      5.8022     43.1109
  1211.0000      0.0000    810.7807      5.7967     40.1407
  1211.2500      0.0000    814.4142      5.8254     38.3869
  1211.5000      0.0000    816.3318      5.8605     38.8015
  1211.7500      0.0000    814.4139      5.8651     41.8838
  1212.0000      0.0000    807.8575      5.8259     47.9572
  1212.2500      0.0000    798.0953      5.7557     56.9506
  1212.5000      0.0000    787.4827      5.6709     67.9246
  1212.7500      0.0000    776.5723      5.5834     79.0712
  1213.0000      0.0000    763.7702      5.5114     88.5091
  1213.2500      0.0000    748.4551      5.4805     95.3587
  1213.5000      0.0000    733.0119      5.4989    100.1803
  1213.7500      0.0000    720.7283      5.5321    104.3538
  1214.0000      0.0000    712.7288      5.5187    108.9399
  1214.2500      0.0000    707.6954      5.4199    114.0358
  1214.5000      0.0000    703.7864      5.2576    119.1630
  1214.7500      0.0000    700.1298      5.1035    123.9977
  1215.0000      0.0000    696.7526      5.0276    128.4865
  1215.2500      0.0000    693.7842      5.0426    132.5093
  1215.5000      0.0000    691.5519      5.0906    135.8155
  1215.7500      0.0000    691.3809      5.0900    138.0730
  1216.0000      0.0000    694.8565      4.9994    138.6509
  1216.2500      0.0000    701.2604      4.8349    136.7797
  1216.5000      0.0000    706.7485      4.6367    132.2803
  1216.7500      0.0000    707.6471      4.4417    125.7833
  1217.0000      0.0000    704.6476      4.2886    118.1479
  1217.2500      0.0000    702.9484      4.2253    110.1393
  1217.5000      0.0000    707.8446      4.2790    102.5778
  1217.7500      0.0000    719.3248      4.4133     96.3274
  1218.0000      0.0000    729.6111      4.5394     92.2723
  1218.2500      0.0000    726.5291      4.5976     91.4331
  1218.5000      0.0000    702.2681      4.6231     94.3788
  1218.7500      0.0000    660.7046      4.7123    100.0410
  1219.0000      0.0000    615.1285      4.9177    105.7793
  1219.2500      0.0000    578.1324      5.1920    109.2519
  1219.5000      0.0000    554.3524      5.4382    110.0451
  1219.7500      0.0000    541.7020      5.6057    109.2585
  1220.0000      0.0000    536.2368      5.7291    107.8632
  1220.2500      0.0000    534.7414      5.8739    105.9449
  1220.5000      0.0000    535.2296      6.0571    103.3531
  1220.7500      0.0000    537.2222      6.2315    100.5032
  1221.0000      0.0000    541.0030      6.3354     98.3878
  1221.2500      0.0000    546.3698      6.3373     98.0068
  1221.5000      0.0000    553.8362      6.2355     99.6232
  1221.7500      0.0000    565.8725      6.0366    102.3191
  1222.0000      0.0000    582.4703      5.7537    104.4518
  1222.2500      0.0000    595.9502      5.4183    104.8362
  1222.5000      0.0000    596.1043      5.0786    103.5123
  1222.7500      0.0000    582.1212      4.7830    101.4301
  1223.0000      0.0000    565.7821      4.5628     99.5138
  1223.2500      0.0000    561.7008      4.4225     98.1184
  1223.5000      0.0000    576.0169      4.3399     97.4323
  1223.7500      0.0000    603.7975      4.2913     97.9629
  1224.0000      0.0000    635.1941      4.2911     99.9278
  1224.2500      0.0000    663.7565      4.3924    102.2355
  1224.5000      0.0000    689.6577      4.6330    102.7832
  1224.7500      0.0000    715.9332      4.9844    100.1509
  1225.0000      0.0000    742.9252      5.3622     94.9074
  1225.2500      0.0000    766.4470      5.6748     89.1634
  1225.5000      0.0000    779.9855      5.8721     84.9223
  1225.7500      0.0000    778.6095      5.9685     82.8946
  1226.0000      0.0000    762.8096      6.0199     82.5733
  1226.2500      0.0000    739.3668      6.0581     83.0020
  1226.5000      0.0000    716.8812      6.0445     83.3991
  1226.7500      0.0000    699.5112      5.9100     83.3731
  1227.0000      0.0000    685.8911      5.6422     82.7918
  1227.2500      0.0000    673.9159      5.3182     81.5179
  1227.5000      0.0000    664.8354      5.0444     79.3377
  1227.7500      0.0000    661.7095      4.8798     76.2003
  1228.0000      0.0000    664.9804      4.8268     72.6239
  1228.2500      0.0000    670.9707      4.8732     69.8285
  1228.5000      0.0000    674.7597      5.0099     69.1036
  1228.7500      0.0000    673.3415      5.2010     70.7345
  1229.0000      0.0000    665.9185      5.3660     73.7161
  1229.2500      0.0000    653.3168      5.4162     76.6251
  1229.5000      0.0000    639.3449      5.3091     78.4632
  1229.7500      0.0000    631.5483      5.0656     78.6900
  1230.0000      0.0000    636.8156      4.7562     77.1006
  1230.2500      0.0000    654.7513      4.4820     74.0563
  1230.5000      0.0000    677.3383      4.3378     70.5374
  1230.7500      0.0000    695.8324      4.3535     67.7214
  1231.0000      0.0000    706.6282      4.4692     66.5708
  1231.2500      0.0000    710.7377      4.5958     67.7237
  1231.5000      0.0000    709.8658      4.7095     71.4086
  1231.7500      0.0000    703.7790      4.8576     77.2846
  1232.0000      0.0000    690.6993      5.0642     84.4136
  1232.2500      0.0000    670.4703      5.2575     91.5071
