~Version Information
VERS.                      2.0: CWLS Log ASCII Standard - VERSION 2.0
WRAP.                       NO: One line per depth step
~Well Information Block
STRT.FT               -11.2500: 
STOP.FT              1934.7500: 
STEP.FT                 0.2500: 
NULL.                -999.2500: 
COMP.          Pioneer Natural Resources: COMPANY
WELL.          Commander 43-26 Tr: WELL
FLD.           Purgatorie River: FIELD
LOC.           2439' FSL  & 446' FEL--------: LOCATION
PROV.                       CO: PROVINCE
CNTY.               Las Animas: COUNTRY
SRVC.          Patterson Wireline: SERVICE COMPANY
DATE.          Tue Apr 26 09:07:23 2005: LOG DATE
UWI.           05 071 08341 00: UNIQUE WELL ID
~Curve Information Block
DEPT.FT            0 000 00 00: Depth
CCL.                          : Casing Collar Locator
TT3.usec                      : CBL 3' Travel Time
AMP3.mV                       : CBL 3' Amplitude
GR.GAPI                       : Gamma Ray
~Parameter Information Block
~A  Depth       CCL         TT3         AMP3         GR     
# ...
   256.7500      0.0000    891.7812     10.6975     62.2102
   257.0000      0.0000    891.9300     10.7766     58.1669
   257.2500      0.0000    894.0386     10.8883     56.1492
   257.5000      0.0000    898.9701     11.0108     57.0660
   257.7500      0.0000    905.6155     11.1255     60.1185
   258.0000      0.0000    912.0233     11.2229     63.6685
   258.2500      0.0000    916.9765     11.3062     66.2174
   258.5000      0.0000    920.7189     11.3875     66.8047
   258.7500      0.0000    924.5211     11.4730     65.2717
   259.0000      0.0000    929.5964     11.5499     62.4330
   259.2500      0.0000    936.0208     11.6006     59.5344
   259.5000      0.0000    942.3766     11.6290     57.1733
   259.7500      0.0000    947.0361     11.6635     54.9645
   260.0000      0.0000    950.6455     11.7258     52.4944
   260.2500      0.0000    957.2847     11.8055     50.3456
   260.5000      0.0000    971.2745     11.8722     49.8496
   260.7500      0.0000    991.3337     11.9067     51.8325
   261.0000      0.0000   1008.8014     11.9154     55.5971
   261.2500      0.0000   1013.2946     11.9155     59.1486
   261.5000      0.0000    999.9755     11.9180     60.6818
   261.7500      0.0000    971.6492     11.9230     60.0312
   262.0000      0.0000    936.5106     11.9239     58.5317
   262.2500      0.0000    904.6696     11.9118     57.4913
   262.5000      0.0000    883.7954     11.8804     57.0338
   262.7500      0.0000    875.5954     11.8370     56.4342
   263.0000      0.0000    876.3148     11.8061     55.2395
   263.2500      0.0000    880.5710     11.8131     53.7666
   263.5000      0.0000    884.6587     11.8589     52.6096
   263.7500      0.0000    887.2986     11.9194     52.0193
   264.0000      0.0000    888.6231     11.9719     51.8730
   264.2500      0.0000    889.0902     12.0136     52.0120
   264.5000      0.0000    888.8719     12.0540     52.3659
   264.7500      0.0000    887.5490     12.0982     52.7106
   265.0000      0.0000    883.6544     12.1407     52.5431
   265.2500      0.0000    874.5526     12.1722     51.5356
   265.5000      0.0000    857.6694     12.1875     50.0737
   265.7500      0.0000    833.0280     12.1860     49.0326
   266.0000      0.0000    804.6879     12.1665     48.9591
   266.2500      0.0000    778.7661     12.1294     49.6566
   266.5000      0.0000    759.6250     12.0889     50.5035
   266.7500      0.0000    748.1357     12.0764     50.8800
   267.0000      0.0000    742.5462     12.1187     50.3343
   267.2500      0.0000    739.4481     12.2122     48.7428
   267.5000      0.0000    733.8957     12.3269     46.5898
   267.7500      0.0000    720.9470     12.4361     44.9664
   268.0000      0.0000    700.0953     12.5300     44.9543
   268.2500      0.0000    679.0933     12.6057     46.7086
   268.5000      0.0000    670.4191     12.6613     49.1233
   268.7500      0.0000    680.6447     12.7073     50.6528
   269.0000      0.0000    704.1229     12.7710     50.6501
   269.2500      0.0000    728.4166     12.8763     49.7863
   269.5000      0.0000    743.6633     13.0233     49.0686
   269.7500      0.0000    745.5450     13.1926     48.7146
   270.0000      0.0000    733.4584     13.3665     48.2743
   270.2500      0.0000    710.0323     13.5452     47.6475
   270.5000      0.0000    681.1441     13.7454     47.4193
   270.7500      0.0000    652.3682     13.9768     48.0140
   271.0000      0.0000    626.3970     14.1930     49.0244
   271.2500      0.0000    609.1503     14.2484     49.8029
   271.5000      0.0000    615.3813     13.9403     50.3520
   271.7500      0.0000    656.6732     13.1680     51.1180
   272.0000      0.0000    721.9309     12.0760     52.1056
   272.2500      0.0000    781.0002     10.9893     52.6650
   272.5000      0.0000    812.2065     10.1796     52.1561
   272.7500     -2.0000    819.0405      9.7065     50.5395
   273.0000     -2.0000    817.8124      9.4676     48.3313
   273.2500      2.0000    817.2563      9.3399     46.2347
   273.5000      0.0000    814.9134      9.2593     44.9420
   273.7500      0.0000    806.4847      9.2272     45.0602
   274.0000      0.0000    790.1089      9.3107     46.8675
   274.2500      0.0000    762.1753      9.6280     50.0539
   274.5000      0.0000    717.9092     10.2598     53.9176
   274.7500      0.0000    662.3401     11.1232     57.8179
   275.0000      0.0000    616.4299     11.9675     61.2626
   275.2500      0.0000    603.1188     12.5425     63.7367
   275.5000      0.0000    626.1186     12.7731     64.8231
   275.7500      0.0000    667.5891     12.7587     64.5623
   276.0000      0.0000    705.8210     12.6438     63.5725
   276.2500      0.0000    730.4109     12.5238     62.8420
   276.5000      0.0000    742.4497     12.4410     63.3512
   276.7500      0.0000    747.0966     12.4072     65.6149
   277.0000      0.0000    748.5086     12.4137     69.3553
   277.2500      0.0000    748.8111     12.4385     73.5529
   277.5000      0.0000    748.8156     12.4589     76.7755
   277.7500      0.0000    748.7097     12.4622     77.5910
   278.0000      0.0000    748.3351     12.4482     75.2831
   278.2500      0.0000    747.1907     12.4256     70.6641
   278.5000      0.0000    744.4847     12.4010     65.8388
   278.7500      0.0000    739.5056     12.3719     62.6611
   279.0000      0.0000    732.3344     12.3317     61.4006
   279.2500      0.0000    724.2438     12.2809     60.8869
   279.5000      0.0000    717.1096     12.2262     59.7430
   279.7500      0.0000    712.2254     12.1690     57.4898
   280.0000      0.0000    709.6844     12.1024     54.6377
   280.2500      0.0000    708.7547     12.0242     51.9434
   280.5000      0.0000    708.6029     11.9471     49.7497
   280.7500      0.0000    708.6990     11.8895     47.9282
   281.0000      0.0000    708.8334     11.8605     46.2896
   281.2500      0.0000    709.0167     11.8569     45.0040
   281.5000      0.0000    709.4632     11.8712     44.5100
   281.7500      0.0000    710.6674     11.8925     44.8748
   282.0000      0.0000    713.3901     11.9053     45.5131
   282.2500      0.0000    718.2865     11.8988     45.8870
   282.5000      0.0000    725.2317     11.8750     46.2412
   282.7500      0.0000    732.9818     11.8387     47.3242
   283.0000      0.0000    739.7834     11.7831     49.6091
   283.2500      0.0000    744.4992     11.6993     53.0857
   283.5000      0.0000    747.1260     11.5951     57.6215
   283.7500      0.0000    748.3546     11.4895     63.2222
   284.0000      0.0000    748.8780     11.3924     69.8513
   284.2500      0.0000    749.0978     11.3039     77.0123
   284.5000      0.0000    749.1960     11.2313     83.4819
   284.7500      0.0000    749.2567     11.1877     87.5470
   285.0000      0.0000    749.3097     11.1684     87.8475
   285.2500      0.0000    749.3492     11.1462     84.3143
   285.5000      0.0000    749.3690     11.0962     78.2688
   285.7500      0.0000    749.3865     11.0188     71.4002
   286.0000      0.0000    749.4268     10.9298     64.8223
   286.2500      0.0000    749.5032     10.8387     59.3715
   286.5000      0.0000    749.6599     10.7423     56.3677
   286.7500      0.0000    750.0938     10.6359     57.1114
   287.0000      0.0000    751.3035     10.5249     61.3235
   287.2500      0.0000    754.0635     10.4284     66.7837
   287.5000      0.0000    758.9258     10.3702     71.0309
   287.7500      0.0000    765.3080     10.3628     73.1406
   288.0000      0.0000    771.0513     10.3929     73.7339
   288.2500      0.0000    773.4452     10.4294     73.8395
   288.5000      0.0000    771.2395     10.4458     74.1976
   288.7500      0.0000    765.6824     10.4366     75.3854
   289.0000      0.0000    759.4385     10.4168     77.9057
   289.2500      0.0000    754.5850     10.4129     81.6679
   289.5000      0.0000    751.6567     10.4533     85.6105
   289.7500      0.0000    750.1476     10.5574     88.3758
   290.0000      0.0000    749.3979     10.7233     89.2853
