~Version Information
VERS.                      2.0: CWLS Log ASCII Standard - VERSION 2.0
WRAP.                       NO: One line per depth step
~Well Information Block
STRT.FT                -7.5000: 
STOP.FT              2304.7500: 
STEP.FT                 0.2500: 
NULL.                -999.2500: 
COMP.          Pioneer Natural Resources: COMPANY
WELL.          Foothills 12-36: WELL
FLD.           Purgatorie River: FIELD
LOC.           2450' FNL & 201' FWL--: LOCATION
PROV.                       CO: PROVINCE
CNTY.               Las Animas: COUNTRY
SRVC.          Patterson Wireline: SERVICE COMPANY
DATE.          Tue Apr 26 11:10:08 2005: LOG DATE
UWI.           05 071 08339 00: UNIQUE WELL ID
~Curve Information Block
DEPT.FT            0 000 00 00: Depth
CCL.                          : Casing Collar Locator
TT3.usec                      : CBL 3' Travel Time
AMP3.mV                       : CBL 3' Amplitude
GR.GAPI                       : Gamma Ray
~Parameter Information Block
~A  Depth       CCL         TT3         AMP3         GR     
# ...
   461.5000      0.0000    796.8344     12.3604    130.5516
   461.7500      0.0000    826.6927     12.1567    132.7727
   462.0000      0.0000    846.9373     11.8870    132.2896
   462.2500      0.0000    859.7930     11.5575    130.3886
   462.5000      0.0000    866.5701     11.1917    129.4716
   462.7500      0.0000    868.1800     10.8221    130.9221
   463.0000      0.0000    865.1194     10.4842    133.9862
   463.2500      0.0000    857.8318     10.2045    136.5907
   463.5000      0.0000    847.8652      9.9866    136.9569
   463.7500      0.0000    838.2366      9.8078    134.5893
   464.0000      0.0000    831.7614      9.6309    130.4251
   464.2500      0.0000    829.1068      9.4275    126.4680
   464.5000      0.0000    828.8962      9.1955    124.7155
   464.7500      0.0000    829.4155      8.9628    125.4943
   465.0000      0.0000    829.8509      8.7718    126.9293
   465.2500      0.0000    830.3551      8.6571    126.7669
   465.5000      0.0000    831.6767      8.6255    124.7216
   465.7500      0.0000    834.8176      8.6541    122.4646
   466.0000      0.0000    840.5294      8.7075    121.4998
   466.2500      0.0000    848.6039      8.7553    121.7558
   466.5000      0.0000    857.5732      8.7775    122.2829
   466.7500      0.0000    865.3489      8.7591    122.6601
   467.0000      0.0000    870.3060      8.6930    123.3435
   467.2500      0.0000    871.6852      8.5914    124.8408
   467.5000      0.0000    869.1777      8.4850    126.7334
   467.7500      0.0000    862.7183      8.4004    127.4607
   468.0000      0.0000    853.0569      8.3387    125.2830
   468.2500      0.0000    842.2575      8.2819    119.8805
   468.5000      0.0000    832.9824      8.2209    113.0947
   468.7500      0.0000    827.0073      8.1718    108.0416
   469.0000      0.0000    824.4626      8.1637    107.3865
   469.2500      0.0000    824.4246      8.2095    111.8694
   469.5000      0.0000    825.7830      8.2904    119.7139
   469.7500      0.0000    827.4384      8.3671    127.4081
   470.0000      0.0000    828.4799      8.4075    131.6768
   470.2500      0.0000    829.2631      8.4086    131.2972
   470.5000      0.0000    831.9810      8.3978    127.3136
   470.7500      0.0000    838.6481      8.4130    121.6977
   471.0000      0.0000    848.3698      8.4736    115.9552
   471.2500      0.0000    857.7111      8.5670    110.8330
   471.5000      0.0000    863.5464      8.6557    106.8040
   471.7500      0.0000    864.6954      8.6992    104.4160
   472.0000      0.0000    861.5907      8.6759    104.2317
   472.2500      0.0000    855.8943      8.5903    106.6728
   472.5000      0.0000    850.4688      8.4624    111.7176
   472.7500      0.0000    848.4031      8.3150    118.3129
   473.0000      0.0000    851.0487      8.1712    124.0948
   473.2500      0.0000    857.0615      8.0515    126.4624
   473.5000      0.0000    863.6170      7.9646    124.5432
   473.7500      0.0000    868.5463      7.9029    120.0670
   474.0000      0.0000    871.2730      7.8539    116.1357
   474.2500      0.0000    872.1837      7.8130    115.1648
   474.5000      0.0000    871.6061      7.7805    117.7508
   474.7500      0.0000    869.4355      7.7518    122.8804
   475.0000      0.0000    865.6355      7.7171    128.6884
   475.2500      0.0000    861.0925      7.6701    133.2183
   475.5000      0.0000    857.6882      7.6158    135.2664
   475.7500      0.0000    856.9344      7.5724    135.0701
   476.0000      0.0000    858.4398      7.5676    134.1944
   476.2500      0.0000    860.2923      7.6233    134.5788
   476.5000      0.0000    861.0659      7.7352    137.3871
   476.7500      0.0000    860.9304      7.8698    142.3682
   477.0000      0.0000    860.8448      7.9879    147.9602
   477.2500      0.0000    861.4849      8.0718    152.1346
   477.5000      0.0000    863.0973      8.1320    153.7157
   477.7500      0.0000    865.5782      8.1926    153.2384
   478.0000      0.0000    868.3519      8.2747    152.3081
   478.2500      0.0000    870.6406      8.3888    151.9835
   478.5000      0.0000    872.0537      8.5327    151.8615
   478.7500      0.0000    872.7504      8.6898    150.5350
   479.0000      0.0000    873.0960      8.8317    146.5953
   479.2500      0.0000    873.3342      8.9325    139.5464
   479.5000      0.0000    873.5408      8.9891    130.3587
   479.7500      0.0000    873.7107      9.0261    121.1670
   480.0000      0.0000    873.8224      9.0793    113.9739
   480.2500      0.0000    873.8616      9.1787    109.2625
   480.5000      0.0000    873.8301      9.3410    105.7760
   480.7500      0.0000    873.7607      9.5618    101.8991
   481.0000      0.0000    873.7114      9.8052     97.6570
   481.2500      0.0000    873.7412     10.0097     95.2966
   481.5000      0.0000    873.8853     10.1143     97.4412
   481.7500      0.0000    874.1423     10.0870    104.5908
   482.0000      0.0000    874.4751      9.9380    114.6925
   482.2500      0.0000    874.8196      9.7148    125.0564
   482.5000      0.0000    875.0959      9.4792    134.0707
   482.7500      0.0000    875.1951      9.2797    141.0439
   483.0000      0.0000    874.9008      9.1389    145.4970
   483.2500      0.0000    873.7762      9.0570    147.2573
   483.5000      0.0000    871.1089      9.0129    146.5059
   483.7500      0.0000    866.1349      8.9576    143.3308
   484.0000      0.0000    858.4969      8.8187    138.0441
   484.2500      0.0000    848.5859      8.5362    132.2189
   484.5000      0.0000    837.7391      8.1185    128.3376
   484.7500      0.0000    828.4178      7.6683    127.5774
   485.0000      0.0000    823.5912      7.3193    128.2723
   485.2500      0.0000    824.8123      7.1280    127.1533
   485.5000      0.0000    830.8836      7.0436    122.3471
   485.7500      0.0000    838.9587      6.9832    115.2131
   486.0000      0.0000    846.7651      6.9038    109.4013
   486.2500      2.0000    853.9812      6.8011    108.2435
   486.5000      2.0000    862.8566      6.6846    112.6441
   486.7500      0.0000    877.2884      6.5685    120.7900
   487.0000      0.0000    899.0063      6.4832    129.7029
   487.2500      0.0000    923.1763      6.4841    137.3035
   487.5000      0.0000    939.2227      6.6272    143.0962
   487.7500      0.0000    938.3130      6.9090    147.1450
   488.0000      0.0000    920.3735      7.2372    149.2521
   488.2500      0.0000    893.5974      7.4945    149.5370
   488.5000      0.0000    868.0544      7.6301    149.0385
   488.7500      0.0000    849.8790      7.6756    148.9249
   489.0000      0.0000    839.8281      7.6916    149.2875
   489.2500      0.0000    835.4454      7.7232    149.1512
   489.5000      0.0000    833.8889      7.7910    147.5882
   489.7500      0.0000    833.3477      7.8975    144.4959
   490.0000      0.0000    833.0374      8.0320    140.3193
   490.2500      0.0000    832.6993      8.1718    135.5892
   490.5000      0.0000    832.2878      8.2872    131.0370
   490.7500      0.0000    831.8157      8.3556    127.8044
   491.0000      0.0000    831.3264      8.3737    127.1410
   491.2500      0.0000    830.8774      8.3560    129.4824
   491.5000      0.0000    830.5267      8.3171    133.5751
   491.7500      0.0000    830.3074      8.2579    136.8048
   492.0000      0.0000    830.2163      8.1666    137.0375
   492.2500      0.0000    830.2373      8.0367    134.4622
   492.5000      0.0000    830.3654      7.8812    131.3870
   492.7500      0.0000    830.5959      7.7283    129.9398
   493.0000      0.0000    830.8821      7.6061    130.2948
   493.2500      0.0000    831.1100      7.5313    131.4145
   493.5000      0.0000    831.1480      7.5075    132.8291
   493.7500      0.0000    830.9502      7.5247    134.8988
   494.0000      0.0000    830.6021      7.5662    137.6837
   494.2500      0.0000    830.2483      7.6213    140.2677
   494.5000      0.0000    829.9913      7.6881    141.1358
   494.7500      0.0000    829.8619      7.7559    139.2036
