~Version Information
VERS.                      2.0: CWLS Log ASCII Standard - VERSION 2.0
WRAP.                       NO: One line per depth step
~Well Information Block
STRT.FT                15.0000: 
STOP.FT              2409.7500: 
STEP.FT                 0.2500: 
NULL.                -999.2500: 
COMP.          Pioneer Natural Resources: COMPANY
WELL.          Oink Oink 14-36: WELL
FLD.           Purgatoire River: FIELD
LOC.           216' FSL & 263' FWL: LOCATION
PROV.                 Colorado: PROVINCE
CNTY.               Las Animas: COUNTRY
SRVC.                Patterson: SERVICE COMPANY
DATE.          Wed Jun 22 11:05:26 2005: LOG DATE
UWI.           05 071 08394 00: UNIQUE WELL ID
~Curve Information Block
DEPT.FT            0 000 00 00: Depth
GR.GAPI                       : Gamma Ray
CCL.                          : Casing Collar Locator
TT3.usec                      : CBL 3' Travel Time
AMP3.mV                       : CBL 3' Amplitude
~Parameter Information Block
~A  Depth        GR         CCL         TT3         AMP3    
# ...
  2192.5000     78.0924      0.0000    625.0162      2.5228
  2192.7500     78.3007      0.0000    623.0743      2.5172
  2193.0000     77.4930      0.0000    621.2020      2.5090
  2193.2500     75.5290      0.0000    619.3646      2.4957
  2193.5000     72.9654      0.0000    618.0369      2.4791
  2193.7500     71.0226      0.0000    618.7365      2.4594
  2194.0000     70.5884      0.0000    622.8840      2.4286
  2194.2500     71.2900      0.0000    629.8779      2.3737
  2194.5000     71.7667      0.0000    636.9380      2.2871
  2194.7500     70.6815      0.0000    641.4632      2.1696
  2195.0000     67.4852      0.0000    643.4241      2.0295
  2195.2500     62.5892      0.0000    645.4142      1.8845
  2195.5000     57.0113      0.0000    650.5816      1.7637
  2195.7500     51.8566      0.0000    660.1665      1.6988
  2196.0000     48.1262      0.0000    672.2227      1.7035
  2196.2500     46.7102      0.0000    682.4300      1.7574
  2196.5000     47.9915      0.0000    686.5414      1.8155
  2196.7500     51.3195      0.0000    682.8177      1.8439
  2197.0000     55.3321      0.0000    672.9970      1.8430
  2197.2500     59.0896      0.0000    661.2913      1.8349
  2197.5000     62.7029      0.0000    651.8337      1.8377
  2197.7500     66.6400      0.0000    646.3712      1.8570
  2198.0000     70.6520      0.0000    644.2452      1.8935
  2198.2500     73.7686      0.0000    644.3456      1.9483
  2198.5000     75.3232      0.0000    646.4017      2.0190
  2198.7500     75.6945      0.0000    650.1455      2.0962
  2199.0000     76.0777      0.0000    654.1718      2.1671
  2199.2500     77.6519      0.0000    656.6791      2.2221
  2199.5000     80.7770      0.0000    657.0886      2.2584
  2199.7500     84.7619      0.0000    656.2433      2.2808
  2200.0000     88.4306      0.0000    655.2491      2.2983
  2200.2500     90.9365      0.0000    654.6647      2.3183
  2200.5000     92.0559      0.0000    654.5867      2.3405
  2200.7500     91.9579      0.0000    654.9337      2.3589
  2201.0000     91.0485      0.0000    655.5083      2.3680
  2201.2500     90.0512      0.0000    656.0412      2.3674
  2201.5000     89.8465      0.0000    656.3524      2.3604
  2201.7500     90.7533      0.0000    656.4427      2.3524
  2202.0000     91.9583      0.0000    656.4111      2.3503
  2202.2500     92.0813      0.0000    656.3410      2.3597
  2202.5000     90.3614      0.0000    656.2953      2.3811
  2202.7500     87.0534      0.0000    656.3170      2.4092
  2203.0000     82.9532      0.0000    656.3356      2.4376
  2203.2500     78.9338      0.0000    656.0404      2.4643
  2203.5000     75.6340      0.0000    654.9517      2.4904
  2203.7500     73.1022      0.0000    652.8127      2.5141
  2204.0000     70.7832      0.0000    649.9372      2.5299
  2204.2500     68.1166      0.0000    646.7950      2.5337
  2204.5000     65.2336      0.0000    642.9905      2.5304
  2204.7500     62.9508      0.0000    637.1196      2.5339
  2205.0000     61.9644      0.0000    628.2971      2.5597
  2205.2500     62.0659      0.0000    617.6788      2.6129
  2205.5000     62.2326      0.0000    607.9610      2.6804
  2205.7500     61.5322      0.0000    601.4351      2.7370
  2206.0000     59.9758      0.0000    598.8633      2.7606
  2206.2500     58.4734      0.0000    599.6573      2.7465
  2206.5000     58.0225      0.0000    602.0150      2.7085
  2206.7500     59.0389      0.0000    602.5457      2.6685
  2207.0000     61.2638      0.0000    597.2430      2.6439
  2207.2500     63.8890      0.0000    584.9597      2.6411
  2207.5000     65.7921      0.0000    570.3401      2.6571
  2207.7500     66.1728      0.0000    561.3770      2.6851
  2208.0000     65.1744      0.0000    562.5461      2.7176
  2208.2500     63.6692      0.0000    571.0503      2.7486
  2208.5000     62.4102      0.0000    580.3004      2.7748
  2208.7500     61.5607      0.0000    585.5756      2.7962
  2209.0000     60.8357      0.0000    585.7980      2.8145
  2209.2500     59.7157      0.0000    581.9550      2.8310
  2209.5000     57.6931      0.0000    575.6683      2.8465
  2209.7500     54.7619      0.0000    568.9205      2.8603
  2210.0000     51.7435      0.0000    564.0073      2.8696
  2210.2500     49.9081      0.0000    563.0640      2.8704
  2210.5000     50.1042      0.0000    567.0318      2.8608
  2210.7500     52.0833      0.0000    574.8492      2.8446
  2211.0000     54.5834      0.0000    584.7562      2.8285
  2211.2500     56.1344      0.0000    597.0350      2.8167
  2211.5000     56.0303      0.0000    613.9340      2.8059
  2211.7500     54.8118      0.0000    635.2704      2.7883
  2212.0000     53.9526      0.0000    655.4543      2.7590
  2212.2500     54.8967      0.0000    667.2988      2.7200
  2212.5000     58.1028      0.0000    668.7636      2.6780
  2212.7500     62.8789      0.0000    664.8854      2.6404
  2213.0000     68.0679      0.0000    663.6840      2.6139
  2213.2500     72.7840      0.0000    670.6528      2.6044
  2213.5000     76.5478      0.0000    685.5057      2.6150
  2213.7500     79.1476      0.0000    702.3356      2.6418
  2214.0000     80.7864      0.0000    713.3253      2.6751
  2214.2500     82.1011      0.0000    714.0703      2.7054
  2214.5000     83.5290      0.0000    706.3598      2.7280
  2214.7500     84.8101      0.0000    696.1013      2.7430
  2215.0000     85.5218      0.0000    688.6172      2.7529
  2215.2500     85.9530      0.0000    685.3931      2.7624
  2215.5000     87.0522      0.0000    684.1579      2.7753
  2215.7500     89.4279      0.0000    681.3697      2.7909
  2216.0000     92.5827      0.0000    675.0725      2.8049
  2216.2500     95.2363      0.0000    666.1542      2.8155
  2216.5000     96.2870      0.0000    657.2294      2.8269
  2216.7500     95.3356      0.0000    650.4177      2.8463
  2217.0000     92.4928      0.0000    645.9948      2.8769
  2217.2500     88.0997      0.0000    642.5587      2.9159
  2217.5000     82.8251      0.0000    638.0949      2.9586
  2217.7500     77.7314      0.0000    631.3357      3.0031
  2218.0000     73.9058      0.0000    622.8562      3.0484
  2218.2500     71.9845      0.0000    614.9732      3.0892
  2218.5000     71.9524      0.0000    610.2753      3.1131
  2218.7500     73.1999      0.0000    610.2950      3.1064
  2219.0000     74.8692      0.0000    615.5790      3.0621
  2219.2500     76.4739      0.0000    626.0517      2.9849
  2219.5000     78.2120      0.0000    640.1844      2.8893
  2219.7500     80.5073      0.0000    654.1636      2.7920
  2220.0000     83.2138      0.0000    663.4875      2.7054
  2220.2500     85.2819      0.0000    666.4193      2.6368
  2220.5000     85.3146      0.0000    665.8139      2.5920
  2220.7500     82.8672      0.0000    667.2125      2.5768
  2221.0000     79.3688      0.0000    674.5951      2.5931
  2221.2500     77.3468      0.0000    687.0425      2.6370
  2221.5000     78.2908      0.0000    699.0704      2.7021
  2221.7500     81.3081      0.0000    704.6454      2.7839
  2222.0000     84.0552      0.0000    701.3346      2.8767
  2222.2500     84.8520      0.0000    691.1140      2.9676
  2222.5000     83.7987      0.0000    678.3230      3.0386
  2222.7500     82.2044      0.0000    667.2513      3.0784
  2223.0000     81.3676      0.0000    660.5850      3.0906
  2223.2500     81.8849      0.0000    659.0139      3.0906
  2223.5000     83.6844      0.0000    661.7583      3.0932
  2223.7500     86.3215      0.0000    667.0110      3.1042
  2224.0000     89.1774      0.0000    671.9805      3.1214
  2224.2500     91.5011      0.0000    673.6755      3.1408
  2224.5000     92.5158      0.0000    670.9593      3.1606
  2224.7500     91.8452      0.0000    665.8852      3.1826
  2225.0000     89.9904      0.0000    662.0928      3.2078
  2225.2500     88.0853      0.0000    661.4994      3.2324
  2225.5000     86.8969      0.0000    663.1498      3.2503
  2225.7500     86.3419      0.0000    665.4250      3.2623
