~Version Information
VERS.                      2.0: CWLS Log ASCII Standard - VERSION 2.0
WRAP.                       NO: One line per depth step
~Well Information Block
STRT.FT               555.5000: 
STOP.FT              2179.0000: 
STEP.FT                 0.2500: 
NULL.                -999.2500: 
COMP.          Petrogulf Corporation: COMPANY
WELL.            Montoya 6-14R: WELL
FLD.           Purgatorie River: FIELD
LOC.           867' FSL & 751' FWL: LOCATION
CNTY.               Las Animas: COUNTY
SRVC.                         : SERVICE COMPANY
DATE.          Mon Nov 15 07:02:23 2004: LOG DATE
UWI.           05 071 08242 00: UNIQUE WELL ID
STAT.                 Colorado: STATE
~Curve Information Block
DEPT.FT            0 000 00 00: Depth
SP.mV                         : DIL Spontaneous Potential
RILD.Ohm-m                    : DIL Deep Resistivity
RILM.Ohm-m                    : DIL Medium Resistivity
RLL3.Ohm-m                    : DIL Shallow Resistivity
GR.GAPI                       : Gamma Ray
~Parameter Information Block
~A  Depth        SP         RILD        RILM        RLL3         GR     
# ...
  1423.5000   -152.5771     18.3094     16.9674     33.8986    100.9775
  1423.7500   -152.3621     19.2803     17.9754     36.1151    100.8586
  1424.0000   -152.6522     20.2794     19.0642     38.8227     98.4010
  1424.2500   -153.3394     21.2614     20.2240     41.9677     95.3102
  1424.5000   -154.2706     22.1817     21.4330     45.2490     89.1509
  1424.7500   -155.2859     23.0050     22.6546     48.1866     84.6468
  1425.0000   -156.2445     23.7127     23.8394     50.2720     78.6028
  1425.2500   -157.0452     24.3057     24.9333     51.1404     75.8467
  1425.5000   -157.6249     24.8025     25.8872     50.6936     74.7612
  1425.7500   -157.9570     25.2313     26.6695     49.1263     76.3474
  1426.0000   -158.0432     25.6236     27.2727     46.8534     81.5847
  1426.2500   -157.9128     26.0062     27.7145     44.3767     86.1094
  1426.5000   -157.6153     26.3984     28.0330     42.1492     92.9676
  1426.7500   -157.2142     26.8118     28.2776     40.4817     97.1136
  1427.0000   -156.7675     27.2509     28.5021     39.5088    102.3401
  1427.2500   -156.3121     27.7157     28.7580     39.2094    104.9283
  1427.5000   -155.8490     28.2043     29.0904     39.4576    106.9875
  1427.7500   -155.3423     28.7144     29.5373     40.0855    107.0554
  1428.0000   -154.7388     29.2444     30.1279     40.9434    105.6122
  1428.2500   -153.9900     29.7942     30.8828     41.9462    104.1175
  1428.5000   -153.0854     30.3659     31.8144     43.0975    101.9959
  1428.7500   -152.0708     30.9648     32.9266     44.4853    101.0087
  1429.0000   -151.0489     31.6003     34.2188     46.2500    100.1693
  1429.2500   -150.1681     32.2861     35.6885     48.5319     99.7685
  1429.5000   -149.5906     33.0408     37.3359     51.4215     98.9280
  1429.7500   -149.4551     33.8839     39.1716     54.9297     98.0739
  1430.0000   -149.8435     34.8358     41.2191     58.9877     96.1793
  1430.2500   -150.7644     35.9109     43.5158     63.4803     94.2667
  1430.5000   -152.1494     37.1129     46.1040     68.2968     89.9641
  1430.7500   -153.8634     38.4279     49.0186     73.3790     86.1482
  1431.0000   -155.7335     39.8199     52.2568     78.7633     79.6690
  1431.2500   -157.5773     41.2225     55.7487     84.6057     75.3350
  1431.5000   -159.2305     42.5386     59.3162     91.1952     69.1905
  1431.7500   -160.5630     43.6426     62.6416     98.9573     65.2644
  1432.0000   -161.4889     44.3915     65.2796    108.4253     59.5583
  1432.2500   -161.9647     44.6512     66.7246    120.1467     56.0297
  1432.5000   -161.9881     44.3220     66.5563    134.4866     51.3820
  1432.7500   -161.5985     43.3689     64.6021    151.3317     48.5733
  1433.0000   -160.8765     41.8332     61.0245    169.7769     44.1934
  1433.2500   -159.9488     39.8235     56.2650    187.9521     40.8811
  1433.5000   -158.9743     37.4913     50.8900    203.1562     35.3527
  1433.7500   -158.1278     34.9936     45.4213    212.3758     31.6951
  1434.0000   -157.5691     32.4707     40.2434    213.0872     27.5205
  1434.2500   -157.4102     30.0277     35.5786    204.0637     26.4850
  1434.5000   -157.6870     27.7325     31.5173    185.8586     28.7425
  1434.7500   -158.3479     25.6201     28.0598    160.7384     33.1449
  1435.0000   -159.2657     23.7012     25.1572    132.0801     44.1206
  1435.2500   -160.2699     21.9711     22.7383    103.4735     53.9911
  1435.5000   -161.1912     20.4167     20.7265     77.8723     71.1122
  1435.7500   -161.9063     19.0222     19.0502     57.0733     82.6856
  1436.0000   -162.3634     17.7729     17.6463     41.6246     97.8668
  1436.2500   -162.5881     16.6569     16.4624     31.0828    105.7098
  1436.5000   -162.6643     15.6656     15.4566     24.4361    114.1115
  1436.7500   -162.6939     14.7929     14.5972     20.5151    118.0957
  1437.0000   -162.7563     14.0344     13.8605     18.2825    122.7962
  1437.2500   -162.8809     13.3863     13.2297     16.9704    125.3730
  1437.5000   -163.0366     12.8438     12.6925     16.0966    128.0882
  1437.7500   -163.1491     12.4018     12.2401     15.4109    128.7682
  1438.0000   -163.1379     12.0536     11.8652     14.8190    127.9552
  1438.2500   -162.9484     11.7913     11.5619     14.3086    126.5127
  1438.5000   -162.5774     11.6067     11.3248     13.9014    123.6440
  1438.7500   -162.0809     11.4910     11.1496     13.6252    121.3811
  1439.0000   -161.5537     11.4359     11.0330     13.5007    117.5356
  1439.2500   -161.0914     11.4335     10.9726     13.5376    115.0303
  1439.5000   -160.7565     11.4773     10.9671     13.7314    112.3540
  1439.7500   -160.5418     11.5614     11.0161     14.0647    111.4853
  1440.0000   -160.3701     11.6812     11.1189     14.5093    110.6252
  1440.2500   -160.1082     11.8323     11.2744     15.0322    109.5996
  1440.5000   -159.6134     12.0109     11.4800     15.6011    107.2097
  1440.7500   -158.7767     12.2130     11.7310     16.1894    105.6417
  1441.0000   -157.5663     12.4348     12.0205     16.7781    104.2241
  1441.2500   -156.0415     12.6723     12.3393     17.3549    103.9336
  1441.5000   -154.3413     12.9219     12.6767     17.9116    104.3108
  1441.7500   -152.6535     13.1805     13.0216     18.4428    105.2963
  1442.0000   -151.1627     13.4457     13.3637     18.9447    108.2665
  1442.2500   -150.0094     13.7167     13.6948     19.4147    110.9500
  1442.5000   -149.2628     13.9937     14.0102     19.8505    114.6249
  1442.7500   -148.9178     14.2785     14.3085     20.2470    116.1091
  1443.0000   -148.9187     14.5746     14.5921     20.5979    116.6391
  1443.2500   -149.1858     14.8865     14.8672     20.8958    116.1752
  1443.5000   -149.6534     15.2195     15.1431     21.1467    114.9450
  1443.7500   -150.2804     15.5784     15.4321     21.4037    114.1048
  1444.0000   -151.0539     15.9673     15.7502     21.8125    113.2579
  1444.2500   -151.9769     16.3878     16.1158     22.6595    113.1371
  1444.5000   -153.0426     16.8387     16.5501     24.4281    113.6700
  1444.7500   -154.2183     17.3158     17.0761     27.8091    114.2985
  1445.0000   -155.4397     17.8111     17.7170     33.6390    114.8197
  1445.2500   -156.6185     18.3138     18.4940     42.7411    114.2426
  1445.5000   -157.6576     18.8109     19.4216     55.6734    111.0650
  1445.7500   -158.4787     19.2889     20.5024     72.4340    107.0969
  1446.0000   -159.0409     19.7361     21.7182     92.2164     98.1902
  1446.2500   -159.3496     20.1442     23.0203    113.3265     90.3822
  1446.5000   -159.4569     20.5097     24.3231    133.3402     76.6605
  1446.7500   -159.4475     20.8338     25.5063    149.5121     67.1281
  1447.0000   -159.4122     21.1199     26.4341    159.3537     54.4278
  1447.2500   -159.4306     21.3714     26.9910    161.2319     48.1811
  1447.5000   -159.5482     21.5883     27.1205    154.8040     43.2945
  1447.7500   -159.7721     21.7653     26.8451    141.1399     43.1918
  1448.0000   -160.0794     21.8922     26.2548    122.4747     47.4104
  1448.2500   -160.4240     21.9569     25.4731    101.6588     52.5891
  1448.5000   -160.7557     21.9482     24.6186     81.4817     62.4097
  1448.7500   -161.0255     21.8627     23.7837     64.0879     69.3288
  1449.0000   -161.1964     21.7062     23.0259     50.6515     78.8734
  1449.2500   -161.2458     21.4951     22.3735     41.3631     84.0953
  1449.5000   -161.1687     21.2541     21.8328     35.6629     89.3522
  1449.7500   -160.9796     21.0117     21.3980     32.5907     90.8577
  1450.0000   -160.7033     20.7961     21.0584     31.1225     90.7274
  1450.2500   -160.3647     20.6318     20.8030     30.4122     90.0596
  1450.5000   -159.9734     20.5370     20.6243     29.9149     89.9768
  1450.7500   -159.5160     20.5234     20.5189     29.3955     90.9873
  1451.0000   -158.9606     20.5967     20.4872     28.8620     93.6216
  1451.2500   -158.2761     20.7579     20.5326     28.4657     95.4600
