~Version Information
VERS.                      2.0: CWLS Log ASCII Standard - VERSION 2.0
WRAP.                       NO: One line per depth step
~Well Information Block
STRT.FT                60.5000: 
STOP.FT              1875.7500: 
STEP.FT                 0.2500: 
NULL.                -999.2500: 
COMP.          Petrogulf Corporation: COMPANY
WELL.             State 16-14R: WELL
FLD.           Purgatorie River: FIELD
LOC.           598' FSL & 682' FWL--: LOCATION
PROV.                       CO: PROVINCE
CNTY.               Las Animas: COUNTRY
SRVC.                         : SERVICE COMPANY
DATE.          Fri Nov 12 08:50:45 2004: LOG DATE
UWI.            005 071 08034 : UNIQUE WELL ID
~Curve Information Block
DEPT.FT            0 000 00 00: Depth
GR.GAPI                       : Gamma Ray
CCL.                          : Casing Collar Locator
TT3.usec                      : CBL 3' Travel Time
AMP3.mV                       : CBL 3' Amplitude
~Parameter Information Block
~A  Depth        GR         CCL         TT3         AMP3    
# ...
   429.0000     45.7202      0.0000    770.3278     17.1654
   429.2500     46.4361      0.0000    772.7084     17.1617
   429.5000     47.3548      0.0000    777.4927     17.0801
   429.7500     48.4699      0.0000    784.4918     16.9173
   430.0000     49.3949      0.0000    792.1692     16.7253
   430.2500     49.9577      0.0000    798.1501     16.5700
   430.5000     50.5817      0.0000    800.4164     16.4766
   430.7500     51.9940      0.0000    798.2548     16.4283
   431.0000     54.8122      0.0000    792.6028     16.4087
   431.2500     59.5494      0.0000    785.8325     16.4296
   431.5000     66.6597      0.0000    780.5526     16.5224
   431.7500     75.9836      0.0000    777.2160     16.7180
   432.0000     85.8818      0.0000    771.4011     17.0263
   432.2500     93.5117      0.0000    753.3800     17.4250
   432.5000     96.8078      0.0000    713.3850     17.8676
   432.7500     96.1679      0.0000    652.6644     18.3058
   433.0000     93.8276      0.0000    591.3615     18.7006
   433.2500     91.9028      0.0000    560.4131     19.0208
   433.5000     91.4451      0.0000    578.3472     19.2479
   433.7500     92.8224      0.0000    634.0309     19.3864
   434.0000     96.0033      0.0000    693.1447     19.4661
   434.2500    100.1855      0.0000    720.2490     19.5393
   434.5000    103.6046      0.0000    696.5615     19.6646
   434.7500    104.2805      0.0000    626.8215     19.8707
   435.0000    101.4500      0.0000    538.0357     20.1201
   435.2500     96.4857      0.0000    467.5180     20.3218
   435.5000     92.0868      0.0000    442.3577     20.3901
   435.7500     90.2355      0.0000    466.0028     20.2977
   436.0000     91.0748      0.0000    523.3452     20.0782
   436.2500     93.7112      0.0000    595.3877     19.7875
   436.5000     97.3490      0.0000    667.3730     19.4676
   436.7500    101.2150      0.0000    728.6935     19.1420
   437.0000    104.1478      0.0000    773.4498     18.8292
   437.2500    105.1151      0.0000    802.7396     18.5460
   437.5000    103.9250      0.0000    822.6064     18.2965
   437.7500    101.0137      0.0000    838.1749     18.0672
   438.0000     97.0029      0.0000    850.4609     17.8428
   438.2500     93.0323      0.0000    858.2171     17.6298
   438.5000     90.9346      0.0000    860.6653     17.4598
   438.7500     91.9123      0.0000    857.4291     17.3609
   439.0000     94.8557      0.0000    847.5700     17.3292
   439.2500     96.7669      0.0000    829.9719     17.3365
   439.5000     95.1549      0.0000    804.6415     17.3651
   439.7500     89.9416      0.0000    773.8041     17.4243
   440.0000     83.4940      0.0000    742.5751     17.5313
   440.2500     79.1574      0.0000    716.1339     17.6877
   440.5000     79.1580      0.0000    693.3574     17.8819
   440.7500     83.0880      0.0000    665.2182     18.1038
   441.0000     88.1834      0.0000    622.7496     18.3447
   441.2500     91.1333      0.0000    565.0814     18.5892
   441.5000     89.9492      0.0000    498.7300     18.8165
   441.7500     84.8265      0.0000    433.0296     19.0093
   442.0000     77.8914      0.0000    377.4355     19.1621
   442.2500     72.0718      0.0000    338.4740     19.2890
   442.5000     69.5704      0.0000    316.5332     19.4192
   442.7500     70.7625      0.0000    306.7419     19.5729
   443.0000     74.2200      0.0000    303.2722     19.7351
   443.2500     77.9617      0.0000    302.3412     19.8585
   443.5000     80.9918      0.0000    302.5285     19.8921
   443.7500     83.6933      0.0000    304.1122     19.8112
   444.0000     86.6952      0.0000    308.8300     19.6310
   444.2500     89.6327      0.0000    319.3545     19.3957
   444.5000     91.2022      0.0000    337.1550     19.1523
   444.7500     90.2839      0.0000    359.3249     18.9302
   445.0000     86.9836      0.0000    378.9286     18.7380
   445.2500     82.7091      0.0000    391.7379     18.5673
   445.5000     79.1371      0.0000    402.9981     18.4001
   445.7500     76.9687      0.0000    423.7483     18.2228
   446.0000     75.7172      0.0000    457.9141     18.0372
   446.2500     74.5803      0.0000    495.1396     17.8560
   446.5000     73.3648      0.0000    519.2468     17.6903
   446.7500     72.6954      0.0000    523.0181     17.5444
   447.0000     73.5905      0.0000    512.5825     17.4235
   447.2500     76.7688      0.0000    498.7887     17.3411
   447.5000     81.9622      0.0000    487.4881     17.3165
   447.7500     87.6646      0.0000    477.3755     17.3624
   448.0000     91.8044      0.0000    463.4385     17.4735
   448.2500     93.0376      0.0000    441.3547     17.6288
   448.5000     91.5593      0.0000    410.8450     17.8049
   448.7500     88.9064      0.0000    376.6637     17.9855
   449.0000     87.0095      0.0000    345.9912     18.1561
   449.2500     86.8899      0.0000    323.9826     18.2980
   449.5000     88.0134      0.0000    311.3571     18.3969
   449.7500     89.1216      0.0000    305.5584     18.4552
   450.0000     89.5758      0.0000    303.4064     18.4941
   450.2500     89.6312      0.0000    302.7206     18.5455
   450.5000     89.8886      0.0000    302.4690     18.6407
   450.7500     91.0433      0.0000    302.3018     18.7918
   451.0000     93.7110      0.0000    302.1505     18.9762
   451.2500     97.6377      0.0000    302.0270     19.1460
   451.5000    101.2916      0.0000    301.9471     19.2679
   451.7500    102.9693      0.0000    301.9034     19.3564
   452.0000    102.2696      0.0000    301.8685     19.4542
   452.2500    100.1500      0.0000    301.8199     19.5794
   452.5000     97.7675      0.0000    301.7614     19.7043
   452.7500     95.5769      0.0000    301.7143     19.7928
   453.0000     93.4037      0.0000    301.6895     19.8450
   453.2500     91.1356      0.0000    301.6817     19.8923
   453.5000     89.2070      0.0000    301.6879     19.9565
   453.7500     88.3330      0.0000    301.7157     20.0328
   454.0000     88.8847      0.0000    301.8027     20.1097
   454.2500     90.7130      0.0000    302.0909     20.1907
   454.5000     93.5523      0.0000    303.2344     20.2887
   454.7500     97.2334      0.0000    307.4585     20.3984
   455.0000    101.2593      0.0000    319.9113     20.4733
   455.2500    104.5012      0.0000    348.2998     20.4371
   455.5000    105.9736      0.0000    397.5184     20.2331
   455.7500    105.9653      0.0000    461.2034     19.8728
   456.0000    105.7964      0.0000    520.4972     19.4369
   456.2500    106.2010      0.0000    556.1129     19.0215
   456.5000    106.3860      0.0000    561.8227     18.6794
   456.7500    104.9836      0.0000    544.3330     18.4118
   457.0000    101.4713      0.0000    514.4423     18.2059
   457.2500     96.2626      0.0000    483.7757     18.0646
   457.5000     89.9064      0.0000    466.9651     17.9985
   457.7500     82.8768      0.0000    478.7984     18.0022
   458.0000     76.0052      0.0000    523.8169     18.0502
   458.2500     70.5819      0.0000    588.7915     18.1217
   458.5000     67.7601      0.0000    649.1018     18.2266
   458.7500     67.8689      0.0000    683.9468     18.4047
   459.0000     70.1507      0.0000    684.4525     18.6912
   459.2500     72.9407      0.0000    650.6915     19.0792
   459.5000     74.2714      0.0000    588.6921     19.4993
   459.7500     72.8819      0.0000    513.0699     19.8205
   460.0000     69.0909      0.0000    447.6627     19.8676
   460.2500     64.7034      0.0000    417.8409     19.4716
   460.5000     61.9515      0.0000    438.7452     18.5566
   460.7500     62.3283      0.0000    507.3372     17.2296
   461.0000     65.9476      0.0000    603.2243     15.7866
   461.2500     71.4964      0.0000    699.1591     14.5750
   461.5000     76.9576      0.0000    775.1057     13.7980
   461.7500     80.9668      0.0000    825.1321     13.4355
   462.0000     83.6961      1.5796    853.0121     13.3280
   462.2500     86.3491      0.0000    863.8880     13.2992
