~Version Information
VERS.                      2.0: CWLS Log ASCII Standard - VERSION 2.0
WRAP.                       NO: One line per depth step
~Well Information Block
STRT.FT               260.0000: 
STOP.FT              2272.0000: 
STEP.FT                 0.2500: 
NULL.                -999.2500: 
COMP.          Pioneer Natural Resources: COMPANY
WELL.            Moo Moo 31-36: WELL
FLD.           Purgatoire River: FIELD
LOC.           612' FNL & 2326' FEL: LOCATION
PROV.                 Colorado: PROVINCE
CNTY.               Las Animas: COUNTRY
SRVC.                Patterson: SERVICE COMPANY
DATE.          Fri Jun 17 07:45:39 2005: LOG DATE
UWI.           05 071 08395 00: UNIQUE WELL ID
~Curve Information Block
DEPT.FT            0 000 00 00: Depth
DIR.Ohm-m                     : IEL Induction Resistivity
SN.Ohm-m                      : IEL Short Normal
SP.mV                         : IEL Spontaneous Potential
GR.GAPI                       : Gamma Ray
~Parameter Information Block
~A  Depth       DIR          SN          SP          GR     
   260.0000      5.9534   2000.0000   2000.0000    124.5149
   260.2500      5.9659   2000.0000   2000.0000    123.5753
   260.5000      5.9622   2000.0000   2000.0000    121.6295
   260.7500      5.9428   2000.0000   2000.0000    120.2760
   261.0000      5.9148   2000.0000   2000.0000    118.2377
   261.2500      5.8871   2000.0000   2000.0000    116.4378
   261.5000      5.8653   2000.0000   2000.0000    112.1278
   261.7500      5.8513   2000.0000   2000.0000    108.1237
   262.0000      5.8457   2000.0000   2000.0000    101.3878
   262.2500      5.8493   2000.0000   2000.0000     97.0637
   262.5000      5.8624   2000.0000   2000.0000     91.1861
   262.7500      5.8831   2000.0000   2000.0000     87.4655
   263.0000      5.9064   2000.0000   2000.0000     81.7347
   263.2500      5.9255   2000.0000   2000.0000     77.8014
   263.5000      5.9354   2000.0000   2000.0000     72.2831
   263.7500      5.9348   2000.0000   2000.0000     69.3549
   264.0000      5.9253   2000.0000   2000.0000     66.6111
   264.2500      5.9103   2000.0000   2000.0000     65.7628
   264.5000      5.8933   2000.0000   2000.0000     65.3320
   264.7500      5.8787   2000.0000   2000.0000     65.4678
   265.0000      5.8701   2000.0000   2000.0000     66.8101
   265.2500      5.8689   2000.0000   2000.0000     68.7063
   265.5000      5.8723   2000.0000   2000.0000     72.2893
   265.7500      5.8743   2000.0000   2000.0000     74.1326
   266.0000      5.8698   2000.0000   2000.0000     74.5960
   266.2500      5.8582   2000.0000   2000.0000     73.2757
   266.5000      5.8442   2000.0000   2000.0000     70.0790
   266.7500      5.8342   2000.0000   2000.0000     68.1979
   267.0000      5.8322   2000.0000   2000.0000     66.9017
   267.2500      5.8376   2000.0000   2000.0000     66.9067
   267.5000      5.8467   2000.0000   2000.0000     66.9201
   267.7500      5.8561   2000.0000   2000.0000     66.2288
   268.0000      5.8637   2000.0000   2000.0000     63.9665
   268.2500      5.8678   2000.0000   2000.0000     62.0668
   268.5000      5.8647   2000.0000   2000.0000     59.4840
   268.7500      5.8480   2000.0000   2000.0000     58.2417
   269.0000      5.8114   2000.0000   2000.0000     57.2239
   269.2500      5.7532   2000.0000   2000.0000     56.9777
   269.5000      5.6792   2000.0000   2000.0000     56.8261
   269.7500      5.6025   2000.0000   2000.0000     56.7441
   270.0000      5.5390   2000.0000   2000.0000     56.9014
   270.2500      5.5010   2000.0000   2000.0000     57.3796
   270.5000      5.4912   2000.0000   2000.0000     58.4426
   270.7500      5.5002   2000.0000   2000.0000     59.0010
   271.0000      5.5099   2000.0000   2000.0000     59.1537
   271.2500      5.5011   2000.0000   2000.0000     58.8133
   271.5000      5.4631   2000.0000   2000.0000     57.8449
   271.7500      5.3994   2000.0000   2000.0000     56.9938
   272.0000      5.3288   2000.0000   2000.0000     55.7265
   272.2500      5.2806   2000.0000   2000.0000     55.2057
   272.5000      5.2869   2000.0000   2000.0000     55.2948
   272.7500      5.3740   2000.0000   2000.0000     55.8788
   273.0000      5.5502   2000.0000   2000.0000     57.2667
   273.2500      5.7937   2000.0000   2000.0000     58.4636
   273.5000      6.0460   2000.0000   2000.0000     60.3144
   273.7500      6.2299   2000.0000   2000.0000     60.9721
   274.0000      6.2950   2000.0000   2000.0000     59.9288
   274.2500      6.2539   2000.0000   2000.0000     57.8563
   274.5000      6.1702   2000.0000   2000.0000     54.2589
   274.7500      6.1194   2000.0000   2000.0000     52.8798
   275.0000      6.1736   2000.0000   2000.0000     53.7698
   275.2500      6.4225   2000.0000   2000.0000     56.1499
   275.5000      7.0215   2000.0000   2000.0000     60.9062
   275.7500      8.2813   2000.0000   2000.0000     64.1861
   276.0000     10.8758   2000.0000   2000.0000     69.4225
   276.2500     16.3728   2000.0000   2000.0000     73.6423
   276.5000     28.0382   2000.0000   2000.0000     81.3854
   276.7500     46.0363   2000.0000   2000.0000     87.0702
   277.0000     49.8310   2000.0000   2000.0000     95.1502
   277.2500     39.1926   2000.0000   2000.0000     99.6695
   277.5000     34.2501   2000.0000   2000.0000    104.8132
   277.7500     43.3667   2000.0000   2000.0000    107.2387
   278.0000    252.9905   2000.0000   2000.0000    109.6927
   278.2500 100000.0000   2000.0000   2000.0000    110.7525
   278.5000 100000.0000   2000.0000   2000.0000    111.6833
   278.7500 100000.0000   2000.0000   2000.0000    111.7415
   279.0000 100000.0000   2000.0000   2000.0000    110.5341
   279.2500 100000.0000   2000.0000   2000.0000    108.8202
   279.5000 100000.0000   2000.0000   2000.0000    105.7178
   279.7500     26.0312   2000.0000   2000.0000    104.2882
   280.0000      7.8586   2000.0000   2000.0000    104.7796
   280.2500      5.0661   2000.0000   2000.0000    107.0534
   280.5000      4.3980   2000.0000   2000.0000    111.8232
   280.7500      4.6207   2000.0000   2000.0000    114.6294
   281.0000      5.5776   2000.0000   2000.0000    117.1597
   281.2500      7.5330   2000.0000   2000.0000    117.7527
   281.5000     11.5435   2000.0000   2000.0000    117.2890
   281.7500     22.6675   2000.0000   2000.0000    116.3221
   282.0000    147.7648   2000.0000   2000.0000    114.8131
   282.2500 100000.0000   2000.0000   2000.0000    114.2890
   282.5000 100000.0000   2000.0000   2000.0000    114.1789
   282.7500 100000.0000   2000.0000   2000.0000    114.1679
   283.0000 100000.0000   2000.0000   2000.0000    114.1634
   283.2500 100000.0000   2000.0000   2000.0000    114.5432
   283.5000 100000.0000   2000.0000   2000.0000    115.8926
   283.7500     96.3204   2000.0000   2000.0000    116.7900
   284.0000     54.6073   2000.0000   2000.0000    117.1359
   284.2500     45.1069   2000.0000   2000.0000    116.8306
   284.5000     42.1968   2000.0000   2000.0000    116.8533
   284.7500     41.3758   2000.0000   2000.0000    117.7586
   285.0000     41.3908   2000.0000   2000.0000    120.3483
   285.2500     42.0023   2000.0000   2000.0000    122.5226
   285.5000     43.4842   2000.0000   2000.0000    126.0295
   285.7500     46.5417   2000.0000   2000.0000    128.4065
   286.0000     52.2897   2000.0000   2000.0000    131.4930
   286.2500     61.9338   2000.0000   2000.0000    132.5811
   286.5000     75.3892   2000.0000   2000.0000    131.7350
   286.7500     88.1759   2000.0000   2000.0000    129.6423
   287.0000     92.0420   2000.0000   2000.0000    125.9602
   287.2500     85.6055   2000.0000   2000.0000    124.3518
   287.5000     75.8579   2000.0000   2000.0000    123.8900
   287.7500     67.7785   2000.0000   2000.0000    124.2511
   288.0000     62.0618   2000.0000   2000.0000    124.1315
   288.2500     57.7750   2000.0000   2000.0000    123.1764
   288.5000     54.1507   2000.0000   2000.0000    121.0654
   288.7500     51.1767   2000.0000   2000.0000    119.8709
   289.0000     49.3545   2000.0000   2000.0000    118.9067
   289.2500     49.1772   2000.0000   2000.0000    118.6135
   289.5000     50.8286   2000.0000   2000.0000    118.0632
   289.7500     54.0682   2000.0000   2000.0000    117.4575
   290.0000     58.1777   2000.0000   2000.0000    116.5743
   290.2500     62.1067   2000.0000   2000.0000    116.5667
   290.5000     64.9620   2000.0000   2000.0000    118.3264
   290.7500     66.4716   2000.0000   2000.0000    120.5697
   291.0000     66.9247   2000.0000   2000.0000    123.7536
   291.2500     66.7615   2000.0000   2000.0000    124.4794
   291.5000     66.2976   2000.0000   2000.0000    123.0044
   291.7500     65.6850   2000.0000   2000.0000    121.2624
   292.0000     64.9820   2000.0000   2000.0000    119.5201
   292.2500     64.2436   2000.0000   2000.0000    119.4394
   292.5000     63.5917   2000.0000   2000.0000    120.6484
   292.7500     63.2191   2000.0000   2000.0000    121.9155
   293.0000     63.3302   2000.0000   2000.0000    123.6163
   293.2500     64.0631   2000.0000   2000.0000    124.0132
