~Version Information
 VERS.                                  2.0 : CWLS LAS VERSION
 WRAP.                                   NO : WRAPING MODE
 SWARE .                 MController 2.5.0E : SOFTWARE VERSION
~Well Information
 WELL.                         Justin 32-10 : WELL
 COMP.             Evergreen Operating Corp : COMPANY
 FLD.                      Purgatorie River : FIELD
 LOC.                SW/NE Sec 10 T32S R65W : LOCATION
 DATE.                              8/29/04 : DATE(S) LOGGED
 SRVC.       Blanco Geological Services LLC : SERVICE COMPANY
 STAT.                                   CO : STATE
 CNTY.                           Las Animas : COUNTY
 CTRY.                                  USA : COUNTRY
 API.                       05-071-08053-00 : API NUMBER
 STRT.FT                             322.00 : START DEPTH
 STOP.FT                            1195.00 : STOP DEPTH
 STEP.FT                               1.00 : DEPTH INCREMENT
 NULL.                                -9999 : NULL VALUE
~Curve information
 DEPTH.FT                                   :
 ROP.MIN/FT                                 :
 GAS.UNITS                                  :
~ASCII Log data
      322.00    -9999.000          2.9 
      323.00        0.100          3.9 
      324.00        0.067          3.9 
      325.00       10.367         94.2 
      326.00        2.683          7.6 
      327.00        0.167          6.9 
      328.00        0.167          7.4 
      329.00        0.167          7.5 
      330.00        0.133          7.5 
      331.00        0.133          7.2 
      332.00        0.167          7.2 
      333.00        0.100          7.2 
      334.00        0.100          7.2 
      335.00        0.133          7.2 
      336.00        0.133          7.6 
      337.00        0.100          7.6 
      338.00        0.133          6.6 
      339.00        0.117          6.6 
      340.00        0.200          6.9 
      341.00        0.167          6.9 
      342.00        0.133          6.9 
      343.00        0.133          7.3 
      344.00        0.167          7.3 
      345.00        0.133          7.1 
      346.00        0.200          7.3 
      347.00        0.133          7.3 
      348.00        0.133          7.3 
      349.00        0.133          7.3 
      350.00        0.200          7.5 
      351.00        0.200          7.4 
      352.00        0.167          7.3 
      353.00        0.167          8.2 
      354.00        0.133          8.2 
      355.00        0.267          8.4 
      356.00        2.650          8.0 
      357.00        0.167          7.8 
      358.00        0.167          7.4 
      359.00        0.217          7.3 
      360.00        0.200          7.1 
      361.00        0.167          7.7 
      362.00        0.200          7.3 
      363.00        0.167          6.8 
      364.00        0.233          7.0 
      365.00        0.233          7.6 
      366.00        0.233          7.4 
      367.00        0.233          7.5 
      368.00        0.200          7.5 
      369.00        0.200          7.1 
      370.00        0.200          7.4 
      371.00        0.167          7.4 
      372.00        0.233          7.7 
      373.00        0.217          7.5 
      374.00        0.167          7.2 
      375.00        0.200          7.2 
      376.00        0.167          7.4 
      377.00        0.167          7.6 
      378.00        0.200          7.6 
      379.00        0.167          7.2 
      380.00        0.200          7.6 
      381.00        0.167          7.6 
      382.00        0.167          7.8 
      383.00        0.200          7.8 
      384.00        0.133          7.8 
      385.00        0.200          7.4 
      386.00        4.667         48.4 
      387.00        0.300          7.6 
      388.00        0.433          8.0 
      389.00        0.300          8.0 
      390.00        0.200          7.2 
      391.00        0.200          7.2 
      392.00        0.200          8.0 
      393.00        0.200          8.2 
      394.00        0.167          7.7 
      395.00        0.200          7.7 
      396.00        0.167          7.9 
      397.00        0.167          7.6 
      398.00        0.200          7.6 
      399.00        0.167          7.6 
      400.00        0.133          7.6 
      401.00        0.167          7.8 
      402.00        0.150          8.3 
      403.00        0.133          8.3 
      404.00        0.133          8.1 
      405.00        0.100          8.6 
      406.00        0.100          8.6 
      407.00        0.133          8.6 
      408.00        0.100         10.7 
      409.00        0.100         10.7 
      410.00        0.100         10.6 
      411.00        0.100         12.6 
      412.00        0.067         12.6 
      413.00        0.100         18.1 
      414.00        0.100         18.1 
      415.00        0.100         23.1 
      416.00        2.683         41.5 
      417.00        0.267          8.1 
      418.00        0.367          8.1 
      419.00        0.300          7.8 
      420.00        0.300          7.8 
      421.00        0.133          7.6 
      422.00        0.100          7.6 
      423.00        0.133          7.6 
      424.00        0.133          7.7 
      425.00        0.133          7.7 
      426.00        0.167          7.3 
      427.00        0.133          7.3 
      428.00        0.100          7.7 
      429.00        0.167          7.7 
      430.00        0.117          8.2 
      431.00        0.133          8.2 
      432.00        0.133          8.3 
      433.00        0.200          7.6 
      434.00        0.133          7.6 
      435.00        0.167          7.9 
      436.00        0.133          7.9 
      437.00        0.133          8.3 
      438.00        0.133          8.3 
      439.00        0.133          8.0 
      440.00        0.133          8.0 
      441.00        0.133          8.0 
      442.00        0.133          8.0 
      443.00        0.133          8.1 
      444.00        0.133          8.1 
      445.00        0.133         10.9 
      446.00        2.850         20.9 
      447.00        0.300          7.4 
      448.00        0.233          7.9 
      449.00        0.233          7.8 
      450.00        0.233          8.0 
      451.00        0.167          8.3 
      452.00        0.167          7.8 
      453.00        0.167          8.0 
      454.00        0.133          8.0 
      455.00        0.183          7.6 
      456.00        0.167          7.6 
      457.00        0.200          7.7 
      458.00        0.167          7.4 
      459.00        0.167          7.4 
      460.00        0.167          8.2 
      461.00        0.200          7.8 
      462.00        0.200          7.8 
      463.00        0.167          8.2 
      464.00        0.200          8.0 
      465.00        0.167          8.0 
      466.00        0.200          7.4 
      467.00        0.200          7.4 
      468.00        0.200          8.2 
      469.00        0.200          8.2 
      470.00        0.200          7.9 
      471.00        0.167          8.0 
      472.00        0.200          8.0 
      473.00        0.183          8.0 
      474.00        0.167         10.9 
      475.00        0.133         10.9 
      476.00        3.750         63.6 
      477.00        0.567         33.4 
      478.00        0.300         14.5 
      479.00        0.267          9.6 
      480.00        0.267          9.5 
      481.00        0.267          8.4 
      482.00        0.267          8.1 
      483.00        0.333          8.2 
      484.00        0.283          8.4 
      485.00        0.200          7.8 
      486.00        0.267          8.1 
      487.00        0.267          8.4 
      488.00        0.300          8.0 
      489.00        0.333          8.5 
      490.00        0.133          7.6 
      491.00        0.133          8.1 
      492.00        0.233          8.4 
      493.00        0.100          8.4 
      494.00        0.200          8.2 
      495.00        0.167          8.2 
      496.00        0.167          8.4 
      497.00        0.133          8.4 
      498.00        0.233          7.8 
      499.00        0.200          7.7 
      500.00        0.200          7.9 
      501.00        0.183          7.9 
      502.00        0.167          8.6 
      503.00        0.233          8.2 
      504.00        0.200          9.4 
      505.00        0.167          9.4 
      506.00        3.850         25.3 
      507.00        0.333          8.5 
      508.00        0.167          8.2 
      509.00        0.100          8.1 
      510.00        0.133          8.1 
      511.00        0.133          7.8 
      512.00        0.167          7.8 
      513.00        0.167          8.6 
      514.00        0.200          7.4 
      515.00        0.167          8.1 
      516.00        0.200          8.0 
      517.00        0.250          8.7 
      518.00        0.200          8.5 
      519.00        0.167          8.4 
      520.00        0.167          8.4 
      521.00        0.200          7.8 
