~Version Information
 VERS.                                  2.0 : CWLS LAS VERSION
 WRAP.                                   NO : WRAPING MODE
 SWARE .                 MController 2.5.0J : SOFTWARE VERSION
~Well Information
 WELL.                      Oink Oink 14-36 : WELL
 COMP.    Pioneer Natural Resources USA Ink : COMPANY
 FLD.                      Purgatoire River : FIELD
 LOC.                SW/SW Sec 36 T32S R37W : LOCATION
 DATE.                         6/07-08/2005 : DATE(S) LOGGED
 SRVC.       Blanco Geological Services LLC : SERVICE COMPANY
 STAT.                                   CO : STATE
 CNTY.                           Las Animas : COUNTY
 CTRY.                                  USA : COUNTRY
 API.                       05-071-08394-00 : API NUMBER
 STRT.FT                             514.00 : START DEPTH
 STOP.FT                            2457.00 : STOP DEPTH
 STEP.FT                               1.00 : DEPTH INCREMENT
 NULL.                                -9999 : NULL VALUE
~Curve information
 DEPTH.FT                                   :
 ROP.MIN/FT                                 :
 GAS.UNITS                                  :
~ASCII Log data
# ...
      1314.0         0.27        834.7 
      1315.0         0.50        866.1 
      1316.0         1.48        922.1 
      1317.0         0.40       1392.2 
      1318.0         0.30       1731.4 
      1319.0         0.27       1871.4 
      1320.0         0.27       1908.1 
      1321.0         0.20       1875.7 
      1322.0         0.20       1780.5 
      1323.0         0.27       1630.3 
      1324.0         0.27       1446.8 
      1325.0         0.30       1275.7 
      1326.0         0.23       1141.3 
      1327.0         0.27       1068.3 
      1328.0         0.23       1062.7 
      1329.0         0.25       1074.2 
      1330.0         0.27       1083.7 
      1331.0         0.23       1089.6 
      1332.0         0.20       1088.9 
      1333.0         0.23       1075.2 
      1334.0         0.20       1037.2 
      1335.0         0.20       1007.8 
      1336.0         0.23        971.1 
      1337.0         0.23        925.7 
      1338.0         0.23        862.8 
      1339.0         0.27        827.2 
      1340.0         0.23        807.2 
      1341.0         0.13        812.5 
      1342.0         0.10        819.3 
      1343.0         0.20        826.2 
      1344.0         0.22        828.5 
      1345.0         0.13        830.1 
      1346.0         2.10       1108.9 
      1347.0         0.33       1554.1 
      1348.0         0.23       1845.9 
      1349.0         0.20       2012.4 
      1350.0         0.18       2091.3 
      1351.0         0.10       2108.6 
      1352.0         0.17       2113.5 
      1353.0         0.20       2074.6 
      1354.0         0.20       1962.4 
      1355.0         0.27       1793.6 
      1356.0         0.27       1551.5 
      1357.0         0.23       1331.7 
      1358.0         0.23       1188.7 
      1359.0         0.20       1092.5 
      1360.0         0.20       1077.1 
      1361.0         0.23       1086.3 
      1362.0         0.17       1088.3 
      1363.0         0.10       1085.6 
      1364.0         0.07       1084.7 
      1365.0         0.20       1080.7 
      1366.0         0.10       1057.5 
      1367.0         0.07       1038.2 
      1368.0         0.17       1024.1 
      1369.0         0.25       1012.7 
      1370.0         0.27        959.0 
      1371.0         0.33        891.6 
      1372.0         0.27        861.9 
      1373.0         0.20        891.3 
      1374.0         0.23        921.7 
      1375.0         0.30        967.9 
      1376.0         1.88       1168.4 
      1377.0         0.30       1549.5 
      1378.0         0.33       1921.5 
      1379.0         0.23       2078.2 
      1380.0         0.33       2127.9 
      1381.0         0.17       2097.8 
      1382.0         0.17       2017.0 
      1383.0         0.20       1893.4 
      1384.0         0.13       1731.4 
      1385.0         0.13       1642.1 
      1386.0         0.23       1541.7 
      1387.0         0.27       1374.8 
      1388.0         0.13       1199.8 
      1389.0         0.17       1123.6 
      1390.0         0.18       1048.7 
      1391.0         0.10       1032.6 
      1392.0         0.10       1035.9 
      1393.0         0.10       1055.2 
      1394.0         0.17       1075.8 
      1395.0         0.20       1095.4 
      1396.0         0.13       1100.7 
      1397.0         0.10       1106.9 
      1398.0         0.20       1104.9 
      1399.0         0.20       1080.1 
      1400.0         0.27       1066.7 
      1401.0         0.23       1063.1 
      1402.0         0.17       1052.6 
      1403.0         0.17       1033.3 
      1404.0         0.20       1007.8 
      1405.0         0.33        999.9 
      1406.0         1.38        990.8 
      1407.0         0.43       1043.4 
      1408.0         0.43       1652.9 
      1409.0         0.30       2051.1 
      1410.0         0.30       2305.9 
      1411.0         0.23       2350.1 
      1412.0         0.23       2339.3 
      1413.0         0.23       2198.9 
      1414.0         0.25       1993.1 
      1415.0         0.30       1728.2 
      1416.0         0.27       1443.5 
      1417.0         0.27       1272.1 
      1418.0         0.27       1167.4 
      1419.0         0.23       1138.6 
      1420.0         0.27       1148.8 
      1421.0         0.23       1148.4 
      1422.0         0.23       1135.7 
      1423.0         0.23       1099.0 
      1424.0         0.23       1084.3 
      1425.0         0.23       1038.9 
      1426.0         0.20       1001.9 
      1427.0         0.28        963.3 
      1428.0         0.37        916.2 
      1429.0         0.30        885.7 
      1430.0         0.30        865.1 
      1431.0         0.30        878.9 
      1432.0         0.33        895.2 
      1433.0         0.27        898.5 
      1434.0         0.27        898.2 
      1435.0         0.27        891.0 
      1436.0         2.12        916.8 
      1437.0         0.43       1412.8 
      1438.0         0.30       1774.0 
      1439.0         0.30       2025.9 
      1440.0         0.30       2121.1 
      1441.0         0.23       2108.0 
      1442.0         0.17       2004.6 
      1443.0         0.13       1867.2 
      1444.0         0.15       1754.3 
      1445.0         0.27       1636.9 
      1446.0         0.13       1420.3 
      1447.0         0.13       1331.7 
      1448.0         0.17       1242.7 
      1449.0         0.33       1153.7 
      1450.0         0.30       1071.6 
      1451.0         0.30       1062.7 
      1452.0         0.30       1077.1 
      1453.0         0.33       1091.2 
      1454.0         0.27       1083.0 
      1455.0         0.27       1047.0 
      1456.0         0.30        984.5 
      1457.0         0.32        937.1 
      1458.0         0.27        905.0 
      1459.0         0.30        896.2 
      1460.0         0.30        894.6 
      1461.0         0.27        888.4 
      1462.0         0.33        883.1 
      1463.0         0.37        860.6 
      1464.0         0.40        838.6 
      1465.0         0.17        827.2 
      1466.0         2.95       2019.6 
      1467.0         0.23       2122.7 
      1468.0         0.40       2147.2 
      1469.0         0.38       2029.1 
      1470.0         0.30       1747.8 
      1471.0         0.40       1503.7 
      1472.0         0.23       1245.9 
      1473.0         0.17       1139.0 
      1474.0         0.07       1105.3 
      1475.0         0.10       1096.1 
      1476.0         0.23       1076.8 
      1477.0         0.33       1058.8 
      1478.0         0.37        917.5 
      1479.0         0.33        904.4 
      1480.0         0.40       1013.7 
      1481.0         0.35       1054.9 
      1482.0         0.23       1054.6 
      1483.0         0.23       1039.8 
      1484.0         0.10       1011.0 
      1485.0         0.10       1003.5 
      1486.0         0.23        994.0 
      1487.0         0.30        969.2 
      1488.0         0.23        931.2 
      1489.0         0.23        913.2 
      1490.0         0.27        889.0 
      1491.0         0.30        873.0 
      1492.0         0.27        866.1 
      1493.0         0.20        866.8 
      1494.0         0.17        859.6 
      1495.0         0.17        842.2 
      1496.0         2.55       1262.3 
      1497.0         0.43       1757.3 
      1498.0         0.35       1935.6 
      1499.0         0.33       1993.8 
      1500.0         0.27       1976.8 
      1501.0         0.30       1862.9 
      1502.0         0.40       1672.9 
      1503.0         0.37       1410.2 
      1504.0         0.37       1220.7 
      1505.0         0.33       1148.8 
      1506.0         0.37       1125.5 
      1507.0         0.30       1083.7 
      1508.0         0.28       1042.1 
      1509.0         0.30       1007.1 
      1510.0         0.33        975.7 
      1511.0         0.27        953.8 
      1512.0         0.27        934.2 
      1513.0         0.27        910.6 
