~Version Information
VERS.                      2.0: CWLS Log ASCII Standard - VERSION 2.0
WRAP.                       NO: One line per depth step
~Well Information Block
STRT.FT               664.0000: 
STOP.FT              1615.5000: 
STEP.FT                 0.2500: 
NULL.                -999.2500: 
COMP.          Petrogulf Corporation: COMPANY
WELL.          Great Plains 22-21R: WELL
FLD.           Purgatorie River: FIELD
LOC.           73' FNL & 1992' FWL: LOCATION
PROV.                 Colorado: PROVINCE
CNTY.               Las Animas: COUNTRY
SRVC.                Patterson: SERVICE COMPANY
DATE.          Thu Sep 08 08:05:26 2005: LOG DATE
UWI.                          : UNIQUE WELL ID
~Curve Information Block
DEPT.FT            0 000 00 00: Depth
SP.mV                         : DIL Spontaneous Potential
RILD.Ohm-m                    : DIL Deep Resistivity
RILM.Ohm-m                    : DIL Medium Resistivity
RLL3.Ohm-m                    : DIL Shallow Resistivity
GR.GAPI                       : Gamma Ray
~Parameter Information Block
~A  Depth        SP         RILD        RILM        RLL3         GR     
# ...
  1028.0000    150.4041     10.9231     13.6077     15.0681    125.8616
  1028.2500    150.2663     10.7320     13.6714     14.6011    122.7194
  1028.5000    150.3570     10.4153     13.3685     17.0000    116.3629
  1028.7500    150.4368     10.0952     12.8712     19.5192    117.9981
  1029.0000    150.4147      9.8477     12.1074     18.6485    127.0969
  1029.2500    150.4863      9.6472     11.1629     15.8355    133.8935
  1029.5000    150.7541      9.5129     10.2807     13.4347    140.6217
  1029.7500    151.1843      9.3592      9.5072     10.9924    159.2289
  1030.0000    151.4964      9.3527      8.8689      9.7129    161.2584
  1030.2500    151.7903      9.5168      8.4462      8.4738    151.5831
  1030.5000    152.3571      9.5551      8.3929      7.6568    164.9680
  1030.7500    152.9543      9.5950      8.5329      7.0315    156.5874
  1031.0000    153.7617      9.5944      8.8530      7.5555    145.1423
  1031.2500    154.5143      9.4779      9.4529      9.7466    151.2430
  1031.5000    155.2137      9.2602     10.1042     13.7321    122.7067
  1031.7500    156.0279      8.9789     10.9381     19.3402    109.4249
  1032.0000    156.7261      8.6039     11.2884     28.2494     95.5480
  1032.2500    157.5341      8.4413     11.3058     47.1114     84.1377
  1032.5000    158.3366      8.3412     10.9206     57.1900     96.0277
  1032.7500    159.1541      8.2701     10.1857     36.8831    101.3155
  1033.0000    159.8171      8.3542      9.4308     16.3930    127.8522
  1033.2500    160.3083      8.4473      8.8522      9.7852    148.2552
  1033.5000    160.5057      8.4592      8.4280      8.7659    160.1823
  1033.7500    160.6357      8.4001      8.2470      8.4437    157.6834
  1034.0000    160.7811      8.4988      8.1099      8.4014    164.2370
  1034.2500    160.9010      8.3361      8.0628      8.6597    173.3512
  1034.5000    161.0085      8.1361      7.9628      8.9573    189.2028
  1034.7500    161.0588      7.9962      7.8172      8.7745    174.7964
  1035.0000    161.1423      7.7753      7.6586      8.7543    181.9148
  1035.2500    161.2433      7.5624      7.6225      8.7785    183.7703
  1035.5000    161.2591      7.4767      7.5538      8.4872    171.1231
  1035.7500    161.2535      7.3803      7.6089      9.0537    167.1440
  1036.0000    161.2801      7.3748      7.7067      9.9216    178.3712
  1036.2500    161.3062      7.4425      7.7821     10.6719    177.8983
  1036.5000    161.2278      7.5596      7.7870     10.5805    171.6456
  1036.7500    160.8850      7.6535      7.7970      9.9944    167.3772
  1037.0000    160.4351      7.9045      7.8237      9.5618    174.6153
  1037.2500    159.9532      8.2230      7.9377      9.5504    173.1658
  1037.5000    159.4123      8.4768      8.2083      9.3100    178.0669
  1037.7500    158.8424      8.9130      8.5343      9.3594    181.6339
  1038.0000    158.0700      9.2596      9.0109      9.5048    188.0717
  1038.2500    157.1867      9.4701      9.4150     10.1633    179.7413
  1038.5000    156.2475      9.7378     10.0758     11.9438    161.4664
  1038.7500    155.1364     10.0318     10.7042     13.9028    171.1264
  1039.0000    153.8883     10.1648     11.1879     14.7273    158.7269
  1039.2500    152.5878     10.4083     11.6962     16.9779    153.4154
  1039.5000    151.3553     10.7644     12.0934     19.4941    147.0811
  1039.7500    150.3672     11.1210     12.3062     19.6058    147.0347
  1040.0000    149.4953     11.7129     12.4182     18.3954    141.4580
  1040.2500    148.5740     12.3876     12.7472     15.6070    148.7711
  1040.5000    147.7414     12.9750     13.0456     12.3159    147.2448
  1040.7500    146.8842     13.5708     13.7581     11.9716    145.9766
  1041.0000    146.0839     14.2093     14.8683     15.3343    144.8019
  1041.2500    145.2788     14.2228     16.0683     19.8669    137.6469
  1041.5000    144.6018     14.5504     17.7152     21.6609    134.6935
  1041.7500    144.1288     14.5906     18.7209     24.8685    132.7493
  1042.0000    143.9093     14.1271     19.1982     31.1003    108.4239
  1042.2500    143.7626     13.8006     19.0438     34.9035    110.9048
  1042.5000    143.5871     13.0897     18.8775     31.2300    120.9294
  1042.7500    143.4940     12.5152     18.5045     27.5066    119.5110
  1043.0000    143.6408     12.2274     17.4400     27.5012    115.4201
  1043.2500    143.8733     11.8606     15.9640     29.8989    120.1044
  1043.5000    144.1691     11.5232     14.0773     29.2239    130.5159
  1043.7500    144.5126     11.2588     12.5270     20.6748    143.1718
  1044.0000    144.9680     10.8833     11.2020     12.3887    165.1826
  1044.2500    145.6097     10.4650     10.3671      8.4361    171.1592
  1044.5000    146.3832     10.0381      9.8191      8.0524    187.3754
  1044.7500    147.1003      9.6377      9.4723      8.8761    183.2721
  1045.0000    147.8081      9.1618      9.1813      9.6463    182.1989
  1045.2500    148.5503      8.7596      8.9246      9.6516    183.7009
  1045.5000    149.2705      8.3391      8.6483      9.0447    181.2746
  1045.7500    149.9458      7.9561      8.3549      9.2209    178.2429
  1046.0000    150.4786      7.6758      8.0166      9.9095    171.4725
  1046.2500    150.9256      7.5321      7.6825     10.6857    176.5201
  1046.5000    151.3898      7.4118      7.4355     10.0957    179.0243
  1046.7500    151.8381      7.3801      7.2133      9.3016    177.4520
  1047.0000    152.2305      7.4570      7.1099      9.4842    185.8772
  1047.2500    152.5038      7.4980      7.0102      9.8847    187.3637
  1047.5000    152.7848      7.5887      6.9745      9.2562    181.6559
  1047.7500    153.1705      7.8685      7.0766      8.1933    187.8627
  1048.0000    153.5779      8.0267      7.1928      7.9088    173.6220
  1048.2500    153.9058      8.0903      7.5365      8.0486    161.7357
  1048.5000    154.2497      8.1813      7.9708      9.9249    151.6262
  1048.7500    154.8405      8.2781      8.3735     14.2361    137.8091
  1049.0000    155.5614      8.5005      8.7936     21.9261    119.5200
  1049.2500    156.3138      8.7831      8.9467     23.7231    112.0424
  1049.5000    156.8113      9.1397      9.0305     17.0937    115.6858
  1049.7500    157.1578      9.6215      9.1871     12.5687    113.4006
  1050.0000    157.2822     10.1002      9.4666     10.4159    116.3684
  1050.2500    157.2333     10.7853      9.9265     11.0036    124.7488
  1050.5000    157.0048     11.6112     11.0795     14.3938    120.8457
  1050.7500    156.5212     12.4954     12.3217     19.1716    115.6430
  1051.0000    156.0217     13.2898     13.9229     23.2097    114.1129
  1051.2500    155.5074     13.8482     15.6899     27.5870    108.2865
  1051.5000    154.9992     14.5427     17.3152     36.0420    104.0921
  1051.7500    154.4691     15.2197     18.5609     45.3732    103.9574
  1052.0000    154.0427     15.8037     20.2630     48.8509     98.2907
  1052.2500    153.3775     16.9566     21.5472     47.5056    100.3899
  1052.5000    152.6497     17.8788     22.6151     46.5862     99.3927
  1052.7500    151.9208     18.8784     23.9563     46.8376     96.0263
  1053.0000    151.1826     20.3761     25.8829     47.1306    101.1598
  1053.2500    150.4605     21.2969     27.4613     45.9472     92.7623
  1053.5000    149.6277     21.8982     28.3521     45.1939     74.7915
  1053.7500    148.7559     23.3974     29.9680     45.3482     76.9865
  1054.0000    147.7138     24.1698     30.5722     45.2095     72.6518
  1054.2500    146.6492     24.4068     31.8476     45.1295     70.1286
  1054.5000    145.4301     25.3457     33.1197     46.1099     76.3432
  1054.7500    144.0397     25.4183     34.3300     46.7583     75.7433
  1055.0000    142.7114     25.5452     34.5072     46.4883     73.6854
  1055.2500    141.1765     26.0093     35.9835     45.9068     83.3406
  1055.5000    139.4001     26.6218     36.4719     46.6296     73.5916
  1055.7500    137.8778     26.3505     36.8943     47.9262     69.0931
