~Version Information
VERS.                      2.0: CWLS Log ASCII Standard - VERSION 2.0
WRAP.                       NO: One line per depth step
~Well Information Block
STRT.FT               580.0000: 
STOP.FT              2729.7000: 
STEP.FT                 0.1000: 
NULL.                -999.2500: 
COMP.          Pioneer Natural Resources: COMPANY
WELL.          Sand Pebbles 13-33: WELL
FLD.           Purgatoire River: FIELD
LOC.           1883' FSL & 63' FWL----: LOCATION
PROV.                 Colorado: PROVINCE
CNTY.               Las Animas: COUNTRY
SRVC.                Patterson: SERVICE COMPANY
DATE.          Mon Mar 14 07:33:33 2005: LOG DATE
UWI.           05 071 08224 00: UNIQUE WELL ID
~Curve Information Block
DEPT.FT            0 000 00 00: Depth
DCAL.in                       : CDL Caliper
RHOB.g/cc                     : CDL Bulk Density
RHOC.g/cc                     : CDL Density Correction
DPOR.pu                       : CDL Density Porosity
NPOR.pu                       : Neutron Porosity
GR.GAPI                       : Gamma Ray
~Parameter Information Block
~A  Depth       DCAL        RHOB        RHOC        DPOR        NPOR         GR     
# ...
  2701.6000      7.6364      2.6164      0.0728      2.0390     15.5150   -999.2500
  2701.7000      7.6364      2.6158      0.0687      2.0722     15.6910   -999.2500
  2701.8000      7.6169      2.6059      0.0387      2.6705     15.8371   -999.2500
  2701.9000      7.6169      2.5825      0.0134      4.0919     15.8587   -999.2500
  2702.0000      7.6105      2.5532     -0.0143      5.8652     15.6377   -999.2500
  2702.1000      7.6105      2.5402     -0.0166      6.6566     15.3148   -999.2500
  2702.2000      7.6105      2.5452      0.0138      6.3537     15.2896   -999.2500
  2702.3000      7.6087      2.5484      0.0197      6.1592     15.6658   -999.2500
  2702.4000      7.6087      2.5418     -0.0025      6.5604     16.1346   -999.2500
  2702.5000      7.6091      2.5379      0.0083      6.7957     16.3842   -999.2500
  2702.6000      7.6091      2.5490      0.0100      6.1213     16.1183   -999.2500
  2702.7000      7.6091      2.5710      0.0470      4.7865     15.4804   -999.2500
  2702.8000      7.6099      2.5880      0.0802      3.7590     15.4566   -999.2500
  2702.9000      7.6099      2.5895      0.0739      3.6688     17.9573   -999.2500
  2703.0000      7.6107      2.5805      0.0490      4.2124     26.0498   -999.2500
  2703.1000      7.6107      2.5768      0.0009      4.4353     38.6747   -999.2500
  2703.2000      7.6107      2.5882      0.0225      3.7440     47.7817   -999.2500
  2703.3000      7.6102      2.5996      0.1084      3.0532     51.0491   -999.2500
  2703.4000      7.6102      2.5881      0.0616      3.7500     51.6873   -999.2500
  2703.5000      7.6083      2.5602      0.0509      5.4402     51.7549   -999.2500
  2703.6000      7.6083      2.5417      0.0451      6.5621     51.7587   -999.2500
  2703.7000      7.6083      2.5436      0.0500      6.4474   -999.2500   -999.2500
  2703.8000      7.6076      2.5521      0.0480      5.9308   -999.2500   -999.2500
  2703.9000      7.6076      2.5456      0.0516      6.3291   -999.2500   -999.2500
  2704.0000      7.6083      2.5213      0.0282      7.7975   -999.2500   -999.2500
  2704.1000      7.6083      2.5000      0.0345      9.0890   -999.2500   -999.2500
  2704.2000      7.6083      2.5043      0.0246      8.8323   -999.2500   -999.2500
  2704.3000      7.6082      2.5299      0.0661      7.2801   -999.2500   -999.2500
  2704.4000      7.6082      2.5567      0.0245      5.6555   -999.2500   -999.2500
  2704.5000      7.6084      2.5789      0.0726      4.3094   -999.2500   -999.2500
  2704.6000      7.6084      2.5950      0.0499      3.3311   -999.2500   -999.2500
  2704.7000      7.6084      2.6023      0.0690      2.8887   -999.2500   -999.2500
  2704.8000      7.6079      2.5994      0.0754      3.0672   -999.2500   -999.2500
  2704.9000      7.6079      2.5854      0.0556      3.9146   -999.2500   -999.2500
  2705.0000      7.6068      2.5675      0.0494      4.9988   -999.2500   -999.2500
  2705.1000      7.6068      2.5601      0.0251      5.4485   -999.2500   -999.2500
  2705.2000      7.6068      2.5672      0.0750      5.0154   -999.2500   -999.2500
  2705.3000      7.6070      2.5778      0.0061      4.3783   -999.2500   -999.2500
  2705.4000      7.6070      2.5791      0.0818      4.2964   -999.2500   -999.2500
  2705.5000      7.6055      2.5642      0.0389      5.2024   -999.2500   -999.2500
  2705.6000      7.6055      2.5450      0.0120      6.3635   -999.2500   -999.2500
  2705.7000      7.6055      2.5407      0.0355      6.6233   -999.2500   -999.2500
  2705.8000      7.6024      2.5537      0.0311      5.8348   -999.2500   -999.2500
  2705.9000      7.6024      2.5738      0.0558      4.6176   -999.2500   -999.2500
  2706.0000      7.5979      2.5896      0.1293      3.6585   -999.2500   -999.2500
  2706.1000      7.5979      2.5980      0.1115      3.1527   -999.2500   -999.2500
  2706.2000      7.5979      2.6050      0.1035      2.7288   -999.2500   -999.2500
  2706.3000      7.5907      2.6121      0.1275      2.2950   -999.2500   -999.2500
  2706.4000      7.5907      2.6182      0.0946      1.9285   -999.2500   -999.2500
  2706.5000      7.5840      2.6278      0.1168      1.3471   -999.2500   -999.2500
  2706.6000      7.5840      2.6434      0.1169      0.3982   -999.2500   -999.2500
  2706.7000      7.5840      2.6561      0.1491     -0.3698   -999.2500   -999.2500
  2706.8000      7.5819      2.6513      0.0925     -0.0787   -999.2500   -999.2500
  2706.9000      7.5819      2.6308      0.0764      1.1621   -999.2500   -999.2500
  2707.0000      7.5832      2.6117      0.0183      2.3242   -999.2500   -999.2500
  2707.1000      7.5832      2.6034      0.0445      2.8268   -999.2500   -999.2500
  2707.2000      7.5832      2.6023      0.0624      2.8908   -999.2500   -999.2500
  2707.3000      7.5840      2.6045      0.0771      2.7557   -999.2500   -999.2500
  2707.4000      7.5840      2.6058      0.1080      2.6796   -999.2500   -999.2500
  2707.5000      7.5838      2.6071      0.0501      2.5997   -999.2500   -999.2500
  2707.6000      7.5838      2.6175      0.0809      1.9689   -999.2500   -999.2500
  2707.7000      7.5838      2.6329      0.0901      1.0344   -999.2500   -999.2500
  2707.8000      7.5820      2.6449      0.0653      0.3102   -999.2500   -999.2500
  2707.9000      7.5820      2.6549      0.1070     -0.2959   -999.2500   -999.2500
  2708.0000      7.5798      2.6555      0.0841     -0.3350   -999.2500   -999.2500
  2708.1000      7.5798      2.6338      0.0544      0.9829   -999.2500   -999.2500
  2708.2000      7.5798      2.6029     -0.0031      2.8567   -999.2500   -999.2500
  2708.3000      7.5795      2.5927      0.0015      3.4756   -999.2500   -999.2500
  2708.4000      7.5795      2.6014      0.0322      2.9428   -999.2500   -999.2500
  2708.5000      7.5811      2.6015      0.0352      2.9374   -999.2500   -999.2500
  2708.6000      7.5811      2.5855      0.0344      3.9069   -999.2500   -999.2500
  2708.7000      7.5811      2.5757     -0.0263      4.5026   -999.2500   -999.2500
  2708.8000      7.5830      2.5818      0.0701      4.1320   -999.2500   -999.2500
  2708.9000      7.5830      2.5837      0.0374      4.0161   -999.2500   -999.2500
  2709.0000      7.5817      2.5754      0.0327      4.5197   -999.2500   -999.2500
  2709.1000      7.5817      2.5744      0.0285      4.5826   -999.2500   -999.2500
  2709.2000      7.5817      2.5883     -0.0048      3.7402   -999.2500   -999.2500
  2709.3000      7.5738      2.5981      0.0903      3.1464   -999.2500   -999.2500
  2709.4000      7.5738      2.5850      0.0523      3.9411   -999.2500   -999.2500
  2709.5000      7.5602      2.5660      0.0190      5.0888   -999.2500   -999.2500
  2709.6000      7.5602      2.5631      0.0564      5.2681   -999.2500   -999.2500
  2709.7000      7.5602      2.5653      0.0704      5.1329   -999.2500   -999.2500
  2709.8000      7.5445      2.5614      0.0481      5.3684   -999.2500   -999.2500
  2709.9000      7.5445      2.5616      0.0334      5.3578   -999.2500   -999.2500
  2710.0000      7.5248      2.5650      0.0787      5.1536   -999.2500   -999.2500
  2710.1000      7.5248      2.5552      0.0542      5.7441   -999.2500   -999.2500
  2710.2000      7.5248      2.5367      0.0419      6.8671   -999.2500   -999.2500
  2710.3000      7.5004      2.5280      0.0741      7.3948   -999.2500   -999.2500
  2710.4000      7.5004      2.5508      0.0537      6.0107   -999.2500   -999.2500
  2710.5000      7.4258      2.6379      0.0182      0.7345   -999.2500   -999.2500
  2710.6000      7.4258      2.6700      0.0806     -1.2147   -999.2500   -999.2500
  2710.7000      7.4258      2.2318      0.6180     25.3467   -999.2500   -999.2500
  2710.8000      6.9597      1.2654      0.0500     83.9161   -999.2500   -999.2500
  2710.9000      6.9597      0.4286      0.0500    134.6327   -999.2500   -999.2500
  2711.0000      5.2731      0.0813   -999.2500    155.6778   -999.2500   -999.2500
  2711.1000      5.2731      0.0084   -999.2500    160.0983   -999.2500   -999.2500
