~Version Information
 VERS.                2.0:  CWLS LOG ASCII STANDARD -VERSION 2.0
 WRAP.                 NO:  ONE LINE PER DEPTH STEP
~WELL INFORMATION BLOCK
#MNEM.UNIT       DATA		            DESCRIPTION OF MNEMONIC
#---------    -------------            ------------------------
 STRT.FT  0.500                          :START DEPTH
 STOP.FT  1808.700                       :STOP DEPTH
 STEP.FT  0.100                          :STEP    UP_HOLE  
 NULL.    -999.25                        :NULL VALUE
 COMP.              EL PASO PRODUCTIONS  :COMPANY
 WELL.                     COREHOLE #38  :WELL
 FLD .                 PURGATOIRE RIVER  :FIELD
 LOC .      15   35S   65W               :LOCATION
 CNTY.                           COLFAX  :COUNTY
 STAT.                     NM            :STATE
 CTRY.                                   :
 SRVC.     O'DRISCOLL                    :SERVICE COMPANY
 DATE.   04/28/05                        :LOG DATE
 API .                                   :API NUMBER
 LIC .                                   :LICENSE NUMBER
~Curve Information Block
#MNEM.UNIT      API CODE     Curve Description
#---------    -------------  ------------------------
 DEPT     .FT        00 001 00 00          :  1  DEPTH   
 GAMMA    .API-GR    00 310 00 00          :  2                GAMMA
 VOLTAGE  .MV        00 000 00 00          :  3              VOLTAGE
 CALIPER  .INCH      00 280 00 00          :  4              CALIPER
 DEN(LS)  .G/CC      00 350 00 00          :  5              DEN(LS)
 DEN(SS)  .G/CC      00 350 00 00          :  6              DEN(SS)
 CURRENT  .UA        00 000 00 00          :  7              CURRENT
 RES(SG)  .OHM-M     00 220 00 00          :  8              RES(SG)
 POR(DEN) .PERCENT   00 890 00 00          :  9             POR(DEN)
 DEN(LS)  .CPS       00 350 00 00          : 10              DEN(LS)
 DEN(SS)  .CPS       00 350 00 00          : 11              DEN(SS)
 COMP     .G/CC      00 356 00 00          : 12                 COMP
 DEN(CDL) .G/CC      00 350 00 00          : 13             DEN(CDL)
 TEMP     .DEG F     00 660 00 00          : 14                 TEMP
 DEL_TEMP .DEG F     00 000 00 00          : 15             DEL_TEMP
 TIME     .MINUTES   00 000 00 00          : 16                 TIME
~Parameter Information Block
#MNEM.UNIT   Information     Description
#---------- ---------------  ------------------------
 FILE.      ORIGINAL           :File Type
 FIID.      9139A              :File Type Identifier
 VERS.      3.58G              :System Version
 SER .      1                  :System Serial Number
 TRUK.      .498775            :Truck Calibration Number
 TOOL.        1245             :Tool Serial Number
 TIME.      1507               :Time    HrHrMinMin
 LAT .       36 59'            :Latitude
 LON .       104 39'           :Longitude
 LMF .            GL           :Log Measured From
 DMF .            GL           :Driller Measured From
 PD  .            GL           :Permanent Data
 PDEV.                         :Elevation Permanent Data
 EKB .M                        :Elevation Kelly Bushing
 ELEV.DF                       :Elevation DF
 EGL .M        7777            :Elevation Ground Level
 DRDP.          1825           :Driller's Depth
 CASD.       10.               :Casing Diameter
 CASB.           300           :Casing Bottom
 CASX.         STEEL           :Casing Type
 CAST.                         :Casing Thickness
 TNOC.                         :Time Circulation Stopped
 LOGU.        108              :Logging Unit
 RECB.           R.SIPES       :Recorded By
 OSR1.          9057           :Other Services
 OSR2.                         :Other Services
 OSR3.                         :Other Services
 BS  .MM         3.5           :Bit Size
 MST .                         :Mean Surface Temperature
 TGRD.                         :Temperature Gradiant
 MAGN.            12           :Magnetic Declination
 MDEN.       2.7               :Density Matrix
 MATR.      SANDSTONE          :Neutron Matrix
 DTMT.            54           :Delta T Matrix
 DTFL.                         :Delta T Fluid
 MUDS.                         :Mud Sample Source
 MRS .                         :Mud Resistivity
 MTP .                         :Mud Temperature
 MFRS.                         :Resistivity Mud Filtrate
 MFTP.                         :Temperature Mud Filtrate
 MCRS.                         :Resistivity Mud Cake
 MCTP.                         :Temperature Mud Cake
 FTYP.                         :Fluid Type
 FD  .K/M3                     :Fluid Density
 DFV .S                        :Fluid Viscosity
 FPH .                         :Fuild PH
 ELCO.       50000             :Electron Cutoff
~Other Information
#MNEM.UNIT  Information      Description
#---------- ---------------  ------------------------
# -------------------------- 
~A DEPTH  GAMMA    VOLTAGE  CALIPER DEN(LS) DEN(SS) CURRENT  RES(SG)  POR(DEN) DEN(LS) DEN(SS) COMP  DEN(CDL) TEMP  DEL_TEMP TIME    
# ...
1083.000     69.9      0.8   3.0  2.82 3.07   137.6      0.4  22.8  365.42 3307.51 -0.506 2.38 33.3  0.00 0.20000 
1083.100     62.4      0.6   3.0  2.85 3.07   137.4      0.3  16.7  340.35 3302.40 -0.433 2.48 33.3  0.00 0.20000 
1083.200     58.6      0.3   3.0  2.92 3.06   136.8      0.2   2.5  300.27 3333.00 -0.260 2.45 33.3  0.00 0.20000 
1083.300     66.2     -0.3   3.0  2.94 3.10   128.9     -0.2   3.0  285.24 3210.74 -0.293 2.50 33.3  0.00 0.20000 
1083.400     65.2     -4.5   3.0  2.84 3.13   130.3     -2.5  28.3  350.37 3129.11 -0.617 2.47 33.3  0.00 0.20000 
1083.500     64.3     -2.2   3.0  3.00 3.22   136.9     -1.2   7.3  250.19 2889.96 -0.424 2.50 33.3  0.00 0.10000 
1083.600     69.0     -0.5   3.0  2.88 3.19   138.2     -0.3  27.8  320.31 2961.19 -0.656 2.44 33.3  0.00 0.20000 
1083.700     78.4     -4.4   3.0  3.05 3.18   136.4     -2.3  -7.3  230.16 2996.70 -0.226 2.48 33.3  0.00 0.20000 
1083.800     74.7     -4.9   3.0  2.90 3.16   136.7     -2.5  19.4  310.29 3047.63 -0.530 2.51 33.3  0.00 0.20000 
1083.900     80.3      0.9   3.0  2.92 3.19   139.0      0.4  18.3  295.26 2971.25 -0.535 2.52 33.3  0.00 0.20000 
1084.000    100.2      0.6   3.0  2.98 3.12   139.4      0.3  -2.1  260.21 3154.59 -0.247 2.45 33.3  0.00 0.20000 
1084.100    108.7      0.5   3.0  2.84 3.10   146.7      0.2  24.0  350.37 3205.58 -0.545 2.41 33.3  0.00 0.20000 
1084.200    119.1      1.0   3.0  2.88 3.09   140.8      0.5  13.1  320.31 3236.15 -0.406 2.38 33.3  0.00 0.20000 
1084.300    127.6      1.1   3.0  2.78 3.08   136.6      0.6  32.9  395.47 3266.72 -0.641 2.25 33.3  0.00 0.20000 
1084.400    135.1      1.0   3.0  2.81 3.08   136.9      0.5  27.2  375.43 3272.03 -0.569 2.18 33.3  0.00 0.20000 
1084.500    125.7      0.6   3.0  2.81 3.14   125.6      0.4  35.3  370.41 3103.64 -0.712 2.14 33.3  0.00 0.20000 
1084.600    120.9      1.0   3.0  2.72 3.07   136.5      0.5  45.4  450.61 3292.36 -0.791 2.09 33.3  0.00 0.10000 
1084.700    113.4      0.7   3.0  2.84 3.09   140.8      0.4  22.4  350.38 3236.21 -0.519 2.11 33.3  0.00 0.20000 
1084.800    120.9      0.9   3.0  2.71 3.08   141.4      0.4  49.5  460.67 3261.60 -0.852 2.14 33.3  0.00 0.20000 
1084.900    124.7      1.5   3.0  2.76 2.97   136.8      0.8  20.1  410.51 3608.71 -0.403 2.19 33.3  0.00 0.20000 
1085.000    120.0      1.1   3.0  2.74 2.99   135.8      0.6  27.2  430.56 3552.49 -0.501 2.16 33.3  0.00 0.20000 
1085.100    135.1      1.0   3.0  2.71 2.98   132.6      0.5  31.0  455.63 3583.15 -0.541 2.23 33.3  0.00 0.20000 
1085.200    124.7      1.1   3.0  2.76 3.05   136.9      0.6  31.9  410.52 3363.71 -0.604 2.16 33.3  0.00 0.20000 
1085.300    114.3      1.4   3.0  2.72 2.96   136.9      0.7  27.1  450.62 3644.44 -0.479 2.21 33.3  0.00 0.20000 
1085.400    102.1      1.4   3.0  2.72 3.06   136.7      0.7  42.2  445.60 3327.90 -0.742 2.10 33.3  0.00 0.20000 
1085.500    106.8      0.8   3.0  2.79 2.95    96.1      0.6  12.9  390.46 3664.86 -0.306 1.94 33.3  0.00 0.10000 
1085.600     90.7      0.3   3.0  2.57 2.96    12.6      1.9  61.1  611.13 3629.09 -0.909 1.72 33.3  0.00 0.20000 
1085.700     99.2      0.1   3.0  2.58 3.08    18.2      0.6  81.4  601.10 3282.00 -1.261 1.50 33.3  0.00 0.20000 
1085.800    105.8      0.5   3.0  2.48 2.99    39.6      0.9  89.5  731.62 3542.38 -1.302 1.22 33.3  0.00 0.20000 
1085.900    112.4      0.7   3.0  2.35 2.92    18.6      2.7  108.9 947.69 3787.61 -1.503 1.26 33.3  0.00 0.20000 
1086.000    103.0      0.7   3.0  2.25 2.71    67.3      0.8  94.3  1164.07 4505.21 -1.150 1.33 33.3  0.00 0.20000 
1086.100    101.1      0.3   3.0  2.26 2.46    12.0      2.0  49.3  1148.97 5582.06 -0.394 1.39 33.3  0.00 0.20000 
1086.200     92.6      0.6   3.0  2.13 2.36    10.9      4.1  60.4  1461.39 6032.37 -0.459 1.40 33.3  0.00 0.20000 
1086.300     91.7      0.4   3.0  2.03 2.30    11.2      2.8  72.3  1769.44 6312.37 -0.562 1.26 33.3  0.00 0.20000 
1086.400     75.6      0.4   3.0  1.87 2.29    38.2      0.8  106.5 2381.96 6374.63 -0.986 0.97 33.3  0.00 0.20000 
1086.500     69.9      1.2   3.0  1.80 2.33   101.8      0.8  133.8 2722.05 6177.46 -1.376 0.68 33.3  0.00 0.20000 
1086.600     63.3      1.1   3.0  1.78 2.31    97.7      0.8  136.7 2864.40 6276.00 -1.399 0.47 33.3  0.00 0.10000 
1086.700     55.8      1.1   3.0  1.79 2.38    89.9      0.8  145.8 2762.75 5964.87 -1.573 0.46 33.3  0.00 0.20000 
1086.800     40.7      0.9   3.0  1.87 2.41    92.5      0.7  133.5 2422.50 5799.17 -1.434 0.61 33.3  0.00 0.20000 
1086.900     39.7      1.1   3.0  1.99 2.45   111.3      0.7  107.7 1916.04 5628.74 -1.121 0.76 33.3  0.00 0.20000 
1087.000     46.3      0.9   3.0  2.13 2.55   109.6      0.6  91.4  1461.46 5179.38 -0.985 0.75 33.3  0.00 0.20000 
1087.100     49.2      0.9   3.0  2.23 2.69   112.6      0.6  92.7  1199.30 4607.83 -1.110 0.74 33.3  0.00 0.20000 
1087.200     54.8      0.8   3.0  2.20 2.90   113.0      0.5  149.1 1274.87 3848.94 -2.037 0.79 33.3  0.00 0.20000 
1087.300     61.4      0.7   3.0  2.30 2.96   111.7      0.4  135.7 1053.33 3629.11 -1.906 0.97 33.3  0.00 0.19900 
1087.400     66.2      0.8   3.0  2.49 3.02   116.0      0.5  92.1  711.52 3455.45 -1.359 1.14 33.3  0.00 0.20100 
1087.500     76.6      0.9   3.0  2.71 3.04   144.2      0.4  40.2  455.64 3404.42 -0.697 1.55 33.3  0.00 0.20000 
1087.600     84.1      0.8   3.0  2.74 3.09   167.9      0.3  43.1  425.56 3231.03 -0.777 1.89 33.3  0.00 0.20000 
1087.700     93.6      1.1   3.0  2.79 3.05   177.8      0.4  26.8  390.46 3358.50 -0.543 1.96 33.3  0.00 0.20000 
1087.800    108.7      0.9   3.0  2.81 3.13   193.8      0.3  34.7  370.41 3113.84 -0.702 1.98 33.3  0.00 0.19900 
1087.900    119.1      0.9   3.0  2.67 3.15   213.4      0.3  71.4  500.75 3083.29 -1.184 1.99 33.3  0.00 0.10100 
1088.000    117.2      0.9   3.0  2.79 3.12   210.6      0.3  36.2  385.46 3159.70 -0.709 1.97 33.3  0.00 0.19900 
1088.100    116.2      0.9   3.0  2.82 3.18   205.8      0.3  40.2  360.39 2976.34 -0.808 1.96 33.3  0.00 0.20000 
1088.200    119.1      0.8   3.0  2.77 3.06   198.4      0.3  31.6  400.49 3317.71 -0.612 2.08 33.3  0.00 0.20100 
1088.300    115.3      0.9   3.0  2.79 3.12   186.3      0.3  38.2  390.48 3149.48 -0.737 2.18 33.3  0.00 0.20000 
1088.400    113.4      0.6   3.0  2.84 3.18   220.2      0.2  34.9  345.36 2991.68 -0.737 2.25 33.3  0.00 0.20000 
1088.500    115.3      1.0   2.9  2.87 3.03   268.3      0.3   8.4  330.34 3414.63 -0.309 2.26 33.3  0.00 0.19900 
1088.600    133.2      0.8   3.0  2.82 3.04   259.1      0.2  18.1  365.40 3404.42 -0.426 2.37 33.3  0.00 0.20000 
1088.700    136.1      0.8   3.0  2.74 3.01   192.1      0.3  29.8  425.55 3475.90 -0.551 2.42 33.3  0.00 0.20100 
1088.800    137.0      0.9   3.0  2.82 2.93   123.8      0.5   4.5  365.40 3741.62 -0.194 2.57 33.3  0.00 0.20000 
1088.900    137.9      1.1   3.0  2.69 2.87   120.5      0.6  20.4  475.70 3925.71 -0.342 2.64 33.3  0.00 0.19900 
1089.000    135.1      0.6   3.1  3.08 2.88   116.7      0.3  -35.6 210.13 3895.04 0.222 2.70 33.3  0.00 0.10100 
1089.100    119.1      0.8   3.0  2.80 2.86   101.8      0.6  -0.1  380.43 3982.23 -0.097 2.67 33.3  0.00 0.20000 
1089.200    114.3      0.7   3.0  2.71 2.83    92.2      0.5  12.1  460.64 4079.32 -0.216 2.70 33.3  0.00 0.19900 
1089.300    109.6      1.2   3.1  2.76 2.91    91.3      0.9  12.0  410.51 3813.13 -0.266 2.51 33.3  0.00 0.20000 
1089.400    108.7      0.3   3.1  2.70 2.81    92.8      0.3  11.9  470.67 4140.91 -0.201 2.44 33.3  0.00 0.20000 
1089.500    111.5      1.1   3.0  2.67 2.84   101.9      0.8  20.9  500.75 4038.38 -0.325 2.47 33.3  0.00 0.20100 
1089.600    105.8      1.2   3.0  2.65 2.81   100.7      0.8  19.0  515.80 4171.67 -0.277 2.53 33.3  0.00 0.19900 
1089.700    104.9      0.8   3.0  2.78 2.86    99.1      0.6   3.6  395.47 3961.73 -0.142 2.53 33.3  0.00 0.20000 
1089.800    103.0      1.1   3.0  2.82 2.84   111.2      0.7  -4.6  365.41 4033.32 -0.041 2.57 33.3  0.00 0.20000 
1089.900     94.5      0.9   3.0  2.73 2.86   114.1      0.6  12.0  440.61 3976.91 -0.234 2.62 33.3  0.00 0.20000 
