~Version Information
VERS.                      2.0: CWLS Log ASCII Standard - VERSION 2.0
WRAP.                       NO: One line per depth step
~Well Information Block
STRT.FT               665.0000: 
STOP.FT              1972.0000: 
STEP.FT                 0.2500: 
NULL.                -999.2500: 
COMP.          Petrogulf Corporation: COMPANY
WELL.          Great Plains 22-21V: WELL
FLD.           Purgatorie River: FIELD
LOC.           63' FNL & 1895' FWL: LOCATION
PROV.                 Colorado: PROVINCE
CNTY.               Las Animas: COUNTRY
SRVC.                Patterson: SERVICE COMPANY
DATE.          Thu Sep 01 07:36:33 2005: LOG DATE
UWI.                          : UNIQUE WELL ID
~Curve Information Block
DEPT.FT            0 000 00 00: Depth
SP.mV                         : DIL Spontaneous Potential
RILD.Ohm-m                    : DIL Deep Resistivity
RILM.Ohm-m                    : DIL Medium Resistivity
RLL3.Ohm-m                    : DIL Shallow Resistivity
GR.GAPI                       : Gamma Ray
~Parameter Information Block
~A  Depth        SP         RILD        RILM        RLL3         GR     
# ...
  1617.0000    160.8855     19.9742     22.4324     35.0054     96.4033
  1617.2500    161.3282     19.5628     21.5901     31.7227    105.9103
  1617.5000    161.7651     19.2149     20.3510     28.5775    122.6815
  1617.7500    162.1886     18.6702     19.7205     26.3121    115.6849
  1618.0000    162.6488     18.5535     19.6673     24.9692    111.2060
  1618.2500    163.1011     18.8433     19.5140     24.1054    117.8179
  1618.5000    163.6716     18.2439     18.7426     23.7848    110.3860
  1618.7500    164.3407     18.2382     18.2702     23.1003    117.1316
  1619.0000    164.9433     17.9225     17.7969     22.1324    115.7106
  1619.2500    165.1799     17.5462     18.0355     21.1424    105.8522
  1619.5000    165.8633     17.1293     17.5904     20.5075     98.2831
  1619.7500    166.3266     17.9012     17.3423     20.1794    100.2821
  1620.0000    166.6096     17.7212     17.6332     20.4299    114.3372
  1620.2500    167.1290     17.7743     17.5866     20.8044    106.3901
  1620.5000    167.5520     17.9264     17.7118     21.8220    100.9798
  1620.7500    168.1486     18.6396     17.9942     23.1224     99.4858
  1621.0000    168.6540     18.7235     18.7400     25.1104     96.1577
  1621.2500    169.1167     19.0360     19.1600     27.2698     96.4806
  1621.5000    169.5869     19.6955     19.7813     27.7409     82.3680
  1621.7500    169.7366     20.2494     20.5635     26.7939     79.2295
  1622.0000    169.4335     20.2425     21.2126     26.2077     72.0828
  1622.2500    169.3546     20.9228     22.7760     28.8695     77.6040
  1622.5000    168.7887     21.0908     23.7990     34.9988     67.3268
  1622.7500    168.2177     22.0661     25.2190     40.0497     66.0136
  1623.0000    168.0389     22.9652     27.4711     41.5318     74.4554
  1623.2500    167.8744     24.1120     29.1640     40.9868     68.1420
  1623.5000    167.5541     24.3660     28.6697     38.5058     63.4689
  1623.7500    166.9244     25.0755     28.2659     34.5579     64.3650
  1624.0000    166.3924     25.8105     29.2576     31.6640     77.7764
  1624.2500    165.9554     26.3324     29.6564     31.6197     70.5074
  1624.5000    165.5297     27.2683     30.4955     33.4875     62.1548
  1624.7500    165.0791     27.3795     32.0420     38.6879     72.7505
  1625.0000    164.6636     27.1297     32.2568     47.1026     55.7558
  1625.2500    164.3598     27.5382     32.2004     54.0671     54.2547
  1625.5000    164.0559     27.8865     31.9584     60.2382     40.9665
  1625.7500    163.7452     27.0760     32.9625     64.2107     45.9064
  1626.0000    163.4320     27.3962     33.6585     63.2706     41.7378
  1626.2500    163.1175     27.5192     32.7510     59.0323     51.1699
  1626.5000    162.9178     28.4967     31.1393     53.2969     65.5189
  1626.7500    162.9030     28.4210     30.7105     46.3530     50.0953
  1627.0000    163.0532     28.6989     31.6151     37.8690     65.3558
  1627.2500    163.3008     28.7126     33.1499     34.9436     61.8060
  1627.5000    163.6259     29.0748     32.0940     38.5964     64.7329
  1627.7500    164.0454     28.6063     32.1833     43.4185     52.5465
  1628.0000    164.3583     29.0795     32.4698     45.9702     53.3167
  1628.2500    165.0415     28.9770     32.7067     46.2272     60.5279
  1628.5000    165.9044     28.3076     34.0019     44.4396     48.9886
  1628.7500    166.9771     27.2847     34.7101     41.6348     53.9248
  1629.0000    168.2911     25.5945     33.9150     41.7719     69.1783
  1629.2500    169.7598     24.4629     32.1364     41.4256     66.3837
  1629.5000    171.2623     23.7724     32.5228     39.3445     88.5698
  1629.7500    172.7813     22.6422     31.4727     39.0003    100.7116
  1630.0000    174.5561     21.6570     30.5186     44.6238     93.4693
  1630.2500    176.4564     20.4694     27.0535     56.0869     83.0695
  1630.5000    178.2730     19.7265     24.1442     60.6090     80.1682
  1630.7500    179.8569     18.8484     21.8659     37.5359     95.0941
  1631.0000    181.5868     18.8267     19.7864     21.7950    111.6773
  1631.2500    182.7320     17.5706     18.1539     16.5909    128.0396
  1631.5000    183.4582     17.1022     17.2423     14.7320    131.7731
  1631.7500    183.9921     16.2442     16.4195     14.4700    118.6484
  1632.0000    184.4578     15.4969     15.8830     15.5403    114.7992
  1632.2500    184.8078     14.8145     15.6818     17.8585    118.0223
  1632.5000    185.1505     14.0249     15.4942     19.3163    110.2485
  1632.7500    185.5798     13.4433     14.8527     19.4184    109.8675
  1633.0000    185.9978     12.7658     13.9375     19.3837    113.2408
  1633.2500    186.4615     11.9542     12.9996     18.0916    116.6239
  1633.5000    187.0158     11.5980     12.2844     15.5470    124.9608
  1633.7500    187.6080     11.1665     11.4087     13.8919    134.5985
  1634.0000    188.1793     11.0398     10.8850     13.3478    134.1889
  1634.2500    188.6504     10.7229     10.5351     13.2938    144.8777
  1634.5000    188.9285     10.5757     10.0437     12.9353    135.7692
  1634.7500    188.9932     10.4727      9.6225     12.3205    127.2226
  1635.0000    188.9080     10.3530      9.2533     11.4743    137.4747
  1635.2500    188.6421     10.1718      8.9104     10.5147    133.2108
  1635.5000    188.2166     10.1423      8.8287     10.0569    121.6647
  1635.7500    187.6838     10.1937      8.8556     10.2428    119.8035
  1636.0000    186.9864     10.2424      8.8354     10.7105    127.8140
  1636.2500    186.0911     10.1573      9.0163     11.2970    114.1514
  1636.5000    185.1792     10.2423      9.1829     11.5146    120.2556
  1636.7500    183.9615     10.2199      9.5105     11.8357    119.6569
  1637.0000    182.8156     10.2356      9.8733     12.2514    115.1426
  1637.2500    181.8267     10.4119     10.1796     12.6922    108.1048
  1637.5000    181.1055     10.2877     10.5774     13.2652    105.4201
  1637.7500    180.4992     10.3549     11.0508     14.0980    100.3556
  1638.0000    180.0802     10.2796     11.6240     15.7789     97.8068
  1638.2500    179.6894     10.1688     11.9137     18.5139     94.0861
  1638.5000    179.2146     10.1024     11.8927     21.8173     89.6723
  1638.7500    178.6635      9.8871     11.5484     24.5019     93.5779
  1639.0000    178.1064      9.6796     11.0852     23.5076    109.6931
  1639.2500    177.4862      9.6252     10.3987     18.3996    110.1259
  1639.5000    176.7239      9.5529      9.6183     14.0254    124.8763
  1639.7500    175.8145      9.4863      9.0154     11.4546    141.0875
  1640.0000    174.7625      9.2844      8.6019      9.9607    141.7816
  1640.2500    173.5948      9.3388      8.3241      9.5063    141.1914
  1640.5000    172.3087      9.1146      8.0859      9.4979    153.3578
  1640.7500    170.9690      8.9303      7.9941      9.5262    148.3365
  1641.0000    169.6579      8.7512      7.9637     10.0182    145.7592
  1641.2500    168.4534      8.5579      7.9784     10.5213    141.0044
  1641.5000    167.4478      8.4618      7.8350     11.1481    117.0339
  1641.7500    166.4234      8.2916      7.7664     11.6583    124.5908
  1642.0000    165.5271      8.1632      7.7609     11.9572    118.4780
  1642.2500    164.7543      8.2436      7.6537     12.1363    125.3067
  1642.5000    164.1655      8.4573      7.6203     12.1262    119.8514
  1642.7500    163.7730      8.6902      7.6109     11.8474    124.8545
  1643.0000    163.4265      9.1609      7.6887     11.3070    147.0726
  1643.2500    163.0673      9.8061      7.7985     10.4469    138.1551
  1643.5000    162.6641     10.4915      8.0968      9.8495    140.3799
  1643.7500    162.3221     11.1497      8.7457      9.5185    147.6624
  1644.0000    162.2280     12.0361      9.7300     10.6337    133.8053
  1644.2500    162.3945     12.6551     11.2992     15.3180    110.5752
  1644.5000    162.8629     13.2179     13.2179     30.8134     91.4264
  1644.7500    163.5436     13.7095     15.3588     69.5956     69.6548
