~Version Information
VERS.                      2.0: CWLS Log ASCII Standard - VERSION 2.0
WRAP.                       NO: One line per depth step
~Well Information Block
STRT.FT               825.0000: 
STOP.FT              2446.5000: 
STEP.FT                 0.2500: 
NULL.                -999.2500: 
COMP.          Petrogulf Corporation: COMPANY
WELL.            Kraft 17-23 V: WELL
FLD.           Purgatorie River: FIELD
LOC.           1500' FSL & 1773' FWL: LOCATION
CNTY.               Las Animas: COUNTY
SRVC.                         : SERVICE COMPANY
DATE.          Thu Nov 20 06:35:41 2003: LOG DATE
UWI.                          : UNIQUE WELL ID
STAT.                 Colorado: STATE
~Curve Information Block
DEPT.FT            0 000 00 00: Depth
SN.Ohm-m                      : IEL Short Normal
SP.mV                         : IEL Spontaneous Potential
DIR.Ohm-m                     : IEL Induction Resistivity
GR.GAPI                       : Gamma Ray
~Parameter Information Block
~A  Depth        SN          SP         DIR          GR     
# ...
  1126.5000   2000.0000   2000.0000     12.3125    134.5392
  1126.7500   2000.0000   2000.0000     12.1141    133.2264
  1127.0000   2000.0000   2000.0000     11.8083    132.8177
  1127.2500   2000.0000   2000.0000     11.5063    132.8867
  1127.5000   2000.0000   2000.0000     11.3029    132.6173
  1127.7500   2000.0000   2000.0000     11.2619    132.3308
  1128.0000   2000.0000   2000.0000     11.4137    132.7545
  1128.2500   2000.0000   2000.0000     11.7626    133.9651
  1128.5000     19.1921   -168.8055     12.2947    136.6984
  1128.7500     19.8311   -168.4921     12.9888    138.3968
  1129.0000     20.1433   -168.0791     13.8226    139.4689
  1129.2500     20.6774   -167.6449     14.7698    138.8413
  1129.5000     21.6885   -167.2611     15.7844    136.3740
  1129.7500     22.8037   -167.0175     16.7823    134.4188
  1130.0000     23.6205   -166.9548     17.6388    131.9354
  1130.2500     24.2706   -166.9597     18.2255    130.6375
  1130.5000     25.0419   -166.8118     18.4694    129.0511
  1130.7500     25.8913   -166.3727     18.4019    128.3759
  1131.0000     26.5954   -165.6626     18.1446    128.3345
  1131.2500     27.0196   -164.7306     17.8563    128.7368
  1131.5000     27.1429   -163.5253     17.6775    128.5136
  1131.7500     27.0296   -161.9377     17.7028    126.8535
  1132.0000     26.7967   -159.9390     17.9820    121.7186
  1132.2500     26.5109   -157.6621     18.5302    117.3193
  1132.5000     26.1000   -155.3574     19.3256    111.3845
  1132.7500     25.4517   -153.2572     20.2778    108.8050
  1133.0000     24.6264   -151.4440     21.1698    107.5376
  1133.2500     23.8490   -149.8247     21.6418    108.3133
  1133.5000     23.2668   -148.2363     21.3360    111.2492
  1133.7500     22.8699   -146.5835     20.1770    113.7729
  1134.0000     22.6514   -144.9020     18.4819    117.3423
  1134.2500     22.6322   -143.3378     16.7180    119.2958
  1134.5000     22.6637   -142.0953     15.2169    121.8030
  1134.7500     22.3932   -141.3721     14.1029    123.2981
  1135.0000     21.5947   -141.2845     13.3598    124.3381
  1135.2500     20.4601   -141.8417     12.9097    123.0113
  1135.5000     19.4266   -143.0264     12.6613    116.3214
  1135.7500     18.8161   -144.8647     12.5365    108.9048
  1136.0000     18.7231   -147.2986     12.4846     95.6175
  1136.2500     19.1298   -149.9761     12.4828     87.1053
  1136.5000     19.9736   -152.3236     12.5284     77.6391
  1136.7500     21.0660   -153.9362     12.6265     74.5672
  1137.0000     22.0606   -154.8339     12.7815     74.9037
  1137.2500     22.6703   -155.2877     12.9955     77.5660
  1137.5000     22.9189   -155.4888     13.2626     83.4602
  1137.7500     23.0920   -155.4512     13.5622     88.0331
  1138.0000     23.3756   -155.1436     13.8507     95.0428
  1138.2500     23.7028   -154.6076     14.0617     98.9742
  1138.5000     23.9978   -153.9539     14.1302    102.1056
  1138.7500     24.2294   -153.3223     14.0295    102.0718
  1139.0000     24.3591   -152.8757     13.8026     99.9754
  1139.2500     24.5115   -152.7825     13.5580     98.1491
  1139.5000     24.8786   -153.1046     13.4366     95.6510
  1139.7500     25.4673   -153.6306     13.5760     94.2682
  1140.0000     26.2076   -153.8599     14.0921     92.6914
  1140.2500     27.0705   -153.2954     15.0694     91.9904
  1140.5000     28.0107   -151.8584     16.5477     91.4307
  1140.7500     28.9672   -149.9805     18.4894     91.5321
  1141.0000     29.8968   -148.2312     20.7485     93.1146
  1141.2500     30.7252   -146.8999     23.0833     95.3377
  1141.5000     31.3168   -145.9440     25.2456     99.1590
  1141.7500     31.6216   -145.2144     27.0905    100.4170
  1142.0000     31.8159   -144.6316     28.6198     98.1552
  1142.2500     32.2122   -144.1845     29.9243     94.0441
  1142.5000     33.0017   -143.8532     31.0906     86.5649
  1142.7500     33.9352   -143.5877     32.0944     82.3449
  1143.0000     34.3958   -143.3572     32.7408     78.4104
  1143.2500     34.0684   -143.1761     32.7396     77.2898
  1143.5000     33.3827   -143.0422     31.9258     77.4179
  1143.7500     33.0558   -142.8698     30.4779     78.6095
  1144.0000     33.3674   -142.5305     28.8347     81.8748
  1144.2500     34.0884   -141.9814     27.4080     84.6020
  1144.5000     34.8230   -141.3551     26.3875     88.1117
  1144.7500     35.3879   -140.9122     25.7213     89.3168
  1145.0000     36.0527   -140.8728     25.2188     89.3075
  1145.2500     37.2314   -141.2490     24.6960     88.6182
  1145.5000     38.7633   -141.8259     24.1103     87.2938
  1145.7500     39.7971   -142.3130     23.5716     86.2519
  1146.0000     39.8204   -142.5331     23.2355     84.5160
  1146.2500     39.3390   -142.4865     23.1743     83.5726
  1146.5000     39.1246   -142.2625     23.3264     83.0299
  1146.7500     39.5340   -141.9051     23.5257     83.1954
  1147.0000     40.5531   -141.3566     23.5969     83.5725
  1147.2500     41.9285   -140.5168     23.4524     83.4820
  1147.5000     43.3022   -139.3590     23.1166     82.2687
  1147.7500     44.3609   -137.9687     22.6762     80.4613
  1148.0000     45.0525   -136.4427     22.2178     76.0829
  1148.2500     45.5872   -134.8096     21.8004     72.4423
  1148.5000     46.0751   -133.1059     21.4539     67.2636
  1148.7500     46.4405   -131.4631     21.1831     64.6025
  1149.0000     46.6072   -130.0247     20.9820     61.6917
  1149.2500     46.5202   -128.8022     20.8551     60.0163
  1149.5000     46.1321   -127.6636     20.8477     57.4110
  1149.7500     45.4692   -126.4322     21.0401     55.6219
  1150.0000     44.7846   -124.9682     21.5042     52.9315
  1150.2500     44.5931   -123.2085     22.2250     51.0918
  1150.5000     45.1881   -121.1907     23.0202     48.2855
  1150.7500     46.1523   -119.0560     23.5186     46.5283
  1151.0000     46.8390   -116.9995     23.3173     44.3798
  1151.2500     47.0523   -115.1493     22.2937     43.4052
  1151.5000     46.7976   -113.4534     20.7553     42.7268
  1151.7500     46.0281   -111.6944     19.2086     42.8289
  1152.0000     44.9341   -109.6510     18.0540     43.8557
  1152.2500     43.9319   -107.3074     17.4863     45.0200
  1152.5000     43.3558   -104.9359     17.5447     46.8690
  1152.7500     43.1812   -102.9309     18.1713     47.6624
  1153.0000     43.0598   -101.4992     19.2359     47.6058
  1153.2500     42.8408   -100.5257     20.5509     46.7567
  1153.5000     42.7415    -99.7601     21.9141     44.8055
  1153.7500     42.8545    -99.0741     23.1838     43.4402
  1154.0000     43.0536    -98.5186     24.3169     41.8483
  1154.2500     43.4446    -98.2216     25.3453     41.3777
  1154.5000     44.1256    -98.2893     26.3035     41.8549
  1154.7500     44.8268    -98.7602     27.1841     42.8292
  1155.0000     45.4572    -99.6090     27.9495     44.5473
  1155.2500     46.1651   -100.7808     28.5908     45.4197
  1155.5000     46.8275   -102.1824     29.1667     45.9197
  1155.7500     47.3236   -103.6173     29.7646     45.7023
  1156.0000     47.7966   -104.7960     30.4120     44.8261
  1156.2500     48.2885   -105.4857     30.9702     44.1430
  1156.5000     48.6263   -105.6293     31.1303     43.3706
  1156.7500     48.6304   -105.2966     30.5733     43.0988
  1157.0000     48.2578   -104.5783     29.2357     42.9238
  1157.2500     47.6604   -103.5436     27.4128     42.8515
  1157.5000     47.0844   -102.2480     25.5767     42.7211
  1157.7500     46.7244   -100.7824     24.1152     42.5762
  1158.0000     46.6337    -99.3345     23.2342     42.0634
  1158.2500     46.6731    -98.1158     22.9843     41.4113
  1158.5000     46.6543    -97.1418     23.3194     40.1195
  1158.7500     46.4954    -96.1537     24.1297     39.3011
  1159.0000     46.2310    -94.8529     25.2535     38.3263
  1159.2500     46.1086    -93.1873     26.4875     37.6822
  1159.5000     46.3850    -91.3784     27.6125     36.3680
  1159.7500     46.7583    -89.7260     28.4461     35.2965
