~Version Information
VERS.                      2.0: CWLS Log ASCII Standard - VERSION 2.0
WRAP.                       NO: One line per depth step
~Well Information Block
STRT.FT               546.0000: 
STOP.FT              1771.5000: 
STEP.FT                 0.2500: 
NULL.                -999.2500: 
COMP.          Petrogulf Corporation: COMPANY
WELL.             McLeod 9-42R: WELL
FLD.           Purgatorie River: FIELD
LOC.           1748' FNL & 372' FEL: LOCATION
PROV.                 Colorado: PROVINCE
CNTY.               Las Animas: COUNTRY
SRVC.                Patterson: SERVICE COMPANY
DATE.          Tue Aug 16 11:11:38 2005: LOG DATE
UWI.           071 08092  : UNIQUE WELL ID
~Curve Information Block
DEPT.FT            0 000 00 00: Depth
SP.mV                         : DIL Spontaneous Potential
RILD.Ohm-m                    : DIL Deep Resistivity
RILM.Ohm-m                    : DIL Medium Resistivity
RLL3.Ohm-m                    : DIL Shallow Resistivity
GR.GAPI                       : Gamma Ray
~Parameter Information Block
~A  Depth        SP         RILD        RILM        RLL3         GR     
# ...
   938.0000    -16.6799     10.7897     10.7341     19.8748    133.9750
   938.2500    -14.4769     10.7218     10.5660     18.7828    127.1392
   938.5000    -13.1511     10.8432     10.8090     14.8851    117.0219
   938.7500    -11.9501     10.4362     10.7108     13.3174    115.5533
   939.0000    -10.7273     10.5692     10.9542     13.6622    110.5825
   939.2500    -10.5090     11.1295     11.1543     14.9551    116.1696
   939.5000     -9.2614     11.5827     11.7164     16.1492    115.2562
   939.7500     -8.1032     11.7323     11.1719     17.2955    113.0076
   940.0000     -7.0846     11.2142     11.5406     17.7049    113.8407
   940.2500     -6.2416     11.9580     11.5229     18.1840    118.3704
   940.5000     -4.7802     10.9701     11.1978     18.3722    133.5257
   940.7500     -3.8012     10.8163     11.1682     18.3837    126.0415
   941.0000     -5.1798     11.1347     11.3883     18.2116    119.1128
   941.2500     -7.7373     10.5329     11.4549     17.1147    122.7798
   941.5000    -12.3044     10.3577     11.1475     15.9139    125.8068
   941.7500    -18.9026      9.9549     11.2825     15.4671    126.6131
   942.0000    -23.7561     10.3042     11.1474     15.0391    133.8119
   942.2500    -12.2524     11.0733     10.7943     14.6176    129.2798
   942.5000    -12.0049     11.2682     11.2041     14.4367    125.5413
   942.7500    -13.1970     11.1290     11.0977     15.1115    132.3087
   943.0000    -14.7942     11.0183     11.2497     15.8400    126.2986
   943.2500    -16.0743     11.3989     10.9044     15.2450    127.3710
   943.5000    -16.2872     10.6118     11.1587     14.9525    137.2429
   943.7500    -14.5379     10.6014     11.0790     16.0539    135.2558
   944.0000    -11.8459     10.7867     11.0645     17.1436    130.1729
   944.2500    -19.8478     10.6739     11.1660     18.1412    126.7960
   944.5000    -24.1372     10.4629     11.0673     17.7420    121.7833
   944.7500    -28.0265     10.0591     10.8778     17.2013    124.1660
   945.0000    -34.5445      9.9784     11.2482     16.4594    120.2660
   945.2500    -38.4353      9.6627     11.2814     16.0575    125.3125
   945.5000    -41.7384      9.4763     11.6580     15.9710    124.9302
   945.7500    -44.5864      9.9504     10.9791     16.2967    121.3285
   946.0000    -47.5365      9.6403     11.1040     16.5790    121.2472
   946.2500    -49.7766      9.2547     10.8055     16.3910    123.2535
   946.5000    -52.3845      9.4215     10.8278     15.6587    133.6814
   946.7500    -55.8453      9.4761     10.6272     15.3513    133.8736
   947.0000    -57.5499      9.5452     10.5169     15.0135    125.6606
   947.2500    -59.1671      9.7648     10.6960     14.8628    121.0555
   947.5000    -62.0580      9.8902     10.8798     14.7192    123.1785
   947.7500    -65.2079     10.7269     11.1147     15.0216    117.5358
   948.0000    -67.5776     10.4866     11.0048     15.2234    113.6346
   948.2500    -67.7749     10.5759     11.3395     15.0785    113.8236
   948.5000    -68.3626     11.0035     12.2682     14.4156    110.8766
   948.7500    -68.3861     11.3734     13.4109     14.1703     96.6303
   949.0000    -65.7854     11.2332     14.1498     15.8660     85.2184
   949.2500    -61.6483     10.9594     15.7757     18.9488     83.8673
   949.5000    -55.5361     10.5357     15.6404     19.6344     81.7331
   949.7500    -48.6660     10.2995     15.8965     29.8549     83.3390
   950.0000    -41.5561      9.9642     16.4438     61.9617     98.4768
   950.2500    -32.5548     10.2560     14.8112     83.8126     96.8333
   950.5000    -24.7184     10.3219     13.4203     50.5928    104.5886
   950.7500    -18.1982     10.5739     12.5876     29.5824    110.3626
   951.0000    -14.4630     10.9669     12.2600     14.9987    126.2534
   951.2500    -12.2475     10.7098     11.8137     12.3141    124.5204
   951.5000    -11.1706     11.2148     11.1464     12.6709    117.7730
   951.7500    -10.6277     11.5156     11.4415     14.1748    112.2886
   952.0000     -9.1386     11.3824     11.3450     14.3713    111.5264
   952.2500     -7.5510     10.7362     10.9357     14.6334    109.3633
   952.5000     -6.0951     10.1857     10.6294     14.4267    106.8449
   952.7500     -4.8286     10.6024     10.2840     14.4607    104.6521
   953.0000     -7.7467     10.4688     10.7117     14.3779    108.4692
   953.2500     -9.8897     10.9823     11.1161     14.6842    108.3602
   953.5000    -10.7725     11.0457     11.7042     15.2822    111.1905
   953.7500    -12.1900     11.4882     12.7934     15.9949    108.2138
   954.0000    -13.5884     12.3671     13.1238     16.1416    103.1114
   954.2500    -15.4476     13.2040     14.1529     16.7327    102.8314
   954.5000    -17.8611     13.4300     14.9379     18.3167     93.8228
   954.7500    -20.5192     13.8193     16.0488     22.0363     80.9276
   955.0000    -24.0023     14.2291     18.3483     30.0007     73.9131
   955.2500    -27.0365     14.7041     19.1471     37.8188     74.6292
   955.5000    -29.8778     15.4827     19.6538     47.2951     77.6719
   955.7500    -32.5783     16.9380     20.7321     49.9324     80.1108
   956.0000    -37.4693     17.0371     23.5932     47.5908     87.4444
   956.2500    -42.3583     18.7349     25.6083     38.6909     88.4509
   956.5000    -48.2610     19.5921     26.0425     36.1734     86.0123
   956.7500    -51.9950     20.5157     30.6708     40.0744     78.6785
   957.0000    -54.8460     23.7089     33.7829     49.7303     79.6479
   957.2500    -55.0296     21.6004     33.6060     54.1392     78.6606
   957.5000    -56.8582     23.5727     34.3619     58.8591     80.3990
   957.7500    -58.6871     24.0382     35.1726     60.4844     70.0800
   958.0000    -60.4210     23.6852     34.8015     58.0462     73.6658
   958.2500    -63.5027     24.6546     38.6920     48.2658     68.9398
   958.5000    -66.4382     28.9870     36.3054     40.6053     58.9635
   958.7500    -70.9992     30.8174     37.2024     39.3537     60.2964
   959.0000    -77.9577     27.7084     39.5108     43.4166     55.7772
   959.2500    -84.5403     29.5510     41.4154     43.9085     54.8270
   959.5000    -87.6340     35.4863     42.4209     41.0425     52.2186
   959.7500    -96.6382     34.3918     46.1768     42.3846     52.2806
   960.0000    -94.3354     33.1141     43.1555     48.0986     46.9633
   960.2500    -92.8454     30.5618     48.8544     56.0733     37.0769
   960.5000    -94.1123     32.4971     48.0544     62.8207     37.9007
   960.7500    -94.0276     31.2953     50.3445     66.8692     41.0561
   961.0000    -90.7806     32.0484     56.0923     67.2644     38.4735
   961.2500    -91.7541     29.9877     51.5859     67.5929     38.4775
   961.5000   -100.6475     36.5433     66.4996     68.6055     40.9518
   961.7500   -105.5073     38.1231     70.2208     69.3018     42.2055
   962.0000   -106.9299     39.7212     91.0946     69.4938     35.4613
   962.2500   -107.1070     36.8122     64.2531     69.7222     32.5424
   962.5000   -107.6874     40.7122     61.1337     69.9281     33.4453
   962.7500   -107.8457     38.3263     67.4525     71.7305     35.6897
   963.0000   -107.7586     43.0750     71.0300     76.9202     34.3844
   963.2500   -105.4519     37.7418     65.6302     87.1010     29.2589
   963.5000   -102.4708     34.8925     62.8962     88.1115     30.1154
   963.7500   -101.3263     33.9709     68.1726     80.7463     33.2329
   964.0000    -99.4611     31.2819     86.5687     76.1691     33.4843
   964.2500    -97.2322     30.4341     87.2771     79.2952     35.6797
   964.5000    -94.2375     25.3027     62.1182     86.6057     28.3402
   964.7500    -90.3122     22.0266     55.1633     89.5345     25.8519
   965.0000    -85.3969     20.8989     49.1618     93.3677     31.9219
   965.2500    -80.2182     18.8884     37.5684    108.5992     38.3019
   965.5000    -73.1000     17.1332     28.6186    123.8912     63.2363
   965.7500    -65.2946     15.6025     22.8576    117.5263     85.7471
