~Version Information
 VERS.                                  2.0 : CWLS LAS VERSION
 WRAP.                                   NO : WRAPING MODE
 SWARE .                 MController 2.5.0J : SOFTWARE VERSION
~Well Information
 WELL.                         Hill 33-22Tr : WELL
 COMP.    Pioneer Natural Resources USA Inc : COMPANY
 FLD.                      Purgatoire River : FIELD
 LOC.                 NW/SE Sec22 T32S R66W : LOCATION
 DATE.                           4/13-14/05 : DATE(S) LOGGED
 SRVC.       Blanco Geological Services LLC : SERVICE COMPANY
 STAT.                                   CO : STATE
 CNTY.                           Las Animas : COUNTY
 CTRY.                                  USA : COUNTRY
 API.                       05-071-08316-00 : API NUMBER
 STRT.FT                             642.00 : START DEPTH
 STOP.FT                            1810.00 : STOP DEPTH
 STEP.FT                               1.00 : DEPTH INCREMENT
 NULL.                                -9999 : NULL VALUE
~Curve information
 DEPTH.FT                                   :
 ROP.MIN/FT                                 :
 GAS.UNITS                                  :
~ASCII Log data
# ...
      1042.0         0.23         17.0 
      1043.0         0.17         17.0 
      1044.0         0.17         17.1 
      1045.0         0.27         11.7 
      1046.0         1.10          6.3 
      1047.0         0.28        293.8 
      1048.0         0.37        355.3 
      1049.0         0.40        301.5 
      1050.0         0.33        262.3 
      1051.0         0.40        247.7 
      1052.0         0.27        254.2 
      1053.0         0.23        251.9 
      1054.0         0.27        250.8 
      1055.0         0.30        232.2 
      1056.0         0.30        225.4 
      1057.0         0.27        216.5 
      1058.0         0.28        203.9 
      1059.0         0.23        195.7 
      1060.0         0.23        193.8 
      1061.0         0.30        167.8 
      1062.0         0.20        169.0 
      1063.0         0.27        180.0 
      1064.0         0.17        180.0 
      1065.0         0.13        189.9 
      1066.0         0.17        189.9 
      1067.0         0.13        194.7 
      1068.0         0.23        190.5 
      1069.0         0.37        186.7 
      1070.0         0.47        182.3 
      1071.0         0.32        171.0 
      1072.0         0.27        135.5 
      1073.0         0.27        131.4 
      1074.0         0.23        131.4 
      1075.0         0.40        222.2 
      1076.0         1.13       1137.0 
      1077.0         0.20        808.9 
      1078.0         0.50        793.2 
      1079.0         0.20        669.5 
      1080.0         0.38        640.1 
      1081.0         0.33        537.0 
      1082.0         0.17        544.5 
      1083.0         0.17        544.5 
      1084.0         0.20        531.1 
      1085.0         0.20        525.2 
      1086.0         0.13        492.8 
      1087.0         0.17        470.9 
      1088.0         0.20        462.7 
      1089.0         0.20        462.7 
      1090.0         0.13        452.6 
      1091.0         0.10        455.5 
      1092.0         0.13        455.5 
      1093.0         0.20        463.4 
      1094.0         0.13        463.4 
      1095.0         0.27        464.4 
      1096.0         0.17        455.5 
      1097.0         0.15        446.4 
      1098.0         0.20        441.8 
      1099.0         0.30        440.0 
      1100.0         0.40        183.4 
      1101.0         0.27        115.8 
      1102.0         0.30        113.3 
      1103.0         0.23        117.2 
      1104.0         0.17        127.3 
      1105.0         0.17        127.3 
      1106.0         2.28       2569.9 
      1107.0         0.53       2725.0 
      1108.0         0.43       1563.3 
      1109.0         0.17        921.7 
      1110.0         0.27        815.4 
      1111.0         0.43        659.7 
      1112.0         0.30        501.0 
      1113.0         0.28        474.2 
      1114.0         0.27        464.1 
      1115.0         0.23        496.8 
      1116.0         0.20        500.7 
      1117.0         0.20        462.7 
      1118.0         0.27        442.8 
      1119.0         0.20        180.6 
      1120.0         0.37        180.6 
      1121.0         0.63        190.0 
      1122.0         0.37        194.7 
      1123.0         0.23        192.3 
      1124.0         0.13        186.2 
      1125.0         0.18        172.6 
      1126.0         0.40        171.4 
      1127.0         0.40        175.3 
      1128.0         0.20        175.3 
      1129.0         0.27        180.0 
      1130.0         0.27        179.2 
      1131.0         0.40        174.3 
      1132.0         0.30        131.1 
      1133.0         0.27        109.6 
      1134.0         0.27        106.8 
      1135.0         0.23        112.3 
      1136.0         1.78       1197.2 
      1137.0         0.40       1882.2 
      1138.0         0.53       3013.2 
      1139.0         0.27       2245.4 
      1140.0         0.48       1546.9 
      1141.0         0.83       1016.0 
      1142.0         0.43        504.0 
      1143.0         0.40        453.6 
      1144.0         0.23        181.2 
      1145.0         0.20        192.5 
      1146.0         0.27        199.9 
      1147.0         0.20        210.4 
      1148.0         0.23        213.0 
      1149.0         0.27        191.3 
      1150.0         0.32        184.2 
      1151.0         0.23        179.1 
      1152.0         0.27        176.9 
      1153.0         0.20        162.6 
      1154.0         0.20        160.2 
      1155.0         0.30        152.3 
      1156.0         0.20        149.1 
      1157.0         0.27        147.6 
      1158.0         0.23        148.1 
      1159.0         0.20        149.6 
      1160.0         0.27        149.8 
      1161.0         0.33        149.5 
      1162.0         0.37        149.3 
      1163.0         0.35        146.8 
      1164.0         0.30        143.2 
      1165.0         0.27        113.7 
      1166.0         2.50       1365.0 
      1167.0         0.78       2417.1 
      1168.0         0.23       1276.4 
      1169.0         0.33       1032.6 
      1170.0         0.17        836.7 
      1171.0         0.70        720.5 
      1172.0         0.83        556.3 
      1173.0         0.68        509.5 
      1174.0         0.53        168.0 
      1175.0         0.20        158.3 
      1176.0         0.27        154.8 
      1177.0         0.37        152.7 
      1178.0         0.37        150.9 
      1179.0         0.30        149.5 
      1180.0         0.30        147.2 
      1181.0         0.30        145.7 
      1182.0         0.33        144.6 
      1183.0         0.32        144.1 
      1184.0         0.27        144.7 
      1185.0         0.30        151.8 
      1186.0         0.30        167.0 
      1187.0         0.30        169.6 
      1188.0         0.23        163.3 
      1189.0         0.27        163.1 
      1190.0         0.23        160.9 
      1191.0         0.40        155.8 
      1192.0         0.50        150.5 
      1193.0         0.30        134.5 
      1194.0         0.28        115.8 
      1195.0         0.23         91.9 
      1196.0         2.23       1115.1 
      1197.0         0.17        694.0 
      1198.0         0.20        621.1 
      1199.0         0.32        553.0 
      1200.0         0.30        482.0 
      1201.0         0.27        445.4 
      1202.0         0.23        462.4 
      1203.0         0.23        476.8 
      1204.0         0.23        468.6 
      1205.0         0.20        440.0 
      1206.0         0.20        178.6 
      1207.0         0.27        171.6 
      1208.0         0.27        149.6 
      1209.0         0.23        148.4 
      1210.0         0.20        152.9 
      1211.0         0.20        152.9 
      1212.0         0.20        159.1 
      1213.0         0.17        169.5 
      1214.0         0.18        175.2 
      1215.0         0.20        177.4 
      1216.0         0.20        165.0 
      1217.0         0.20        156.2 
      1218.0         0.30        149.5 
      1219.0         0.33        146.6 
      1220.0         0.33        152.9 
      1221.0         0.37        148.9 
      1222.0         0.33        140.6 
      1223.0         0.43        125.2 
      1224.0         0.27        108.7 
      1225.0         0.32        121.3 
      1226.0         1.47       1173.6 
      1227.0         0.20       1000.2 
      1228.0         0.80        976.4 
      1229.0         0.30        546.2 
      1230.0         0.20        483.7 
      1231.0         0.23        444.4 
      1232.0         0.25        454.6 
      1233.0         0.20        454.6 
      1234.0         0.20        446.4 
      1235.0         0.17        440.0 
      1236.0         0.20        178.3 
      1237.0         0.27        171.6 
      1238.0         0.17        161.5 
      1239.0         0.20        159.7 
      1240.0         0.17        152.0 
      1241.0         0.40        148.7 
