~Version Information
VERS.                      2.0: CWLS Log ASCII Standard - VERSION 2.0
WRAP.                       NO: One line per depth step
~Well Information Block
STRT.FT               258.0000: 
STOP.FT               998.2000: 
STEP.FT                 0.1000: 
NULL.                -999.2500: 
COMP.          Pioneer Natural Resources: COMPANY
WELL.          Piggyback 33-25: WELL
FLD.           Purgatoire River: FIELD
LOC.           1600' FSL & 1800' FEL: LOCATION
PROV.                 Colorado: PROVINCE
CNTY.               Las Animas: COUNTRY
SRVC.                Patterson: SERVICE COMPANY
DATE.          Fri Apr 29 16:11:48 2005: LOG DATE
UWI.           05 071 08233 00: UNIQUE WELL ID
~Curve Information Block
DEPT.FT            0 000 00 00: Depth
DCAL.in                       : CDL Caliper
RHOB.g/cc                     : CDL Bulk Density
RHOC.g/cc                     : CDL Density Correction
DPOR.pu                       : CDL Density Porosity
GR.GAPI                       : Gamma Ray
NPOR.pu                       : Neutron Porosity
~Parameter Information Block
~A  Depth       DCAL        RHOB        RHOC        DPOR         GR         NPOR    
# ...
   651.6000      7.9268      2.4320      0.0392     13.2142     36.2377     13.0209
   651.7000      7.9268      2.4545      0.0797     11.8481     30.8292     12.5356
   651.8000      7.9081      2.4944      0.1066      9.4300     28.1266     12.3373
   651.9000      7.9081      2.5206      0.1951      7.8426     29.8922     12.3779
   652.0000      7.8516      2.5189      0.1457      7.9442     33.5279     12.7276
   652.1000      7.8516      2.5101      0.1020      8.4767     36.7696     12.9648
   652.2000      7.8516      2.5062      0.1194      8.7182     38.4207     13.0354
   652.3000      7.8700      2.4991      0.1152      9.1478     38.9390     13.4381
   652.4000      7.8700      2.4960      0.0808      9.3312     39.9221     13.6486
   652.5000      7.8713      2.5058      0.1696      8.7375     42.2319     13.1290
   652.6000      7.8713      2.5206      0.1331      7.8439     46.4602     12.6587
   652.7000      7.8713      2.5332      0.1495      7.0775     51.0716     12.6893
   652.8000      7.8911      2.5322      0.1818      7.1411     51.1641     12.8103
   652.9000      7.8911      2.5037      0.1514      8.8657     46.4479     12.2248
   653.0000      7.8685      2.4635      0.0771     11.3033     42.2313     10.9340
   653.1000      7.8685      2.4500      0.0306     12.1189     39.8725      9.8563
   653.2000      7.8685      2.4761      0.0735     10.5420     36.6621      9.2489
   653.3000      7.8648      2.5150      0.1077      8.1827     32.3353      8.5006
   653.4000      7.8648      2.5378      0.1080      6.8007     28.1829      7.4931
   653.5000      7.8858      2.5364      0.1330      6.8841     25.4654      6.9053
   653.6000      7.8858      2.5276      0.0987      7.4154     25.4204      7.0386
   653.7000      7.8858      2.5373      0.1229      6.8314     27.0250      7.5209
   653.8000      7.8800      2.5598      0.1850      5.4655     27.8356      7.8671
   653.9000      7.8800      2.5637      0.1451      5.2285     27.5142      7.8091
   654.0000      7.8501      2.5431      0.1128      6.4803     26.5629      7.3825
   654.1000      7.8501      2.5192      0.0414      7.9265     25.1339      7.1716
   654.2000      7.8501      2.4988      0.0826      9.1607     25.7750      7.7375
   654.3000      7.8806      2.4686      0.0938     10.9968     29.5386      8.9655
   654.4000      7.8806      2.4345      0.0173     13.0616     33.2033      9.9042
   654.5000      7.8748      2.4226      0.0508     13.7815     34.8031     10.0861
   654.6000      7.8748      2.4305      0.0795     13.3047     34.6175     10.2314
   654.7000      7.8748      2.4360      0.0732     12.9667     32.8426     10.5152
   654.8000      7.8665      2.4329      0.1281     13.1587     30.4236     10.4841
   654.9000      7.8665      2.4233      0.0978     13.7406     27.3892     10.1644
   655.0000      7.8439      2.4090      0.0621     14.6068     23.7865      9.8143
   655.1000      7.8439      2.3997      0.0727     15.1707     21.8462      9.3474
   655.2000      7.8439      2.4043      0.1073     14.8918     22.6401      8.6882
   655.3000      7.8498      2.4157      0.0785     14.2028     24.5522      8.0868
   655.4000      7.8498      2.4268      0.0881     13.5254     26.1253      7.8671
   655.5000      7.8647      2.4383      0.1302     12.8275     26.6880      7.9308
   655.6000      7.8647      2.4437      0.1605     12.5045     26.8061      7.8315
   655.7000      7.8647      2.4384      0.1043     12.8246     26.9338      7.6400
   655.8000      7.8452      2.4284      0.0623     13.4313     26.0827      7.8646
   655.9000      7.8452      2.4237      0.0770     13.7130     24.3480      8.4484
   656.0000      7.8909      2.4328      0.1147     13.1614     23.1076      8.8487
   656.1000      7.8909      2.4469      0.1321     12.3106     23.2936      9.1891
   656.2000      7.8909      2.4535      0.0967     11.9070     24.4494      9.9467
   656.3000      7.9167      2.4663      0.0215     11.1323     25.5614     10.7940
   656.4000      7.9167      2.4947      0.1352      9.4098     27.3372     11.2976
   656.5000      7.8983      2.5168      0.1369      8.0736     29.5435     11.7941
   656.6000      7.8983      2.5207      0.0917      7.8345     30.2631     12.3828
   656.7000      7.8983      2.5169      0.1372      8.0689     30.0496     12.7425
   656.8000      7.8711      2.5082      0.1333      8.5926     31.8115     13.0405
   656.9000      7.8711      2.4967      0.0954      9.2893     37.0268     13.5068
   657.0000      7.8530      2.4850      0.0893      9.9974     45.1000     14.1498
   657.1000      7.8530      2.4757      0.0071     10.5653     53.9822     14.6779
   657.2000      7.8530      2.4800      0.0390     10.3019     62.0416     14.7126
   657.3000      7.8622      2.4946      0.1096      9.4190     68.8164     14.5285
   657.4000      7.8622      2.5038      0.0651      8.8620     72.7494     14.5351
   657.5000      7.8757      2.5048      0.1156      8.7984     70.5766     14.4180
   657.6000      7.8757      2.4948      0.1632      9.4071     60.9751     13.9825
   657.7000      7.8757      2.4696      0.1184     10.9347     49.9159     13.6105
   657.8000      7.8737      2.4409      0.1216     12.6707     42.7156     12.9804
   657.9000      7.8737      2.4191      0.1512     13.9947     37.7721     11.7022
   658.0000      7.8237      2.4058      0.0714     14.8009     32.6473     10.3934
   658.1000      7.8237      2.4175      0.0505     14.0932     27.3470      9.7365
   658.2000      7.8237      2.4601      0.1024     11.5115     23.1335      9.7676
   658.3000      7.8199      2.5016      0.1542      8.9965     21.4108     10.1622
   658.4000      7.8199      2.5139      0.1724      8.2458     21.3923     10.8092
   658.5000      7.8316      2.5095      0.1333      8.5142     20.4660     11.4856
   658.6000      7.8316      2.5069      0.2159      8.6699     18.2850     11.6493
   658.7000      7.8316      2.5000      0.1626      9.0886     16.1427     11.2364
   658.8000      7.8253      2.4829      0.1446     10.1265     14.9451     10.7905
   658.9000      7.8253      2.4674      0.0714     11.0655     15.5901     10.4403
   659.0000      7.8353      2.4709      0.0926     10.8534     16.9764      9.8549
   659.1000      7.8353      2.4888      0.1209      9.7672     17.6706      9.4146
   659.2000      7.8353      2.5012      0.0991      9.0180     19.0060      9.6239
   659.3000      7.8690      2.5113      0.0708      8.4061     22.5057     10.3519
   659.4000      7.8690      2.5317      0.0945      7.1676     27.1456     11.5714
   659.5000      7.8884      2.5490      0.1362      6.1205     30.3116     13.6135
   659.6000      7.8884      2.5500      0.1277      6.0620     32.4003     16.2197
   659.7000      7.8884      2.5488      0.1382      6.1359     36.9566     18.4747
   659.8000      7.8760      2.5592      0.0990      5.5038     44.8314     19.9728
   659.9000      7.8760      2.5732      0.1730      4.6565     54.0351     20.9349
   660.0000      7.8570      2.5698      0.1360      4.8596     64.5045     21.7677
   660.1000      7.8570      2.5438      0.1241      6.4388     77.1737     22.7030
   660.2000      7.8570      2.5162      0.0498      8.1066     87.5744     23.6510
   660.3000      7.8624      2.5028      0.0771      8.9188     90.9224     24.3273
   660.4000      7.8624      2.4916      0.0555      9.6013     90.9143     24.5203
   660.5000      7.8705      2.4737      0.0544     10.6833     92.1831     24.5726
   660.6000      7.8705      2.4572      0.0714     11.6825     94.3602     24.6486
   660.7000      7.8705      2.4486      0.0583     12.2053     95.2249     24.7020
   660.8000      7.8824      2.4457      0.0591     12.3796     95.1606     25.0173
   660.9000      7.8824      2.4474      0.0469     12.2815     96.5092     25.8871
   661.0000      7.8817      2.4581      0.0620     11.6317     96.3799     27.4555
   661.1000      7.8817      2.4799      0.0384     10.3094     92.0034     28.7940
