~Version Information
VERS.                      2.0: CWLS Log ASCII Standard - VERSION 2.0
WRAP.                       NO: One line per depth step
~Well Information Block
STRT.FT               433.5000: 
STOP.FT              1880.2500: 
STEP.FT                 0.2500: 
NULL.                -999.2500: 
COMP.          Pioneer Natural Resources: COMPANY
WELL.           Buckhorn 12-21: WELL
FLD.           Purgatorie River: FIELD
LOC.           2450' FNL & 608' FWL--: LOCATION
PROV.                       CO: PROVINCE
CNTY.               Las Animas: COUNTRY
SRVC.                         : SERVICE COMPANY
DATE.          Fri Dec 03 14:13:08 2004: LOG DATE
UWI.          005 071 08129 : UNIQUE WELL ID
~Curve Information Block
DEPT.FT            0 000 00 00: Depth
NPOR.pu                       : Neutron Porosity
CCL.                          : Casing Collar Locator
TT3.usec                      : CBL 3' Travel Time
AMP3.mV                       : CBL 3' Amplitude
GR.GAPI                       : Gamma Ray
~Parameter Information Block
~A  Depth       NPOR        CCL         TT3         AMP3         GR     
# ...
  1105.5000     32.6960      0.0000    312.0807     16.8009    144.5587
  1105.7500     32.0727      0.0000    313.1150     15.4589    142.6460
  1106.0000     31.4309      0.0000    315.2438     13.9817    139.6421
  1106.2500     30.7734      0.0000    319.6239     12.5900    137.4520
  1106.5000     30.1576      0.0000    328.0842     11.4544    136.6844
  1106.7500     29.5946      0.0000    342.8589     10.6434    136.6195
  1107.0000     29.0068      0.0000    365.5334     10.1305    136.4970
  1107.2500     28.3097      0.0000    394.9103      9.8337    136.3462
  1107.5000     27.5042      0.0000    425.8184      9.6541    136.3117
  1107.7500     26.6974      0.0000    452.3700      9.4977    135.4120
  1108.0000     26.0491      0.0000    473.3848      9.2962    131.7870
  1108.2500     25.6787      0.0000    491.8395      9.0483    124.7555
  1108.5000     25.5980      0.0000    508.8120      8.8395    116.2365
  1108.7500     25.7075      0.0000    522.9779      8.7873    109.5382
  1109.0000     25.8497      0.0000    536.5930      8.9512    106.7361
  1109.2500     25.8996      0.0000    555.7409      9.3055    107.2969
  1109.5000     25.8694      0.0000    582.3309      9.7923    109.0507
  1109.7500     25.9358      0.0000    609.1555     10.3776    110.3234
  1110.0000     26.3217      0.0000    623.6684     11.0612    111.0570
  1110.2500     27.1182     -2.0000    614.8555     11.8512    112.1285
  1110.5000     28.2047      0.0000    578.1195     12.7563    114.2423
  1110.7500     29.3171      0.0000    518.3657     13.7926    117.6404
  1111.0000     30.1931      0.0000    449.6660     14.9436    122.0966
  1111.2500     30.6896      0.0000    388.7317     16.0776    126.7469
  1111.5000     30.8068      0.0000    346.0793     16.9704    130.6017
  1111.7500     30.6228      0.0000    322.5660     17.4862    133.5921
  1112.0000     30.2182      0.0000    312.8270     17.6695    136.5379
  1112.2500     29.6499      0.0000    310.9976     17.5953    139.8640
  1112.5000     28.9503      0.0000    314.7332     17.2287    142.9429
  1112.7500     28.1404      0.0000    327.0207     16.5167    144.9427
  1113.0000     27.2559      0.0000    355.5786     15.5372    145.6031
  1113.2500     26.3528      0.0000    408.0556     14.4813    144.8493
  1113.5000     25.4972      0.0000    483.2921     13.5351    142.4874
  1113.7500     24.7938      0.0000    565.6566     12.8154    138.9297
  1114.0000     24.4038      0.0000    630.0203     12.3742    135.7579
  1114.2500     24.4467      0.0000    654.4368     12.2028    134.8991
  1114.5000     24.8530      0.0000    630.4238     12.2345    137.2060
  1114.7500     25.3719      0.0000    566.3403     12.3716    141.8367
  1115.0000     25.7651      0.0000    484.1489     12.5245    146.7282
  1115.2500     25.9578      0.0000    409.1119     12.6392    149.7791
  1115.5000     25.9886      0.0000    356.9805     12.7109    150.2528
  1115.7500     25.8768      0.0000    328.9041     12.7809    149.3496
  1116.0000     25.6057      0.0000    317.0422     12.9077    148.9688
  1116.2500     25.2110      0.0000    312.9985     13.1287    149.5913
  1116.5000     24.7970      0.0000    311.7606     13.4363    149.5994
  1116.7500     24.4232      0.0000    311.3065     13.7820    146.8913
  1117.0000     24.0390      0.0000    311.0468     14.1012    141.0387
  1117.2500     23.5958      0.0000    310.8447     14.3451    133.9014
  1117.5000     23.1788      0.0000    310.6556     14.4909    128.2492
  1117.7500     22.9590      0.0000    310.4879     14.5248    125.7038
  1118.0000     23.0239      0.0000    310.3892     14.4337    125.8203
  1118.2500     23.2917      0.0000    310.4350     14.2272    126.9185
  1118.5000     23.5862      0.0000    310.7175     13.9584    127.5928
  1118.7500     23.7698      0.0000    311.6513     13.6959    127.5139
  1119.0000     23.7981      0.0000    314.6413     13.4716    127.2370
  1119.2500     23.6939      0.0000    322.9770     13.2636    127.5588
  1119.5000     23.5475      0.0000    341.6567     13.0342    129.0294
  1119.7500     23.5329      0.0000    374.8526     12.7757    131.6725
  1120.0000     23.8161      0.0000    422.4920     12.5136    134.7489
  1120.2500     24.3943      0.0000    479.9408     12.2713    136.9500
  1120.5000     25.0573      0.0000    541.0704     12.0456    137.3981
  1120.7500     25.5403      0.0000    600.0341     11.8261    136.6059
  1121.0000     25.7069      0.0000    650.7081     11.6266    136.0351
  1121.2500     25.5865      0.0000    687.8019     11.4772    136.5701
  1121.5000     25.2824      0.0000    709.8362     11.3917    137.6704
  1121.7500     24.9102      0.0000    720.0451     11.3524    138.1561
  1122.0000     24.6085      0.0000    724.1065     11.3281    137.6644
  1122.2500     24.5124      0.0000    726.4470     11.2979    137.0993
  1122.5000     24.6497      0.0000    727.2535     11.2649    137.6007
  1122.7500     24.9034      0.0000    721.7818     11.2544    139.2446
  1123.0000     25.1301      0.0000    702.8454     11.2995    140.9871
  1123.2500     25.3052      0.0000    665.6993     11.4225    141.8842
  1123.5000     25.5204      0.0000    611.9187     11.6230    142.0757
  1123.7500     25.8465      0.0000    548.5480     11.8740    142.3052
  1124.0000     26.2479      0.0000    483.6163     12.1279    142.6508
  1124.2500     26.6249      0.0000    423.8133     12.3323    142.3012
  1124.5000     26.8870      0.0000    375.1167     12.4586    140.8293
  1124.7500     26.9966      0.0000    341.6592     12.5319    139.0246
  1125.0000     27.0010      0.0000    323.0685     12.6363    137.9163
  1125.2500     27.0252      0.0000    314.8804     12.8812    137.5109
  1125.5000     27.1876      0.0000    311.9397     13.3445    137.0089
  1125.7500     27.5188      0.0000    310.8864     14.0338    135.9099
  1126.0000     27.9847      0.0000    310.2972     14.8930    134.6652
  1126.2500     28.5664      0.0000    309.7839     15.8417    134.3505
  1126.5000     29.2786      0.0000    309.3208     16.8055    135.4184
  1126.7500     30.1167      0.0000    308.9078     17.7160    136.5087
  1127.0000     31.0170      0.0000    308.5464     18.5027    135.0272
  1127.2500     31.8728      0.0000    308.2458     19.1046    129.5300
  1127.5000     32.5723      0.0000    308.0330     19.5006    121.5252
  1127.7500     33.0154      0.0000    307.9345     19.7323    114.6787
  1128.0000     33.1191      0.0000    307.9558     19.8943    112.0688
  1128.2500     32.8540      0.0000    308.0724     20.0745    113.9322
  1128.5000     32.3055      0.0000    308.2340     20.2763    117.8883
  1128.7500     31.6756      0.0000    308.3806     20.3956    121.5700
  1129.0000     31.1770      0.0000    308.4651     20.2956    125.0649
  1129.2500     30.9140      0.0000    308.4728     19.9220    130.4188
  1129.5000     30.8754      0.0000    308.4231     19.3554    138.6672
  1129.7500     31.0031      0.0000    308.3516     18.7601    147.8059
  1130.0000     31.2215      0.0000    308.2937     18.2734    154.0466
  1130.2500     31.4274      0.0000    308.2848     17.9112    155.0303
  1130.5000     31.5117      0.0000    308.3656     17.5654    151.6571
  1130.7500     31.3996      0.0000    308.5960     17.1032    146.9360
  1131.0000     31.0675      0.0000    309.0744     16.4770    143.4182
  1131.2500     30.5245      0.0000    310.2089     15.7406    141.7099
  1131.5000     29.7687      0.0000    313.3026     14.9893    140.8202
  1131.7500     28.7631      0.0000    321.1624     14.3060    139.2511
  1132.0000     27.4857      0.0000    337.4722     13.7343    135.8005
  1132.2500     26.0143      0.0000    363.9400     13.2618    129.9569
  1132.5000     24.5182      0.0000    398.0594     12.8339    122.0274
  1132.7500     23.1238      0.0000    436.5091     12.4123    112.9478
  1133.0000     21.8032      0.0000    481.2042     12.0075    103.7638
  1133.2500     20.4411      0.0000    536.7885     11.6455     95.2278
