~Version Information
VERS.                      2.0: CWLS Log ASCII Standard - VERSION 2.0
WRAP.                       NO: One line per depth step
~Well Information Block
STRT.FT                -9.7500: 
STOP.FT              2612.5000: 
STEP.FT                 0.2500: 
NULL.                -999.2500: 
COMP.                         : COMPANY
WELL.                         : WELL
FLD.                          : FIELD
LOC.                          : LOCATION
CNTY.                         : COUNTY
SRVC.                         : SERVICE COMPANY
DATE.          Mon Nov 17 14:56:03 2003: LOG DATE
UWI.                          : UNIQUE WELL ID
STAT.                         : STATE
~Curve Information Block
DEPT.FT            0 000 00 00: Depth
CCL.                          : Casing Collar Locator
TT3.usec                      : CBL 3' Travel Time
AMP3.mV                       : CBL 3' Amplitude
GR.GAPI                       : Gamma Ray
~Parameter Information Block
~A  Depth       CCL         TT3         AMP3         GR     
# ...
  1866.2500      0.0000    262.5269     71.5292    146.4465
  1866.5000      0.0000    262.5757     71.4423    145.5301
  1866.7500      0.0000    262.6401     71.2089    146.0780
  1867.0000      0.0000    262.6964     70.9162    147.3096
  1867.2500      0.0000    262.7219     70.6747    149.1295
  1867.5000      0.0000    262.7056     70.5709    152.1162
  1867.7500      0.0000    262.6544     70.6254    156.2333
  1868.0000      0.0000    262.5901     70.7950    160.2333
  1868.2500      0.0000    262.5369     71.0082    162.6745
  1868.5000      0.0000    262.5121     71.1878    163.1974
  1868.7500      0.0000    262.5238     71.2587    162.6582
  1869.0000      0.0000    262.5691     71.1729    162.3600
  1869.2500      0.0000    262.6322     70.9461    163.3702
  1869.5000      0.0000    262.6882     70.6662    166.0500
  1869.7500      0.0000    262.7145     70.4531    169.5736
  1870.0000      0.0000    262.7041     70.3901    171.9305
  1870.2500      0.0000    262.6712     70.4783    171.0781
  1870.5000      0.0000    262.6431     70.6433    166.7201
  1870.7500      0.0000    262.6416     70.7798    160.8828
  1871.0000      0.0000    262.6697     70.8037    156.3093
  1871.2500      0.0000    262.7122     70.6906    154.2921
  1871.5000      0.0000    262.7470     70.4882    154.2888
  1871.7500      0.0000    262.7562     70.2936    154.9607
  1872.0000      0.0000    262.7336     70.2011    155.0041
  1872.2500      0.0000    262.6866     70.2440    153.6898
  1872.5000      0.0000    262.6355     70.3684    151.4747
  1872.7500      0.0000    262.6042     70.4704    149.7077
  1873.0000      0.0000    262.6062     70.4771    149.0184
  1873.2500      0.0000    262.6348     70.3984    148.2366
  1873.5000      0.0000    262.6677     70.3025    145.5647
  1873.7500      0.0000    262.6835     70.2512    140.7591
  1874.0000      0.0000    262.6729     70.2681    135.6724
  1874.2500      0.0000    262.6392     70.3543    132.6485
  1874.5000      0.0000    262.5930     70.5024    132.5343
  1874.7500      0.0000    262.5490     70.6869    133.9963
  1875.0000      0.0000    262.5228     70.8543    134.6689
  1875.2500      0.0000    262.5261     70.9380    133.2069
  1875.5000      0.0000    262.5598     70.8977    130.1320
  1875.7500      0.0000    262.6089     70.7573    126.6098
  1876.0000      0.0000    262.6486     70.6005    123.0594
  1876.2500      0.0000    262.6607     70.5171    119.3376
  1876.5000      0.0000    262.6475     70.5461    115.5248
  1876.7500      0.0000    262.6300     70.6545    111.9636
  1877.0000      0.0000    262.6353     70.7478    109.1726
  1877.2500      0.0000    262.6898     70.7037    108.1981
  1877.5000      0.0000    262.8475     70.4143    110.2243
  1877.7500      0.0000    263.2804     69.7922    115.0217
  1878.0000      0.0000    264.4052     68.7112    120.2691
  1878.2500      0.0000    266.8946     66.9297    123.3279
  1878.5000      0.0000    271.3064     64.1759    123.7730
  1878.7500      0.0000    277.4481     60.4481    123.7034
  1879.0000      0.0000    284.2488     56.2132    125.5022
  1879.2500      0.0000    290.5883     52.1550    129.4945
  1879.5000      0.0000    296.1188     48.7366    133.7581
  1879.7500      0.0000    300.9678     46.1133    136.0623
  1880.0000      0.0000    304.9816     44.3025    135.8649
  1880.2500      0.0000    307.7705     43.2116    134.4427
  1880.5000      0.0000    309.3117     42.5965    133.4391
  1880.7500      0.0000    310.0985     42.1914    133.6030
  1881.0000     -2.0000    310.7648     41.8764    134.7855
  1881.2500     -2.0000    311.6199     41.7596    136.7639
  1881.5000      0.0000    312.2721     42.2037    139.9000
  1881.7500      0.0000    311.6160     43.7110    144.9040
  1882.0000      0.0000    308.5462     46.5669    151.6282
  1882.2500      0.0000    302.8625     50.5568    158.0865
  1882.5000      0.0000    295.2836     55.1616    161.5641
  1882.7500      0.0000    286.8035     59.8863    161.1647
  1883.0000      0.0000    278.4858     64.2307    158.3897
  1883.2500      0.0000    271.5228     67.6206    154.8850
  1883.5000      0.0000    266.7717     69.6992    150.9661
  1883.7500      0.0000    264.2150     70.6040    146.8628
  1884.0000      0.0000    263.1450     70.8188    143.8159
  1884.2500      0.0000    262.7869     70.8178    142.8816
  1884.5000      0.0000    262.6730     70.8565    143.6595
  1884.7500      0.0000    262.6262     70.9669    145.3080
  1885.0000      0.0000    262.6178     71.0505    148.2814
  1885.2500      0.0000    262.6502     71.0134    154.0313
  1885.5000      0.0000    262.7048     70.8631    162.9524
  1885.7500      0.0000    262.7444     70.7108    173.0181
  1886.0000      0.0000    262.7380     70.6851    180.4070
  1886.2500      0.0000    262.6834     70.8389    181.7451
  1886.5000      0.0000    262.6050     71.1285    176.5739
  1886.7500      0.0000    262.5345     71.4608    167.9476
  1887.0000      0.0000    262.4908     71.7454    160.3563
  1887.2500      0.0000    262.4753     71.9194    156.6294
  1887.5000      0.0000    262.4778     71.9581    156.2849
  1887.7500      0.0000    262.4852     71.8882    156.5793
  1888.0000      0.0000    262.4873     71.7806    155.3947
  1888.2500      0.0000    262.4837     71.6993    153.1113
  1888.5000      0.0000    262.4863     71.6446    151.5793
  1888.7500      0.0000    262.5097     71.5626    151.8658
  1889.0000      0.0000    262.5540     71.4253    153.6158
  1889.2500      0.0000    262.5965     71.2868    155.9895
  1889.5000      0.0000    262.6085     71.2433    158.1863
  1889.7500      0.0000    262.5804     71.3433    159.4677
  1890.0000      0.0000    262.5317     71.5413    159.6449
  1890.2500      0.0000    262.4972     71.7171    159.2875
  1890.5000      0.0000    262.5061     71.7333    158.7798
  1890.7500      0.0000    262.5660     71.5118    157.8537
  1891.0000      0.0000    262.6563     71.1027    156.6720
  1891.2500      0.0000    262.7383     70.6769    156.3964
  1891.5000      0.0000    262.7821     70.4131    157.5814
  1891.7500      0.0000    262.7872     70.3669    158.5781
  1892.0000      0.0000    262.7775     70.4513    156.6412
  1892.2500      0.0000    262.7737     70.5393    150.4983
  1892.5000      0.0000    262.7742     70.5780    141.2543
  1892.7500      0.0000    262.7618     70.6041    131.0801
  1893.0000      0.0000    262.7267     70.6747    121.7435
  1893.2500      0.0000    262.6773     70.8051    114.2753
  1893.5000      0.0000    262.6330     70.9639    109.2847
  1893.7500      0.0000    262.6074     71.1050    107.1180
  1894.0000      0.0000    262.6000     71.2003    107.7983
  1894.2500      0.0000    262.5971     71.2600    110.9817
  1894.5000      0.0000    262.5822     71.3218    115.8133
  1894.7500      0.0000    262.5519     71.4104    120.8434
  1895.0000      0.0000    262.5204     71.5064    124.5140
  1895.2500      0.0000    262.5062     71.5622    126.0843
  1895.5000      0.0000    262.5133     71.5464    126.0571
  1895.7500      0.0000    262.5344     71.4578    125.7953
  1896.0000      0.0000    262.5644     71.3132    126.6665
  1896.2500      0.0000    262.6003     71.1534    129.2737
  1896.5000      0.0000    262.6300     71.0520    133.4788
  1896.7500      0.0000    262.6391     71.0708    139.0332
  1897.0000      0.0000    262.6292     71.1861    145.7006
  1897.2500      0.0000    262.6197     71.2871    152.7048
  1897.5000      0.0000    262.6256     71.2721    158.6244
  1897.7500      0.0000    262.6407     71.1428    161.9602
  1898.0000      0.0000    262.6454     71.0014    161.4841
  1898.2500      0.0000    262.6287     70.9607    156.3991
  1898.5000      0.0000    262.5995     71.0551    146.9745
  1898.7500      0.0000    262.5782     71.2200    135.1698
  1899.0000      0.0000    262.5790     71.3404    124.1574
  1899.2500      0.0000    262.6004     71.3260    116.7959
  1899.5000      0.0000    262.6302     71.1538    114.1152
