~Version Information
VERS.                      2.0: CWLS Log ASCII Standard - VERSION 2.0
WRAP.                       NO: One line per depth step
~Well Information Block
STRT.FT               577.0000: 
STOP.FT              2643.2000: 
STEP.FT                 0.1000: 
NULL.                -999.2500: 
COMP.          Petrogulf Corporation: COMPANY
WELL.           Montoya 12-41V: WELL
FLD.           Purgatorie River: FIELD
LOC.           1081' FNL & 605' FEL: LOCATION
CNTY.               Las Animas: COUNTY
SRVC.                         : SERVICE COMPANY
DATE.          Tue Aug 10 14:17:12 2004: LOG DATE
UWI.           05 071 08094 00: UNIQUE WELL ID
STAT.                 Colorado: STATE
~Curve Information Block
DEPT.FT            0 000 00 00: Depth
DCAL.in                       : CDL Caliper
RHOB.g/cc                     : CDL Bulk Density
RHOC.g/cc                     : CDL Density Correction
DPOR.pu                       : CDL Density Porosity
GR.GAPI                       : Gamma Ray
NPOR.pu                       : Neutron Porosity
~Parameter Information Block
~A  Depth       DCAL        RHOB        RHOC        DPOR         GR         NPOR    
# ...
  1681.0000      8.0201      1.6110      0.1041     62.9677     71.0494     33.8369
  1681.1000      8.0201      1.8012      0.1644     51.4402     72.4341     32.6345
  1681.2000      8.0201      1.9544      0.1918     42.1597     74.9709     31.1686
  1681.3000      8.0754      2.0647      0.1842     35.4755     81.4317     30.0112
  1681.4000      8.0754      2.1825      0.2007     28.3304     89.7931     29.3622
  1681.5000      8.0231      2.3278      0.2527     19.5297     94.3607     29.1481
  1681.6000      8.0231      2.4548      0.2533     11.8314     96.7122     29.1269
  1681.7000      8.0231      2.5244      0.0723      7.6113    100.7759     28.8196
  1681.8000      8.0322      2.5514      0.0216      5.9784    106.0394     27.7574
  1681.9000      8.0322      2.5601      0.0061      5.4484    112.8556     26.1941
  1682.0000      7.9259      2.5565      0.0076      5.6673    120.7303     24.9639
  1682.1000      7.9259      2.5485     -0.0228      6.1514    126.6306     24.0376
  1682.2000      7.9259      2.5490      0.0090      6.1211    130.3348     23.0844
  1682.3000      7.9270      2.5526     -0.0168      5.9048    133.7944     22.4527
  1682.4000      7.9270      2.5475     -0.0348      6.2109    137.1883     22.4123
  1682.5000      7.9315      2.5368     -0.0107      6.8616    140.4041     22.6990
  1682.6000      7.9315      2.5261      0.0015      7.5085    144.0988     22.9662
  1682.7000      7.9315      2.5180     -0.0105      7.9977    145.6085     22.9853
  1682.8000      7.9378      2.5146     -0.0080      8.2069    140.8557     23.0693
  1682.9000      7.9378      2.5174     -0.0337      8.0335    133.3191     23.9047
  1683.0000      7.9407      2.5235     -0.0249      7.6637    129.1824     25.0603
  1683.1000      7.9407      2.5224      0.0056      7.7331    130.0371     25.2665
  1683.2000      7.9407      2.5162     -0.0425      8.1085    135.3514     24.3928
  1683.3000      7.9478      2.5207     -0.0125      7.8342    139.8730     23.5457
  1683.4000      7.9478      2.5334      0.0213      7.0662    139.2191     23.2022
  1683.5000      7.9201      2.5461     -0.0372      6.2978    136.3832     22.8236
  1683.6000      7.9201      2.5628      0.0202      5.2858    136.2021     22.2329
  1683.7000      7.9201      2.5792      0.0192      4.2905    139.0482     21.7436
  1683.8000      7.9295      2.5849      0.0333      3.9484    141.5456     21.6089
  1683.9000      7.9295      2.5784      0.0204      4.3415    140.3372     21.7821
  1684.0000      7.9009      2.5663      0.0052      5.0703    135.2662     21.7824
  1684.1000      7.9009      2.5540      0.0200      5.8152    128.4080     21.5870
  1684.2000      7.9009      2.5422      0.0210      6.5335    124.9468     21.4905
  1684.3000      7.8712      2.5352      0.0045      6.9560    127.1868     21.3833
  1684.4000      7.8712      2.5423      0.0214      6.5266    128.3081     21.2374
  1684.5000      7.8400      2.5603      0.0356      5.4386    124.9437     21.2986
  1684.6000      7.8400      2.5771      0.0298      4.4155    120.7094     21.5250
  1684.7000      7.8400      2.5877      0.0483      3.7778    118.7406     21.3529
  1684.8000      7.8606      2.5922      0.0592      3.5013    117.2958     20.5587
  1684.9000      7.8606      2.5947      0.0504      3.3522    111.4615     19.7262
  1685.0000      7.8387      2.5991      0.0352      3.0855    105.2708     19.4068
  1685.1000      7.8387      2.5977      0.1004      3.1690    105.0652     19.2895
  1685.2000      7.8387      2.5795      0.0624      4.2709    107.2628     19.0533
  1685.3000      7.8532      2.5523      0.0694      5.9232    108.3646     18.9824
  1685.4000      7.8532      2.5329      0.0297      7.0978    108.3990     19.2570
  1685.5000      7.8658      2.5319      0.0327      7.1605    106.4284     19.5777
  1685.6000      7.8658      2.5486      0.0204      6.1426    105.4398     19.6072
  1685.7000      7.8658      2.5763      0.0789      4.4670    109.7282     19.3879
  1685.8000      7.8642      2.6033      0.0851      2.8318    116.0531     19.3573
  1685.9000      7.8642      2.6193      0.1048      1.8613    117.8918     19.7752
  1686.0000      7.8722      2.6256      0.1021      1.4805    116.5375     20.2308
  1686.1000      7.8722      2.6316      0.1255      1.1153    117.1622     20.2335
  1686.2000      7.8722      2.6406      0.0974      0.5684    119.0590     19.9293
  1686.3000      7.8877      2.6421      0.1383      0.4817    117.7529     19.9901
  1686.4000      7.8877      2.6277      0.0643      1.3526    111.2755     20.4994
  1686.5000      7.9047      2.6067      0.0419      2.6213    103.5559     20.8268
  1686.6000      7.9047      2.5880      0.0407      3.7589     97.9323     20.4283
  1686.7000      7.9047      2.5776      0.0149      4.3890     94.1810     19.5685
  1686.8000      7.8902      2.5838      0.0462      4.0101     93.5117     19.2646
  1686.9000      7.8902      2.5976      0.0602      3.1778     95.6887     19.7927
  1687.0000      7.8921      2.6027      0.0549      2.8637     98.6976     20.1648
  1687.1000      7.8921      2.5960      0.0609      3.2702    102.3706     20.0446
  1687.2000      7.8921      2.5906      0.0282      3.6002    104.9698     19.8691
  1687.3000      7.8934      2.6025      0.0409      2.8804    106.3907     19.6027
  1687.4000      7.8934      2.6222      0.0613      1.6863    108.9528     18.9847
  1687.5000      7.8896      2.6276      0.0401      1.3577    109.3438     18.2998
  1687.6000      7.8896      2.6088      0.0507      2.4998    104.5598     18.0715
  1687.7000      7.8896      2.5710      0.0210      4.7891    100.5763     18.1659
  1687.8000      7.9026      2.5339     -0.0117      7.0393    101.1614     18.4810
  1687.9000      7.9026      2.5108     -0.0082      8.4369    104.2668     19.3226
  1688.0000      7.9051      2.4991      0.0031      9.1439    106.9355     20.2700
  1688.1000      7.9051      2.4978     -0.0292      9.2213    107.5863     20.7696
  1688.2000      7.9051      2.5101     -0.0122      8.4777    107.6124     21.2600
  1688.3000      7.9082      2.5286      0.0127      7.3570    106.3374     21.7745
  1688.4000      7.9082      2.5433      0.0240      6.4653    100.1211     21.5592
  1688.5000      7.9081      2.5570      0.0530      5.6347     90.5659     20.8098
  1688.6000      7.9081      2.5738      0.0842      4.6153     86.1210     20.3646
  1688.7000      7.9081      2.5909      0.0838      3.5799     89.2091     20.4951
  1688.8000      7.9086      2.6009      0.1035      2.9740     95.0903     20.6991
  1688.9000      7.9086      2.5920      0.0763      3.5129    101.5233     20.5646
  1689.0000      7.9085      2.5691      0.0802      4.9041    107.8194     20.3261
  1689.1000      7.9085      2.5555      0.0237      5.7247    110.0689     20.1954
  1689.2000      7.9085      2.5619      0.0606      5.3386    108.5017     20.0152
  1689.3000      7.9098      2.5747      0.0349      4.5612    107.4621     19.7716
  1689.4000      7.9098      2.5767      0.0657      4.4412    107.9771     19.8569
  1689.5000      7.9133      2.5621      0.0442      5.3280    108.3836     20.4386
  1689.6000      7.9133      2.5451      0.0212      6.3562    107.8199     21.1154
  1689.7000      7.9133      2.5409      0.0498      6.6109    109.4717     21.3903
  1689.8000      7.9170      2.5435      0.0400      6.4524    113.7943     21.0966
  1689.9000      7.9170      2.5413      0.0213      6.5859    114.7950     20.3150
  1690.0000      7.9104      2.5384      0.0152      6.7614    109.3870     19.5551
  1690.1000      7.9104      2.5468     -0.0120      6.2541    102.8920     19.6315
  1690.2000      7.9104      2.5580      0.0356      5.5728     97.9623     20.2736
  1690.3000      7.9112      2.5549      0.0276      5.7627     92.7493     20.5247
  1690.4000      7.9112      2.5423      0.0494      6.5270     89.1420     20.4835
  1690.5000      7.9109      2.5346     -0.0143      6.9970     89.9407     20.8424
