~Version Information
VERS.                      2.0: CWLS Log ASCII Standard - VERSION 2.0
WRAP.                       NO: One line per depth step
~Well Information Block
STRT.FT               235.0000: 
STOP.FT              1634.5000: 
STEP.FT                 0.2500: 
NULL.                -999.2500: 
COMP.          Petrogulf Corporation: COMPANY
WELL.             State 16-41R: WELL
FLD.           Purgatorie River: FIELD
LOC.           280' FNL & 907' FEL: LOCATION
SECT.                       16: SECTION
TOWN.                      33S: TOWNSHIP
RANG.                      67W: RANGE
STAT.                 Colorado: STATE
CNTY.               Las Animas: COUNTY
CTRY.                      USA: COUNTRY
SRVC.                Patterson: SERVICE COMPANY
DATE.         Tue Oct 18 15:59:41 2005: LOG DATE
API.              05-071-08345: UNIQUE WELL ID
~Curve Information Block
DEPT.FT            0 000 00 00: Depth
SP.mV                         : DIL Spontaneous Potential
RILD.Ohm-m                    : DIL Deep Resistivity
RILM.Ohm-m                    : DIL Medium Resistivity
RLL3.Ohm-m                    : DIL Shallow Resistivity
GR.GAPI                       : Gamma Ray
~Parameter Information Block
~A  Depth        SP         RILD        RILM        RLL3         GR     
# ...
   963.0000    168.1291     19.8370     25.3626     30.6011    108.9023
   963.2500    170.6570     18.5602     23.6055     32.1055    108.3862
   963.5000    173.5159     17.2797     21.6764     34.6358    106.0151
   963.7500    176.6069     16.0525     19.6913     36.3638    103.5541
   964.0000    179.7822     14.9163     17.7626     35.2986     99.4432
   964.2500    182.8640     13.8882     15.9780     30.9566     97.3737
   964.5000    185.6757     12.9677     14.3908     24.7593     96.9483
   964.7500    188.0789     12.1430     13.0201     18.8113     98.8806
   965.0000    189.9996     11.3985     11.8600     14.4642    104.5285
   965.2500    191.4374     10.7200     10.8894     11.9154    109.3548
   965.5000    192.4523     10.0981     10.0805     10.6884    116.9868
   965.7500    193.1384      9.5290      9.4054     10.2000    121.8542
   966.0000    193.5944      9.0139      8.8393     10.0195    128.1796
   966.2500    193.9015      8.5567      8.3622      9.8985    131.4466
   966.5000    194.1126      8.1613      7.9588      9.7288    134.7150
   966.7500    194.2534      7.8287      7.6184      9.4980    135.9743
   967.0000    194.3300      7.5566      7.3335      9.2499    137.1915
   967.2500    194.3374      7.3401      7.0987      9.0437    137.8980
   967.5000    194.2666      7.1734      6.9103      8.9150    138.7472
   967.7500    194.1092      7.0501      6.7650      8.8537    139.1189
   968.0000    193.8580      6.9636      6.6605      8.8141    140.3964
   968.2500    193.5087      6.9063      6.5945      8.7518    142.6966
   968.5000    193.0595      6.8691      6.5641      8.6635    148.5963
   968.7500    192.5116      6.8420      6.5659      8.6110    152.9810
   969.0000    191.8682      6.8152      6.5942      8.7330    157.1182
   969.2500    191.1335      6.7818      6.6409      9.2417    156.8089
   969.5000    190.3116      6.7402      6.6950     10.3564    150.7369
   969.7500    189.4059      6.6948      6.7442     12.1258    143.0914
   970.0000    188.4198      6.6551      6.7769     14.2038    127.6913
   970.2500    187.3579      6.6334      6.7855     15.8383    116.5473
   970.5000    186.2262      6.6423      6.7701     16.2660    102.4298
   970.7500    185.0318      6.6928      6.7389     15.2644     96.5726
   971.0000    183.7818      6.7934      6.7076     13.3143     94.1593
   971.2500    182.4842      6.9485      6.6959     11.2050     96.5135
   971.5000    181.1508      7.1570      6.7246      9.5229    105.1441
   971.7500    179.8019      7.4115      6.8128      8.4955    113.4784
   972.0000    178.4705      7.6971      6.9766      8.2065    126.8838
   972.2500    177.2033      7.9942      7.2280      8.9559    134.0834
   972.5000    176.0583      8.2818      7.5744     11.6092    139.4976
   972.7500    175.0970      8.5446      8.0160     17.7470    139.3693
   973.0000    174.3762      8.7780      8.5437     29.1830    134.7801
   973.2500    173.9384      8.9917      9.1365     46.5041    129.3013
   973.5000    173.8057      9.2082      9.7612     67.2818    117.6111
   973.7500    173.9760      9.4594     10.3774     85.7643    107.8941
   974.0000    174.4230      9.7807     10.9487     95.3062     92.6192
   974.2500    175.0995     10.2063     11.4560     92.2416     83.7242
   974.5000    175.9434     10.7643     11.9068     78.1431     74.5614
   974.7500    176.8871     11.4701     12.3354     58.7144     71.7152
   975.0000    177.8681     12.3175     12.7932     40.4588     72.1066
   975.2500    178.8383     13.2680     13.3377     27.8173     74.9794
   975.5000    179.7706     14.2414     14.0206     22.6482     81.7316
   975.7500    180.6614     15.1188     14.8793     25.7765     86.5755
   976.0000    181.5280     15.7691     15.9255     38.7411     91.5963
   976.2500    182.4035     16.0948     17.1296     63.9019     91.8333
   976.5000    183.3287     16.0719     18.3997    102.4021     86.0098
   976.7500    184.3444     15.7551     19.5671    151.1331     78.5579
   977.0000    185.4822     15.2450     20.3998    201.0344     65.3929
   977.2500    186.7574     14.6481     20.6703    238.8799     57.6758
   977.5000    188.1638     14.0480     20.2593    252.5579     50.3505
   977.7500    189.6716     13.4943     19.2256    237.0187     48.6864
   978.0000    191.2312     13.0032     17.7762    197.0637     50.7148
   978.2500    192.7801     12.5652     16.1628    145.0373     54.9537
   978.5000    194.2526     12.1581     14.5902     94.8305     65.4710
   978.7500    195.5905     11.7593     13.1814     55.9674     74.7415
   979.0000    196.7507     11.3542     11.9878     31.1755     90.2127
   979.2500    197.7093     10.9374     11.0142     17.9871    100.3894
   979.5000    198.4610     10.5101     10.2414     12.1075    114.1239
   979.7500    199.0141     10.0788      9.6407      9.9454    121.8860
   980.0000    199.3848      9.6553      9.1815      9.4012    130.9919
   980.2500    199.5919      9.2567      8.8357      9.5277    135.2083
   980.5000    199.6550      8.9030      8.5791      9.9424    138.8047
   980.7500    199.5934      8.6128      8.3929     10.4380    139.4833
   981.0000    199.4267      8.3993      8.2637     10.8432    137.9480
   981.2500    199.1740      8.2687      8.1839     11.0343    135.2888
   981.5000    198.8513      8.2205      8.1496     10.9869    129.4203
   981.7500    198.4692      8.2488      8.1600     10.7980    124.8708
   982.0000    198.0315      8.3432      8.2149     10.6467    118.5477
   982.2500    197.5337      8.4905      8.3136     10.7007    115.6670
   982.5000    196.9644      8.6756      8.4534     11.0213    114.6042
   982.7500    196.3067      8.8844      8.6295     11.5364    115.9738
   983.0000    195.5396      9.1050      8.8357     12.0997    119.3001
   983.2500    194.6414      9.3305      9.0649     12.5860    120.8836
   983.5000    193.5922      9.5595      9.3112     12.9473    120.5374
   983.7500    192.3770      9.7960      9.5706     13.1969    118.3274
   984.0000    190.9890     10.0469      9.8427     13.3569    112.9910
   984.2500    189.4313     10.3198     10.1312     13.4379    108.9143
   984.5000    187.7166     10.6208     10.4432     13.4628    103.3822
   984.7500    185.8653     10.9532     10.7888     13.4785    100.7729
   985.0000    183.9018     11.3165     11.1792     13.5338     99.1468
   985.2500    181.8507     11.7056     11.6249     13.6797     99.3186
   985.5000    179.7355     12.1104     12.1330     14.0180     99.8456
   985.7500    177.5799     12.5163     12.7044     14.7411     99.3112
   986.0000    175.4097     12.9072     13.3306     16.0843     96.1545
   986.2500    173.2539     13.2684     13.9915     18.1870     92.5283
   986.5000    171.1442     13.5905     14.6551     20.9307     85.8665
   986.7500    169.1126     13.8703     15.2811     23.8548     81.5133
   987.0000    167.1887     14.1090     15.8280     26.2383     76.2534
   987.2500    165.3987     14.3082     16.2622     27.3703     73.7234
   987.5000    163.7647     14.4656     16.5643     26.9137     71.0951
   987.7500    162.3049     14.5730     16.7300     25.1493     70.0822
   988.0000    161.0329     14.6163     16.7653     22.8743     70.2021
   988.2500    159.9555     14.5809     16.6790     20.9572     71.8007
   988.5000    159.0705     14.4580     16.4780     19.8597     76.5738
   988.7500    158.3652     14.2500     16.1680     19.4805     80.8070
   989.0000    157.8176     13.9718     15.7571     19.3724     87.2673
   989.2500    157.3999     13.6468     15.2608     19.0917     90.9823
   989.5000    157.0844     13.3034     14.7046     18.4319     95.4111
   989.7500    156.8482     12.9710     14.1226     17.4454     97.8308
   990.0000    156.6786     12.6767     13.5519     16.3103    101.1992
   990.2500    156.5740     12.4405     13.0282     15.1711    103.5822
   990.5000    156.5423     12.2713     12.5807     14.0794    107.7676
   990.7500    156.5965     12.1654     12.2306     13.0590    110.9123
