~Version Information
VERS.                      2.0: CWLS Log ASCII Standard - VERSION 2.0
WRAP.                       NO: One line per depth step
~Well Information Block
STRT.FT               840.0000: 
STOP.FT              2020.0000: 
STEP.FT                 0.1000: 
NULL.                -999.2500: 
COMP.          Petrogulf Corporation: COMPANY
WELL.           Lavedure 7-44R: WELL
FLD.           Purgatorie River: FIELD
LOC.           946' FSL & 521' FEL: LOCATION
PROV.                 Colorado: PROVINCE
CNTY.               Las Animas: COUNTRY
SRVC.                Patterson: SERVICE COMPANY
DATE.          Mon Sep 26 08:30:48 2005: LOG DATE
UWI.                          : UNIQUE WELL ID
~Curve Information Block
DEPT.FT            0 000 00 00: Depth
DCAL.in                       : CDL Caliper
RHOB.g/cc                     : CDL Bulk Density
RHOC.g/cc                     : CDL Density Correction
DPOR.pu                       : CDL Density Porosity
GR.GAPI                       : Gamma Ray
NPOR.pu                       : Neutron Porosity
~Parameter Information Block
~A  Depth       DCAL        RHOB        RHOC        DPOR         GR         NPOR    
# ...
  1540.8000      8.1169      2.5323      0.0514      7.1328    152.8183     28.1204
  1540.9000      8.1169      2.5047      0.0370      8.8075    151.6318     27.7592
  1541.0000      8.1201      2.4907     -0.0058      9.6556    153.3340     27.5456
  1541.1000      8.1201      2.4931     -0.0176      9.5092    157.2381     27.9319
  1541.2000      8.1201      2.5033      0.0054      8.8900    162.8417     28.3807
  1541.3000      8.1199      2.5145      0.0376      8.2141    168.0323     28.3829
  1541.4000      8.1199      2.5254      0.0595      7.5485    170.4918     28.1477
  1541.5000      8.1148      2.5370      0.0295      6.8512    168.9390     28.1100
  1541.6000      8.1148      2.5426      0.0780      6.5089    166.3693     28.4389
  1541.7000      8.1148      2.5364      0.0435      6.8874    166.9187     28.9222
  1541.8000      8.1145      2.5266      0.0321      7.4763    171.2869     29.2646
  1541.9000      8.1145      2.5211      0.0355      7.8099    174.6438     29.3436
  1542.0000      8.1166      2.5174      0.0429      8.0364    172.5896     29.1639
  1542.1000      8.1166      2.5142      0.0365      8.2295    169.1965     28.8933
  1542.2000      8.1166      2.5119      0.0142      8.3708    167.7181     28.6463
  1542.3000      8.1101      2.5081      0.0381      8.6012    165.7814     28.4122
  1542.4000      8.1101      2.5011      0.0187      9.0254    164.6799     28.2700
  1542.5000      8.1117      2.4910      0.0120      9.6346    166.8562     28.3820
  1542.6000      8.1117      2.4761      0.0482     10.5387    169.6144     28.6029
  1542.7000      8.1117      2.4588      0.0042     11.5897    170.9826     28.7175
  1542.8000      8.1149      2.4529     -0.0314     11.9474    171.7767     28.7885
  1542.9000      8.1149      2.4622      0.0058     11.3811    171.3548     29.0065
  1543.0000      8.1054      2.4651      0.0782     11.2073    169.2738     29.4397
  1543.1000      8.1054      2.4516     -0.0212     12.0248    166.8786     29.6794
  1543.2000      8.1054      2.4420     -0.0187     12.6091    165.2684     29.4448
  1543.3000      8.0991      2.4388      0.0341     12.7991    163.8230     29.0943
  1543.4000      8.0991      2.4250      0.0008     13.6337    162.7423     28.9177
  1543.5000      8.0993      2.4004     -0.0294     15.1270    162.7697     28.9187
  1543.6000      8.0993      2.3655     -0.0136     17.2438    161.9834     29.0748
  1543.7000      8.0993      2.3101     -0.0329     20.5980    160.0781     29.1790
  1543.8000      8.0988      2.2386     -0.0459     24.9342    157.9730     29.2080
  1543.9000      8.0988      2.1597     -0.0082     29.7139    155.5665     29.4559
  1544.0000      8.1002      2.0541      0.0022     36.1162    152.4902     29.8689
  1544.1000      8.1002      1.9032     -0.0841     45.2620    146.3622     30.1832
  1544.2000      8.1002      1.7381     -0.1298     55.2638    134.3715     30.4394
  1544.3000      8.0857      1.6132     -0.1584     62.8334    120.5617     30.6936
  1544.4000      8.0857      1.5471     -0.0713     66.8416    111.0930     30.8364
  1544.5000      8.0583      1.5287     -0.0749     67.9586    106.1026     30.8517
  1544.6000      8.0583      1.5614     -0.0803     65.9787    102.7347     31.0242
  1544.7000      8.0583      1.6466      0.0333     60.8101     99.4220     31.4905
  1544.8000      8.0635      1.7652      0.1189     53.6267     98.1953     31.8579
  1544.9000      8.0635      1.9118      0.1427     44.7371    100.0742     32.0525
  1545.0000      8.0720      2.0909      0.1945     33.8849    102.4440     32.3723
  1545.1000      8.0720      2.2671      0.2695     23.2090    105.1344     32.5540
  1545.2000      8.0720      2.3889      0.2888     15.8251    108.5077     32.1796
  1545.3000      8.0987      2.4629      0.1650     11.3370    110.3304     31.4978
  1545.4000      8.0987      2.5316      0.1726      7.1757    111.3983     31.0725
  1545.5000      8.1051      2.5908      0.2185      3.5859    113.8212     30.8571
  1545.6000      8.1051      2.6097      0.0859      2.4440    118.2522     30.3770
  1545.7000      8.1051      2.5938      0.0437      3.4078    124.9101     29.6038
  1545.8000      7.9993      2.5725      0.0248      4.6974    130.9271     28.8032
  1545.9000      7.9993      2.5624      0.0480      5.3067    131.8231     28.0402
  1546.0000      7.9705      2.5619      0.0362      5.3370    126.9779     27.1613
  1546.1000      7.9705      2.5572      0.0223      5.6225    120.6205     26.0625
  1546.2000      7.9705      2.5405      0.0335      6.6361    117.1371     25.0086
  1546.3000      7.9551      2.5307     -0.0156      7.2312    118.4835     24.4065
  1546.4000      7.9551      2.5483      0.0348      6.1608    123.4080     24.3521
  1546.5000      7.9588      2.5804      0.0697      4.2199    129.5886     24.5437
  1546.6000      7.9588      2.6071      0.0832      2.6001    135.7439     24.6138
  1546.7000      7.9588      2.6263      0.1126      1.4352    139.3531     24.4954
  1546.8000      7.9544      2.6315      0.1161      1.1185    137.8354     24.4722
  1546.9000      7.9544      2.6174      0.0981      1.9763    134.7250     24.8021
  1547.0000      7.9457      2.5962      0.0698      3.2608    134.5128     25.3153
  1547.1000      7.9457      2.5822      0.0940      4.1072    135.0612     25.7301
  1547.2000      7.9457      2.5802      0.0767      4.2282    133.3401     25.8283
  1547.3000      7.9460      2.5877      0.0481      3.7746    130.0651     25.5387
  1547.4000      7.9460      2.5910      0.0980      3.5781    127.8057     25.2327
  1547.5000      7.9488      2.5788      0.0699      4.3148    128.2069     25.2747
  1547.6000      7.9488      2.5640      0.0014      5.2134    129.8606     25.6267
  1547.7000      7.9488      2.5625      0.0221      5.3059    130.2399     26.0571
  1547.8000      7.9464      2.5668      0.0535      5.0452    128.9596     26.1724
  1547.9000      7.9464      2.5644      0.0584      5.1903    127.0707     25.8937
  1548.0000      7.9465      2.5596      0.0265      5.4779    124.5165     25.5198
  1548.1000      7.9465      2.5591      0.0447      5.5102    123.4307     25.2723
  1548.2000      7.9465      2.5602      0.0686      5.4419    129.0041     25.2149
  1548.3000      7.9363      2.5623      0.0408      5.3159    139.8027     25.2002
  1548.4000      7.9363      2.5661      0.0434      5.0846    147.1791     25.3986
  1548.5000      7.9404      2.5666      0.0549      5.0561    145.8429     25.9735
  1548.6000      7.9404      2.5616      0.0407      5.3579    140.4940     26.5582
  1548.7000      7.9404      2.5590      0.0391      5.5148    137.8295     26.9421
  1548.8000      7.9385      2.5639      0.0428      5.2172    137.9273     27.1000
  1548.9000      7.9385      2.5712      0.0424      4.7756    137.9700     26.9373
  1549.0000      7.9481      2.5745      0.0528      4.5734    137.7108     26.5881
  1549.1000      7.9481      2.5741      0.0331      4.6004    137.7952     26.3079
  1549.2000      7.9481      2.5751      0.0324      4.5398    137.6384     26.1906
  1549.3000      7.9467      2.5787      0.0469      4.3198    137.2778     26.1629
  1549.4000      7.9467      2.5755      0.1026      4.5161    136.5462     26.0171
  1549.5000      7.9334      2.5601      0.0255      5.4474    135.1422     25.6938
  1549.6000      7.9334      2.5456     -0.0047      6.3262    132.6184     25.4409
  1549.7000      7.9334      2.5387      0.0235      6.7435    129.3252     25.4048
  1549.8000      7.9337      2.5339      0.0263      7.0379    126.8056     25.3473
  1549.9000      7.9337      2.5328      0.0157      7.1059    125.8040     24.9687
  1550.0000      7.9345      2.5420     -0.0154      6.5466    126.4188     24.4294
  1550.1000      7.9345      2.5538      0.0522      5.8275    127.0084     24.1741
  1550.2000      7.9345      2.5526      0.0205      5.9041    126.0117     24.4160
  1550.3000      7.9313      2.5416      0.0264      6.5720    125.2378     24.7919
