~Version Information
 VERS.                                  2.0 : CWLS LAS VERSION
 WRAP.                                   NO : WRAPING MODE
 SWARE .                 MController 2.5.0J : SOFTWARE VERSION
~Well Information
 WELL.                       Rancher 12-35 Tr : WELL
 COMP.    Pioneer Natural Resources USA Inc : COMPANY
 FLD.                      Purgatoire River : FIELD
 LOC.                2242' FNL & 308' FWL SWNW 35 32S 67W : LOCATION
 DATE.                            7/02/2005 : DATE(S) LOGGED
 SRVC.       BLANCO Geological Services LLC : SERVICE COMPANY
 STAT.                                   CO : STATE
 CNTY.                           Las Animas : COUNTY
 CTRY.                                  USA : COUNTRY
 API.                       05-071-08430-00 : API NUMBER
 STRT.FT                             369.00 : START DEPTH
 STOP.FT                            1735.00 : STOP DEPTH
 STEP.FT                               1.00 : DEPTH INCREMENT
 NULL.                                -9999 : NULL VALUE
~Curve information
 DEPTH.FT                                   :
 ROP.MIN/FT                                 :
 GAS.UNITS                                  :
~ASCII Log data
       369.0     -9999.00         -2.1 
       370.0         2.82         -2.1 
       371.0         0.37         -2.6 
       372.0         1.20         -2.6 
       373.0         0.25         -3.0 
       374.0         0.20         -2.8 
       375.0         0.70          1.7 
       376.0         1.00          1.8 
       377.0         0.50          1.7 
       378.0         1.22          1.7 
       379.0         0.97          1.6 
       380.0         0.10          1.2 
       381.0         0.23          1.2 
       382.0         0.17          1.1 
       383.0         0.70          1.4 
       384.0         0.27          1.3 
       385.0         0.23          1.3 
       386.0         0.20          1.1 
       387.0         0.12          1.4 
       388.0         0.27          1.3 
       389.0         0.30          1.3 
       390.0         0.30          1.6 
       391.0         0.20          1.2 
       392.0         0.20          1.2 
       393.0         0.20          1.2 
       394.0         0.23          1.2 
       395.0         0.33          1.4 
       396.0         0.27          1.4 
       397.0         0.17          1.0 
       398.0         0.17          1.3 
       399.0         0.20          1.2 
       400.0         0.20          1.4 
       401.0         0.20          1.2 
       402.0         0.25          1.7 
       403.0         0.27          1.8 
       404.0         0.20          1.8 
       405.0         0.17          1.5 
       406.0         0.17          1.7 
       407.0         0.17          1.7 
       408.0         0.20          1.3 
       409.0         0.20          1.4 
       410.0         0.17          1.1 
       411.0         0.17          1.2 
       412.0         0.17          1.2 
       413.0         0.17          1.5 
       414.0         1.07          1.3 
       415.0         0.12          1.0 
       416.0         0.17          1.1 
       417.0         0.27          1.3 
       418.0         0.27         26.7 
       419.0         0.27        114.6 
       420.0         0.20        129.1 
       421.0         0.23        132.6 
       422.0         0.20        133.6 
       423.0         0.20        133.0 
       424.0         0.17        128.9 
       425.0         0.20        122.7 
       426.0         0.17        114.4 
       427.0         0.17        107.1 
       428.0         0.20         99.9 
       429.0         0.20         90.1 
       430.0         0.20         85.3 
       431.0         0.22         76.5 
       432.0         0.20         71.5 
       433.0         0.20         66.8 
       434.0         0.17         61.0 
       435.0         0.20         57.1 
       436.0         0.23         51.3 
       437.0         0.17         45.5 
       438.0         0.20         42.2 
       439.0         0.23         38.5 
       440.0         0.20         33.7 
       441.0         0.23         30.8 
       442.0         0.23         26.3 
       443.0         0.27         23.2 
       444.0         0.20         19.5 
       445.0         0.30         16.6 
       446.0         0.23          9.0 
       447.0         0.68         44.5 
       448.0         0.53        189.9 
       449.0         0.10        178.0 
       450.0         0.17        123.4 
       451.0         0.37         83.7 
       452.0         0.40         30.5 
       453.0         0.27          8.8 
       454.0         0.23          0.8 
       455.0         0.30          0.1 
       456.0         0.17         -0.8 
       457.0         0.17         -1.2 
       458.0         0.22         -0.7 
       459.0         0.20         -0.8 
       460.0         0.20         -0.9 
       461.0         0.20         -0.6 
       462.0         0.20         -0.6 
       463.0         0.23         -0.6 
       464.0         0.23         -0.2 
       465.0         0.13         -0.5 
       466.0         0.20         -0.3 
       467.0         0.23          0.0 
       468.0         0.20         -0.2 
       469.0         0.20          0.4 
       470.0         0.23          0.0 
       471.0         0.23          0.2 
       472.0         0.20         -0.1 
       473.0         0.23         -0.2 
       474.0         0.25         -0.1 
       475.0         0.20          0.3 
       476.0         2.23         73.5 
       477.0         0.47         72.5 
       478.0         0.32         33.3 
       479.0         0.20         12.0 
       480.0         0.27          7.5 
       481.0         0.23          1.9 
       482.0         0.23          0.2 
       483.0         0.23         -0.2 
       484.0         0.23         -0.3 
       485.0         0.23         -0.3 
       486.0         0.23         -0.3 
       487.0         0.23         -0.3 
       488.0         0.17         -0.1 
       489.0         0.13          0.5 
       490.0         2.38         18.6 
       491.0         0.23         17.8 
       492.0         0.20         13.3 
       493.0         0.27         10.9 
       494.0         0.20          8.9 
       495.0         0.17          7.4 
       496.0         0.20          6.8 
       497.0         0.23          6.7 
       498.0         0.20          6.0 
       499.0         0.18          5.6 
       500.0         0.17          5.8 
       501.0         0.20          5.7 
       502.0         0.17          5.2 
       503.0         0.17          5.3 
       504.0         0.17          4.8 
       505.0         0.20          4.3 
       506.0         1.50         53.7 
       507.0         0.50         43.7 
       508.0         0.45         18.5 
       509.0         0.40         10.0 
       510.0         0.30          6.1 
       511.0         0.23          6.4 
       512.0         0.17         22.5 
       513.0         0.17         59.4 
       514.0         0.17        121.6 
       515.0         0.13        188.0 
       516.0         0.20        221.5 
       517.0         0.17        250.8 
       518.0         0.17        271.5 
       519.0         0.17        281.5 
       520.0         0.17        284.6 
       521.0         0.17        287.4 
       522.0         0.13        288.1 
       523.0         0.17        288.0 
       524.0         0.17        287.9 
       525.0         0.18        287.0 
       526.0         0.17        285.3 
       527.0         0.13        285.1 
       528.0         0.20        284.9 
       529.0         0.17        285.4 
       530.0         0.20        284.5 
       531.0         0.20        285.1 
       532.0         0.20        280.6 
       533.0         0.20        251.2 
       534.0         0.13        215.5 
       535.0         0.20        265.0 
       536.0         1.38       3017.2 
       537.0         0.23       2238.6 
       538.0         0.57       1532.4 
       539.0         0.23       1019.7 
       540.0         0.20        914.5 
       541.0         0.20        856.3 
       542.0         0.17        783.5 
       543.0         0.20        763.9 
       544.0         0.23        723.9 
       545.0         0.17        712.4 
       546.0         0.13        692.9 
       547.0         0.17        681.1 
       548.0         0.17        679.0 
       549.0         0.20        670.3 
       550.0         0.20        664.2 
       551.0         0.17        662.2 
       552.0         0.25        659.5 
       553.0         0.23        653.1 
       554.0         0.27        650.7 
       555.0         0.20        650.4 
       556.0         0.23        640.6 
       557.0         0.17        635.2 
       558.0         0.13        636.9 
       559.0         0.10        640.6 
       560.0         0.50        646.4 
       561.0         0.13        556.1 
       562.0         0.17        657.5 
       563.0         0.27       1014.9 
       564.0         0.07       1095.1 
       565.0         0.43       1758.5 
       566.0         1.55       5228.4 
       567.0         0.40       1679.7 
       568.0         0.20       1092.8 
