~Version Information
VERS.                      2.0: CWLS Log ASCII Standard - VERSION 2.0
WRAP.                       NO: One line per depth step
~Well Information Block
STRT.FT               298.0000: 
STOP.FT              1325.5000: 
STEP.FT                 0.2500: 
NULL.                -999.2500: 
COMP.          Pioneer Natural Resources: COMPANY
WELL.          Santa Fe 43-27 Tr: WELL
FLD.           Purgatoire River: FIELD
LOC.           2018' FSL & 534' FEL: LOCATION
PROV.                 Colorado: PROVINCE
CNTY.               Las Animas: COUNTRY
SRVC.                Patterson: SERVICE COMPANY
DATE.          Tue Mar 08 10:44:11 2005: LOG DATE
UWI.           05 071 08303 00: UNIQUE WELL ID
~Curve Information Block
DEPT.FT            0 000 00 00: Depth
SN.Ohm-m                      : IEL Short Normal
SP.mV                         : IEL Spontaneous Potential
DIR.Ohm-m                     : IEL Induction Resistivity
GR.GAPI                       : Gamma Ray
~Parameter Information Block
~A  Depth        SN          SP         DIR          GR     
# ...
  1169.0000     10.4758     59.1495      9.0610    114.2540
  1169.2500     11.0772     59.1941      9.2557    110.5902
  1169.5000     11.7654     59.2396      9.4855    104.6249
  1169.7500     12.4836     59.3055      9.7651    101.1375
  1170.0000     13.1635     59.3994     10.0993     97.3904
  1170.2500     13.7765     59.5074     10.4842     95.9984
  1170.5000     14.3291     59.5968     10.9137     95.6430
  1170.7500     14.8219     59.6298     11.3824     96.5492
  1171.0000     15.2317     59.5760     11.8843     99.3929
  1171.2500     15.5553     59.4205     12.4087    102.0531
  1171.5000     15.8516     59.1680     12.9402    106.5458
  1171.7500     16.2037     58.8411     13.4604    109.1992
  1172.0000     16.6403     58.4694     13.9493    111.3119
  1172.2500     17.1185     58.0762     14.3870    111.1380
  1172.5000     17.5792     57.6749     14.7569    109.2691
  1172.7500     18.0074     57.2772     15.0503    107.8152
  1173.0000     18.4310     56.8982     15.2674    106.4719
  1173.2500     18.8678     56.5486     15.4116    106.4066
  1173.5000     19.2752     56.2262     15.4816    107.5718
  1173.7500     19.5468     55.9168     15.4692    109.1779
  1174.0000     19.5842     55.6016     15.3685    113.0595
  1174.2500     19.3928     55.2625     15.1868    116.7106
  1174.5000     19.0739     54.8872     14.9446    122.7273
  1174.7500     18.7067     54.4760     14.6645    125.5933
  1175.0000     18.2713     54.0460     14.3608    125.8196
  1175.2500     17.7013     53.6269     14.0388    123.2797
  1175.5000     16.9927     53.2516     13.7008    117.9069
  1175.7500     16.2453     52.9466     13.3495    114.8588
  1176.0000     15.6165     52.7247     12.9874    112.0737
  1176.2500     15.2149     52.5815     12.6172    111.0950
  1176.5000     14.9992     52.4983     12.2462    110.1793
  1176.7500     14.8155     52.4497     11.8899    109.7444
  1177.0000     14.5529     52.4101     11.5689    109.3373
  1177.2500     14.2136     52.3637     11.3019    109.3035
  1177.5000     13.8553     52.3160     11.1002    109.9441
  1177.7500     13.5302     52.2951     10.9663    111.0691
  1178.0000     13.2722     52.3357     10.8951    113.7543
  1178.2500     13.1021     52.4570     10.8764    115.7134
  1178.5000     13.0164     52.6547     10.8992    117.5967
  1178.7500     12.9838     52.9046     10.9575    117.5185
  1179.0000     12.9790     53.1723     11.0528    114.9113
  1179.2500     13.0100     53.4257     11.1915    111.4578
  1179.5000     13.1311     53.6480     11.3801    103.8072
  1179.7500     13.4781     53.8436     11.6225     97.2740
  1180.0000     14.2430     54.0325     11.9230     86.0651
  1180.2500     15.5014     54.2340     12.2903     78.2923
  1180.5000     17.0842     54.4525     12.7368     67.5206
  1180.7500     18.7377     54.6733     13.2718     61.7496
  1181.0000     20.3801     54.8739     13.8904     56.3605
  1181.2500     22.0697     55.0387     14.5632     55.1934
  1181.5000     23.7714     55.1702     15.2338     56.1877
  1181.7500     25.2880     55.2866     15.8244     57.3841
  1182.0000     26.3690     55.4098     16.2499     57.4867
  1182.2500     26.8176     55.5523     16.4379     55.6580
  1182.5000     26.6188     55.7096     16.3486     50.8225
  1182.7500     26.0237     55.8616     15.9912     47.6776
  1183.0000     25.3666     55.9823     15.4248     46.0641
  1183.2500     24.7009     56.0562     14.7414     48.2970
  1183.5000     23.7154     56.0948     14.0342     57.1719
  1183.7500     22.1227     56.1391     13.3690     66.2537
  1184.0000     20.0427     56.2417     12.7732     82.6123
  1184.2500     17.8932     56.4385     12.2433     93.6857
  1184.5000     16.0240     56.7290     11.7621    107.6511
  1184.7500     14.5631     57.0812     11.3144    114.2019
  1185.0000     13.4863     57.4533     10.8931    120.2476
  1185.2500     12.7163     57.8175     10.4977    122.8223
  1185.5000     12.1828     58.1696     10.1301    126.0326
  1185.7500     11.8327     58.5264      9.7927    127.8334
  1186.0000     11.6166     58.9181      9.4891    129.2670
  1186.2500     11.4897     59.3785      9.2246    129.0792
  1186.5000     11.4207     59.9282      9.0058    127.3412
  1186.7500     11.3905     60.5562      8.8400    125.5288
  1187.0000     11.3854     61.2179      8.7319    122.2333
  1187.2500     11.3973     61.8572      8.6806    120.0137
  1187.5000     11.4263     62.4308      8.6788    117.8451
  1187.7500     11.4717     62.9186      8.7152    117.8291
  1188.0000     11.5259     63.3211      8.7786    119.8651
  1188.2500     11.5833     63.6534      8.8606    121.7805
  1188.5000     11.6370     63.9345      8.9560    124.0099
  1188.7500     11.6685     64.1756      9.0606    124.8847
  1189.0000     11.6525     64.3759      9.1708    126.2505
  1189.2500     11.5827     64.5298      9.2860    127.7920
  1189.5000     11.4928     64.6356      9.4101    130.6587
  1189.7500     11.4506     64.6996      9.5497    131.8623
  1190.0000     11.5293     64.7310      9.7100    130.9480
  1190.2500     11.7769     64.7311      9.8916    128.5993
  1190.5000     12.1938     64.6862     10.0922    124.3265
  1190.7500     12.7236     64.5714     10.3125    122.1463
  1191.0000     13.2844     64.3662     10.5596    120.4948
  1191.2500     13.8250     64.0717     10.8466    120.0163
  1191.5000     14.3460     63.7160     11.1885    119.2246
  1191.7500     14.8783     63.3424     11.5978    118.4841
  1192.0000     15.4476     62.9888     12.0816    117.3394
  1192.2500     16.0552     62.6718     12.6417    116.4974
  1192.5000     16.7112     62.3833     13.2757    114.1285
  1192.7500     17.4595     62.1007     13.9783    111.1355
  1193.0000     18.3430     61.8001     14.7425    104.3913
  1193.2500     19.3855     61.4669     15.5589     99.0972
  1193.5000     20.6047     61.1019     16.4144     91.6526
  1193.7500     22.0138     60.7199     17.2880     87.6140
  1194.0000     23.6303     60.3429     18.1450     82.8400
  1194.2500     25.4410     59.9887     18.9313     80.1918
  1194.5000     27.3146     59.6632     19.5745     76.9347
  1194.7500     29.0234     59.3588     19.9998     75.4845
  1195.0000     30.3685     59.0586     20.1624     74.7634
  1195.2500     31.2186     58.7389     20.0709     75.3283
  1195.5000     31.4479     58.3725     19.7789     77.8675
  1195.7500     30.9260     57.9361     19.3512     80.8453
  1196.0000     29.6253     57.4253     18.8351     87.4822
  1196.2500     27.7359     56.8652     18.2571     93.2952
  1196.5000     25.6307     56.3061     17.6353    103.4145
  1196.7500     23.6652     55.8019     16.9895    110.3412
  1197.0000     21.9954     55.3827     16.3389    119.3364
  1197.2500     20.6008     55.0370     15.6958    123.5034
  1197.5000     19.4301     54.7163     15.0634    126.2606
  1197.7500     18.4655     54.3636     14.4410    126.0411
  1198.0000     17.6978     53.9417     13.8317    124.2363
  1198.2500     17.1017     53.4431     13.2478    123.3019
  1198.5000     16.6217     52.8823     12.7107    123.7400
  1198.7500     16.1729     52.2831     12.2462    125.0768
  1199.0000     15.6910     51.6694     11.8764    126.9117
  1199.2500     15.1921     51.0622     11.6126    127.1324
  1199.5000     14.7659     50.4799     11.4532    125.9663
  1199.7500     14.5123     49.9387     11.3870    124.7423
  1200.0000     14.4857     49.4506     11.4011    122.5232
  1200.2500     14.6760     49.0253     11.4853    120.3866
  1200.5000     15.0164     48.6766     11.6316    115.9298
  1200.7500     15.4172     48.4234     11.8312    112.8314
  1201.0000     15.8127     48.2777     12.0729    109.6875
  1201.2500     16.1850     48.2239     12.3464    108.7905
  1201.5000     16.5496     48.2192     12.6475    108.0245
  1201.7500     16.9245     48.2229     12.9766    107.2421
  1202.0000     17.3191     48.2288     13.3335    105.8419
  1202.2500     17.7528     48.2684     13.7112    105.1986
