~Version Information
VERS.                      2.0: CWLS Log ASCII Standard - VERSION 2.0
WRAP.                       NO: One line per depth step
~Well Information Block
STRT.FT                 5.0000: 
STOP.FT              1874.2500: 
STEP.FT                 0.2500: 
NULL.                -999.2500: 
COMP.          Pioneer Natural Resources: COMPANY
WELL.           Stampede 42-18: WELL
FLD.           Purgatoire River: FIELD
LOC.           2479' FNL & 160' FEL--: LOCATION
CNTY.               Las Animas: COUNTY
SRVC.          Superior Well Services: SERVICE COMPANY
DATE.          Mon Jun 25 12:19:16 2007: LOG DATE
UWI.                          : UNIQUE WELL ID
STAT.                 Colorado: STATE
~Curve Information Block
DEPT.FT            0 000 00 00: Depth
GR.GAPI                       : Gamma Ray
CCL.                          : Casing Collar Locator
TT3.usec                      : CBL 3' Travel Time
AMP3.mV                       : CBL 3' Amplitude
AMP5.mV                       : CBL 5' Amplitude
~Parameter Information Block
~A  Depth        GR         CCL         TT3         AMP3        AMP5    
# ...
   985.0000    159.9718      0.0000    647.9680      5.0327      2.5129
   985.2500    161.2199      0.0000    639.0714      4.9857      2.5179
   985.5000    159.9969      0.0000    623.1745      4.9413      2.5245
   985.7500    156.5872      0.0000    603.5787      4.8940      2.5246
   986.0000    152.3882      0.0000    581.6503      4.8463      2.5159
   986.2500    149.3557      0.0000    558.0482      4.8057      2.5014
   986.5000    148.3030      0.0000    534.7868      4.7785      2.4875
   986.7500    148.2633      0.0000    515.1379      4.7667      2.4790
   987.0000    147.7112      0.0000    501.4033      4.7664      2.4764
   987.2500    145.9095      0.0000    493.4458      4.7672      2.4760
   987.5000    143.1522      0.0000    489.4607      4.7574      2.4747
   987.7500    140.2581      0.0000    487.5920      4.7324      2.4731
   988.0000    138.0086      0.0000    486.8964      4.6970      2.4733
   988.2500    136.9068      0.0000    487.6794      4.6587      2.4753
   988.5000    137.0847      0.0000    491.7951      4.6198      2.4770
   988.7500    138.0685      0.0000    502.7463      4.5759      2.4768
   989.0000    138.8622      0.0000    524.3231      4.5213      2.4747
   989.2500    138.6953      0.0000    557.3674      4.4516      2.4715
   989.5000    137.4665      0.0000    597.2928      4.3656      2.4694
   989.7500    135.1096      0.0000    635.9329      4.2662      2.4716
   990.0000    130.9526      0.0000    666.6512      4.1622      2.4809
   990.2500    124.2540      0.0000    687.4253      4.0653      2.4960
   990.5000    115.0946      0.0000    699.6208      3.9836      2.5108
   990.7500    104.3149      0.0000    705.4194      3.9197      2.5197
   991.0000     92.9701      0.0000    706.6581      3.8710      2.5215
   991.2500     82.3041      0.0000    704.7831      3.8348      2.5184
   991.5000     73.8544      0.0000    701.0397      3.8104      2.5119
   991.7500     68.9823      0.0000    696.8453      3.8007      2.5024
   992.0000     68.2948      0.0000    694.0275      3.8102      2.4928
   992.2500     71.5183      0.0000    694.1993      3.8433      2.4901
   992.5000     77.6427      0.0000    697.6735      3.9033      2.5013
   992.7500     85.2711      0.0000    703.1228      3.9898      2.5261
   993.0000     93.2348      0.0000    708.1805      4.0949      2.5541
   993.2500    100.8686      0.0000    710.3826      4.2017      2.5713
   993.5000    107.6371      0.0000    708.4711      4.2901      2.5703
   993.7500    112.9014      0.0000    703.7130      4.3483      2.5537
   994.0000    116.2878      0.0000    699.4536      4.3785      2.5318
   994.2500    118.0169      0.0000    698.4154      4.3905      2.5145
   994.5000    118.6352      0.0000    700.4039      4.3938      2.5067
   994.7500    118.6206      0.0000    702.9347      4.3931      2.5071
   995.0000    118.5522      0.0000    703.7827      4.3875      2.5129
   995.2500    119.4298      0.0000    702.6196      4.3715      2.5222
   995.5000    122.2019      0.0000    700.5082      4.3386      2.5299
   995.7500    126.7292      0.0000    698.4897      4.2883      2.5284
   996.0000    131.3599      0.0000    697.0751      4.2257      2.5144
   996.2500    133.5813      0.0000    696.7151      4.1549      2.4931
   996.5000    131.2400      0.0000    697.8140      4.0742      2.4724
   996.7500    123.6530      0.0000    699.8842      3.9783      2.4547
   997.0000    112.1155      0.0000    701.1812      3.8654      2.4383
   997.2500     99.3299      0.0000    699.5772      3.7392      2.4248
   997.5000     87.9342      0.0000    693.9753      3.6068      2.4197
   997.7500     79.2427      0.0000    685.3076      3.4748      2.4244
   998.0000     73.2205      0.0000    676.3527      3.3504      2.4321
   998.2500     69.3100      0.0000    670.0203      3.2447      2.4330
   998.5000     66.9716      0.0000    667.3242      3.1708      2.4240
   998.7500     65.7300      0.0000    667.1068      3.1375      2.4109
   999.0000     65.3180      0.0000    667.5876      3.1430      2.4019
   999.2500     65.9393      0.0000    667.7245      3.1734      2.4014
   999.5000     68.2717      0.0000    667.2805      3.2111      2.4089
   999.7500     73.1228      0.0000    666.5176      3.2495      2.4225
  1000.0000     81.0215      0.0000    666.3628      3.3003      2.4390
  1000.2500     91.8894      0.0000    668.3128      3.3873      2.4543
  1000.5000    104.7865      0.0000    673.1533      3.5280      2.4640
  1000.7500    117.9104      0.0000    679.5548      3.7161      2.4660
  1001.0000    129.1544      0.0000    684.6120      3.9200      2.4603
  1001.2500    136.9762      0.0000    686.2125      4.1002      2.4490
  1001.5000    140.8458      0.0000    684.6898      4.2285      2.4338
  1001.7500    141.0379      0.0000    682.1245      4.2911      2.4172
  1002.0000    138.2805      0.0000    680.3780      4.2792      2.4027
  1002.2500    133.4574      0.0000    679.6862      4.1887      2.3935
  1002.5000    127.1831      0.0000    678.5250      4.0310      2.3897
  1002.7500    119.6086      0.0000    674.7311      3.8375      2.3876
  1003.0000    110.8857      0.0000    667.4169      3.6460      2.3857
  1003.2500    101.7393      0.0000    658.0649      3.4801      2.3860
  1003.5000     93.4534      0.0000    649.3502      3.3401      2.3906
  1003.7500     87.4702      0.0000    642.9075      3.2135      2.3964
  1004.0000     85.0117      0.0000    638.5834      3.0928      2.3975
  1004.2500     86.4773      0.0000    635.4977      2.9851      2.3923
  1004.5000     90.8566      0.0000    633.1775      2.9083      2.3864
  1004.7500     96.1490      0.0000    631.7242      2.8793      2.3870
  1005.0000    100.8662      0.0000    631.3439      2.9035      2.3969
  1005.2500    105.0143      0.0000    631.8441      2.9711      2.4125
  1005.5000    109.5072      0.0000    632.5235      3.0616      2.4288
  1005.7500    114.9571      0.0000    632.6292      3.1526      2.4437
  1006.0000    121.1569      0.0000    632.1387      3.2287      2.4597
  1006.2500    127.3630      0.0000    632.2472      3.2903      2.4793
  1006.5000    132.9337      0.0000    635.1548      3.3564      2.5006
  1006.7500    137.8134      0.0000    643.0516      3.4573      2.5180
  1007.0000    142.2545      0.0000    656.6666      3.6153      2.5284
  1007.2500    146.1297      0.0000    674.3365      3.8255      2.5349
  1007.5000    149.0016      0.0000    692.5210      4.0542      2.5448
  1007.7500    150.8315      1.5396    707.5243      4.2571      2.5623
  1008.0000    152.0167      0.6897    716.9530      4.4042      2.5870
  1008.2500    152.6676      0.0000    719.9023      4.4948      2.6159
  1008.5000    152.6086      0.0000    716.4531      4.5537      2.6465
  1008.7500    152.4152      0.0000    707.8094      4.6066      2.6764
  1009.0000    153.6067      0.0000    696.7070      4.6523      2.7019
  1009.2500    157.0212      0.0000    685.9111      4.6658      2.7191
  1009.5000    161.6137      0.0000    675.2340      4.6352      2.7272
  1009.7500    165.6503      0.0000    660.9304      4.5821      2.7254
  1010.0000    168.6104      0.0000    639.2994      4.5439      2.7074
  1010.2500    171.1744      0.0000    610.8418      4.5414      2.6651
  1010.5000    173.7710      0.0000    580.5965      4.5677      2.6010
  1010.7500    175.8610      0.0000    555.1339      4.5994      2.5333
  1011.0000    176.3382      0.0000    539.4135      4.6129      2.4835
  1011.2500    174.1787      0.0000    534.9556      4.5958      2.4605
  1011.5000    169.1084      0.0000    539.7011      4.5510      2.4565
  1011.7500    162.2289      0.0000    549.4955      4.4957      2.4576
  1012.0000    155.8144      0.0000    559.7309      4.4513      2.4553
  1012.2500    152.0025      0.0000    566.3947      4.4305      2.4507
  1012.5000    151.3462      0.0000    567.0911      4.4317      2.4489
  1012.7500    152.4067      0.0000    561.5436      4.4470      2.4535
