~Version Information
VERS.                      2.0: CWLS Log ASCII Standard - VERSION 2.0
WRAP.                       NO: One line per depth step
~Well Information Block
STRT.FT                -5.7500: 
STOP.FT              1965.7500: 
STEP.FT                 0.2500: 
NULL.                -999.2500: 
COMP.          Pioneer Natural Resources: COMPANY
WELL.          Easton 12-30 Tr: WELL
FLD.           Purgatorie River: FIELD
LOC.           549' FWL & 2416' FNL--: LOCATION
PROV.                       CO: PROVINCE
CNTY.               Las Animas: COUNTRY
SRVC.          Patterson Wireline: SERVICE COMPANY
DATE.          Mon Jun 06 16:13:03 2005: LOG DATE
UWI.           05 071 08379 00: UNIQUE WELL ID
~Curve Information Block
DEPT.FT            0 000 00 00: Depth
CCL.                          : Casing Collar Locator
TT3.usec                      : CBL 3' Travel Time
AMP3.mV                       : CBL 3' Amplitude
GR.GAPI                       : Gamma Ray
~Parameter Information Block
~A  Depth       CCL         TT3         AMP3         GR     
# ...
   496.7500      0.0000    741.1205     11.3740    117.4820
   497.0000      0.0000    733.9927     11.3705    118.2377
   497.2500      0.0000    733.6179     11.3517    120.4439
   497.5000      0.0000    739.1403     11.3235    123.1160
   497.7500      0.0000    749.9331     11.2819    125.0594
   498.0000      0.0000    764.9467     11.2105    125.8837
   498.2500      0.0000    780.5443     11.0954    126.4719
   498.5000      0.0000    791.4612     10.9438    127.6603
   498.7500      0.0000    795.0746     10.7870    128.6832
   499.0000      0.0000    793.8239     10.6632    127.9809
   499.2500      0.0000    792.6575     10.5949    125.4228
   499.5000      0.0000    794.2266     10.5839    122.4809
   499.7500      0.0000    796.4865     10.6224    120.2220
   500.0000      0.0000    794.6520     10.6984    118.3975
   500.2500      0.0000    785.8080     10.7881    116.6845
   500.5000      0.0000    771.9365     10.8585    115.4970
   500.7500      0.0000    758.3419     10.8889    115.1244
   501.0000      0.0000    749.3826     10.8896    114.9944
   501.2500      0.0000    746.0228     10.8909    114.3315
   501.5000      0.0000    746.7607     10.9163    113.2285
   501.7500      0.0000    749.4035     10.9661    112.8089
   502.0000      0.0000    751.5466     11.0205    114.1837
   502.2500      0.0000    750.7831     11.0550    117.1605
   502.5000      0.0000    746.3486     11.0552    120.2717
   502.7500      0.0000    740.7796     11.0270    122.3204
   503.0000      0.0000    738.5207     10.9966    123.4780
   503.2500      0.0000    741.7390     10.9935    124.5355
   503.5000      0.0000    747.8883     11.0261    125.5716
   503.7500      0.0000    752.2173     11.0710    125.9322
   504.0000      0.0000    752.7994     11.0855    125.1951
   504.2500      0.0000    752.2823     11.0309    123.6399
   504.5000      0.0000    754.2137     10.8801    121.8724
   504.7500      0.0000    758.4764     10.6011    120.3743
   505.0000      0.0000    761.6310     10.1501    119.3666
   505.2500      0.0000    761.7343      9.5077    118.7322
   505.5000      0.0000    761.7921      8.7421    117.8723
   505.7500      0.0000    768.1816      8.0238    115.8038
   506.0000      0.0000    785.6711      7.5561    111.5649
   506.2500      0.0000    813.3371      7.4606    104.7989
   506.5000      0.0000    844.8999      7.6995     96.3700
   506.7500      0.0000    873.1395      8.0989     88.4915
   507.0000      0.0000    894.3677      8.4607     83.7415
   507.2500     -2.0000    908.4988      8.6668     83.6218
   507.5000      0.0000    914.6941      8.7036     88.0845
   507.7500      0.0000    907.5311      8.6504     96.0540
   508.0000      0.0000    879.7971      8.6803    105.8708
   508.2500      0.0000    831.9883      9.0051    115.4444
   508.5000      0.0000    778.9346      9.7064    122.7097
   508.7500      0.0000    742.1754     10.6169    126.5336
   509.0000      0.0000    732.0898     11.4472    127.4135
   509.2500      0.0000    739.7798     12.0286    127.1367
   509.5000      0.0000    748.5297     12.3802    127.6421
   509.7500      0.0000    749.6686     12.5845    130.1446
   510.0000      0.0000    745.4438     12.6890    134.8937
   510.2500      0.0000    741.4094     12.7135    141.1495
   510.5000      0.0000    740.1750     12.6800    147.3639
   510.7500      0.0000    740.8140     12.6121    151.8745
   511.0000      0.0000    741.1693     12.5263    153.6904
   511.2500      0.0000    739.8884     12.4358    152.6482
   511.5000      0.0000    737.2180     12.3570    149.0911
   511.7500      0.0000    734.5588     12.3050    143.8182
   512.0000      0.0000    733.4026     12.2815    138.0443
   512.2500      0.0000    734.2710     12.2704    132.6284
   512.5000      0.0000    736.2598     12.2525    127.5463
   512.7500      0.0000    737.5080     12.2229    122.7926
   513.0000      0.0000    736.4460     12.1916    119.0879
   513.2500      0.0000    732.9722     12.1673    116.6697
   513.5000      0.0000    728.4428     12.1457    114.3515
   513.7500      0.0000    724.3907     12.1164    111.2033
   514.0000      0.0000    721.4849     12.0768    108.4522
   514.2500      0.0000    719.8648     12.0355    108.2295
   514.5000      0.0000    719.8878     12.0025    110.8465
   514.7500      0.0000    721.9225     11.9796    114.4919
   515.0000      0.0000    725.7194     11.9599    117.1975
   515.2500      0.0000    730.4056     11.9384    118.2541
   515.5000      0.0000    734.8581     11.9179    118.2404
   515.7500      0.0000    737.8898     11.9050    118.6515
   516.0000      0.0000    738.4644     11.9012    121.3236
   516.2500      0.0000    736.2021     11.9007    127.4187
   516.5000      0.0000    731.7800     11.8937    136.5943
   516.7500      0.0000    726.5902     11.8742    147.1664
   517.0000      0.0000    721.3949     11.8437    156.8938
   517.2500      0.0000    714.7839     11.8087    163.6303
   517.5000      0.0000    702.6923     11.7753    165.9545
   517.7500      0.0000    679.8502     11.7500    163.7872
   518.0000      0.0000    644.2670     11.7438    158.3327
   518.2500      0.0000    603.4063     11.7685    151.3408
   518.5000      0.0000    574.2425     11.8239    144.5056
   518.7500      0.0000    570.8479     11.8920    139.3317
   519.0000      0.0000    588.8589     11.9514    136.9405
   519.2500      0.0000    605.1615     11.9983    137.4132
   519.5000      0.0000    595.5177     12.0499    139.2613
   519.7500      0.0000    552.9921     12.1251    140.2557
   520.0000      0.0000    491.1314     12.2257    139.2263
   520.2500      0.0000    431.7421     12.3347    136.6786
   520.5000      0.0000    389.6870     12.4298    133.3696
   520.7500      0.0000    367.0727     12.4979    128.8565
   521.0000      0.0000    358.3015     12.5416    122.0457
   521.2500      0.0000    358.2044     12.5758    112.9776
   521.5000      0.0000    366.8013     12.6153    103.5646
   521.7500      0.0000    389.4240     12.6637     96.2817
   522.0000      0.0000    432.3734     12.7114     92.1826
   522.2500      0.0000    495.6051     12.7449     90.4009
   522.5000      0.0000    568.5972     12.7566     89.3571
   522.7500      0.0000    635.3671     12.7438     87.8334
   523.0000      0.0000    684.6425     12.7009     84.9229
   523.2500      0.0000    714.8629     12.6164     79.9649
   523.5000      0.0000    730.8928     12.4830     73.2230
   523.7500      0.0000    738.5188     12.3107     66.1098
   524.0000      0.0000    741.8199     12.1277     60.0811
   524.2500      0.0000    743.1119     11.9659     55.4843
   524.5000      0.0000    743.5640     11.8431     51.7621
   524.7500      0.0000    743.7073     11.7578     48.4672
   525.0000      0.0000    743.7801     11.6986     45.7316
   525.2500      0.0000    743.8801     11.6533     44.0438
   525.5000      0.0000    744.0250     11.6082     44.2086
   525.7500      0.0000    744.1420     11.5432     47.4645
   526.0000      0.0000    744.0312     11.4421     54.8809
   526.2500      0.0000    743.3247     11.3078     66.1899
   526.5000      0.0000    741.5519     11.1633     79.6182
   526.7500      0.0000    738.3903     11.0339     93.2732
   527.0000      0.0000    733.9347     10.9339    106.4494
   527.2500      0.0000    728.6608     10.8658    119.3030
   527.5000      0.0000    723.1629     10.8240    131.5465
   527.7500      0.0000    718.0993     10.7962    142.0592
   528.0000      0.0000    714.3146     10.7711    149.9667
   528.2500      0.0000    712.5880     10.7446    155.6743
   528.5000      0.0000    712.9850     10.7129    160.2919
   528.7500      0.0000    714.5411     10.6667    164.1034
   529.0000      0.0000    715.8992     10.5990    166.2294
   529.2500      0.0000    716.4346     10.5172    165.9658
   529.5000      0.0000    716.5492     10.4428    163.7566
   529.7500      0.0000    716.7426     10.3991    160.4423
   530.0000      0.0000    716.9100     10.4019    156.1788
