~Version Information
VERS.                      2.0: CWLS Log ASCII Standard - VERSION 2.0
WRAP.                       NO: One line per depth step
~Well Information Block
STRT.FT               480.0000: 
STOP.FT              1625.5000: 
STEP.FT                 0.1000: 
NULL.                -999.2500: 
COMP.          Pioneer Natural Resources: COMPANY
WELL.          Dude Canyon 22-32 Tr: WELL
FLD.           Purgatoire River: FIELD
LOC.           1741' FNL & 2331' FWL: LOCATION
PROV.                 Colorado: PROVINCE
CNTY.               Las Animas: COUNTRY
SRVC.                Patterson: SERVICE COMPANY
DATE.          Mon Jul 11 10:33:06 2005: LOG DATE
UWI.           05 071 08421 00: UNIQUE WELL ID
~Curve Information Block
DEPT.FT            0 000 00 00: Depth
DCAL.in                       : CDL Caliper
RHOB.g/cc                     : CDL Bulk Density
RHOC.g/cc                     : CDL Density Correction
DPOR.pu                       : CDL Density Porosity
GR.GAPI                       : Gamma Ray
NPOR.pu                       : Neutron Porosity
~Parameter Information Block
~A  Depth       DCAL        RHOB        RHOC        DPOR         GR         NPOR    
# ...
   777.6000      8.1487      2.3846      0.1593     16.0838    123.3907     34.1139
   777.7000      8.1487      2.4237      0.1342     13.7159    120.7502     33.2908
   777.8000      8.1605      2.4353      0.1494     13.0125    119.9172     31.6003
   777.9000      8.1605      2.4350      0.1308     13.0305    126.2144     30.2035
   778.0000      8.1511      2.4377      0.1142     12.8670    139.2434     29.9778
   778.1000      8.1511      2.4525      0.0979     11.9703    152.3678     30.2761
   778.2000      8.1511      2.4771      0.0814     10.4808    157.3171     30.0067
   778.3000      8.1502      2.4984      0.0906      9.1892    151.0664     29.3419
   778.4000      8.1502      2.5103      0.0810      8.4688    136.3992     29.2700
   778.5000      8.1465      2.5165      0.1199      8.0936    123.0183     29.8166
   778.6000      8.1465      2.5157      0.0974      8.1421    120.4068     30.1775
   778.7000      8.1465      2.5081      0.0567      8.6005    124.9350     30.1801
   778.8000      8.1333      2.4963      0.0835      9.3166    128.6166     30.0934
   778.9000      8.1333      2.4770      0.0887     10.4839    131.4329     30.3494
   779.0000      8.1197      2.4600      0.0682     11.5127    136.2695     31.2133
   779.1000      8.1197      2.4625      0.0897     11.3630    143.9132     31.9208
   779.2000      8.1197      2.4772      0.1312     10.4744    149.8819     32.1498
   779.3000      8.1186      2.4787      0.1338     10.3805    150.5684     32.8989
   779.4000      8.1186      2.4501      0.1249     12.1167    150.0804     33.9642
   779.5000      8.1358      2.3953      0.0870     15.4381    152.4090     34.0459
   779.6000      8.1358      2.3405      0.0292     18.7567    153.4379     33.0619
   779.7000      8.1358      2.3070      0.0288     20.7867    149.4680     31.5669
   779.8000      8.0912      2.2916      0.0307     21.7229    145.3885     30.2492
   779.9000      8.0912      2.2836      0.0523     22.2051    143.1693     30.3311
   780.0000      8.1289      2.2833      0.0299     22.2256    139.1894     31.6013
   780.1000      8.1289      2.2941      0.0686     21.5669    137.1189     32.1857
   780.2000      8.1289      2.3129      0.0866     20.4284    140.3953     31.3913
   780.3000      8.1410      2.3366      0.0699     18.9910    141.4694     30.8772
   780.4000      8.1410      2.3579      0.0927     17.7025    137.4568     31.4651
   780.5000      8.1354      2.3603      0.0984     17.5549    136.1577     31.9283
   780.6000      8.1354      2.3416      0.0297     18.6890    140.5641     31.6247
   780.7000      8.1354      2.3142      0.0616     20.3500    147.5780     31.2590
   780.8000      8.1146      2.2845      0.0473     22.1541    152.8333     31.0188
   780.9000      8.1146      2.2545      0.0278     23.9717    150.5730     30.3582
   781.0000      8.1358      2.2294     -0.0262     25.4919    141.7683     29.2915
   781.1000      8.1358      2.2178      0.0112     26.1922    132.9213     28.4750
   781.2000      8.1358      2.2171      0.0662     26.2376    129.3331     28.6519
   781.3000      8.1524      2.2140      0.0908     26.4224    132.4392     29.8176
   781.4000      8.1524      2.2066      0.0488     26.8700    138.3357     31.0428
   781.5000      8.1509      2.1945      0.1308     27.6074    140.0163     31.9138
   781.6000      8.1509      2.1676      0.1068     29.2340    136.1315     32.5617
   781.7000      8.1509      2.1332      0.0272     31.3241    132.1567     32.8594
   781.8000      8.1518      2.1043      0.0355     33.0710    130.5094     32.6734
   781.9000      8.1518      2.0752      0.0427     34.8359    131.1710     32.1810
   782.0000      8.1485      2.0407     -0.0023     36.9245    133.0505     31.6324
   782.1000      8.1485      2.0091      0.0464     38.8448    135.2746     31.4516
   782.2000      8.1485      1.9904      0.0428     39.9767    136.1763     31.8537
   782.3000      8.1691      1.9942      0.0436     39.7479    134.2628     32.5755
   782.4000      8.1691      2.0314      0.0099     37.4925    131.2663     33.3902
   782.5000      8.1752      2.1026      0.1071     33.1757    128.4252     33.6095
   782.6000      8.1752      2.1792      0.1495     28.5329    129.0119     32.8430
   782.7000      8.1752      2.2270      0.1708     25.6377    134.8071     31.9509
   782.8000      8.1757      2.2480      0.1079     24.3646    138.4086     31.6605
   782.9000      8.1757      2.2654      0.1330     23.3110    131.9515     31.7954
   783.0000      8.1561      2.2829      0.1356     22.2497    119.0766     31.7761
   783.1000      8.1561      2.2919      0.1038     21.7034    108.5062     31.1697
   783.2000      8.1561      2.2899      0.0389     21.8270    107.3246     30.3692
   783.3000      8.1781      2.2841     -0.0155     22.1768    116.0452     30.1313
   783.4000      8.1781      2.2804      0.0296     22.4026    126.8157     30.6792
   783.5000      8.2097      2.2788      0.0209     22.4977    134.1003     31.6419
   783.6000      8.2097      2.2975     -0.0057     21.3662    133.9958     32.1869
   783.7000      8.2097      2.3507      0.1098     18.1384    127.4745     31.9489
   783.8000      8.1988      2.4078      0.1289     14.6803    125.3043     31.9506
   783.9000      8.1988      2.4285      0.1281     13.4244    131.2545     32.1904
   784.0000      8.1556      2.4136      0.1195     14.3252    135.9410     31.7198
   784.1000      8.1556      2.3962      0.0118     15.3793    134.5542     31.1228
   784.2000      8.1556      2.3910      0.1194     15.6973    131.0807     31.3385
   784.3000      8.1488      2.3841      0.0954     16.1127    129.4767     31.7929
   784.4000      8.1488      2.3806      0.0840     16.3248    132.6349     31.3062
   784.5000      8.1445      2.3997      0.0654     15.1706    138.1982     30.1670
   784.6000      8.1445      2.4349      0.1209     13.0339    142.6344     29.4571
   784.7000      8.1445      2.4594      0.1410     11.5521    150.3425     29.5389
   784.8000      8.1296      2.4595      0.0977     11.5470    163.1494     30.0304
   784.9000      8.1296      2.4477      0.0853     12.2630    171.3850     30.2027
   785.0000      8.1392      2.4422      0.0519     12.5922    168.8831     30.2267
   785.1000      8.1392      2.4461      0.1298     12.3557    162.4435     30.8059
   785.2000      8.1392      2.4461      0.1083     12.3557    159.5418     31.6728
   785.3000      8.1336      2.4374      0.0471     12.8865    159.9478     31.9344
   785.4000      8.1336      2.4299      0.0410     13.3411    159.5736     31.4832
   785.5000      8.1249      2.4220      0.1136     13.8162    157.1298     31.2372
   785.6000      8.1249      2.4003      0.1054     15.1336    156.9427     31.9186
   785.7000      8.1249      2.3641      0.1001     17.3248    162.2065     33.1364
   785.8000      8.1288      2.3323      0.0542     19.2558    170.8923     33.7503
   785.9000      8.1288      2.3180      0.0711     20.1217    180.0428     33.4850
   786.0000      8.1359      2.3115      0.0810     20.5135    186.6160     33.2268
   786.1000      8.1359      2.3029      0.0302     21.0374    188.5115     33.2204
   786.2000      8.1359      2.2966      0.0653     21.4162    183.9600     32.7689
   786.3000      8.1398      2.3065      0.0081     20.8208    174.1779     31.8092
   786.4000      8.1398      2.3434      0.1139     18.5802    167.1617     31.0745
   786.5000      8.1438      2.3913      0.2001     15.6781    168.4889     30.7143
   786.6000      8.1438      2.4183      0.2464     14.0430    170.0130     30.5538
   786.7000      8.1438      2.4144      0.1864     14.2792    162.0984     30.9184
   786.8000      8.1566      2.3961      0.1663     15.3896    151.5024     31.3958
   786.9000      8.1566      2.3746      0.1603     16.6924    148.7541     31.3884
   787.0000      8.1513      2.3462      0.1241     18.4092    151.4167     31.7190
   787.1000      8.1513      2.3113      0.0943     20.5279    152.5308     32.6023
