~Version Information
VERS.                      2.0: CWLS Log ASCII Standard - VERSION 2.0
WRAP.                       NO: One line per depth step
~Well Information Block
STRT.FT                -4.5000: 
STOP.FT              1680.2500: 
STEP.FT                 0.2500: 
NULL.                -999.2500: 
COMP.          Pioneer Natural Resources: COMPANY
WELL.            Salty 42-6 Tr: WELL
FLD.           Purgatorie River: FIELD
LOC.           2409' FNL & 599' FEL--: LOCATION
PROV.                       CO: PROVINCE
CNTY.               Las Animas: COUNTRY
SRVC.                         : SERVICE COMPANY
DATE.          Mon Dec 20 13:36:48 2004: LOG DATE
UWI.           071-08238      : UNIQUE WELL ID
~Curve Information Block
DEPT.FT            0 000 00 00: Depth
HVOLTA.V                      : Head Voltage Apparent
GR.GAPI                       : Gamma Ray
CCL.                          : Casing Collar Locator
TT3.usec                      : CBL 3' Travel Time
AMP3.mV                       : CBL 3' Amplitude
~Parameter Information Block
~A  Depth      HVOLTA        GR         CCL         TT3         AMP3    
# ...
   975.5000     97.0557    112.3456      0.0000    790.6196      8.4812
   975.7500     97.1812    109.7074      0.0000    783.3420      9.0539
   976.0000     97.2230    109.6338      0.0000    768.8208      9.5858
   976.2500     97.3114    112.5553      0.0000    752.1599      9.9136
   976.5000     97.4452    117.4576      0.0000    738.0079     10.0459
   976.7500     97.2372    122.6888      0.0000    728.8356     10.1288
   977.0000     97.1991    127.4384      0.0000    725.3417     10.2936
   977.2500     97.3293    132.4422      0.0000    726.9982     10.5830
   977.5000     97.1274    138.8628      0.0000    731.9668     10.9903
   977.7500     97.3902    146.4050      0.0000    737.1664     11.5073
   978.0000     97.3496    152.7870      0.0000    739.4862     12.1217
   978.2500     97.4559    155.2094      0.0000    737.7181     12.7927
   978.5000     97.4924    152.1161      0.0000    733.3240     13.4527
   978.7500     97.7539    143.2413      0.0000    728.5859     14.0471
   979.0000     97.1944    128.7348      0.0000    723.5925     14.5694
   979.2500     97.1406    109.5683      0.0000    714.9777     15.0443
   979.5000     97.2875     88.6495      0.0000    698.0798     15.4757
   979.7500     97.1513     70.1555      0.0000    671.2811     15.8233
   980.0000     97.2804     57.2278      0.0000    638.0662     16.0372
   980.2500     97.3089     50.5399      0.0000    602.6703     16.1128
   980.5000     97.1955     48.7335      0.0000    563.3789     16.1048
   980.7500     97.2301     49.5774      0.0000    514.4792     16.0765
   981.0000     97.1071     50.8521      0.0000    457.0382     16.0297
   981.2500     97.2337     50.9080      0.0000    403.0682     15.8917
   981.5000     97.2408     48.9624      0.0000    365.8352     15.5834
   981.7500     97.4045     45.2102      0.0000    349.4077     15.1029
   982.0000     97.2301     40.6992      0.0000    349.8666     14.5467
   982.2500     97.2348     36.8124      0.0000    363.6989     14.0523
   982.5000     97.2265     34.6627      0.0000    391.7799     13.7130
   982.7500     97.1178     34.8151      0.0000    434.2123     13.5292
   983.0000     97.3878     37.2010      0.0000    481.7661     13.4240
   983.2500     97.3496     40.9687      0.0000    515.1599     13.3076
   983.5000     97.4284     44.5719      0.0000    517.2527     13.1372
   983.7500     97.3293     46.4474      0.0000    487.3026     12.9246
   984.0000     97.3806     46.0137      0.0000    441.4060     12.6955
   984.2500     97.1823     44.2216      0.0000    399.1954     12.4553
   984.5000     97.4762     43.1401      0.0000    372.0668     12.1984
   984.7500     97.3161     44.7961      0.0000    362.8762     11.9285
   985.0000     97.2576     50.0320      0.0000    372.6506     11.6582
   985.2500     97.3018     58.1241      0.0000    404.5992     11.3962
   985.5000     97.2337     67.4200      0.0000    460.7429     11.1524
   985.7500     97.4248     76.4753      0.0000    534.8802     10.9534
   986.0000     97.2815     84.6652      0.0000    610.8865     10.8378
   986.2500     97.1417     92.0324      0.0000    670.8317     10.8236
   986.5000     97.2672     99.1788      0.0000    705.8834     10.8804
   986.7500     97.2540    107.2730      0.0000    719.1527     10.9447
   987.0000     97.2026    117.3695      0.0000    719.0616     10.9720
   987.2500     97.4248    129.2768      0.0000    710.9741     10.9715
   987.5000     97.0557    141.2602      0.0000    694.1069     10.9831
   987.7500     97.2576    151.0966      0.0000    665.0952     11.0230
   988.0000     97.1238    157.4616      0.0000    625.0106     11.0637
   988.2500     97.1167    160.5857      0.0000    583.8291     11.0673
   988.5000     97.1106    161.9905      0.0000    557.2137     11.0221
   988.7500     97.4177    163.2915      0.0000    557.0139     10.9435
   989.0000     97.2540    164.6452      0.0000    583.1505     10.8503
   989.2500     97.3150    164.6392      0.0000    623.4075     10.7485
   989.5000     97.1848    162.1128      0.0000    660.9707     10.6324
   989.7500     97.3364    157.6518      0.0000    683.1811     10.5015
   990.0000     97.4344    152.9741      0.0000    685.2091     10.3724
   990.2500     97.1406    149.5545      0.0000    669.5427     10.2721
   990.5000     97.2122    148.3877      0.0000    645.6061     10.2169
   990.7500     97.3150    150.3780      0.0000    627.8989     10.2037
   991.0000     97.3531    156.0287      0.0000    628.2964     10.2192
   991.2500     97.1645    164.5007      0.0000    647.1634     10.2517
   991.5000     97.0593    173.1095      0.0000    673.8160     10.2975
   991.7500     97.3460    178.4454      0.0000    696.4086     10.3625
   992.0000     97.1645    178.8503      0.0000    709.9758     10.4603
   992.2500     97.1787    175.8882      0.0000    716.0878     10.5981
   992.5000     97.3150    172.9105      0.0000    718.2545     10.7568
   992.7500     97.3831    171.9945      0.0000    718.9392     10.8880
   993.0000     97.2158    172.4624      0.0000    719.2054     10.9358
   993.2500     97.3556    172.2321      0.0000    719.3154     10.8731
   993.5000     97.2779    169.9617      0.0000    719.2366     10.7213
   993.7500     97.2122    165.7074      0.0000    718.9228     10.5364
   994.0000     97.2194    160.3309      0.0000    718.4371     10.3709
   994.2500     97.1955    155.1158      0.0000    717.9421     10.2439
   994.5000     97.0378    151.5111      0.0000    717.5892     10.1433
   994.7500     97.0628    150.1744      0.0000    717.4291     10.0545
   995.0000     97.2839    150.1088      0.0000    717.4134      9.9800
   995.2500     97.1106    149.2523      0.0000    717.4630      9.9311
   995.5000     97.2433    146.0671      0.0000    717.5104      9.9062
   995.7500     97.3424    140.6775      0.0000    717.4834      9.8850
   996.0000     97.1848    134.8665      0.0000    717.3082      9.8428
   996.2500     97.0928    131.0637      0.0000    716.9768      9.7677
   996.5000     97.2540    130.9115      0.0000    716.5903      9.6657
   996.7500     97.2194    134.3482      0.0000    716.2959      9.5579
   997.0000     97.2743    139.8779      0.0000    716.1751      9.4714
   997.2500     97.1071    145.6676      0.0000    716.1835      9.4249
   997.5000     97.1645    150.3699      0.0000    716.1776      9.4174
   997.7500     97.1071    153.1654      0.0000    716.0210      9.4315
   998.0000     97.0760    153.7220      0.0000    715.6691      9.4451
   998.2500     97.2708    152.7110      0.0000    715.0994      9.4416
   998.5000     97.1548    152.0083      0.0000    714.1127      9.4175
   998.7500     97.4034    153.5807      0.0000    712.3145      9.3868
   999.0000     97.3221    157.9921      0.0000    709.5243      9.3735
   999.2500     97.1406    164.1145      0.0000    706.2365      9.3907
   999.5000     97.1406    169.8617      0.0000    703.4380      9.4294
   999.7500     97.1691    173.0267      0.0000    701.8830      9.4726
  1000.0000     97.3043    172.1586      0.0000    701.7971      9.5152
  1000.2500     97.1716    167.3278      0.0000    703.1816      9.5648
  1000.5000     97.2839    160.0811      0.0000    705.8273      9.6279
  1000.7500     97.2433    152.6181      0.0000    709.0483      9.6991
  1001.0000     97.4798    146.8626      0.0000    712.0162      9.7620
  1001.2500     97.1848    143.5901      0.0000    714.5118      9.8018
  1001.5000     97.1955    141.8735      0.0000    717.0057      9.8172
  1001.7500     97.3628    139.8773      0.0000    719.8448      9.8158
  1002.0000     97.0043    137.0056      0.0000    722.4798      9.7982
  1002.2500     97.3735    135.0868      0.0000    723.7715      9.7560
  1002.5000     97.1645    136.4301      0.0000    723.2640      9.6843
  1002.7500     97.3460    140.4944      0.0000    722.0208      9.5902
  1003.0000     97.0832    143.5487      0.0000    721.9559      9.4887
  1003.2500     97.1477    142.2167      0.0000    724.2263      9.3876
