~Version Information
VERS.                      2.0: CWLS Log ASCII Standard - VERSION 2.0
WRAP.                       NO: One line per depth step
~Well Information Block
STRT.FT               -16.5000: 
STOP.FT              1244.7500: 
STEP.FT                 0.2500: 
NULL.                -999.2500: 
COMP.          Pioneer Natural Resources: COMPANY
WELL.          Bouncer41-27 Tr: WELL
FLD.           Purgatorie River: FIELD
LOC.           292' FNL & 222' FEL--------: LOCATION
PROV.                       CO: PROVINCE
CNTY.               Las Animas: COUNTRY
SRVC.                         : SERVICE COMPANY
DATE.          Fri Feb 11 15:34:51 2005: LOG DATE
UWI.                071-08291 : UNIQUE WELL ID
~Curve Information Block
DEPT.FT            0 000 00 00: Depth
CCL.                          : Casing Collar Locator
TT3.usec                      : CBL 3' Travel Time
AMP3.mV                       : CBL 3' Amplitude
GR.GAPI                       : Gamma Ray
~Parameter Information Block
~A  Depth       CCL         TT3         AMP3         GR     
# ...
   385.5000      0.0000    736.8199      5.4631    134.4113
   385.7500      0.0000    723.6812      5.5164    133.8532
   386.0000      0.0000    713.5074      5.5524    133.6797
   386.2500      0.0000    707.5609      5.5631    134.9434
   386.5000      0.0000    705.6195      5.5574    137.8425
   386.7500      0.0000    707.2880      5.5435    140.7793
   387.0000      0.0000    712.4557      5.5266    141.7260
   387.2500      0.0000    720.6850      5.5186    140.5264
   387.5000      0.0000    730.5456      5.5357    139.0421
   387.7500      0.0000    739.8198      5.5820    139.0702
   388.0000      0.0000    746.3947      5.6421    140.9846
   388.2500      0.0000    749.2007      5.6902    144.2040
   388.5000      0.0000    748.8434      5.7065    147.7359
   388.7500      0.0000    747.4623      5.6872    149.9691
   389.0000      0.0000    747.5548      5.6390    149.0577
   389.2500      0.0000    750.4627      5.5610    144.2869
   389.5000      0.0000    755.6433      5.4378    136.8912
   389.7500      0.0000    761.2562      5.2610    129.2721
   390.0000      0.0000    765.5870      5.0535    123.1079
   390.2500      0.0000    767.9686      4.8637    117.7410
   390.5000      0.0000    768.4987      4.7329    110.5315
   390.7500      0.0000    767.6262      4.6707     99.5474
   391.0000      0.0000    766.3178      4.6575     85.9748
   391.2500      0.0000    765.6644      4.6655     73.2201
   391.5000      0.0000    765.7972      4.6769     63.7062
   391.7500      0.0000    766.1290      4.6877     57.2816
   392.0000      0.0000    766.9521      4.7056     52.7838
   392.2500      0.0000    769.4999      4.7508     50.2088
   392.5000      0.0000    773.8124      4.8486     50.7729
   392.7500      0.0000    777.5735      5.0149     55.4304
   393.0000      0.0000    777.8134      5.2486     63.9538
   393.2500      0.0000    773.3768      5.5363     75.2362
   393.5000      0.0000    765.5791      5.8587     88.0127
   393.7500      0.0000    757.0109      6.1954    101.0722
   394.0000      0.0000    749.9320      6.5280    113.0377
   394.2500      0.0000    745.3400      6.8349    122.5634
   394.5000      0.0000    743.0061      7.0759    129.0776
   394.7500      0.0000    742.1225      7.1901    132.9613
   395.0000      0.0000    741.9191      7.1330    134.8184
   395.2500      0.0000    741.9622      6.9195    135.2209
   395.5000      0.0000    742.2174      6.6184    135.4503
   395.7500      0.0000    742.9657      6.3035    137.5220
   396.0000      0.0000    744.5089      6.0147    142.5200
   396.2500      0.0000    746.6849      5.7600    149.1027
   396.5000      0.0000    748.6002      5.5339    154.2253
   396.7500      0.0000    749.1032      5.3305    155.6279
   397.0000      0.0000    747.7761      5.1513    153.6546
   397.2500      0.0000    745.2994      5.0071    150.4357
   397.5000      0.0000    742.7036      4.9119    147.1959
   397.7500      0.0000    740.4861      4.8672    142.8846
   398.0000      0.0000    738.6497      4.8582    135.9021
   398.2500      0.0000    737.5193      4.8712    126.6931
   398.5000      0.0000    738.3004      4.9098    118.0504
   398.7500      0.0000    742.2823      4.9855    113.0554
   399.0000      0.0000    748.9847      5.0925    113.1260
   399.2500      0.0000    755.5338      5.2040    117.7844
   399.5000      0.0000    758.8334      5.2954    125.5069
   399.7500      0.0000    758.2515      5.3664    134.3092
   400.0000      0.0000    755.4471      5.4371    141.9692
   400.2500      0.0000    751.9881      5.5198    146.7706
   400.5000      0.0000    748.2940      5.6002    148.4910
   400.7500      0.0000    744.7010      5.6457    148.2714
   401.0000      0.0000    742.0519      5.6331    147.1689
   401.2500      0.0000    740.7475      5.5666    145.1399
   401.5000      0.0000    740.0494      5.4703    141.7281
   401.7500      0.0000    738.6817      5.3685    137.4077
   402.0000      0.0000    735.7889      5.2724    133.7162
   402.2500      0.0000    731.4116      5.1815    131.8049
   402.5000      0.0000    726.5647      5.0925    131.1195
   402.7500      0.0000    723.1050      5.0057    129.9829
   403.0000      0.0000    723.3111      4.9224    127.3690
   403.2500      0.0000    728.8475      4.8423    123.6669
   403.5000      0.0000    739.2531      4.7705    119.7288
   403.7500      0.0000    751.2589      4.7241    115.5516
   404.0000      0.0000    760.3057      4.7211    110.1748
   404.2500      0.0000    763.6729      4.7624    103.0048
   404.5000      0.0000    762.4927      4.8295     95.0409
   404.7500      0.0000    760.3834      4.8993     88.4980
   405.0000      0.0000    759.8648      4.9577     85.1732
   405.2500      0.0000    760.2435      5.0013     85.1788
   405.5000      0.0000    758.8737      5.0322     87.0811
   405.7500      0.0000    754.0328      5.0529     89.1901
   406.0000      0.0000    746.6025      5.0663     90.6857
   406.2500      0.0000    739.4335      5.0771     91.3624
   406.5000      0.0000    735.2412      5.0893     90.7145
   406.7500      0.0000    734.8129      5.1016     88.1988
   407.0000      0.0000    736.7598      5.1089     84.4063
   407.2500      0.0000    738.7480      5.1041     80.9108
   407.5000      0.0000    739.2323      5.0768     78.5460
   407.7500      0.0000    738.3765      5.0215     76.5958
   408.0000      0.0000    737.2386      4.9526     74.1338
   408.2500      0.0000    736.0579      4.8967     71.6265
   408.5000      0.0000    733.8187      4.8660     70.6322
   408.7500      0.0000    729.9073      4.8489     72.0045
   409.0000      0.0000    725.7366      4.8234     74.7790
   409.2500      0.0000    723.9813      4.7718     77.0184
   409.5000      0.0000    726.0979      4.6885     77.5986
   409.7500      0.0000    730.8757      4.5830     76.8734
   410.0000      0.0000    735.3616      4.4745     75.7442
   410.2500      0.0000    736.9079      4.3833     74.6907
   410.5000      0.0000    734.5878      4.3278     73.9744
   410.7500      0.0000    729.5777      4.3152     74.2065
   411.0000      0.0000    724.6846      4.3305     75.9594
   411.2500      0.0000    722.8708      4.3458     78.8566
   411.5000      0.0000    725.2188      4.3424     81.6130
   411.7500      0.0000    730.0974      4.3166     83.0671
   412.0000      0.0000    734.6669      4.2706     82.9419
   412.2500      0.0000    737.2859      4.2103     81.7945
   412.5000      0.0000    738.2006      4.1473     80.7063
   412.7500      0.0000    738.1415      4.0943     81.0940
   413.0000      0.0000    737.1702      4.0630     84.4031
   413.2500      0.0000    735.3711      4.0642     91.4772
   413.5000      0.0000    733.9022      4.1035    101.7423
   413.7500      0.0000    734.3408      4.1742    112.7915
   414.0000      0.0000    737.0228      4.2628    121.2602
   414.2500      0.0000    740.6945      4.3550    124.9194
   414.5000      0.0000    743.8130      4.4349    124.2194
   414.7500      0.0000    745.7109      4.4890    121.6407
   415.0000      0.0000    746.5742      4.5183    119.5389
   415.2500      0.0000    746.8622      4.5415    118.9101
   415.5000      0.0000    746.9355      4.5804    120.1060
   415.7500      0.0000    746.9785      4.6486    123.6690
   416.0000      0.0000    747.0518      4.7524    129.4640
   416.2500      0.0000    747.2119      4.8898    135.5459
   416.5000      0.0000    747.6449      5.0457    139.1815
   416.7500      0.0000    748.7305      5.2043    139.1740
   417.0000      0.0000    751.0476      5.3628    136.5031
   417.2500      0.0000    755.2529      5.5183    132.7443
   417.5000      0.0000    761.5881      5.6459    128.6590
   417.7500      0.0000    769.0300      5.7126    124.4936
   418.0000      0.0000    774.9549      5.7140    120.6816
   418.2500      0.0000    776.3361      5.6755    117.3393
   418.5000      0.0000    771.9583      5.6185    113.3525
   418.7500      0.0000    763.5375      5.5457    106.9813
