~Version Information
VERS.                      2.0: CWLS Log ASCII Standard - VERSION 2.0
WRAP.                       NO: One line per depth step
~Well Information Block
STRT.FT               480.0000: 
STOP.FT              1625.5000: 
STEP.FT                 0.1000: 
NULL.                -999.2500: 
COMP.          Pioneer Natural Resources: COMPANY
WELL.          Dude Canyon 22-32 Tr: WELL
FLD.           Purgatoire River: FIELD
LOC.           1741' FNL & 2331' FWL: LOCATION
PROV.                 Colorado: PROVINCE
CNTY.               Las Animas: COUNTRY
SRVC.                Patterson: SERVICE COMPANY
DATE.          Mon Jul 11 10:33:06 2005: LOG DATE
UWI.           05 071 08421 00: UNIQUE WELL ID
~Curve Information Block
DEPT.FT            0 000 00 00: Depth
DCAL.in                       : CDL Caliper
RHOB.g/cc                     : CDL Bulk Density
RHOC.g/cc                     : CDL Density Correction
DPOR.pu                       : CDL Density Porosity
GR.GAPI                       : Gamma Ray
NPOR.pu                       : Neutron Porosity
~Parameter Information Block
~A  Depth       DCAL        RHOB        RHOC        DPOR         GR         NPOR    
# ...
   633.6000      8.1056      2.6605      0.1035     -0.6345    151.3320     26.4420
   633.7000      8.1056      2.6875      0.1132     -2.2701    156.2468     25.1193
   633.8000      8.0917      2.7122      0.0904     -3.7715    154.3382     23.6204
   633.9000      8.0917      2.7387      0.1189     -5.3750    147.6653     22.8170
   634.0000      8.1007      2.7386      0.1680     -5.3725    146.1432     22.7232
   634.1000      8.1007      2.6922      0.0910     -2.5574    146.0731     22.0249
   634.2000      8.1007      2.6307      0.0146      1.1691    141.7230     20.7762
   634.3000      8.1027      2.6002     -0.0669      3.0168    141.4036     20.4996
   634.4000      8.1027      2.6044      0.0436      2.7612    148.6585     21.2532
   634.5000      8.0867      2.6186      0.0155      1.9039    151.2916     22.1515
   634.6000      8.0867      2.6350      0.0487      0.9116    144.3910     22.7829
   634.7000      8.0867      2.6498      0.0908      0.0093    136.5606     23.1186
   634.8000      8.0889      2.6546      0.0551     -0.2796    132.1536     23.4545
   634.9000      8.0889      2.6490      0.0878      0.0608    129.6075     23.5850
   635.0000      8.0904      2.6372      0.0845      0.7733    129.8034     22.4632
   635.1000      8.0904      2.6260      0.0493      1.4559    133.3802     20.7746
   635.2000      8.0904      2.6172      0.0367      1.9890    134.8777     20.6387
   635.3000      8.0791      2.6125      0.0492      2.2738    129.2981     21.9471
   635.4000      8.0791      2.6144      0.0985      2.1560    123.4480     23.3306
   635.5000      8.0432      2.6135      0.1668      2.2135    124.9921     24.6660
   635.6000      8.0432      2.6021      0.0889      2.9040    129.9830     25.4283
   635.7000      8.0432      2.5972      0.0674      3.2014    132.0568     24.6219
   635.8000      8.0271      2.6063      0.0718      2.6497    134.5430     23.3656
   635.9000      8.0271      2.6021      0.1190      2.9053    142.1462     23.3939
   636.0000      8.0295      2.5770      0.0172      4.4267    148.8225     24.4990
   636.1000      8.0295      2.5671     -0.0041      5.0249    151.6094     25.0978
   636.2000      8.0295      2.5838      0.0523      4.0093    152.8994     24.7080
   636.3000      8.0558      2.5978      0.0739      3.1626    151.0247     24.8523
   636.4000      8.0558      2.5987      0.0531      3.1084    144.6315     26.2383
   636.5000      8.0858      2.5986      0.0968      3.1171    138.2570     27.1871
   636.6000      8.0858      2.5950      0.0575      3.3346    136.3484     25.9612
   636.7000      8.0858      2.5882      0.0270      3.7440    137.0083     23.4855
   636.8000      8.0595      2.5944      0.0398      3.3671    136.4532     21.5976
   636.9000      8.0595      2.6143      0.0923      2.1655    133.7244     20.4390
   637.0000      8.0452      2.6233      0.1214      1.6158    132.5137     19.2655
   637.1000      8.0452      2.6097      0.0882      2.4426    133.8447     18.0027
   637.2000      8.0452      2.5874      0.0302      3.7951    130.9279     17.2002
   637.3000      8.0416      2.5654      0.0032      5.1279    121.8486     17.1920
   637.4000      8.0416      2.5385      0.0556      6.7593    114.3250     17.8458
   637.5000      8.0323      2.5138     -0.0118      8.2559    115.1896     18.7799
   637.6000      8.0323      2.5049      0.0396      8.7940    120.8747     19.2870
   637.7000      8.0323      2.5023      0.0728      8.9543    122.3123     19.3084
   637.8000      8.0318      2.4952      0.0162      9.3839    119.4953     19.2392
   637.9000      8.0318      2.4923     -0.0023      9.5603    116.7142     18.8666
   638.0000      8.0249      2.5053      0.0169      8.7694    111.2068     18.0818
   638.1000      8.0249      2.5340      0.0331      7.0321    103.4791     17.3275
   638.2000      8.0249      2.5660      0.0603      5.0907     98.7900     17.0319
   638.3000      8.0309      2.5845      0.1020      3.9721     99.5743     17.0761
   638.4000      8.0309      2.5893      0.0565      3.6815    105.8391     16.8422
   638.5000      8.0412      2.6001      0.0491      3.0229    114.6961     16.0778
   638.6000      8.0412      2.6181      0.1156      1.9353    120.8285     15.1353
   638.7000      8.0412      2.6281      0.0732      1.3288    120.1437     14.2726
   638.8000      8.0349      2.6291      0.0791      1.2652    113.4074     14.0584
   638.9000      8.0349      2.6203      0.0848      1.7971    105.3169     14.5447
   639.0000      8.0444      2.5978      0.1024      3.1652     97.7869     14.9293
   639.1000      8.0444      2.5632      0.0638      5.2586     91.0930     15.2729
   639.2000      8.0444      2.5276      0.0310      7.4187     87.7117     16.0954
   639.3000      8.0375      2.5075      0.0340      8.6357     86.9916     17.2613
   639.4000      8.0375      2.4985      0.0423      9.1811     88.9914     18.5636
   639.5000      8.0469      2.4798      0.0151     10.3151     96.9514     20.0652
   639.6000      8.0469      2.4532      0.0293     11.9267    108.0497     21.5508
   639.7000      8.0469      2.4406      0.0005     12.6912    116.3590     22.4685
   639.8000      8.0469      2.4521      0.0830     11.9915    122.0454     23.4321
   639.9000      8.0469      2.4755      0.1448     10.5749    127.9949     25.4185
   640.0000      8.1403      2.5018      0.0541      8.9808    135.5723     27.4712
   640.1000      8.1403      2.5304      0.1465      7.2466    142.7124     27.8837
   640.2000      8.1403      2.5494      0.1044      6.0988    145.2675     27.1966
   640.3000      8.1931      2.5478      0.0761      6.1960    145.6535     26.9756
   640.4000      8.1931      2.5290      0.0949      7.3319    149.5516     27.5515
   640.5000      8.3178      2.5032      0.0917      8.8997    158.1077     28.4026
   640.6000      8.3178      2.4797      0.0166     10.3196    165.8725     28.7373
   640.7000      8.3178      2.4681      0.0250     11.0216    168.5653     28.1653
   640.8000      8.3656      2.4737      0.0149     10.6843    170.1064     27.2888
   640.9000      8.3656      2.4907      0.0298      9.6540    170.0179     26.5064
   641.0000      8.3794      2.4999      0.0611      9.0973    165.0797     25.4768
   641.1000      8.3794      2.4887      0.0219      9.7750    158.5005     24.5073
   641.2000      8.3794      2.4705      0.0317     10.8801    155.5165     24.5498
   641.3000      8.3614      2.4675      0.0135     11.0626    155.5093     26.0258
   641.4000      8.3614      2.4813      0.0658     10.2254    154.1323     27.8687
   641.5000      8.2461      2.4912      0.0688      9.6228    154.0120     28.6664
   641.6000      8.2461      2.4824      0.0853     10.1567    157.6722     28.5284
   641.7000      8.2461      2.4618      0.0441     11.4067    159.6937     28.1225
   641.8000      8.1639      2.4503      0.0419     12.1037    159.4490     28.0524
   641.9000      8.1639      2.4615     -0.0216     11.4233    158.6955     28.3962
   642.0000      8.1693      2.4847      0.1121     10.0177    156.7423     28.8417
   642.1000      8.1693      2.4978      0.1443      9.2224    155.6160     28.8689
   642.2000      8.1693      2.5076      0.0971      8.6279    154.9359     28.7339
   642.3000      8.1717      2.5379      0.1193      6.7946    150.9585     29.7650
   642.4000      8.1717      2.5843      0.1848      3.9846    147.2990     31.2568
   642.5000      8.1604      2.6204      0.2078      1.7968    152.3782     31.2746
   642.6000      8.1604      2.6259      0.2003      1.4583    162.4953     29.9537
   642.7000      8.1604      2.5975      0.1998      3.1831    163.0327     28.9499
   642.8000      8.1799      2.5510      0.2191      6.0009    151.4352     29.0840
   642.9000      8.1799      2.5129      0.1562      8.3095    139.9635     29.4299
   643.0000      8.2184      2.4921      0.1946      9.5710    138.1242     29.3750
   643.1000      8.2184      2.4787      0.0678     10.3809    143.2770     29.3481
