~Version Information
VERS.                      2.0: CWLS Log ASCII Standard - VERSION 2.0
WRAP.                       NO: One line per depth step
~Well Information Block
STRT.FT               620.0000: 
STOP.FT              2663.2500: 
STEP.FT                 0.2500: 
NULL.                -999.2500: 
COMP.          Evergreen Operating Corporation: COMPANY
WELL.             Carbon 34-21: WELL
FLD.           Purgatoire River: FIELD
LOC.           56' FSL & 2304' FEL: LOCATION
PROV.                 Colorado: PROVINCE
CNTY.               Las Animas: COUNTRY
SRVC.                Patterson: SERVICE COMPANY
DATE.          Mon Sep 13 11:41:04 2004: LOG DATE
UWI.           05 071 08117 00: UNIQUE WELL ID
~Curve Information Block
DEPT.FT            0 000 00 00: Depth
DIR.Ohm-m                     : IEL Induction Resistivity
SN.Ohm-m                      : IEL Short Normal
SP.mV                         : IEL Spontaneous Potential
GR.GAPI                       : Gamma Ray
~Parameter Information Block
~A  Depth       DIR          SN          SP          GR     
# ...
  1022.0000     18.9754   2000.0000   2000.0000    112.2717
  1022.2500     18.3443   2000.0000   2000.0000    119.2037
  1022.5000     17.7241   2000.0000   2000.0000    126.2616
  1022.7500     17.1471   2000.0000   2000.0000    128.3313
  1023.0000     16.6569   2000.0000   2000.0000    127.9948
  1023.2500     16.3009   2000.0000   2000.0000    126.1675
  1023.5000     16.1184   2000.0000   2000.0000    122.1343
  1023.7500     16.1343   2000.0000   2000.0000    119.0848
  1024.0000     16.3616   2000.0000   2000.0000    114.7350
  1024.2500     16.8057   2000.0000   2000.0000    112.3409
  1024.5000     17.4661   2000.0000   2000.0000    109.8005
  1024.7500     18.3293   2000.0000   2000.0000    108.8122
  1025.0000     19.3597   2000.0000   2000.0000    108.1255
  1025.2500     20.4953   2000.0000   2000.0000    107.7879
  1025.5000     21.6601   2000.0000   2000.0000    106.3960
  1025.7500     22.7930   2000.0000   2000.0000    104.3641
  1026.0000     23.8743   2000.0000   2000.0000     99.6139
  1026.2500     24.9314   2000.0000   2000.0000     95.8136
  1026.5000     26.0166   2000.0000   2000.0000     90.3899
  1026.7500     27.1732   2000.0000   2000.0000     87.5568
  1027.0000     28.4043   2000.0000   2000.0000     85.0338
  1027.2500     29.6507   2000.0000   2000.0000     84.4940
  1027.5000     30.7925   2000.0000   2000.0000     84.7558
  1027.7500     31.6860   2000.0000   2000.0000     85.0720
  1028.0000     32.2333   2000.0000   2000.0000     85.1799
  1028.2500     32.4372   2000.0000   2000.0000     85.2384
  1028.5000     32.3928   2000.0000   2000.0000     86.5493
  1028.7500     32.2224   2000.0000   2000.0000     88.9188
  1029.0000     32.0122   2000.0000   2000.0000     94.6017
  1029.2500     31.7940   2000.0000   2000.0000     98.8834
  1029.5000     31.5691   2000.0000   2000.0000    104.1711
  1029.7500     31.3371   2000.0000   2000.0000    106.4043
  1030.0000     31.1000   2000.0000   2000.0000    107.9995
  1030.2500     30.8464   2000.0000   2000.0000    108.2185
  1030.5000     30.5439   2000.0000   2000.0000    107.6873
  1030.7500     30.1566   2000.0000   2000.0000    106.9764
  1031.0000     29.6737   2000.0000   2000.0000    106.0122
  1031.2500     29.1193   2000.0000   2000.0000    105.9593
  1031.5000     28.5357   2000.0000   2000.0000    107.4071
  1031.7500     27.9548   2000.0000   2000.0000    109.2297
  1032.0000     27.3870   2000.0000   2000.0000    111.9241
  1032.2500     26.8323   2000.0000   2000.0000    112.7736
  1032.5000     26.2992   2000.0000   2000.0000    111.9500
  1032.7500     25.8097   2000.0000   2000.0000    110.3256
  1033.0000     25.3873   2000.0000   2000.0000    107.4092
  1033.2500     25.0433   2000.0000   2000.0000    105.7083
  1033.5000     24.7761   2000.0000   2000.0000    104.0060
  1033.7500     24.5830   2000.0000   2000.0000    103.4178
  1034.0000     24.4700   2000.0000   2000.0000    102.8799
  1034.2500     24.4473   2000.0000   2000.0000    102.4537
  1034.5000     24.5145   2000.0000   2000.0000    101.7590
  1034.7500     24.6498   2000.0000   2000.0000    101.5586
  1035.0000     24.8164   2000.0000   2000.0000    101.9081
  1035.2500     24.9823   2000.0000   2000.0000    102.4193
  1035.5000     25.1344   2000.0000   2000.0000    103.3928
  1035.7500     25.2765   2000.0000   2000.0000    104.3594
  1036.0000     25.4115   2000.0000   2000.0000    106.5911
  1036.2500     25.5324   2000.0000   2000.0000    108.2738
  1036.5000     25.6338   2000.0000   2000.0000    109.6463
  1036.7500     25.7371   2000.0000   2000.0000    108.9972
  1037.0000     25.8996   2000.0000   2000.0000    105.3336
  1037.2500     26.1865   2000.0000   2000.0000    101.5121
  1037.5000     26.6212   2000.0000   2000.0000     94.9122
  1037.7500     27.1551   2000.0000   2000.0000     90.6590
  1038.0000     27.6884   2000.0000   2000.0000     85.6348
  1038.2500     28.1310   2000.0000   2000.0000     83.7455
  1038.5000     28.4538   2000.0000   2000.0000     83.4952
  1038.7500     28.6827   2000.0000   2000.0000     84.7196
  1039.0000     28.8510   2000.0000   2000.0000     87.2615
  1039.2500     28.9575   2000.0000   2000.0000     88.5743
  1039.5000     28.9559   2000.0000   2000.0000     89.1095
  1039.7500     28.7762   2000.0000   2000.0000     88.3451
  1040.0000     28.3623   2000.0000   2000.0000     85.5204
  1040.2500     27.7042   2000.0000   2000.0000     82.7367
  1040.5000     26.8494   2000.0000   2000.0000     78.2865
  1040.7500     25.8820   2000.0000   2000.0000     76.1421
  1041.0000     24.8864   2000.0000   2000.0000     75.8336
  1041.2500     23.9158   2000.0000   2000.0000     78.0165
  1041.5000     22.9748   2000.0000   2000.0000     84.2890
  1041.7500     22.0169   2000.0000   2000.0000     89.5284
  1042.0000     20.9597   2000.0000   2000.0000     97.1334
  1042.2500     19.7291   2000.0000   2000.0000    101.2340
  1042.5000     18.3165   2000.0000   2000.0000    105.6898
  1042.7500     16.8023   2000.0000   2000.0000    108.2163
  1043.0000     15.3169   2000.0000   2000.0000    113.2747
  1043.2500     13.9738   2000.0000   2000.0000    118.2579
  1043.5000     12.8317   2000.0000   2000.0000    127.7041
  1043.7500     11.8964   2000.0000   2000.0000    134.0851
  1044.0000     11.1419   2000.0000   2000.0000    141.0616
  1044.2500     10.5302   2000.0000   2000.0000    142.7617
  1044.5000     10.0250   2000.0000   2000.0000    140.5703
  1044.7500      9.5992   2000.0000   2000.0000    137.0856
  1045.0000      9.2380   2000.0000   2000.0000    132.1326
  1045.2500      8.9365   2000.0000   2000.0000    130.4721
  1045.5000      8.6957   2000.0000   2000.0000    130.3896
  1045.7500      8.5187   2000.0000   2000.0000    130.8305
  1046.0000      8.4065   2000.0000   2000.0000    130.6942
  1046.2500      8.3564   2000.0000   2000.0000    130.0270
  1046.5000      8.3613   2000.0000   2000.0000    129.0377
  1046.7500      8.4102   2000.0000   2000.0000    128.9267
  1047.0000      8.4897   2000.0000   2000.0000    130.1033
  1047.2500      8.5854   2000.0000   2000.0000    131.8491
  1047.5000      8.6832   2000.0000   2000.0000    135.6860
  1047.7500      8.7734   2000.0000   2000.0000    138.6936
  1048.0000      8.8536   2000.0000   2000.0000    142.8775
  1048.2500      8.9299   2000.0000   2000.0000    144.8075
  1048.5000      9.0143   2000.0000   2000.0000    145.7858
  1048.7500      9.1191   2000.0000   2000.0000    145.3052
  1049.0000      9.2512   2000.0000   2000.0000    143.8824
  1049.2500      9.4095   2000.0000   2000.0000    143.0964
  1049.5000      9.5869   2000.0000   2000.0000    142.6832
  1049.7500      9.7750   2000.0000   2000.0000    142.8910
  1050.0000      9.9702   2000.0000   2000.0000    143.5651
  1050.2500     10.1769   2000.0000   2000.0000    143.9335
  1050.5000     10.4070   2000.0000   2000.0000    143.9242
  1050.7500     10.6786   2000.0000   2000.0000    143.5792
  1051.0000     11.0142   2000.0000   2000.0000    142.8263
  1051.2500     11.4392   2000.0000   2000.0000    141.9238
  1051.5000     11.9812   2000.0000   2000.0000    138.6745
  1051.7500     12.6650   2000.0000   2000.0000    134.6093
  1052.0000     13.5034   2000.0000   2000.0000    125.9562
  1052.2500     14.4858   2000.0000   2000.0000    119.4459
  1052.5000     15.5752   2000.0000   2000.0000    110.4846
  1052.7500     16.7235   2000.0000   2000.0000    105.6954
  1053.0000     17.8964   2000.0000   2000.0000    100.3238
  1053.2500     19.0845   2000.0000   2000.0000     97.7604
  1053.5000     20.2856   2000.0000   2000.0000     95.6418
  1053.7500     21.4726   2000.0000   2000.0000     95.7237
  1054.0000     22.5776   2000.0000   2000.0000     98.0629
  1054.2500     23.5055   2000.0000   2000.0000    100.4091
  1054.5000     24.1645   2000.0000   2000.0000    103.3586
  1054.7500     24.4937   2000.0000   2000.0000    104.2570
  1055.0000     24.4754   2000.0000   2000.0000    104.2132
  1055.2500     24.1358   2000.0000   2000.0000    104.1058
