~Version Information
VERS.                      2.0: CWLS Log ASCII Standard - VERSION 2.0
WRAP.                       NO: One line per depth step
~Well Information Block
STRT.FT                -7.2500: 
STOP.FT               868.2500: 
STEP.FT                 0.2500: 
NULL.                -999.2500: 
COMP.          Pioneer Natural Resources: COMPANY
WELL.              Venom 32-22: WELL
FLD.           Purgatorie River: FIELD
LOC.           2307' FNL & 2024' FWL--: LOCATION
PROV.                       CO: PROVINCE
CNTY.               Las Animas: COUNTRY
SRVC.          Patterson Wireline: SERVICE COMPANY
DATE.          Mon May 16 15:26:38 2005: LOG DATE
UWI.           05 071 08361 00: UNIQUE WELL ID
~Curve Information Block
DEPT.FT            0 000 00 00: Depth
CCL.                          : Casing Collar Locator
TT3.usec                      : CBL 3' Travel Time
AMP3.mV                       : CBL 3' Amplitude
GR.GAPI                       : Gamma Ray
~Parameter Information Block
~A  Depth       CCL         TT3         AMP3         GR     
# ...
   260.7500      0.0000    825.6107      5.4760     96.3861
   261.0000      0.0000    827.9698      5.4085     98.9036
   261.2500      0.0000    829.5943      5.3189    101.3176
   261.5000      0.0000    830.4567      5.2373    103.4474
   261.7500      0.0000    830.9091      5.1785    104.9984
   262.0000      0.0000    831.2825      5.1328    105.3582
   262.2500      0.0000    831.7593      5.0850    103.9655
   262.5000      0.0000    832.3957      5.0356    101.0398
   262.7500      0.0000    833.0701      4.9989     97.8602
   263.0000      0.0000    833.4963      4.9838     96.1129
   263.2500      0.0000    833.7357      4.9815     96.8777
   263.5000      0.0000    835.0153      4.9770    100.2151
   263.7500      0.0000    839.3257      4.9668    105.3185
   264.0000      0.0000    847.2341      4.9592    110.8452
   264.2500      0.0000    856.4252      4.9608    115.6245
   264.5000      0.0000    863.3629      4.9705    119.3117
   264.7500      0.0000    866.3010      4.9877    121.8937
   265.0000      0.0000    866.2380      5.0175    122.5693
   265.2500      0.0000    865.2326      5.0678    120.0157
   265.5000      0.0000    864.2327      5.1430    113.9896
   265.7500      0.0000    862.7300      5.2373    106.0151
   266.0000      0.0000    860.4487      5.3297     98.3051
   266.2500      0.0000    858.6998      5.3863     92.4387
   266.5000      0.0000    859.3755      5.3773     89.1541
   266.7500      0.0000    862.8509      5.2999     88.7604
   267.0000      0.0000    867.6536      5.1830     91.0331
   267.2500      0.0000    872.1595      5.0707     94.7272
   267.5000      0.0000    875.9390      5.0024     97.8683
   267.7500      0.0000    879.2858      4.9964     99.0091
   268.0000      0.0000    881.9539      5.0395     98.0461
   268.2500      0.0000    882.8490      5.0940     95.6345
   268.5000      0.0000    880.9185      5.1293     92.1479
   268.7500      0.0000    875.8445      5.1449     87.6543
   269.0000      0.0000    867.7681      5.1563     82.6725
   269.2500      0.0000    856.9105      5.1695     78.1698
   269.5000      0.0000    843.9577      5.1790     74.5903
   269.7500      0.0000    830.7440      5.1834     71.5563
   270.0000      0.0000    820.2447      5.1942     68.8226
   270.2500      0.0000    815.2643      5.2252     67.0115
   270.5000      0.0000    816.3755      5.2760     67.0282
   270.7500      0.0000    821.1397      5.3283     68.8767
   271.0000      0.0000    825.7133      5.3589     71.2220
   271.2500      0.0000    827.0465      5.3579     72.1507
   271.5000      0.0000    823.6306      5.3332     70.5218
   271.7500      0.0000    815.5779      5.2983     66.8093
   272.0000      0.0000    805.1687      5.2613     62.7917
   272.2500      0.0000    796.5649      5.2213     60.3918
   272.5000      0.0000    793.3752      5.1740     60.5665
   272.7500      0.0000    796.2534      5.1195     63.0469
   273.0000      0.0000    803.2919      5.0685     66.9869
   273.2500      0.0000    811.9988      5.0341     71.7159
   273.5000      0.0000    820.3569      5.0186     76.9026
   273.7500      0.0000    827.1389      5.0137     82.3550
   274.0000      0.0000    832.2100      5.0124     88.0369
   274.2500      0.0000    836.1591      5.0108     94.2626
   274.5000      0.0000    839.2769      5.0051    101.4528
   274.7500      0.0000    841.3146      4.9970    109.1944
   275.0000      0.0000    842.3796      4.9987    115.6188
   275.2500      0.0000    843.4808      5.0242    118.5311
   275.5000      0.0000    845.8615      5.0753    117.5138
   275.7500      0.0000    850.4248      5.1387    114.3545
   276.0000      0.0000    858.2534      5.1939    111.0921
   276.2500      0.0000    870.7719      5.2263    108.1812
   276.5000      0.0000    887.8524      5.2325    104.7997
   276.7500      0.0000    905.5283      5.2164    100.1531
   277.0000      0.0000    917.0740      5.1804     93.9922
   277.2500      0.0000    917.7416      5.1225     86.6190
   277.5000      0.0000    908.3101      5.0388     79.1798
   277.7500      0.0000    893.7434      4.9337     73.6024
   278.0000      0.0000    879.1153      4.8292     71.5514
   278.2500      0.0000    867.1217      4.7596     73.2756
   278.5000      0.0000    858.3340      4.7466     77.5660
   278.7500      0.0000    852.5292      4.7764     82.5934
   279.0000      0.0000    849.2689      4.8036     86.5908
   279.2500      0.0000    847.3254      4.7833     88.1685
   279.5000      0.0000    843.8888      4.7031     86.6989
   279.7500      0.0000    835.4290      4.5863     82.6739
   280.0000      0.0000    820.2391      4.4708     77.4718
   280.2500      0.0000    800.1539      4.3885     72.5365
   280.5000      0.0000    779.5191      4.3542     68.5483
   280.7500      0.0000    762.9615      4.3542     65.2047
   281.0000      0.0000    754.3708      4.3509     61.8045
   281.2500      0.0000    756.4435      4.3150     58.1248
   281.5000      0.0000    768.7922      4.2521     54.7790
   281.7500      0.0000    786.3180      4.1902     52.7549
   282.0000     -2.0000    801.7229      4.1491     52.6032
   282.2500     -2.0000    811.1404      4.1278     53.9994
   282.5000      0.0000    816.3167      4.1148     55.9643
   282.7500      0.0000    820.6008      4.1108     57.4387
   283.0000      0.0000    824.8031      4.1484     57.7475
   283.2500      0.0000    828.0818      4.2737     56.8092
   283.5000      0.0000    830.4283      4.4822     55.3318
   283.7500      0.0000    832.4708      4.6897     54.9765
   284.0000      0.0000    834.1029      4.8036     57.8153
   284.2500      0.0000    834.8590      4.8154     64.8390
   284.5000      0.0000    835.0473      4.7890     74.7592
   284.7500      0.0000    835.4996      4.7789     84.7238
   285.0000      0.0000    836.2767      4.7924     92.4635
   285.2500      0.0000    836.2772      4.8131     97.5029
   285.5000      0.0000    834.1708      4.8268    100.5214
   285.7500      0.0000    829.0667      4.8272    102.4561
   286.0000      0.0000    820.1655      4.8150    104.3048
   286.2500      0.0000    806.7855      4.7975    106.8000
   286.5000      0.0000    789.6572      4.7798    109.7632
   286.7500      0.0000    771.9860      4.7559    112.0897
   287.0000      0.0000    758.8820      4.7100    112.5791
   287.2500      0.0000    755.4443      4.6366    110.7840
   287.5000      0.0000    763.9634      4.5590    107.2517
   287.7500      0.0000    781.5732      4.5188    103.2445
   288.0000      0.0000    801.4328      4.5407    100.2282
   288.2500      0.0000    817.5960      4.6079     99.0954
   288.5000      0.0000    828.6552      4.6757     99.3848
   288.7500      0.0000    836.6978      4.7087     99.3891
   289.0000      0.0000    843.7291      4.7057     97.4886
   289.2500      0.0000    849.5568      4.6932     93.6326
   289.5000      0.0000    852.7054      4.6965     89.4840
   289.7500      0.0000    852.7754      4.7216     86.9549
   290.0000      0.0000    851.4704      4.7604     86.4366
   290.2500      0.0000    851.0438      4.8062     86.4227
   290.5000      0.0000    852.0198      4.8518     84.8356
   290.7500      0.0000    852.8237      4.8806     80.7539
   291.0000      0.0000    851.4598      4.8768     75.0279
   291.2500      0.0000    847.3157      4.8510     69.4391
   291.5000      0.0000    841.6798      4.8407     65.3300
   291.7500      0.0000    836.9509      4.8781     62.8929
   292.0000      0.0000    835.2277      4.9599     61.5477
   292.2500      0.0000    837.0608      5.0540     60.7514
   292.5000      0.0000    840.9460      5.1274     60.3761
   292.7500      0.0000    844.0126      5.1640     60.5779
   293.0000      0.0000    843.8884      5.1670     61.6292
   293.2500      0.0000    840.4280      5.1574     63.8816
   293.5000      0.0000    835.5869      5.1615     67.6422
   293.7500      0.0000    831.6307      5.1929     73.0701
   294.0000      0.0000    829.6349      5.2461     80.3156
