~Version Information
VERS.                      2.0: CWLS Log ASCII Standard - VERSION 2.0
WRAP.                       NO: One line per depth step
~Well Information Block
STRT.FT               800.0000: 
STOP.FT              1933.5000: 
STEP.FT                 0.2500: 
NULL.                -999.2500: 
COMP.          Pioneer Natural Resources: COMPANY
WELL.            Nova 11-14 Tr: WELL
FLD.           Purgatoire River: FIELD
LOC.           706' FNL & 1109' FWL: LOCATION
PROV.                 Colorado: PROVINCE
CNTY.               Las Animas: COUNTRY
SRVC.                Patterson: SERVICE COMPANY
DATE.          Wed Jul 20 23:28:11 2005: LOG DATE
UWI.           05 071 08434 00: UNIQUE WELL ID
~Curve Information Block
DEPT.FT            0 000 00 00: Depth
SN.Ohm-m                      : IEL Short Normal
SP.mV                         : IEL Spontaneous Potential
DIR.Ohm-m                     : IEL Induction Resistivity
GR.GAPI                       : Gamma Ray
~Parameter Information Block
~A  Depth        SN          SP         DIR          GR     
# ...
  1034.5000   2000.0000   2000.0000     24.4958    105.8534
  1034.7500   2000.0000   2000.0000     24.6223    103.9326
  1035.0000   2000.0000   2000.0000     24.6673    103.1115
  1035.2500   2000.0000   2000.0000     24.5512    103.5044
  1035.5000   2000.0000   2000.0000     24.2421    104.7089
  1035.7500   2000.0000   2000.0000     23.7589    105.4519
  1036.0000   2000.0000   2000.0000     23.1449    105.8907
  1036.2500   2000.0000   2000.0000     22.4426    105.8531
  1036.5000   2000.0000   2000.0000     21.6851    106.5277
  1036.7500   2000.0000   2000.0000     20.9025    108.3450
  1037.0000   2000.0000   2000.0000     20.1256    113.7064
  1037.2500   2000.0000   2000.0000     19.3835    118.6079
  1037.5000   2000.0000   2000.0000     18.6972    126.4227
  1037.7500   2000.0000   2000.0000     18.0757    131.0003
  1038.0000   2000.0000   2000.0000     17.5182    135.7100
  1038.2500   2000.0000   2000.0000     17.0217    137.0923
  1038.5000   2000.0000   2000.0000     16.5849    136.7465
  1038.7500   2000.0000   2000.0000     16.2044    135.3784
  1039.0000   2000.0000   2000.0000     15.8692    132.6202
  1039.2500   2000.0000   2000.0000     15.5621    130.8059
  1039.5000   2000.0000   2000.0000     15.2685    128.8806
  1039.7500   2000.0000   2000.0000     14.9887    128.6099
  1040.0000   2000.0000   2000.0000     14.7413    130.1423
  1040.2500   2000.0000   2000.0000     14.5564    131.9460
  1040.5000   2000.0000   2000.0000     14.4627    133.6029
  1040.7500   2000.0000   2000.0000     14.4756    132.7522
  1041.0000   2000.0000   2000.0000     14.5928    128.3314
  1041.2500   2000.0000   2000.0000     14.7996    124.4445
  1041.5000   2000.0000   2000.0000     15.0800    119.5870
  1041.7500   2000.0000   2000.0000     15.4262    117.5333
  1042.0000   2000.0000   2000.0000     15.8382    115.6719
  1042.2500   2000.0000   2000.0000     16.3161    114.8931
  1042.5000   2000.0000   2000.0000     16.8518    114.5394
  1042.7500   2000.0000   2000.0000     17.4288    114.9340
  1043.0000   2000.0000   2000.0000     18.0278    115.8977
  1043.2500   2000.0000   2000.0000     18.6346    116.2096
  1043.5000   2000.0000   2000.0000     19.2445    115.4631
  1043.7500   2000.0000   2000.0000     19.8643    113.9711
  1044.0000   2000.0000   2000.0000     20.5114    110.1148
  1044.2500   2000.0000   2000.0000     21.2067    106.5327
  1044.5000     23.9692     -3.9155     21.9662    100.2762
  1044.7500     24.6422     -4.2252     22.7966     96.1032
  1045.0000     25.2285     -4.5154     23.6949     90.6984
  1045.2500     25.7485     -4.8161     24.6483     87.9629
  1045.5000     26.3765     -5.1363     25.6347     85.4362
  1045.7500     27.2949     -5.4605     26.6315     84.6678
  1046.0000     28.5466     -5.7702     27.6305     83.7381
  1046.2500     30.0052     -6.0636     28.6430     82.3470
  1046.5000     31.4415     -6.3552     29.6799     78.3279
  1046.7500     32.6721     -6.6606     30.7217     74.6128
  1047.0000     33.8045     -6.9843     31.7117     68.4036
  1047.2500     35.1074     -7.3141     32.5855     64.2708
  1047.5000     36.5043     -7.6265     33.3168     58.6124
  1047.7500     37.6037     -7.9063     33.9346     55.4279
  1048.0000     38.2046     -8.1634     34.4921     51.6292
  1048.2500     38.4791     -8.4231     35.0173     49.6710
  1048.5000     38.7944     -8.6952     35.4873     47.5804
  1048.7500     39.2610     -8.9554     35.8460     46.8172
  1049.0000     39.4946     -9.1551     36.0446     46.4215
  1049.2500     39.1758     -9.2449     36.0733     46.3040
  1049.5000     38.5132     -9.2000     35.9587     45.8633
  1049.7500     37.8630     -9.0403     35.7386     45.4337
  1050.0000     37.3194     -8.8327     35.4430     45.0189
  1050.2500     36.8548     -8.6652     35.0995     45.0675
  1050.5000     36.4711     -8.6057     34.7503     45.4825
  1050.7500     36.1592     -8.6726     34.4511     45.7547
  1051.0000     35.9577     -8.8284     34.2438     46.0255
  1051.2500     35.9367     -8.9966     34.1329     46.3660
  1051.5000     36.1234     -9.0983     34.0935     47.7538
  1051.7500     36.5116     -9.0969     34.1043     49.3949
  1052.0000     36.9703     -9.0301     34.1752     52.5006
  1052.2500     37.3111     -9.0102     34.3398     54.5164
  1052.5000     37.5928     -9.1942     34.6202     56.5277
  1052.7500     38.0824     -9.7405     35.0018     56.7258
  1053.0000     38.9102    -10.7640     35.4441     55.0359
  1053.2500     39.9914    -12.2984     35.9215     52.9096
  1053.5000     41.1776    -14.2777     36.4566     49.3333
  1053.7500     42.3471    -16.5551     37.1096     51.9984
  1054.0000     43.5196    -18.9562     37.9253     49.5594
  1054.2500     44.8919    -21.3341     38.8722     48.5038
  1054.5000     46.5107    -23.5882     39.8235     47.4433
  1054.7500     48.0243    -25.6314     40.6179     51.1611
  1055.0000     49.1810    -27.3345     41.1779     50.3906
  1055.2500     50.2971    -28.4974     41.5736     50.0712
  1055.5000     51.6161    -28.8923     41.9566     50.2953
  1055.7500     52.6969    -28.3762     42.4346     51.1127
  1056.0000     53.0997    -27.0127     43.0105     53.4168
  1056.2500     53.1654    -25.1180     43.6210     55.5658
  1056.5000     53.5077    -23.1598     44.2015     59.3113
  1056.7500     54.0487    -21.5378     44.7079     61.7869
  1057.0000     54.2178    -20.3969     45.0923     64.7170
  1057.2500     53.9207    -19.6195     45.2813     65.8295
  1057.5000     53.6720    -18.9783     45.1928     66.2524
  1057.7500     53.9089    -18.2965     44.7764     66.0419
  1058.0000     54.5621    -17.5079     44.0458     65.7397
  1058.2500     55.1660    -16.6294     43.0859     65.8151
  1058.5000     55.1951    -15.7115     42.0259     66.3720
  1058.7500     54.5476    -14.8023     40.9916     67.0414
  1059.0000     53.7474    -13.9288     40.0694     68.9064
  1059.2500     53.2855    -13.0925     39.2981     71.0391
  1059.5000     52.8272    -12.2797     38.6795     75.3738
  1059.7500     51.6181    -11.4837     38.1926     78.3343
  1060.0000     49.5595    -10.7243     37.8064     81.7416
  1060.2500     47.2500    -10.0445     37.4905     83.3089
  1060.5000     45.1508     -9.4846     37.2295     85.3566
  1060.7500     43.3133     -9.0514     37.0260     86.6207
  1061.0000     41.7549     -8.7111     36.8869     87.4305
  1061.2500     40.6135     -8.4162     36.7941     86.6933
  1061.5000     39.9508     -8.1396     36.6788     83.9355
  1061.7500     39.6315     -7.8800     36.4256     81.6756
  1062.0000     39.4573     -7.6422     35.9186     78.4449
  1062.2500     39.3528     -7.4204     35.0995     76.3385
  1062.5000     39.3389     -7.1995     33.9919     72.9532
  1062.7500     39.3517     -6.9670     32.6728     70.7882
  1063.0000     39.1418     -6.7227     31.2275     68.9263
  1063.2500     38.4420     -6.4784     29.7223     69.2831
  1063.5000     37.1977     -6.2490     28.2063     72.1854
  1063.7500     35.5062     -6.0460     26.7244     74.9926
  1064.0000     33.4465     -5.8788     25.3225     79.2942
  1064.2500     31.0867     -5.7550     24.0362     82.1106
  1064.5000     28.6030     -5.6754     22.8754     86.9865
  1064.7500     26.2708     -5.6342     21.8204     91.1319
  1065.0000     24.2334     -5.6332     20.8349     98.9629
  1065.2500     22.3942     -5.6924     19.8879    105.1220
  1065.5000     20.6425     -5.8373     18.9690    115.1023
  1065.7500     19.0019     -6.0690     18.0873    121.7521
  1066.0000     17.5441     -6.3488     17.2594    131.2340
  1066.2500     16.3697     -6.6188     16.4962    137.1723
  1066.5000     15.5899     -6.8386     15.7998    145.0446
  1066.7500     15.2135     -7.0030     15.1671    148.9718
  1067.0000     15.1450     -7.1236     14.5940    152.0249
  1067.2500     15.2566     -7.2010     14.0762    152.2233
  1067.5000     15.4184     -7.2218     13.6066    150.6997
  1067.7500     15.5185     -7.1828     13.1771    149.2720
