~Version Information
 VERS.                                  2.0 : CWLS LAS VERSION
 WRAP.                                   NO : WRAPING MODE
 SWARE .                 MController 2.5.0J : SOFTWARE VERSION
~Well Information
 WELL.              Cock-A-Doodle-Doo 44-27 : WELL
 COMP.      Pioneer Natural Resources, Inc. : COMPANY
 FLD.                      Purgatoire River : FIELD
 LOC.                SE/SE Sec.27 T32S R67W : LOCATION
 DATE.                              6/30/05 : DATE(S) LOGGED
 SRVC.       BLANCO Geological Services LLC : SERVICE COMPANY
 STAT.                                   CO : STATE
 CNTY.                           Las Animas : COUNTY
 CTRY.                                  USA : COUNTRY
 API.                             071 08429 : API NUMBER
 STRT.FT                             394.00 : START DEPTH
 STOP.FT                            2540.00 : STOP DEPTH
 STEP.FT                               1.00 : DEPTH INCREMENT
 NULL.                                -9999 : NULL VALUE
~Curve information
 DEPTH.FT                                   :
 ROP.MIN/FT                                 :
 GAS.UNITS                                  :
~ASCII Log data
# ...
      2394.0         0.33        219.1 
      2395.0         0.33        222.2 
      2396.0         3.02        222.1 
      2397.0         0.83        270.8 
      2398.0         0.55        380.6 
      2399.0         0.50        460.0 
      2400.0         0.53        462.9 
      2401.0         0.53        430.1 
      2402.0         0.53        351.9 
      2403.0         0.47        268.5 
      2404.0         0.40        217.3 
      2405.0         0.45        195.6 
      2406.0         0.50        200.2 
      2407.0         0.47        204.9 
      2408.0         0.47        204.8 
      2409.0         0.50        202.4 
      2410.0         0.50        199.3 
      2411.0         0.47        197.3 
      2412.0         0.48        194.8 
      2413.0         0.50        191.6 
      2414.0         0.53        190.7 
      2415.0         0.53        190.1 
      2416.0         0.50        189.1 
      2417.0         0.50        186.7 
      2418.0         0.48        185.6 
      2419.0         0.57        185.5 
      2420.0         0.37        184.2 
      2421.0         0.23        183.9 
      2422.0         0.27        184.0 
      2423.0         0.23        183.8 
      2424.0         0.20        186.7 
      2425.0         0.33        199.9 
      2426.0         2.08        218.9 
      2427.0         0.57        212.1 
      2428.0         0.43        302.6 
      2429.0         0.37        414.9 
      2430.0         0.37        985.3 
      2431.0         0.30       1025.4 
      2432.0         0.28       1019.7 
      2433.0         0.27        948.9 
      2434.0         0.30        864.3 
      2435.0         0.27        771.7 
      2436.0         0.20        702.0 
      2437.0         0.27        658.2 
      2438.0         0.27        606.9 
      2439.0         0.23        563.8 
      2440.0         0.20        529.5 
      2441.0         0.20        503.5 
      2442.0         0.20        484.6 
      2443.0         0.23        465.1 
      2444.0         0.20        444.9 
      2445.0         0.23        440.0 
      2446.0         0.28        223.8 
      2447.0         0.30        222.3 
      2448.0         0.27        221.3 
      2449.0         0.27        218.9 
      2450.0         0.27        215.2 
      2451.0         0.23        210.2 
      2452.0         0.27        206.1 
      2453.0         0.23        203.3 
      2454.0         0.27        202.2 
      2455.0         0.23        201.4 
      2456.0         3.38        229.0 
      2457.0         0.47        348.8 
      2458.0         0.45        932.1 
      2459.0         0.37       1022.0 
      2460.0         0.37       1025.1 
      2461.0         0.33        960.7 
      2462.0         0.27        847.2 
      2463.0         0.33        762.6 
      2464.0         0.23        674.0 
      2465.0         0.23        623.8 
      2466.0         0.33        578.0 
      2467.0         0.47        524.7 
      2468.0         0.27        461.4 
      2469.0         0.28        440.0 
      2470.0         0.27        229.3 
      2471.0         0.27        223.3 
      2472.0         0.30        219.8 
      2473.0         0.30        217.1 
      2474.0         0.27        214.3 
      2475.0         0.30        210.8 
      2476.0         0.27        206.0 
      2477.0         0.30        201.8 
      2478.0         0.30        197.9 
      2479.0         0.27        195.5 
      2480.0         0.32        194.5 
      2481.0         0.27        193.9 
      2482.0         0.30        193.6 
      2483.0         0.27        193.0 
      2484.0         0.30        192.1 
      2485.0         0.27        190.9 
      2486.0         2.78        192.6 
      2487.0         0.33        259.9 
      2488.0         0.57        427.2 
      2489.0         0.43       1073.2 
      2490.0         0.37       1221.1 
      2491.0         0.37       1244.4 
      2492.0         0.45       1210.0 
      2493.0         0.60       1008.2 
      2494.0         0.37        767.0 
      2495.0         0.30        661.9 
      2496.0         0.27        596.5 
      2497.0         0.27        549.7 
      2498.0         0.27        508.9 
      2499.0         0.27        474.9 
      2500.0         0.27        448.6 
      2501.0         0.27        440.0 
      2502.0         0.23        231.1 
      2503.0         0.25        228.4 
      2504.0         0.23        226.2 
      2505.0         0.23        223.4 
      2506.0         0.27        220.0 
      2507.0         0.30        215.7 
      2508.0         0.23        211.1 
      2509.0         0.33        208.0 
      2510.0         0.33        204.9 
      2511.0         0.30        202.7 
      2512.0         0.27        199.3 
      2513.0         0.27        198.3 
      2514.0         0.30        199.0 
      2515.0         0.28        199.0 
      2516.0         3.75        292.7 
      2517.0         0.60        466.0 
      2518.0         0.47        923.6 
      2519.0         0.43        887.3 
      2520.0         0.33        778.1 
      2521.0         0.37        723.5 
      2522.0         0.33        658.8 
      2523.0         0.33        596.5 
      2524.0         0.38        544.6 
      2525.0         0.47        499.8 
      2526.0         0.40        457.7 
      2527.0         0.40        440.0 
      2528.0         0.23        232.2 
      2529.0         0.33        230.1 
      2530.0         0.30        228.3 
      2531.0         0.23        226.1 
      2532.0         0.27        223.3 
      2533.0         0.30        220.1 
      2534.0         0.28        216.4 
      2535.0         0.30        213.6 
      2536.0         0.40        207.9 
      2537.0         0.33        170.3 
      2538.0         0.37        136.3 
      2539.0         0.37        121.1 
      2540.0         0.40        128.2 
