~Version Information
VERS.                      2.0: CWLS Log ASCII Standard - VERSION 2.0
WRAP.                       NO: One line per depth step
~Well Information Block
STRT.FT               294.0000: 
STOP.FT              1958.0000: 
STEP.FT                 0.1000: 
NULL.                -999.2500: 
COMP.          Pioneer Natural Resources: COMPANY
WELL.          Commander 43-26 Tr: WELL
FLD.           Purgatoire River: FIELD
LOC.           2439' FSL & 446' FEL: LOCATION
PROV.                 Colorado: PROVINCE
CNTY.               Las Animas: COUNTRY
SRVC.                Patterson: SERVICE COMPANY
DATE.          Fri Apr 15 07:31:08 2005: LOG DATE
UWI.           05 071 08341 00: UNIQUE WELL ID
~Curve Information Block
DEPT.FT            0 000 00 00: Depth
DCAL.in                       : CDL Caliper
RHOB.g/cc                     : CDL Bulk Density
RHOC.g/cc                     : CDL Density Correction
DPOR.pu                       : CDL Density Porosity
GR.GAPI                       : Gamma Ray
NPOR.pu                       : Neutron Porosity
~Parameter Information Block
~A  Depth       DCAL        RHOB        RHOC        DPOR         GR         NPOR    
# ...
  1618.8000      7.8696      2.6045      0.0616      2.7576     87.7014     17.8445
  1618.9000      7.8696      2.6250      0.0777      1.5171     86.8705     17.5597
  1619.0000      7.8473      2.6365      0.0696      0.8178     83.4258     17.6610
  1619.1000      7.8473      2.6292      0.1269      1.2624     82.0504     17.6057
  1619.2000      7.8473      2.6073      0.0688      2.5895     81.2591     17.2200
  1619.3000      7.8441      2.5872      0.0142      3.8061     78.4326     16.7509
  1619.4000      7.8441      2.5706      0.0344      4.8118     75.4341     16.6774
  1619.5000      7.8385      2.5510     -0.0282      6.0020     75.4488     17.1852
  1619.6000      7.8385      2.5399     -0.0598      6.6733     76.6797     17.6309
  1619.7000      7.8385      2.5454     -0.0430      6.3389     74.4002     17.9595
  1619.8000      7.8636      2.5622     -0.0363      5.3212     69.2290     18.9378
  1619.9000      7.8636      2.5823     -0.0026      4.1054     66.6299     20.1317
  1620.0000      7.8786      2.5977      0.0299      3.1682     67.7021     20.3673
  1620.1000      7.8786      2.6086      0.0381      2.5068     70.9764     19.5605
  1620.2000      7.8786      2.6180      0.1298      1.9402     75.3879     18.9434
  1620.3000      7.8837      2.6243      0.1211      1.5596     78.7625     19.1210
  1620.4000      7.8837      2.6287      0.1095      1.2896     81.8632     19.4672
  1620.5000      7.8322      2.6336      0.1513      0.9914     86.6111     19.8079
  1620.6000      7.8322      2.6424      0.0802      0.4630     92.2876     20.4011
  1620.7000      7.8322      2.6548      0.1222     -0.2936     93.7863     20.7623
  1620.8000      7.7972      2.6576      0.0825     -0.4590     87.8931     20.6270
  1620.9000      7.7972      2.6333      0.0995      1.0139     81.2699     20.5625
  1621.0000      7.8142      2.5851      0.0531      3.9323     81.3051     21.0442
  1621.1000      7.8142      2.5404      0.0156      6.6395     85.2233     21.8970
  1621.2000      7.8142      2.5121     -0.0436      8.3579     86.2661     22.8139
  1621.3000      7.8602      2.4957     -0.0236      9.3513     84.6275     23.5136
  1621.4000      7.8602      2.4981     -0.0220      9.2048     84.0021     23.2175
  1621.5000      7.8790      2.5203      0.0323      7.8624     85.3268     21.8807
  1621.6000      7.8790      2.5460      0.0567      6.3055     88.8663     21.2028
  1621.7000      7.8790      2.5736      0.0537      4.6312     94.9111     22.1433
  1621.8000      7.8593      2.6074      0.1229      2.5843    101.3505     23.7146
  1621.9000      7.8593      2.6361      0.1565      0.8450    105.4859     24.5801
  1622.0000      7.8477      2.6603      0.0818     -0.6248    106.9589     24.2286
  1622.1000      7.8477      2.6864      0.2082     -2.2046    105.4807     23.3454
  1622.2000      7.8477      2.6977      0.2431     -2.8889    101.7865     22.5882
  1622.3000      7.8413      2.6935      0.1663     -2.6375     97.8486     22.0813
  1622.4000      7.8413      2.6912      0.2262     -2.4955     95.1088     22.1692
  1622.5000      7.7767      2.6810      0.1482     -1.8793     94.1248     22.8046
  1622.6000      7.7767      2.6457      0.1120      0.2622     93.2854     23.2403
  1622.7000      7.7767      2.5975      0.0491      3.1804     93.0924     22.9553
  1622.8000      7.8300      2.5735     -0.0155      4.6363     95.4959     22.1338
  1622.9000      7.8300      2.5901      0.0248      3.6304     96.0747     21.4558
  1623.0000      7.8683      2.6194      0.0729      1.8544     92.0235     21.2414
  1623.1000      7.8683      2.6194      0.0907      1.8534     90.0942     21.1268
  1623.2000      7.8683      2.5875      0.0111      3.7867     93.0233     21.0632
  1623.3000      7.8743      2.5642     -0.0012      5.2010     94.4469     21.5250
  1623.4000      7.8743      2.5786     -0.0017      4.3268     91.2989     22.3786
  1623.5000      7.8703      2.6184      0.0507      1.9140     88.9603     22.5522
  1623.6000      7.8703      2.6508      0.0922     -0.0506     89.8018     21.7682
  1623.7000      7.8703      2.6567      0.0519     -0.4032     89.1735     20.8389
  1623.8000      7.8440      2.6429      0.0958      0.4279     87.3822     20.2381
  1623.9000      7.8440      2.6286      0.0091      1.2966     87.1278     19.9927
  1624.0000      7.8971      2.6260      0.0645      1.4528     86.1280     19.8028
  1624.1000      7.8971      2.6267      0.0840      1.4098     84.5781     19.3503
  1624.2000      7.8971      2.6236      0.0537      1.5997     86.6760     18.5515
  1624.3000      7.8689      2.6255      0.0746      1.4863     91.5787     17.8597
  1624.4000      7.8689      2.6346      0.0790      0.9323     93.4246     18.0040
  1624.5000      7.8240      2.6451      0.1144      0.2985     91.8747     18.9354
  1624.6000      7.8240      2.6495      0.1275      0.0319     91.2335     19.9497
  1624.7000      7.8240      2.6396      0.1045      0.6299     90.7360     20.4313
  1624.8000      7.8487      2.6227      0.0381      1.6559     89.3165     20.2268
  1624.9000      7.8487      2.6171      0.0717      1.9943     89.3381     19.8936
  1625.0000      7.8479      2.6263      0.1017      1.4366     90.2743     20.2645
  1625.1000      7.8479      2.6439      0.0718      0.3725     89.6848     21.5862
  1625.2000      7.8479      2.6645      0.0591     -0.8798     88.4783     22.8198
  1625.3000      7.8527      2.6762      0.1178     -1.5904     88.6720     23.0977
  1625.4000      7.8527      2.6727      0.1281     -1.3751     89.1944     23.3122
  1625.5000      7.8745      2.6683      0.0671     -1.1088     87.8554     23.9360
  1625.6000      7.8745      2.6758      0.0661     -1.5643     83.8630     24.0140
  1625.7000      7.8745      2.6880      0.0849     -2.3013     78.0637     23.0833
  1625.8000      7.7974      2.6883      0.1079     -2.3191     73.5615     22.0170
  1625.9000      7.7974      2.6624      0.1027     -0.7489     74.7686     22.0530
  1626.0000      7.8420      2.6144      0.0499      2.1550     81.8924     22.8345
  1626.1000      7.8420      2.5666      0.0282      5.0549     88.9439     23.0227
  1626.2000      7.8420      2.5307      0.0229      7.2306     91.6067     22.6911
  1626.3000      7.8571      2.5112     -0.0229      8.4111     92.1133     22.6366
  1626.4000      7.8571      2.5089      0.0378      8.5494     95.5253     23.2157
  1626.5000      7.8446      2.5056      0.0350      8.7516    102.5080     24.3201
  1626.6000      7.8446      2.4911      0.0034      9.6286    107.9817     25.0070
  1626.7000      7.8446      2.4781      0.0616     10.4181    109.9016     24.5689
  1626.8000      7.8333      2.4801      0.0894     10.2979    109.5969     24.1177
  1626.9000      7.8333      2.5047      0.1057      8.8086    107.6043     24.5187
  1627.0000      7.8210      2.5497      0.1371      6.0781    105.1927     25.0499
  1627.1000      7.8210      2.6030      0.1672      2.8461    100.6500     25.4515
  1627.2000      7.8210      2.6463      0.2668      0.2228     91.1791     25.7120
  1627.3000      7.7920      2.6721      0.2429     -1.3406     82.0828     25.2535
  1627.4000      7.7920      2.6903      0.2304     -2.4438     81.7008     24.1604
  1627.5000      7.7340      2.6973      0.2403     -2.8667     86.5545     23.4904
  1627.6000      7.7340      2.6791      0.1873     -1.7637     88.1834     23.6825
  1627.7000      7.7340      2.6488      0.0996      0.0755     88.6658     24.1432
  1627.8000      7.7462      2.6337      0.1312      0.9907     92.5037     24.5680
  1627.9000      7.7462      2.6337      0.1137      0.9873     96.1626     24.8403
  1628.0000      7.8160      2.6241      0.0938      1.5727     96.2456     24.4087
  1628.1000      7.8160      2.5950      0.0529      3.3328     94.7300     23.3443
  1628.2000      7.8160      2.5620      0.0335      5.3316     93.7831     22.7155
  1628.3000      7.8342      2.5359      0.0398      6.9152     92.0364     22.7026
