~Version Information
VERS.                      2.0: CWLS Log ASCII Standard - VERSION 2.0
WRAP.                       NO: One line per depth step
~Well Information Block
STRT.FT               -19.0000: 
STOP.FT              1343.5000: 
STEP.FT                 0.5000: 
NULL.                -999.2500: 
COMP.          Evergreen Operating Corporation: COMPANY
WELL.            Trigger 13-35: WELL
FLD.           Purgatorie River: FIELD
LOC.           2245' FSL & 594' FWL: LOCATION
PROV.                 Colorado: PROVINCE
CNTY.               Las Animas: COUNTRY
SRVC.                         : SERVICE COMPANY
DATE.          Mon Jun 23 12:06:52 2003: LOG DATE
UWI.           05-071-07838-00: UNIQUE WELL ID
~Curve Information Block
DEPT.FT            0 000 00 00: Depth
TT3.usec                      : CBL 3' Travel Time
AMP3.mV                       : CBL 3' Amplitude
GR.GAPI                       : Gamma Ray
CCL.                          : Casing Collar Locator
~Parameter Information Block
~A  Depth       TT3         AMP3         GR         CCL     
# ...
   182.0000    769.7386      2.5362     69.8513      0.0000
   182.5000    757.9512      2.5099     72.5987      0.0000
   183.0000    770.2802      2.5022     78.5040      0.0000
   183.5000    790.2557      2.6181     85.7591      0.0000
   184.0000    772.7377      2.7724     94.2691      0.0000
   184.5000    758.8197      2.8088    103.7929      0.0000
   185.0000    780.9686      2.7991    106.7013      0.0000
   185.5000    827.3326      2.8757    103.3813      0.0000
   186.0000    843.3109      2.9212    101.9286      0.0000
   186.5000    824.4203      2.9515    101.7825      0.0000
   187.0000    793.3527      3.0422    104.6932      0.0000
   187.5000    801.3734      3.1224    104.4521      0.0000
   188.0000    816.8760      3.1607     94.2519      0.0000
   188.5000    813.2712      3.0609     80.2653      0.0000
   189.0000    812.3077      2.9777     74.3101      0.0000
   189.5000    813.4958      2.8910     76.5952      0.0000
   190.0000    826.5453      2.6508     79.0313      0.0000
   190.5000    845.4720      2.3271     81.9989      0.0000
   191.0000    851.3115      1.9656     88.4182      0.0000
   191.5000    852.4575      1.8120     92.5499      0.0000
   192.0000    852.1974      1.8030     90.9709      0.0000
   192.5000    843.1854      1.7016     89.2797      0.0000
   193.0000    805.5385      1.7293     92.4431      0.0000
   193.5000    764.6299      1.7879    100.0733      0.0000
   194.0000    745.5513      1.7455    102.5293      0.0000
   194.5000    741.4791      1.7211     95.3887      0.0000
   195.0000    734.4975      1.7435     91.7422      0.0000
   195.5000    715.2298      1.8367     98.3549      0.0000
   196.0000    711.0670      1.8556    107.7957      0.0000
   196.5000    722.4716      1.8886    110.5415      0.0000
   197.0000    731.7676      1.8953    105.7808      0.0000
   197.5000    722.7661      1.9581     97.4580      0.0000
   198.0000    711.5432      2.0961     91.5660      0.0000
   198.5000    707.7905      2.1418     89.5143      0.0000
   199.0000    706.8976      2.2110     92.9654      0.0000
   199.5000    711.9945      2.2619     99.2713      0.0000
   200.0000    719.6780      2.2868    104.5627      0.0000
   200.5000    712.1560      2.3641    108.1087      0.0000
   201.0000    706.6843      2.3609    110.4135      0.0000
   201.5000    706.4546      2.4039    110.4280      0.0000
   202.0000    703.4865      2.3816    113.4669      0.0000
   202.5000    699.3558      2.3814    115.0662      0.0000
   203.0000    729.6082      2.3291    109.9371      0.0000
   203.5000    814.8781      2.2883    107.9753      0.0000
   204.0000    861.8698      2.3990    107.2950      0.0000
   204.5000    840.5418      2.5295    104.1388      0.0000
   205.0000    773.6774      2.7130    103.1160      0.0000
   205.5000    717.6936      2.8040    101.3411      0.0000
   206.0000    705.9656      2.8016     97.2667      0.0000
   206.5000    707.7604      2.7912     95.4822      0.0000
   207.0000    730.0684      2.6739     95.5013      0.0000
   207.5000    766.6020      2.6219    100.3857      0.0000
   208.0000    766.3312      2.6041    101.2942      0.0000
   208.5000    753.2994      2.5195     97.7952      0.0000
   209.0000    724.4279      2.4013     93.8794      0.0000
   209.5000    716.0081      2.2702     87.0430      0.0000
   210.0000    713.0851      2.2904     82.9971      0.0000
   210.5000    708.3881      2.3273     85.9235      0.0000
   211.0000    707.0435      2.3989     88.5372      0.0000
   211.5000    704.9579      2.5127     90.5590      0.0000
   212.0000    704.3458      2.4448     93.5129      0.0000
   212.5000    705.9678      2.4433     92.7506      0.0000
   213.0000    707.6792      2.4846     94.2365      0.0000
   213.5000    706.8755      2.3923     96.6302      0.0000
   214.0000    705.8923      2.2780     98.0468      0.0000
   214.5000    705.5197      2.3638     97.0507      0.0000
   215.0000    704.3156      2.3701     84.7488      0.0000
   215.5000    704.2368      2.2182     72.4235      0.0000
   216.0000    715.4659      1.9752     68.4838      0.0000
   216.5000    777.0922      1.6242     73.8229      0.0000
   217.0000    835.4312      1.4299     81.2649      0.0000
   217.5000    798.2540      1.3915     81.0039     -5.0000
   218.0000    866.2315      1.3151     79.8898      0.0000
   218.5000    925.2944      1.3789     84.9039      0.0000
   219.0000    867.1982      1.8498     88.5370      0.0000
   219.5000    879.5181      2.7062     83.7848      0.0000
   220.0000    959.7791      3.2737     75.4430      0.0000
   220.5000    988.9066      3.2522     74.0844      0.0000
   221.0000    932.8713      3.1176     78.2030      0.0000
   221.5000    896.5865      3.0357     84.0009      0.0000
   222.0000    829.6965      2.7025     94.4785      0.0000
   222.5000    806.6478      2.1588    100.4292      0.0000
   223.0000    844.0266      1.9534     96.1403      0.0000
   223.5000    867.2490      1.9109     82.0182      0.0000
   224.0000    863.6291      1.7483     67.8957      0.0000
   224.5000    860.4141      1.5925     69.2262      0.0000
   225.0000    858.0164      1.6175     78.0526      0.0000
   225.5000    848.2227      1.6558     80.3962      0.0000
   226.0000    830.1707      1.5860     77.4254      0.0000
   226.5000    815.7208      1.5289     74.9863      0.0000
   227.0000    732.2131      1.5119     72.5011      0.0000
   227.5000    601.8331      1.3824     71.4537      0.0000
   228.0000    622.7258      1.2393     78.9495      0.0000
   228.5000    690.5550      1.2827     90.6421      0.0000
   229.0000    741.7979      1.2825     94.3461      0.0000
   229.5000    730.5684      1.2003     94.9515      0.0000
   230.0000    671.8622      1.1319     95.4124      0.0000
   230.5000    633.6702      1.0536     92.0018      0.0000
   231.0000    599.8706      1.0219     87.3312      0.0000
   231.5000    573.0432      1.0702     87.6196      0.0000
   232.0000    538.8934      1.2938     90.3078      0.0000
   232.5000    606.5479      1.5263     86.9194      0.0000
   233.0000    718.7103      1.6654     83.4012      0.0000
   233.5000    751.0199      1.8191     82.8120      0.0000
   234.0000    741.9268      1.8250     79.4943      0.0000
   234.5000    702.5403      1.7427     79.5076      0.0000
   235.0000    600.5508      1.9177     81.5555      0.0000
   235.5000    538.0540      2.1943     80.9429      0.0000
   236.0000    594.4821      2.2063     80.1903      0.0000
   236.5000    699.2060      2.1534     80.9612      0.0000
   237.0000    732.1494      2.3388     84.7610      0.0000
   237.5000    718.5074      2.5325     88.9488      0.0000
   238.0000    693.4877      2.4216     89.8248      0.0000
   238.5000    655.1373      2.2560     91.4890      0.0000
   239.0000    623.0168      2.2228     95.0948      0.0000
   239.5000    549.5140      2.2924     90.3170      0.0000
   240.0000    550.4428      2.4282     83.0885      0.0000
   240.5000    639.1067      2.5583     80.5882      0.0000
   241.0000    644.6153      2.6125     80.1390      0.0000
   241.5000    552.3725      2.4692     82.6587      0.0000
   242.0000    519.4959      2.1750     90.1106      0.0000
   242.5000    514.5157      2.1764     92.4833      0.0000
   243.0000    506.2715      2.4635     88.2198      0.0000
   243.5000    506.3889      2.4277     86.1209      0.0000
   244.0000    516.0797      2.1868     88.6220      0.0000
   244.5000    550.1199      2.2211     94.2787      0.0000
   245.0000    628.6328      2.2581     95.1490      0.0000
   245.5000    593.4576      2.1313     88.7366      0.0000
   246.0000    557.9410      1.9441     84.6411      0.0000
   246.5000    650.5485      1.8126     87.6315      0.0000
   247.0000    723.2497      1.8035     93.7191      0.0000
   247.5000    690.5058      1.5794     98.1189      0.0000
   248.0000    617.8878      1.3305     92.7482      0.0000
   248.5000    580.6806      1.3694     86.0627      0.0000
