~Version Information
VERS.                      2.0: CWLS Log ASCII Standard - VERSION 2.0
WRAP.                       NO: One line per depth step
~Well Information Block
STRT.FT               521.6000: 
STOP.FT              1490.2000: 
STEP.FT                 0.1000: 
NULL.                -999.2500: 
COMP.          Petrogulf Corporation: COMPANY
WELL.          Robinson 15-11R: WELL
FLD.           Purgatorie River: FIELD
LOC.           324' FNL & 570' FWL: LOCATION
CNTY.               Las Animas: COUNTY
SRVC.                         : SERVICE COMPANY
DATE.          Sat Nov 06 22:43:15 2004: LOG DATE
UWI.           05 071 08029 00: UNIQUE WELL ID
STAT.                 Colorado: STATE
~Curve Information Block
DEPT.FT            0 000 00 00: Depth
DCAL.in                       : CDL Caliper
RHOB.g/cc                     : CDL Bulk Density
RHOC.g/cc                     : CDL Density Correction
DPOR.pu                       : CDL Density Porosity
GR.GAPI                       : Gamma Ray
NPOR.pu                       : Neutron Porosity
~Parameter Information Block
~A  Depth       DCAL        RHOB        RHOC        DPOR         GR         NPOR    
# ...
  1107.2000      7.8686      2.5390      0.0589      6.7253    119.9406     23.5105
  1107.3000      7.8955      2.5328      0.0420      7.1050    116.5655     22.7399
  1107.4000      7.8955      2.5291      0.1020      7.3287    121.8681     21.8692
  1107.5000      7.8565      2.5268      0.0502      7.4663    131.5053     21.5835
  1107.6000      7.8565      2.5291      0.0430      7.3296    138.7520     21.7774
  1107.7000      7.8565      2.5348      0.0824      6.9806    141.1542     22.1259
  1107.8000      7.8617      2.5449      0.0731      6.3673    139.7645     22.4853
  1107.9000      7.8617      2.5582      0.0762      5.5658    138.0155     22.9851
  1108.0000      7.8843      2.5558      0.0623      5.7067    142.6202     23.6277
  1108.1000      7.8843      2.5258      0.0551      7.5271    154.9305     24.3587
  1108.2000      7.8843      2.4879      0.0355      9.8237    164.4803     25.1217
  1108.3000      7.8816      2.4742     -0.0189     10.6571    166.5830     25.5728
  1108.4000      7.8816      2.4923      0.0558      9.5584    168.0627     25.4539
  1108.5000      7.8979      2.5199      0.0513      7.8839    171.1477     24.8724
  1108.6000      7.8979      2.5324      0.0840      7.1272    171.1750     24.4483
  1108.7000      7.8979      2.5228      0.0625      7.7101    166.9281     24.5966
  1108.8000      7.8919      2.5028      0.0294      8.9199    161.2755     24.9428
  1108.9000      7.8919      2.4874      0.0720      9.8550    155.3930     25.3320
  1109.0000      7.8483      2.4858      0.0151      9.9487    150.8749     26.2232
  1109.1000      7.8483      2.5002      0.0292      9.0816    150.8370     27.2357
  1109.2000      7.8483      2.5220      0.0228      7.7571    152.1275     27.1876
  1109.3000      7.8783      2.5451      0.0589      6.3595    148.1786     26.0239
  1109.4000      7.8783      2.5653      0.1342      5.1326    140.9525     24.7130
  1109.5000      7.8887      2.5826      0.1132      4.0830    135.4028     23.7208
  1109.6000      7.8887      2.6108      0.1174      2.3735    128.2225     22.8145
  1109.7000      7.8887      2.6518      0.2319     -0.1069    118.0214     21.9767
  1109.8000      7.7984      2.6807      0.2717     -1.8619    111.2446     21.6988
  1109.9000      7.7984      2.6838      0.1945     -2.0455    109.7024     21.8925
  1110.0000      7.7739      2.6710      0.1833     -1.2721    110.0574     22.0371
  1110.1000      7.7739      2.6513      0.0923     -0.0801    110.8661     22.1879
  1110.2000      7.7739      2.6359      0.0962      0.8536    110.7559     22.2719
  1110.3000      7.7472      2.6348      0.0732      0.9203    105.9485     22.0197
  1110.4000      7.7472      2.6460      0.0752      0.2407     99.8927     21.8520
  1110.5000      7.7528      2.6567      0.0890     -0.4071    100.9140     22.2594
  1110.6000      7.7528      2.6505      0.1192     -0.0323    106.6169     22.9416
  1110.7000      7.7528      2.6240      0.1133      1.5730    109.0497     23.3774
  1110.8000      7.8224      2.5931      0.0313      3.4458    105.4583     23.5163
  1110.9000      7.8224      2.5708      0.0612      4.8007     99.9122     23.5963
  1111.0000      7.8304      2.5575      0.0244      5.6079     98.7835     23.4966
  1111.1000      7.8304      2.5600      0.0578      5.4536    102.2737     23.1095
  1111.2000      7.8304      2.5774      0.0542      4.3983    106.3941     22.8027
  1111.3000      7.8398      2.5953      0.0532      3.3144    107.8833     22.8136
  1111.4000      7.8398      2.6096      0.0451      2.4465    105.6702     22.8824
  1111.5000      7.8333      2.6189      0.0863      1.8877    101.4934     22.7397
  1111.6000      7.8333      2.6208      0.0530      1.7716     98.7415     22.6423
  1111.7000      7.8333      2.6268      0.0976      1.4035     98.8717     22.6745
  1111.8000      7.8212      2.6380      0.1111      0.7252    100.0861     22.7500
  1111.9000      7.8212      2.6361      0.0975      0.8406    102.0199     22.8950
  1112.0000      7.8541      2.6172      0.0576      1.9902    108.1308     22.8113
  1112.1000      7.8541      2.6013      0.0794      2.9503    117.2929     22.5618
  1112.2000      7.8541      2.6046      0.0694      2.7537    122.4255     22.7964
  1112.3000      7.8475      2.6116      0.1460      2.3258    123.3629     23.4656
  1112.4000      7.8475      2.5998      0.0853      3.0418    126.1280     24.0105
  1112.5000      7.8614      2.5814      0.0695      4.1594    132.7154     24.1466
  1112.6000      7.8614      2.5758      0.0937      4.4995    140.5675     23.9192
  1112.7000      7.8614      2.5746      0.0949      4.5689    145.5347     23.7477
  1112.8000      7.8764      2.5676      0.0714      4.9965    145.1953     24.0523
  1112.9000      7.8764      2.5609      0.0513      5.4027    141.6901     24.7438
  1113.0000      7.8553      2.5617      0.0734      5.3519    138.0727     25.3272
  1113.1000      7.8553      2.5673      0.0616      5.0122    135.8567     25.6258
  1113.2000      7.8553      2.5735      0.0714      4.6336    136.6951     25.9134
  1113.3000      7.8479      2.5708      0.0991      4.8008    142.2605     26.1829
  1113.4000      7.8479      2.5489      0.1072      6.1292    148.9858     25.9961
  1113.5000      7.8589      2.5217      0.0180      7.7741    154.7774     25.3942
  1113.6000      7.8589      2.5079      0.0452      8.6144    162.8458     24.9241
  1113.7000      7.8589      2.5094      0.0148      8.5196    171.4534     25.0560
  1113.8000      7.8669      2.5230      0.0795      7.6948    175.4258     25.6296
  1113.9000      7.8669      2.5359      0.0796      6.9122    176.1324     26.0527
  1114.0000      7.8550      2.5449      0.0741      6.3690    176.3684     26.5204
  1114.1000      7.8550      2.5667      0.0816      5.0478    175.6816     27.3492
  1114.2000      7.8550      2.5969      0.1121      3.2163    176.0975     27.9320
  1114.3000      7.8965      2.6047      0.1305      2.7477    173.8964     27.9128
  1114.4000      7.8965      2.5801      0.0945      4.2353    166.0779     27.7325
  1114.5000      7.8965      2.5383      0.1206      6.7672    162.1185     27.5993
  1114.6000      7.8965      2.4971      0.0322      9.2692    165.2587     27.6087
  1114.7000      7.8965      2.4746      0.0056     10.6300    166.4139     27.8493
  1114.8000      7.8830      2.4813     -0.0047     10.2226    162.6126     28.1434
  1114.9000      7.8830      2.5036      0.0895      8.8721    161.0287     28.3407
  1115.0000      7.8996      2.5058      0.1192      8.7377    165.1519     28.1148
  1115.1000      7.8996      2.4763      0.0359     10.5265    169.3960     27.2675
  1115.2000      7.8996      2.4398      0.0060     12.7400    167.8650     26.2284
  1115.3000      7.8889      2.4172      0.0118     14.1089    163.2504     25.3873
  1115.4000      7.8889      2.4116      0.0086     14.4515    161.9184     25.0445
  1115.5000      7.8874      2.4176      0.0154     14.0847    164.4804     25.3870
  1115.6000      7.8874      2.4241      0.0321     13.6918    167.4879     26.1371
  1115.7000      7.8874      2.4204      0.0684     13.9159    168.5186     26.7116
  1115.8000      7.8647      2.4155      0.0292     14.2133    166.6397     26.8888
  1115.9000      7.8647      2.4242      0.1215     13.6833    163.8234     26.8196
  1116.0000      7.8570      2.4410      0.1562     12.6666    165.3319     26.8780
  1116.1000      7.8570      2.4634      0.1296     11.3101    171.2287     27.4329
  1116.2000      7.8570      2.5061      0.1911      8.7201    172.9739     28.1686
  1116.3000      7.8759      2.5752      0.2822      4.5347    166.2639     28.5261
  1116.4000      7.8759      2.6499      0.3341      0.0049    158.7660     28.5471
  1116.5000      7.8386      2.6991      0.3116     -2.9764    156.4290     28.6104
  1116.6000      7.8386      2.7215      0.2774     -4.3304    157.3562     28.6924
  1116.7000      7.8386      2.7376      0.2939     -5.3084    158.5736     28.7388
