~Version Information
VERS.                      2.0: CWLS Log ASCII Standard - VERSION 2.0
WRAP.                       NO: One line per depth step
~Well Information Block
STRT.FT               -19.0000: 
STOP.FT              1343.5000: 
STEP.FT                 0.5000: 
NULL.                -999.2500: 
COMP.          Evergreen Operating Corporation: COMPANY
WELL.            Trigger 13-35: WELL
FLD.           Purgatorie River: FIELD
LOC.           2245' FSL & 594' FWL: LOCATION
PROV.                 Colorado: PROVINCE
CNTY.               Las Animas: COUNTRY
SRVC.                         : SERVICE COMPANY
DATE.          Mon Jun 23 12:06:52 2003: LOG DATE
UWI.           05-071-07838-00: UNIQUE WELL ID
~Curve Information Block
DEPT.FT            0 000 00 00: Depth
TT3.usec                      : CBL 3' Travel Time
AMP3.mV                       : CBL 3' Amplitude
GR.GAPI                       : Gamma Ray
CCL.                          : Casing Collar Locator
~Parameter Information Block
~A  Depth       TT3         AMP3         GR         CCL     
# ...
   584.0000    772.0406      2.1537    101.2459      0.0000
   584.5000    780.6952      2.3104     97.7889      0.0000
   585.0000    801.8138      2.4301     93.1373      0.0000
   585.5000    805.3474      2.4149     87.8872      0.0000
   586.0000    774.7520      2.3603     85.7982      0.0000
   586.5000    763.2397      2.3732     91.1998      0.0000
   587.0000    764.5087      2.3316     98.8240      0.0000
   587.5000    766.9464      2.3091    100.6348      0.0000
   588.0000    740.5710      2.3764    102.9709      0.0000
   588.5000    696.4760      2.4416    116.2488      0.0000
   589.0000    747.3634      2.3780    131.3479      0.0000
   589.5000    787.3795      2.1955    129.3854      0.0000
   590.0000    778.7596      2.0749    115.4830      0.0000
   590.5000    785.0093      2.0344    100.0388      0.0000
   591.0000    784.6141      2.0456     87.6830      0.0000
   591.5000    772.6378      2.0149     89.8782      0.0000
   592.0000    770.8044      1.9800    102.0828      0.0000
   592.5000    771.0682      2.0009    114.8001      0.0000
   593.0000    770.5105      1.9286    112.9980      0.0000
   593.5000    770.2543      1.8829    100.1020      0.0000
   594.0000    770.4248      1.9716     94.1074      0.0000
   594.5000    771.9563      2.0073     96.2927      0.0000
   595.0000    782.6123      2.0162    101.5890      0.0000
   595.5000    815.5961      2.1757    115.7960      0.0000
   596.0000    836.9853      2.2383    138.6162      0.0000
   596.5000    833.3730      2.1615    154.6315      0.0000
   597.0000    814.3152      2.1518    152.8282      0.0000
   597.5000    808.2282      2.1856    142.3283      0.0000
   598.0000    804.0881      2.2244    139.0211      0.0000
   598.5000    791.5885      2.2080    145.3774      0.0000
   599.0000    783.9846      2.2142    150.0495      0.0000
   599.5000    797.4269      2.2139    145.0837      0.0000
   600.0000    800.4059      2.2119    138.5924      0.0000
   600.5000    791.8768      2.1943    135.9824      0.0000
   601.0000    761.3300      2.2476    135.7430      0.0000
   601.5000    709.4821      2.2690    141.8661      0.0000
   602.0000    692.7124      2.3488    149.0956      0.0000
   602.5000    744.4063      2.4020    144.7383      0.0000
   603.0000    767.4136      2.4030    126.5051      0.0000
   603.5000    767.9662      2.3661    111.6857      0.0000
   604.0000    767.2515      2.3693    103.5966      0.0000
   604.5000    766.5995      2.3626    101.0976      0.0000
   605.0000    766.6426      2.4252    104.4212      0.0000
   605.5000    770.2438      2.1774    108.0676      0.0000
   606.0000    781.9870      1.7338    115.8645      0.0000
   606.5000    811.7338      1.5794    124.4068      0.0000
   607.0000    828.6671      1.4732    126.6679      0.0000
   607.5000    821.0468      1.3966    127.9989      5.0000
   608.0000    809.3318      1.4493    128.5030      0.0000
   608.5000    797.6266      1.6248    125.2318      0.0000
   609.0000    809.5104      2.0244    124.7320      0.0000
   609.5000    832.0644      2.2457    123.8311      0.0000
   610.0000    835.2311      2.1599    115.3795      0.0000
   610.5000    821.4564      2.1264    101.8614      0.0000
   611.0000    790.8209      2.1920     92.2740      0.0000
   611.5000    697.5397      2.3046     87.9560      0.0000
   612.0000    628.3400      2.3633     90.4794      0.0000
   612.5000    651.7025      2.3447     99.5543      0.0000
   613.0000    728.3353      2.3903    107.7235      0.0000
   613.5000    761.3839      2.2795    109.3927      0.0000
   614.0000    774.1625      2.2763    106.6366      0.0000
   614.5000    796.2885      2.2476    104.4264      0.0000
   615.0000    818.6906      2.1761    105.2305      0.0000
   615.5000    833.3025      2.1869    114.6259      0.0000
   616.0000    830.4448      2.1422    123.3241      0.0000
   616.5000    812.1974      2.1242    123.2736      0.0000
   617.0000    799.3220      2.0934    124.8996      0.0000
   617.5000    797.1066      1.9604    133.0412      0.0000
   618.0000    794.4438      1.8433    144.9531      0.0000
   618.5000    791.2776      1.8537    156.3509      0.0000
   619.0000    802.6841      1.9042    165.9910      0.0000
   619.5000    804.8663      1.8994    152.6463      0.0000
   620.0000    805.3596      1.9696    122.1738      0.0000
   620.5000    813.6159      1.9325    105.7705      0.0000
   621.0000    765.3232      1.9620    106.6360      0.0000
   621.5000    696.6981      2.0979    119.9586      0.0000
   622.0000    626.1835      2.1681    128.4936      0.0000
   622.5000    648.3907      2.2898    126.7775      0.0000
   623.0000    750.9449      2.3494    127.0036      0.0000
   623.5000    787.0388      2.3712    127.2054      0.0000
   624.0000    776.2155      2.3964    120.5897      0.0000
   624.5000    779.6522      2.4448    115.1917      0.0000
   625.0000    780.6221      2.5550    113.9665      0.0000
   625.5000    785.4244      2.6255    111.7142      0.0000
   626.0000    795.2190      2.6811    109.0710      0.0000
   626.5000    793.1597      2.6768    108.0487      0.0000
   627.0000    780.3746      2.7019    118.0796      0.0000
   627.5000    772.4061      2.7365    136.2222      0.0000
   628.0000    773.6277      2.6744    153.9134      0.0000
   628.5000    747.6508      2.6656    155.0881      0.0000
   629.0000    747.3564      2.6379    140.5447      0.0000
   629.5000    790.5178      2.5813    129.6137      0.0000
   630.0000    789.1389      2.6301    121.3582      0.0000
   630.5000    752.7914      2.5441    109.6581      0.0000
   631.0000    724.7464      2.4800     96.1000      0.0000
   631.5000    743.6755      2.4446     90.5329      0.0000
   632.0000    763.0168      2.3984     93.6646      0.0000
   632.5000    765.5763      2.3529     94.8084      0.0000
   633.0000    766.3663      2.2432     93.7464      0.0000
   633.5000    766.3546      2.1234     96.0806      0.0000
   634.0000    766.9539      2.0823    104.3886      0.0000
   634.5000    769.1028      2.0449    121.2135      0.0000
   635.0000    770.3010      2.0027    137.4019      0.0000
   635.5000    769.5795      2.0849    149.5898      0.0000
   636.0000    770.5189      2.1091    162.6333      0.0000
   636.5000    782.7006      2.2276    172.7078      0.0000
   637.0000    800.7576      2.1784    167.6746      0.0000
   637.5000    799.8281      1.9691    154.2118      0.0000
   638.0000    794.6579      1.9447    145.6615      0.0000
   638.5000    791.2857      1.9902    129.1848      0.0000
   639.0000    788.0498      1.9667    113.9283      0.0000
   639.5000    783.5533      2.0440    119.6244      0.0000
   640.0000    790.8243      2.0781    138.0370      0.0000
   640.5000    775.7562      2.0254    155.1749      0.0000
   641.0000    694.4233      2.0191    167.1049      0.0000
   641.5000    598.8373      2.0418    170.2277      0.0000
   642.0000    567.9946      2.2052    163.5104      0.0000
   642.5000    566.7870      2.2943    151.6732      0.0000
   643.0000    611.3018      2.3324    138.0858      0.0000
   643.5000    677.2236      2.3535    125.8677      0.0000
   644.0000    738.9579      2.3263    121.9161      0.0000
   644.5000    762.1576      2.3154    124.4060      0.0000
   645.0000    755.0543      2.3958    128.5909      0.0000
   645.5000    690.4041      2.2993    132.5773      0.0000
   646.0000    601.4265      2.2461    129.1526      0.0000
   646.5000    608.3475      2.2512    118.2201      0.0000
   647.0000    638.9764      2.2510    109.3984      0.0000
   647.5000    593.8458      2.2221    106.7622      0.0000
   648.0000    558.9967      2.1749    106.4024      0.0000
   648.5000    592.9176      2.0094    105.9005      0.0000
   649.0000    692.8464      1.6951    105.9937      0.0000
   649.5000    754.2394      1.5279    106.2543      0.0000
   650.0000    777.3102      1.4668    108.0246      0.0000
   650.5000    789.0445      1.4469    107.4889     -5.0000
