~Version Information
 VERS.                                  2.0 : CWLS LAS VERSION
 WRAP.                                   NO : WRAPING MODE
 SWARE .                 MController 2.5.0J : SOFTWARE VERSION
~Well Information
 WELL.                         Sliva 01-43V : WELL
 COMP.                Petrogulf Corporation : COMPANY
 FLD.                      Purgatoire River : FIELD
 LOC.                 NE/SE Sec 1 T33S R68W : LOCATION
 DATE.                          08/26-27/05 : DATE(S) LOGGED
 SRVC.       BLANCO Geological Services LLC : SERVICE COMPANY
 STAT.                                   CO : STATE
 CNTY.                           Las Animas : COUNTY
 CTRY.                                  USA : COUNTRY
 API.                       05-071-08371-00 : API NUMBER
 STRT.FT                             503.00 : START DEPTH
 STOP.FT                            2764.00 : STOP DEPTH
 STEP.FT                               1.00 : DEPTH INCREMENT
 NULL.                                -9999 : NULL VALUE
~Curve information
 DEPTH.FT                                   :
 ROP.MIN/FT                                 :
 GAS.UNITS                                  :
~ASCII Log data
# ...
      2103.0         0.70          6.8 
      2104.0         0.78          6.9 
      2105.0         0.67          7.9 
      2106.0         0.50          7.5 
      2107.0         0.40          6.3 
      2108.0         0.37          5.0 
      2109.0         0.37          4.3 
      2110.0         0.37          4.3 
      2111.0         0.38          5.3 
      2112.0         0.40          6.0 
      2113.0         0.47          6.3 
      2114.0         0.47          5.8 
      2115.0         0.43          5.3 
      2116.0         0.40          4.3 
      2117.0         0.47          4.2 
      2118.0         0.43          4.4 
      2119.0         0.52          5.7 
      2120.0         0.47          6.0 
      2121.0         0.43          6.1 
      2122.0         0.50          6.0 
      2123.0         0.50          5.5 
      2124.0         0.50          5.2 
      2125.0         0.52          5.1 
      2126.0         0.37          4.8 
      2127.0         0.40          4.8 
      2128.0         0.43          4.2 
      2129.0         0.43          3.9 
      2130.0         0.53          8.7 
      2131.0         0.43         17.4 
      2132.0         2.75        133.9 
      2133.0         0.83         35.4 
      2134.0         0.65         11.6 
      2135.0         0.57          7.5 
      2136.0         0.60          6.3 
      2137.0         0.43          6.1 
      2138.0         0.43          5.6 
      2139.0         0.40          5.2 
      2140.0         0.40          4.5 
      2141.0         0.38          4.2 
      2142.0         0.37          4.3 
      2143.0         0.30          3.9 
      2144.0         0.33          4.0 
      2145.0         0.43          4.1 
      2146.0         0.37          4.3 
      2147.0         0.43          4.2 
      2148.0         0.40          4.2 
      2149.0         0.48          4.3 
      2150.0         0.33          4.0 
      2151.0         0.30          3.8 
      2152.0         0.30          4.3 
      2153.0         0.30          4.3 
      2154.0         0.33          4.6 
      2155.0         0.33          5.9 
      2156.0         0.30          6.5 
      2157.0         0.37          5.8 
      2158.0         0.30          4.0 
      2159.0         0.32          4.1 
      2160.0         0.27          5.7 
      2161.0         0.30         10.2 
      2162.0         2.58        182.6 
      2163.0         0.47         63.1 
      2164.0         0.57         34.6 
      2165.0         0.67         18.5 
      2166.0         0.57         11.4 
      2167.0         0.47         10.3 
      2168.0         0.48          9.8 
      2169.0         0.43          8.4 
      2170.0         0.37          5.4 
      2171.0         0.33          4.3 
      2172.0         0.40          4.0 
      2173.0         0.43          3.7 
      2174.0         0.43          3.9 
      2175.0         0.45          3.7 
      2176.0         0.40          4.0 
      2177.0         0.33          4.4 
      2178.0         0.40          4.3 
      2179.0         0.37          4.1 
      2180.0         0.40          4.0 
      2181.0         0.37          3.9 
      2182.0         0.35          4.0 
      2183.0         0.37          4.2 
      2184.0         0.37          4.2 
      2185.0         0.33          3.8 
      2186.0         0.33          4.4 
      2187.0         0.47          4.3 
      2188.0         0.60          3.8 
      2189.0         0.52          4.1 
      2190.0         0.37          5.4 
      2191.0         0.37         10.5 
      2192.0         0.33         27.6 
      2193.0         0.37         60.9 
      2194.0         1.32        110.7 
      2195.0         0.50         63.7 
      2196.0         0.53         39.4 
      2197.0         0.47         46.1 
      2198.0         0.67         46.3 
      2199.0         0.53         39.5 
      2200.0         0.62         34.9 
      2201.0         0.43         27.2 
      2202.0         0.37         20.2 
      2203.0         0.33         15.0 
      2204.0         0.30         11.7 
      2205.0         0.37          9.3 
      2206.0         0.47          7.3 
      2207.0         0.43          8.8 
      2208.0         0.38          9.9 
      2209.0         0.27          9.9 
      2210.0         0.27          9.8 
      2211.0         0.27          9.4 
      2212.0         0.30          7.9 
      2213.0         0.27          5.6 
      2214.0         0.30          4.6 
      2215.0         0.40          4.4 
      2216.0         0.37          4.0 
      2217.0         0.33          4.3 
      2218.0         0.35          5.3 
      2219.0         0.33          6.1 
      2220.0         0.30          6.0 
      2221.0         0.37          4.7 
      2222.0         0.37          4.1 
      2223.0         0.33          4.0 
      2224.0         3.58        140.6 
      2225.0         0.47         38.3 
      2226.0         0.43         20.6 
      2227.0         0.52         13.1 
      2228.0         0.73          8.4 
      2229.0         0.77          6.5 
      2230.0         0.63          5.5 
      2231.0         0.37          4.8 
      2232.0         0.40          4.4 
      2233.0         0.42          4.3 
      2234.0         0.50          4.2 
      2235.0         0.40          4.1 
      2236.0         0.43          3.8 
      2237.0         0.47          4.0 
      2238.0         0.47          3.8 
      2239.0         0.43          3.5 
      2240.0         0.52          3.9 
      2241.0         0.33          3.9 
      2242.0         0.37          4.2 
      2243.0         0.47          4.3 
      2244.0         0.37          4.2 
      2245.0         0.43          4.5 
      2246.0         0.33          4.7 
      2247.0         0.40          4.6 
      2248.0         0.45          4.7 
      2249.0         0.43          4.4 
      2250.0         0.50          4.7 
      2251.0         0.53          4.4 
      2252.0         0.60          4.2 
      2253.0         0.57          4.1 
      2254.0         4.10         70.6 
      2255.0         0.70         10.6 
      2256.0         0.57          7.9 
      2257.0         0.40          6.6 
      2258.0         0.53          6.9 
      2259.0         0.37          6.6 
      2260.0         0.42          6.4 
      2261.0         0.37          6.1 
      2262.0         0.30          6.0 
      2263.0         0.33          5.8 
      2264.0         0.33          5.4 
      2265.0         0.40          5.2 
      2266.0         0.40          5.0 
      2267.0         0.43          5.0 
      2268.0         0.47          4.4 
      2269.0         0.45          4.9 
      2270.0         0.53          4.5 
      2271.0         0.47          4.8 
      2272.0         0.40          5.0 
      2273.0         0.30          4.9 
      2274.0         0.30          5.0 
      2275.0         0.30          5.2 
      2276.0         0.33          4.9 
      2277.0         0.48          5.3 
      2278.0         0.47          4.8 
      2279.0         0.37          4.5 
      2280.0         0.43          4.2 
      2281.0         0.37          4.6 
      2282.0         0.33          5.7 
      2283.0         0.37         13.7 
      2284.0         2.18        133.1 
      2285.0         0.37         49.3 
      2286.0         0.20         31.4 
      2287.0         0.20         23.6 
      2288.0         0.27         20.0 
      2289.0         0.62         14.7 
      2290.0         0.43         10.7 
      2291.0         0.67          9.0 
      2292.0         0.53          8.0 
      2293.0         0.67          8.0 
      2294.0         0.27          7.3 
      2295.0         0.33          6.5 
      2296.0         0.35          6.2 
      2297.0         0.37          5.5 
      2298.0         0.33          5.1 
      2299.0         0.33          5.3 
      2300.0         0.37          7.0 
      2301.0         0.33          7.2 
      2302.0         0.27          6.8 
