~Version Information
VERS.                      2.0: CWLS Log ASCII Standard - VERSION 2.0
WRAP.                       NO: One line per depth step
~Well Information Block
STRT.FT               460.5000: 
STOP.FT              2197.0000: 
STEP.FT                 0.2500: 
NULL.                -999.2500: 
COMP.          Petrogulf Corporation: COMPANY
WELL.              Silva 1-43R: WELL
FLD.           Purgatorie River: FIELD
LOC.           1971' FSL & 526' FEL: LOCATION
CNTY.               Las Animas: COUNTY
SRVC.                Patterson: SERVICE COMPANY
DATE.          Sun Jun 18 03:37:26 2006: LOG DATE
UWI.           05 071 08372 00: UNIQUE WELL ID
STAT.                 Colorado: STATE
~Curve Information Block
DEPT.FT            0 000 00 00: Depth
SN.Ohm-m                      : IEL Short Normal
SP.mV                         : IEL Spontaneous Potential
DIR.Ohm-m                     : IEL Induction Resistivity
GR.GAPI                       : Gamma Ray
~Parameter Information Block
~A  Depth        SN          SP         DIR          GR     
# ...
  1834.0000     34.4191     36.9271     34.1960     71.6076
  1834.2500     34.2345     36.9047     32.6292     70.8642
  1834.5000     34.0154     36.8578     31.5545     70.8902
  1834.7500     33.7534     36.7854     30.8917     71.7592
  1835.0000     33.4898     36.6879     30.5103     74.2096
  1835.2500     33.2670     36.5705     30.3059     76.1778
  1835.5000     33.0834     36.4464     30.2070     78.5815
  1835.7500     32.8975     36.3361     30.1523     79.4150
  1836.0000     32.6664     36.2602     30.0753     79.5546
  1836.2500     32.3743     36.2301     29.9199     79.2056
  1836.5000     32.0319     36.2420     29.6695     78.4522
  1836.7500     31.6637     36.2784     29.3650     77.8461
  1837.0000     31.3047     36.3148     29.0768     76.6391
  1837.2500     30.9926     36.3315     28.8576     75.6662
  1837.5000     30.7433     36.3247     28.7141     74.5473
  1837.7500     30.5486     36.3096     28.6154     74.5153
  1838.0000     30.4011     36.3097     28.5239     75.7016
  1838.2500     30.2926     36.3428     28.4199     76.7804
  1838.5000     30.1988     36.4135     28.3033     77.6755
  1838.7500     30.0968     36.5148     28.1819     77.6179
  1839.0000     29.9956     36.6342     28.0654     77.1130
  1839.2500     29.9313     36.7576     27.9719     76.7611
  1839.5000     29.9319     36.8692     27.9319     75.9981
  1839.7500     29.9952     36.9523     27.9779     75.1287
  1840.0000     30.0904     36.9955     28.1260     73.4872
  1840.2500     30.1767     36.9995     28.3677     72.5533
  1840.5000     30.2455     36.9780     28.6826     71.9381
  1840.7500     30.3329     36.9492     29.0564     72.1004
  1841.0000     30.4696     36.9265     29.4840     72.8254
  1841.2500     30.6500     36.9132     29.9538     73.2476
  1841.5000     30.8641     36.9043     30.4352     73.2423
  1841.7500     31.1246     36.8921     30.8866     72.8061
  1842.0000     31.4463     36.8712     31.2809     72.1498
  1842.2500     31.8106     36.8391     31.6196     72.2095
  1842.5000     32.1662     36.7928     31.9222     73.2806
  1842.7500     32.4810     36.7295     32.2020     74.2617
  1843.0000     32.7705     36.6496     32.4541     75.2050
  1843.2500     33.0428     36.5582     32.6653     75.2961
  1843.5000     33.2551     36.4619     32.8292     75.2331
  1843.7500     33.3461     36.3684     32.9495     75.7081
  1844.0000     33.2938     36.2873     33.0291     78.0919
  1844.2500     33.1283     36.2285     33.0592     80.8397
  1844.5000     32.8873     36.2002     33.0240     85.6066
  1844.7500     32.5875     36.2062     32.9164     88.1100
  1845.0000     32.2499     36.2430     32.7462     89.3542
  1845.2500     31.9122     36.2982     32.5345     88.4941
  1845.5000     31.6101     36.3536     32.3011     86.0150
  1845.7500     31.3678     36.3946     32.0584     84.4087
  1846.0000     31.1961     36.4178     31.8153     82.3687
  1846.2500     31.0869     36.4330     31.5824     80.7896
  1846.5000     31.0224     36.4593     31.3704     77.1937
  1846.7500     30.9860     36.5160     31.1803     73.8981
  1847.0000     30.9510     36.6114     30.9968     68.5004
  1847.2500     30.8774     36.7366     30.7943     65.4669
  1847.5000     30.7428     36.8685     30.5554     62.8729
  1847.7500     30.5504     36.9814     30.2869     62.4840
  1848.0000     30.3084     37.0575     30.0189     63.1030
  1848.2500     30.0368     37.0910     29.7854     63.7744
  1848.5000     29.7747     37.0885     29.6015     64.7399
  1848.7500     29.5499     37.0654     29.4549     65.4179
  1849.0000     29.3571     37.0406     29.3166     66.7375
  1849.2500     29.1816     37.0293     29.1651     67.8063
  1849.5000     29.0258     37.0352     29.0015     69.2740
  1849.7500     28.9009     37.0497     28.8445     69.8608
  1850.0000     28.8074     37.0593     28.7131     69.9975
  1850.2500     28.7375     37.0548     28.6141     69.7503
  1850.5000     28.6829     37.0345     28.5418     69.1437
  1850.7500     28.6370     36.9995     28.4811     68.5692
  1851.0000     28.5959     36.9481     28.4121     67.3912
  1851.2500     28.5561     36.8744     28.3145     66.5729
  1851.5000     28.5084     36.7732     28.1738     65.8993
  1851.7500     28.4407     36.6472     27.9871     66.1127
  1852.0000     28.3540     36.5090     27.7656     67.5554
  1852.2500     28.2686     36.3780     27.5335     69.1049
  1852.5000     28.2116     36.2728     27.3218     71.6996
  1852.7500     28.2024     36.2047     27.1586     73.2084
  1853.0000     28.2468     36.1753     27.0649     74.7764
  1853.2500     28.3356     36.1760     27.0563     75.3379
  1853.5000     28.4495     36.1905     27.1443     75.3196
  1853.7500     28.5734     36.2016     27.3288     74.5237
  1854.0000     28.7045     36.2012     27.5874     72.0902
  1854.2500     28.8432     36.1974     27.8772     70.0324
  1854.5000     28.9863     36.2121     28.1530     67.4465
  1854.7500     29.1328     36.2671     28.3884     66.5945
  1855.0000     29.2947     36.3672     28.5810     66.6514
  1855.2500     29.5091     36.4970     28.7372     67.0363
  1855.5000     29.8081     36.6337     28.8549     66.9900
  1855.7500     30.1667     36.7617     28.9216     66.3168
  1856.0000     30.5257     36.8731     28.9312     65.0343
  1856.2500     30.8443     36.9604     28.9038     64.6434
  1856.5000     31.1229     37.0157     28.8876     65.2668
  1856.7500     31.4001     37.0373     28.9387     66.1842
  1857.0000     31.7038     37.0351     29.0922     67.1920
  1857.2500     32.0074     37.0254     29.3438     67.1964
  1857.5000     32.2724     37.0218     29.6524     66.5952
  1857.7500     32.4981     37.0279     29.9605     66.4226
  1858.0000     32.7073     37.0369     30.2212     67.0870
  1858.2500     32.9121     37.0361     30.4123     67.8534
  1858.5000     33.1072     37.0135     30.5351     68.5483
  1858.7500     33.2902     36.9642     30.6036     68.5229
  1859.0000     33.4640     36.8907     30.6383     68.4183
  1859.2500     33.6215     36.8000     30.6619     68.9226
  1859.5000     33.7475     36.6978     30.6906     71.1511
  1859.7500     33.8359     36.5868     30.7240     73.4534
  1860.0000     33.8967     36.4690     30.7446     77.0830
  1860.2500     33.9377     36.3498     30.7313     78.9917
  1860.5000     33.9435     36.2397     30.6789     80.7911
  1860.7500     33.9015     36.1509     30.6056     81.4793
  1861.0000     33.8315     36.0924     30.5446     81.8719
  1861.2500     33.7666     36.0653     30.5225     81.5111
  1861.5000     33.7266     36.0633     30.5356     79.8485
  1861.7500     33.7171     36.0773     30.5416     78.2403
  1862.0000     33.7363     36.1012     30.4820     75.9106
  1862.2500     33.7765     36.1334     30.3298     74.8260
  1862.5000     33.8307     36.1738     30.1177     73.8991
  1862.7500     33.9012     36.2235     29.9156     73.2027
  1863.0000     33.9935     36.2874     29.7767     70.9151
  1863.2500     34.1023     36.3742     29.7048     68.5200
  1863.5000     34.2071     36.4902     29.6654     64.9452
  1863.7500     34.2835     36.6315     29.6252     63.5028
  1864.0000     34.3229     36.7810     29.5808     63.3417
  1864.2500     34.3431     36.9130     29.5569     64.2881
  1864.5000     34.3776     37.0038     29.5791     66.3132
  1864.7500     34.4453     37.0426     29.6476     67.4599
  1865.0000     34.5413     37.0385     29.7345     68.1402
  1865.2500     34.6600     37.0164     29.8058     67.8125
  1865.5000     34.8055     37.0052     29.8474     66.3900
  1865.7500     34.9792     37.0229     29.8701     64.9552
  1866.0000     35.1860     37.0675     29.8946     62.2491
  1866.2500     35.4341     37.1212     29.9348     60.2761
  1866.5000     35.7169     37.1647     29.9958     57.5892
  1866.7500     36.0124     37.1892     30.0781     56.3045
  1867.0000     36.2962     37.1981     30.1800     55.5609
  1867.2500     36.5517     37.1982     30.2955     55.8753
