~Version Information
 VERS.                      2.0: CWLS Log ASCII Standard - VERSION 2.0
 WRAP.                       NO: One line per depth step
 ~Well Information Block
 STRT.FT               130.0000: 
 STOP.FT              1766.9000: 
 STEP.FT                 0.1000: 
 NULL.                -999.2500: 
 COMP.          Petrogulf Corporation: COMPANY
 WELL.           Parsons 23-15V: WELL
 FLD.           Purgatorie River: FIELD
 LOC.           2095' FSL & 1817' FWL--API 05 071 07556 00----: LOCATION
 CNTY.               Las Animas: COUNTY
 SRVC.                         : SERVICE COMPANY
 DATE.          Fri Apr 19 17:40:55 2002: LOG DATE
 UWI.                          : UNIQUE WELL ID
 STAT.                       CO: STATE
 PROV.                         :Province
 ~Curve Information Block
 DEPT.FT            0 000 00 00: Depth
 DCAL.in                       : CDL Caliper
 RHOB.g/cc                     : CDL Bulk Density
 RHOC.g/cc                     : CDL Density Correction
 DPOR.pu                       : CDL Density Porosity
 GR.GAPI                       : Gamma Ray
 NPOR.pu                       : Neutron Porosity
 ~Parameter Information Block
 ~A  Depth       DCAL        RHOB        RHOC        DPOR         GR         NPOR    
# ...
   898.0000      7.8193      2.5798      0.0505      4.2547    143.6450     24.6847
   898.1000      7.8193      2.5778      0.0536      4.3748    147.3524     24.9965
   898.2000      7.8193      2.5763      0.0570      4.4680    150.7911     25.2884
   898.3000      7.8167      2.5752      0.0607      4.5336    153.8964     25.5533
   898.4000      7.8167      2.5746      0.0643      4.5725    156.6123     25.7861
   898.5000      7.8178      2.5743      0.0676      4.5874    158.9019     25.9827
   898.6000      7.8178      2.5744      0.0705      4.5819    160.7457     26.1411
   898.7000      7.8178      2.5748      0.0728      4.5603    162.1496     26.2609
   898.8000      7.8252      2.5753      0.0743      4.5275    163.1401     26.3431
   898.9000      7.8252      2.5759      0.0752      4.4882    163.7683     26.3898
   899.0000      7.8386      2.5766      0.0753      4.4469    164.1010     26.4037
   899.1000      7.8386      2.5773      0.0750      4.4077    164.2178     26.3890
   899.2000      7.8386      2.5778      0.0744      4.3739    164.2012     26.3505
   899.3000      7.8574      2.5782      0.0736      4.3489    164.1364     26.2946
   899.4000      7.8574      2.5785      0.0728      4.3353    164.1012     26.2294
   899.5000      7.8810      2.5785      0.0721      4.3357    164.1685     26.1641
   899.6000      7.8810      2.5782      0.0716      4.3524    164.3952     26.1081
   899.7000      7.8810      2.5776      0.0712      4.3877    164.8262     26.0703
   899.8000      7.9036      2.5767      0.0707      4.4433    165.4845     26.0570
   899.9000      7.9036      2.5754      0.0702      4.5210    166.3718     26.0714
   900.0000      7.9101      2.5737      0.0693      4.6214    167.4627     26.1136
   900.1000      7.9101      2.5717      0.0680      4.7449    168.7087     26.1809
   900.2000      7.9101      2.5693      0.0664      4.8902    170.0408     26.2691
   900.3000      7.8892      2.5666      0.0643      5.0554    171.3811     26.3752
   900.4000      7.8892      2.5636      0.0619      5.2372    172.6563     26.4965
   900.5000      7.8699      2.5604      0.0594      5.4311    173.8071     26.6333
   900.6000      7.8699      2.5571      0.0570      5.6316    174.8003     26.7860
   900.7000      7.8699      2.5538      0.0548      5.8324    175.6227     26.9548
   900.8000      7.8741      2.5506      0.0530      6.0268    176.2881     27.1377
   900.9000      7.8741      2.5476      0.0520      6.2078    176.8151     27.3297
   901.0000      7.8930      2.5449      0.0517      6.3687    177.2233     27.5222
   901.1000      7.8930      2.5427      0.0522      6.5031    177.5236     27.7048
   901.2000      7.8930      2.5410      0.0536      6.6057    177.7109     27.8657
   901.3000      7.9044      2.5399      0.0557      6.6721    177.7711     27.9950
   901.4000      7.9044      2.5395      0.0585      6.6989    177.6872     28.0856
   901.5000      7.8973      2.5397      0.0619      6.6845    177.4514     28.1345
   901.6000      7.8973      2.5406      0.0656      6.6287    177.0675     28.1431
   901.7000      7.8973      2.5422      0.0694      6.5324    176.5558     28.1159
   901.8000      7.8895      2.5444      0.0732      6.3983    175.9490     28.0594
   901.9000      7.8895      2.5472      0.0767      6.2303    175.2788     27.9809
   902.0000      7.8906      2.5505      0.0797      6.0331    174.5651     27.8870
   902.1000      7.8906      2.5541      0.0822      5.8122    173.8069     27.7828
   902.2000      7.8906      2.5580      0.0839      5.5740    172.9795     27.6708
   902.3000      7.8989      2.5621      0.0848      5.3244    172.0363     27.5506
   902.4000      7.8989      2.5664      0.0848      5.0693    170.9246     27.4191
   902.5000      7.9143      2.5706      0.0841      4.8139    169.5993     27.2707
   902.6000      7.9143      2.5747      0.0828      4.5628    168.0308     27.0987
   902.7000      7.9143      2.5787      0.0808      4.3192    166.2215     26.8973
   902.8000      7.9219      2.5826      0.0784      4.0855    164.1968     26.6618
   902.9000      7.9219      2.5863      0.0759      3.8628    162.0004     26.3906
   903.0000      7.9074      2.5898      0.0733      3.6511    159.6757     26.0862
   903.1000      7.9074      2.5931      0.0709      3.4500    157.2596     25.7538
   903.2000      7.9074      2.5962      0.0687      3.2583    154.7648     25.4004
   903.3000      7.8931      2.5993      0.0667      3.0745    152.1837     25.0349
   903.4000      7.8931      2.6022      0.0649      2.8971    149.4897     24.6647
   903.5000      7.8859      2.6050      0.0631      2.7251    146.6547     24.2960
   903.6000      7.8859      2.6078      0.0611      2.5577    143.6544     23.9326
   903.7000      7.8859      2.6105      0.0587      2.3947    140.4851     23.5757
   903.8000      7.8752      2.6131      0.0559      2.2365    137.1658     23.2244
   903.9000      7.8752      2.6156      0.0525      2.0838    133.7370     22.8768
   904.0000      7.8616      2.6180      0.0487      1.9380    130.2553     22.5316
   904.1000      7.8616      2.6203      0.0446      1.8008    126.7910     22.1888
   904.2000      7.8616      2.6224      0.0404      1.6739    123.4143     21.8522
   904.3000      7.8538      2.6243      0.0364      1.5592    120.1883     21.5290
   904.4000      7.8538      2.6259      0.0329      1.4585    117.1668     21.2309
   904.5000      7.8519      2.6273      0.0301      1.3733    114.3850     20.9732
   904.6000      7.8519      2.6285      0.0282      1.3053    111.8637     20.7714
   904.7000      7.8519      2.6293      0.0273      1.2557    109.6013     20.6410
   904.8000      7.8506      2.6298      0.0274      1.2256    107.5847     20.5926
   904.9000      7.8506      2.6299      0.0284      1.2158    105.7885     20.6303
   905.0000      7.8438      2.6298      0.0302      1.2272    104.1863     20.7504
   905.1000      7.8438      2.6292      0.0326      1.2605    102.7595     20.9410
   905.2000      7.8438      2.6283      0.0353      1.3161    101.5047     21.1835
   905.3000      7.8321      2.6270      0.0382      1.3945    100.4365     21.4559
   905.4000      7.8321      2.6253      0.0411      1.4962     99.5920     21.7352
   905.5000      7.8243      2.6232      0.0438      1.6213     99.0219     22.0023
   905.6000      7.8243      2.6208      0.0461      1.7697     98.7876     22.2433
   905.7000      7.8243      2.6180      0.0480      1.9409     98.9514     22.4514
   905.8000      7.8207      2.6148      0.0493      2.1340     99.5668     22.6263
   905.9000      7.8207      2.6113      0.0499      2.3474    100.6777     22.7735
   906.0000      7.8213      2.6074      0.0498      2.5788    102.3124     22.9013
   906.1000      7.8213      2.6034      0.0490      2.8250    104.4786     23.0190
   906.2000      7.8213      2.5991      0.0476      3.0820    107.1646     23.1356
   906.3000      7.8287      2.5948      0.0457      3.3449    110.3344     23.2591
   906.4000      7.8287      2.5905      0.0436      3.6080    113.9264     23.3953
   906.5000      7.8419      2.5862      0.0415      3.8648    117.8539     23.5488
   906.6000      7.8419      2.5822      0.0397      4.1085    122.0052     23.7210
   906.7000      7.8419      2.5785      0.0385      4.3324    126.2528     23.9112
   906.8000      7.8529      2.5753      0.0382      4.5295    130.4601     24.1151
   906.9000      7.8529      2.5726      0.0387      4.6934    134.4971     24.3257
   907.0000      7.8611      2.5705      0.0402      4.8184    138.2516     24.5328
   907.1000      7.8611      2.5691      0.0425      4.9001    141.6365     24.7243
   907.2000      7.8611      2.5686      0.0454      4.9349    144.5979     24.8887
   907.3000      7.8651      2.5688      0.0488      4.9214    147.1189     25.0160
   907.4000      7.8651      2.5698      0.0523      4.8590    149.2112     25.1000
   907.5000      7.8628      2.5716      0.0557      4.7498    150.9088     25.1397
