~Version Information
VERS.                      2.0: CWLS Log ASCII Standard - VERSION 2.0
WRAP.                       NO: One line per depth step
~Well Information Block
STRT.FT               952.6000: 
STOP.FT              2511.5000: 
STEP.FT                 0.1000: 
NULL.                -999.2500: 
COMP.          Petrogulf Corporation: COMPANY
WELL.             Royal 8-33 V: WELL
FLD.           Purgatoire River: FIELD
LOC.           2365' FSL & 2336' FEL: LOCATION
PROV.                 Colorado: PROVINCE
CNTY.               Las Animas: COUNTRY
SRVC.                Patterson: SERVICE COMPANY
DATE.          Fri Dec 05 09:15:49 2003: LOG DATE
UWI.                          : UNIQUE WELL ID
~Curve Information Block
DEPT.FT            0 000 00 00: Depth
DCAL.in                       : CDL Caliper
RHOB.g/cc                     : CDL Bulk Density
RHOC.g/cc                     : CDL Density Correction
DPOR.pu                       : CDL Density Porosity
GR.GAPI                       : Gamma Ray
NPOR.pu                       : Neutron Porosity
~Parameter Information Block
~A  Depth       DCAL        RHOB        RHOC        DPOR         GR         NPOR    
# ...
  1787.8000      8.1254      2.6016      0.1117      2.9351    122.9087     19.5682
  1787.9000      8.1254      2.6042      0.1528      2.7743    114.7479     19.2936
  1788.0000      8.1404      2.5967      0.0684      3.2305    111.9484     18.7082
  1788.1000      8.1404      2.5958      0.1042      3.2858    116.1027     17.8969
  1788.2000      8.1404      2.6115      0.0904      2.3359    121.1726     17.2410
  1788.3000      8.1922      2.6410      0.0764      0.5473    120.8030     16.9231
  1788.4000      8.1922      2.6799      0.1524     -1.8146    117.8527     16.7791
  1788.5000      8.1900      2.7124      0.1850     -3.7823    116.1117     16.7157
  1788.6000      8.1900      2.7199      0.1682     -4.2334    113.3789     16.8023
  1788.7000      8.1900      2.7036      0.1335     -3.2498    109.0132     16.6940
  1788.8000      8.1729      2.6804      0.1256     -1.8396    108.1911     16.2390
  1788.9000      8.1729      2.6640      0.0560     -0.8506    109.7721     15.8719
  1789.0000      8.1629      2.6584      0.0538     -0.5071    106.1141     15.6345
  1789.1000      8.1629      2.6590      0.1247     -0.5429     99.3706     15.4102
  1789.2000      8.1629      2.6633      0.0974     -0.8086     96.8123     15.3163
  1789.3000      8.1301      2.6675      0.1223     -1.0610     99.2583     15.1961
  1789.4000      8.1301      2.6582      0.0952     -0.4970    103.5274     14.7447
  1789.5000      8.1288      2.6377      0.0281      0.7450    105.4812     14.1457
  1789.6000      8.1288      2.6296      0.0662      1.2342    102.4963     14.0895
  1789.7000      8.1288      2.6453      0.0758      0.2870     95.6293     14.9122
  1789.8000      8.1498      2.6655      0.1578     -0.9417     88.5113     16.0646
  1789.9000      8.1498      2.6677      0.0977     -1.0757     84.6160     16.6106
  1790.0000      8.1400      2.6568      0.1194     -0.4105     83.6771     16.1960
  1790.1000      8.1400      2.6428      0.0749      0.4393     84.9862     15.5256
  1790.2000      8.1400      2.6289      0.0554      1.2797     90.2015     15.4361
  1790.3000      8.1324      2.6221      0.0791      1.6922     99.8241     15.6717
  1790.4000      8.1324      2.6207      0.1168      1.7750    110.2053     15.4550
  1790.5000      8.1279      2.6122      0.1072      2.2885    114.8658     14.8441
  1790.6000      8.1279      2.5997      0.0224      3.0469    111.1367     14.3286
  1790.7000      8.1279      2.6080      0.0677      2.5472    103.6689     14.0883
  1790.8000      8.1398      2.6413      0.1180      0.5246     97.9216     14.0607
  1790.9000      8.1398      2.6677      0.1731     -1.0745     94.7938     14.0258
  1791.0000      8.1565      2.6677      0.0791     -1.0715     91.8872     13.8607
  1791.1000      8.1565      2.6577      0.0925     -0.4688     86.5243     13.9347
  1791.2000      8.1565      2.6493      0.1199      0.0416     79.8515     14.3619
  1791.3000      8.1537      2.6411      0.0900      0.5422     76.0742     14.5676
  1791.4000      8.1537      2.6415      0.0822      0.5148     75.7663     14.3364
  1791.5000      8.1407      2.6503      0.1350     -0.0166     75.7105     14.0807
  1791.6000      8.1407      2.6522      0.0997     -0.1343     76.1903     14.5026
  1791.7000      8.1407      2.6429      0.0792      0.4317     79.7913     15.8146
  1791.8000      8.1775      2.6296      0.0983      1.2367     86.7254     16.9190
  1791.9000      8.1775      2.6251      0.0233      1.5117     92.8611     16.8877
  1792.0000      8.1957      2.6325      0.0800      1.0600     96.3107     16.4316
  1792.1000      8.1957      2.6322      0.1095      1.0797     98.8840     16.4035
  1792.2000      8.1957      2.6162      0.0150      2.0484    102.0207     16.6830
  1792.3000      8.1198      2.6070      0.0796      2.6075    106.5825     16.8110
  1792.4000      8.1198      2.6225      0.0295      1.6673    110.2783     16.3306
  1792.5000      8.1273      2.6552      0.1185     -0.3173    108.5668     15.4378
  1792.6000      8.1273      2.6830      0.1510     -1.9979    101.8418     14.8753
  1792.7000      8.1273      2.6877      0.1651     -2.2828     96.8137     14.8688
  1792.8000      8.1139      2.6645      0.1351     -0.8781     97.7116     15.2583
  1792.9000      8.1139      2.6279      0.0692      1.3392     99.6148     15.5241
  1793.0000      8.1843      2.5987      0.0509      3.1093     95.4671     15.4109
  1793.1000      8.1843      2.5919      0.0312      3.5239     86.8811     15.4213
  1793.2000      8.1843      2.6173      0.0185      1.9807     80.7759     15.6470
  1793.3000      8.2767      2.6562      0.1154     -0.3738     80.4075     16.0241
  1793.4000      8.2767      2.6710      0.1336     -1.2730     82.2025     16.8095
  1793.5000      8.1734      2.6576      0.0874     -0.4604     81.4325     17.5595
  1793.6000      8.1734      2.6408      0.0204      0.5602     78.1343     17.5830
  1793.7000      8.1734      2.6297      0.1479      1.2283     74.9787     16.9600
  1793.8000      8.1372      2.6168      0.0852      2.0139     72.3864     16.4629
  1793.9000      8.1372      2.6077      0.0534      2.5652     70.7664     16.6562
  1794.0000      8.1517      2.6122      0.0475      2.2883     73.2689     17.4730
  1794.1000      8.1517      2.6294      0.0314      1.2466     78.7127     18.1001
  1794.2000      8.1517      2.6556      0.0806     -0.3406     81.8271     17.8610
  1794.3000      8.1399      2.6874      0.1161     -2.2650     81.0173     17.3337
  1794.4000      8.1399      2.7093      0.1619     -3.5967     80.6959     17.1863
  1794.5000      8.1521      2.6976      0.1735     -2.8831     84.7062     17.2246
  1794.6000      8.1521      2.6479      0.1472      0.1293     88.8513     16.9364
  1794.7000      8.1521      2.5882      0.0273      3.7478     89.3458     16.4296
  1794.8000      8.1020      2.5567      0.0253      5.6517     88.6677     16.3360
  1794.9000      8.1020      2.5602      0.0511      5.4402     89.8164     16.9484
  1795.0000      8.1065      2.5736      0.0639      4.6291     92.8553     17.6615
  1795.1000      8.1065      2.5760      0.0736      4.4856     96.6509     17.8365
  1795.2000      8.1065      2.5595      0.1042      5.4821    100.1112     17.5954
  1795.3000      8.1375      2.5280      0.0726      7.3922    100.0660     17.3353
  1795.4000      8.1375      2.5070      0.0476      8.6661     94.1639     17.0416
  1795.5000      8.1860      2.5241      0.0018      7.6311     87.3736     16.5942
  1795.6000      8.1860      2.5685      0.1135      4.9401     84.4535     16.2134
  1795.7000      8.1860      2.6111      0.0972      2.3591     85.8738     15.8959
  1795.8000      8.1410      2.6373      0.1536      0.7696     89.7910     15.6097
  1795.9000      8.1410      2.6349      0.1614      0.9126     92.1691     15.4274
  1796.0000      8.1281      2.6098      0.0932      2.4347     92.5432     15.2679
  1796.1000      8.1281      2.5913      0.0729      3.5602     90.8532     14.8518
  1796.2000      8.1281      2.6023      0.0637      2.8904     86.3661     14.2504
  1796.3000      8.1174      2.6363      0.1048      0.8273     83.1764     13.9084
  1796.4000      8.1174      2.6516      0.1352     -0.0966     81.8423     13.8924
  1796.5000      8.1255      2.6305      0.0702      1.1830     79.5832     14.0127
  1796.6000      8.1255      2.6086      0.0487      2.5076     76.2192     13.9320
  1796.7000      8.1255      2.6045      0.1117      2.7584     72.1233     13.5567
  1796.8000      8.1253      2.6039      0.0621      2.7931     69.2312     13.4694
  1796.9000      8.1253      2.6061      0.0563      2.6613     70.5652     13.7120
  1797.0000      8.1145      2.6063      0.1390      2.6512     73.6849     13.6500
  1797.1000      8.1145      2.5962      0.0759      3.2615     74.3506     13.3073
  1797.2000      8.1145      2.5928      0.0491      3.4688     73.1637     12.9685
  1797.3000      8.1159      2.6017      0.1286      2.9284     71.7054     12.4977
