~Version Information
VERS.                      2.0: CWLS Log ASCII Standard - VERSION 2.0
WRAP.                       NO: One line per depth step
~Well Information Block
STRT.FT               475.0000: 
STOP.FT              2336.7500: 
STEP.FT                 0.2500: 
NULL.                -999.2500: 
COMP.          Pioneer Natural Resources: COMPANY
WELL.              Bobsy 34-11: WELL
FLD.           Purgatoire River: FIELD
LOC.           1937' FEL & 451' FSL----: LOCATION
PROV.                 Colorado: PROVINCE
CNTY.               Las Animas: COUNTRY
SRVC.                Patterson: SERVICE COMPANY
DATE.          Fri Apr 08 05:21:25 2005: LOG DATE
UWI.           05 071 08330 00: UNIQUE WELL ID
~Curve Information Block
DEPT.FT            0 000 00 00: Depth
SN.Ohm-m                      : IEL Short Normal
SP.mV                         : IEL Spontaneous Potential
DIR.Ohm-m                     : IEL Induction Resistivity
GR.GAPI                       : Gamma Ray
~Parameter Information Block
~A  Depth        SN          SP         DIR          GR     
# ...
  2317.5000     21.0709     -6.1713     19.1703   -999.2500
  2317.7500     21.6594     -7.5645     19.5443   -999.2500
  2318.0000     22.3380     -8.8980     19.9573   -999.2500
  2318.2500     23.1014    -10.0802     20.4179   -999.2500
  2318.5000     23.9005    -11.0320     20.9274   -999.2500
  2318.7500     24.6484    -11.6970     21.4713   -999.2500
  2319.0000     25.2518    -12.0488     22.0169   -999.2500
  2319.2500     25.6504    -12.0927     22.5168   -999.2500
  2319.5000     25.8363    -11.8634     22.9177   -999.2500
  2319.7500     25.8420    -11.4178     23.1721   -999.2500
  2320.0000     25.7117    -10.8257     23.2446   -999.2500
  2320.2500     25.4804    -10.1597     23.1187   -999.2500
  2320.5000     25.1708     -9.4865     22.8070   -999.2500
  2320.7500     24.8018     -8.8596     22.3612   -999.2500
  2321.0000     24.3953     -8.3164     21.8656   -999.2500
  2321.2500     23.9775     -7.8770     21.4095   -999.2500
  2321.5000     23.5756     -7.5475     21.0547   -999.2500
  2321.7500     23.2137     -7.3241     20.8177   -999.2500
  2322.0000     22.9094     -7.1983     20.6761   -999.2500
  2322.2500     22.6745     -7.1619     20.5901   -999.2500
  2322.5000     22.5160     -7.2095     20.5260   -999.2500
  2322.7500     22.4375     -7.3400     20.4690   -999.2500
  2323.0000     22.4361     -7.5556     20.4225   -999.2500
  2323.2500     22.4988     -7.8597     20.4001   -999.2500
  2323.5000     22.6020     -8.2549     20.4191   -999.2500
  2323.7500     22.7202     -8.7399     20.7114   -999.2500
  2324.0000     22.8370     -9.3075     20.8759   -999.2500
  2324.2500     22.9502     -9.9405     21.1399   -999.2500
  2324.5000     23.0689    -10.6087     21.5050   -999.2500
  2324.7500     23.2057    -11.2661     21.9461   -999.2500
  2325.0000     23.3640    -11.8517     22.4060   -999.2500
  2325.2500     23.5256    -12.2936     22.8041   -999.2500
  2325.5000     23.6439    -12.5198     23.0564   -999.2500
  2325.7500     23.6554    -12.4723     23.1108   -999.2500
  2326.0000     23.5122    -12.1236     22.9874   -999.2500
  2326.2500     23.2224    -11.4889     22.8181   -999.2500
  2326.5000     22.8652    -10.6318     22.8761   -999.2500
  2326.7500     22.5579     -9.6592     23.6031   -999.2500
  2327.0000     22.3925     -8.7066     25.6929   -999.2500
  2327.2500     22.3868     -7.9154     29.8629   -999.2500
  2327.5000     22.4880     -7.4075     39.6325   -999.2500
  2327.7500     22.6200     -7.2633     62.5707   -999.2500
  2328.0000     22.7444     -7.5061    136.2463   -999.2500
  2328.2500     22.9001     -8.0962   1826.0453   -999.2500
  2328.5000     23.2034     -8.9359 100000.0000   -999.2500
  2328.7500     23.7991     -9.8831 100000.0000   -999.2500
  2329.0000     24.7659    -10.7715 100000.0000   -999.2500
  2329.2500     26.0262    -11.4344 100000.0000   -999.2500
  2329.5000     27.3430    -11.7295 100000.0000   -999.2500
  2329.7500     28.4240    -11.5600 100000.0000   -999.2500
  2330.0000     29.0545    -10.8917 100000.0000   -999.2500
  2330.2500     29.1621     -9.7592 100000.0000   -999.2500
  2330.5000     28.7993     -8.2626 100000.0000   -999.2500
  2330.7500     28.0904     -6.5509 100000.0000   -999.2500
  2331.0000     27.1622     -4.7966 100000.0000   -999.2500
  2331.2500     26.0418     -3.1648 100000.0000   -999.2500
  2331.5000     24.5348     -1.7852 100000.0000   -999.2500
  2331.7500     22.1976     -0.7327 100000.0000   -999.2500
  2332.0000     18.5822     -0.0231 100000.0000   -999.2500
  2332.2500     13.7224      0.3790 100000.0000   -999.2500
  2332.5000      8.4077      0.5417 100000.0000   -999.2500
  2332.7500      3.7988      0.5447 100000.0000   -999.2500
  2333.0000      0.6603      0.4614 100000.0000   -999.2500
  2333.2500     -1.0108      0.3477 100000.0000   -999.2500
  2333.5000     -1.7053      0.2387 100000.0000   -999.2500
  2333.7500     -1.9303      0.1511 100000.0000   -999.2500
  2334.0000     -1.9871      0.0888 100000.0000   -999.2500
  2334.2500     -1.9983      0.0487 100000.0000   -999.2500
  2334.5000   -999.2500      0.0251 100000.0000   -999.2500
  2334.7500   -999.2500      0.0121 100000.0000   -999.2500
  2335.0000   -999.2500      0.0055   4560.6821   -999.2500
  2335.2500   -999.2500      0.0023   2840.9893   -999.2500
  2335.5000   -999.2500      0.0008   2398.1340   -999.2500
  2335.7500   -999.2500      0.0002   2251.9304   -999.2500
  2336.0000   -999.2500   -999.2500   2204.2856   -999.2500
  2336.2500   -999.2500   -999.2500   2190.2966   -999.2500
  2336.5000   -999.2500   -999.2500   2186.7222   -999.2500
  2336.7500   -999.2500   -999.2500 100000.0000   -999.2500
