~Version Information
VERS.                      2.0: CWLS Log ASCII Standard - VERSION 2.0
WRAP.                       NO: One line per depth step
~Well Information Block
STRT.FT               -11.2500: 
STOP.FT              1934.7500: 
STEP.FT                 0.2500: 
NULL.                -999.2500: 
COMP.          Pioneer Natural Resources: COMPANY
WELL.          Commander 43-26 Tr: WELL
FLD.           Purgatorie River: FIELD
LOC.           2439' FSL  & 446' FEL--------: LOCATION
PROV.                       CO: PROVINCE
CNTY.               Las Animas: COUNTRY
SRVC.          Patterson Wireline: SERVICE COMPANY
DATE.          Tue Apr 26 09:07:23 2005: LOG DATE
UWI.           05 071 08341 00: UNIQUE WELL ID
~Curve Information Block
DEPT.FT            0 000 00 00: Depth
CCL.                          : Casing Collar Locator
TT3.usec                      : CBL 3' Travel Time
AMP3.mV                       : CBL 3' Amplitude
GR.GAPI                       : Gamma Ray
~Parameter Information Block
~A  Depth       CCL         TT3         AMP3         GR     
# ...
  1261.7500      0.0000    837.0285      5.0005     50.4283
  1262.0000      0.0000    847.3516      5.4580     47.5574
  1262.2500      0.0000    857.2827      6.0072     45.9493
  1262.5000      0.0000    862.6898      6.5794     45.5593
  1262.7500      0.0000    860.7303      7.1192     45.5509
  1263.0000      0.0000    852.6633      7.5872     44.9619
  1263.2500      0.0000    842.9819      7.9506     43.5072
  1263.5000      0.0000    836.3856      8.1828     41.7117
  1263.7500      0.0000    835.3461      8.2798     40.3010
  1264.0000      0.0000    839.4125      8.2766     39.5780
  1264.2500      0.0000    846.0478      8.2388     39.2210
  1264.5000      0.0000    852.3406      8.2297     38.5028
  1264.7500      0.0000    856.5679      8.2780     36.8500
  1265.0000      0.0000    858.5656      8.3685     34.3292
  1265.2500      0.0000    858.9880      8.4610     31.5994
  1265.5000      0.0000    858.3954      8.5201     29.4745
  1265.7500      0.0000    856.9352      8.5338     28.5267
  1266.0000      0.0000    854.6740      8.5080     28.8381
  1266.2500      0.0000    852.0444      8.4494     29.9127
  1266.5000      0.0000    849.7612      8.3562     31.0358
  1266.7500      0.0000    848.2303      8.2218     32.0166
  1267.0000      0.0000    847.2028      8.0403     33.4037
  1267.2500      0.0000    845.9766      7.8059     35.6927
  1267.5000      0.0000    843.7215      7.5143     38.5281
  1267.7500      0.0000    839.9175      7.1770     40.9849
  1268.0000      0.0000    834.9517      6.8377     42.5807
  1268.2500      0.0000    830.0746      6.5631     43.8558
  1268.5000      0.0000    826.4099      6.4046     45.8841
  1268.7500      0.0000    824.1593      6.3636     49.1332
  1269.0000      0.0000    822.8395      6.3946     52.9429
  1269.2500      0.0000    821.9581      6.4395     56.3816
  1269.5000      0.0000    821.2681      6.4590     59.4204
  1269.7500      0.0000    820.5784      6.4457     62.8317
  1270.0000      0.0000    819.5304      6.4215     67.0817
  1270.2500      0.0000    817.6921      6.4195     71.9324
  1270.5000      0.0000    815.0565      6.4581     77.0423
  1270.7500      0.0000    812.4998      6.5320     82.2646
  1271.0000      0.0000    811.4053      6.6258     87.3265
  1271.2500      0.0000    812.4772      6.7200     91.8331
  1271.5000      0.0000    815.0470      6.7889     95.7439
  1271.7500      0.0000    817.7306      6.8108     99.5124
  1272.0000      0.0000    819.5165      6.7891    103.8205
  1272.2500      0.0000    820.0267      6.7517    109.6198
  1272.5000      0.0000    819.1531      6.7285    118.1753
  1272.7500      0.0000    817.0212      6.7338    130.1627
  1273.0000      0.0000    814.2989      6.7629    144.4411
  1273.2500      0.0000    811.8958      6.7971    158.0026
  1273.5000      0.0000    809.8489      6.8131    167.4516
  1273.7500      0.0000    806.8616      6.7966    171.0143
  1274.0000      0.0000    801.1296      6.7528    169.3359
  1274.2500      0.0000    790.7076      6.7040    164.1438
  1274.5000      0.0000    772.0028      6.6747    156.4121
  1274.7500      0.0000    739.0667      6.6769    146.3738
  1275.0000      0.0000    687.6854      6.6994    134.7276
  1275.2500      0.0000    622.9579      6.7099    122.6824
  1275.5000      0.0000    562.0654      6.6718    110.8677
  1275.7500      0.0000    525.8834      6.5698     99.1505
  1276.0000      0.0000    525.1108      6.4231     87.5672
  1276.2500      0.0000    554.0753      6.2816     76.6304
  1276.5000      0.0000    596.5409      6.2108     66.7800
  1276.7500      0.0000    635.1428      6.2556     58.3605
  1277.0000      0.0000    656.4473      6.4065     52.0127
  1277.2500      0.0000    652.6599      6.6069     48.2588
  1277.5000      2.0000    623.9562      6.7933     46.6581
  1277.7500      2.0000    581.6014      6.9205     45.9721
  1278.0000      0.0000    547.2955      6.9675     45.3531
  1278.2500      0.0000    543.7871      6.9470     45.0222
  1278.5000      0.0000    579.5972      6.9082     45.6557
  1278.7500      0.0000    641.4381      6.9118     47.5513
  1279.0000      0.0000    704.1072      6.9944     50.7762
  1279.2500      0.0000    748.9778      7.1525     55.8499
  1279.5000      0.0000    773.0373      7.3426     63.7863
  1279.7500      0.0000    783.5551      7.4955     75.3066
  1280.0000      0.0000    788.1150      7.5566     90.0144
  1280.2500      0.0000    788.9649      7.5247    106.1291
  1280.5000      0.0000    783.0966      7.4417    120.9718
  1280.7500      0.0000    765.6326      7.3467    132.1747
  1281.0000      0.0000    733.2388      7.2520    138.7976
  1281.2500      0.0000    685.9328      7.1547    141.2657
  1281.5000      0.0000    627.9811      7.0551    140.5599
  1281.7500      0.0000    567.8707      6.9589    138.0960
  1282.0000      0.0000    515.4866      6.8690    135.9271
  1282.2500      0.0000    477.6593      6.7786    135.8014
  1282.5000      0.0000    456.4200      6.6671    137.7268
  1282.7500      0.0000    451.3490      6.4998    139.9916
  1283.0000      0.0000    462.1364      6.2407    140.6433
  1283.2500      0.0000    487.3896      5.8761    138.8559
  1283.5000      0.0000    521.3657      5.4224    135.2196
  1283.7500      0.0000    554.9473      4.9123    131.0175
  1284.0000      0.0000    582.3906      4.3880    127.1090
  1284.2500      0.0000    605.7169      3.9145    123.2656
  1284.5000      0.0000    630.2969      3.5708    118.5093
  1284.7500      0.0000    658.0057      3.4043    112.1391
  1285.0000      0.0000    686.7542      3.3861    104.4698
  1285.2500      2.0000    714.0178      3.4134     96.6196
  1285.5000     -2.0000    737.3281      3.3747     89.5198
  1285.7500      0.0000    752.5563      3.2564     83.0875
  1286.0000      2.0000    755.6984      3.2093     76.4658
  1286.2500      0.0000    747.6888      3.4774     69.1932
  1286.5000     -2.0000    734.2587      4.2090     61.9922
  1286.7500      0.0000    717.6655      5.3336     56.1846
  1287.0000      0.0000    690.4446      6.6696     52.5249
  1287.2500      0.0000    642.1758      8.1778     50.8949
  1287.5000      0.0000    572.6996     10.1085     50.8673
  1287.7500      0.0000    494.9677     12.9059     52.1907
  1288.0000      0.0000    424.9106     16.9315     54.8658
  1288.2500      0.0000    371.4563     22.1866     59.0564
  1288.5000      0.0000    335.0687     28.2998     64.8183
  1288.7500      0.0000    311.4552     34.8561     71.7641
  1289.0000      0.0000    295.4508     41.6767     79.1896
  1289.2500      0.0000    283.6036     48.6679     86.7045
  1289.5000      0.0000    274.7755     55.4779     94.4411
  1289.7500      0.0000    268.9219     61.4319    102.3253
  1290.0000      0.0000    265.7175     65.7806    109.4073
  1290.2500      0.0000    264.3412     67.9803    114.6326
  1290.5000      0.0000    264.0014     67.8587    118.2350
  1290.7500      0.0000    264.3938     65.6438    121.3558
  1291.0000      0.0000    265.9005     61.7988    124.0584
  1291.2500      0.0000    269.9511     56.7110    124.7898
  1291.5000      0.0000    279.8349     50.5457    122.2954
  1291.7500      0.0000    301.8239     43.4504    117.1924
  1292.0000      0.0000    345.0307     35.8443    111.2649
  1292.2500      0.0000    416.8676     28.4139    106.1234
  1292.5000      0.0000    514.5098     21.8340    103.0542
  1292.7500      0.0000    621.0383     16.5016    103.1743
  1293.0000      0.0000    714.2653     12.4496    106.5991
  1293.2500      0.0000    780.9050      9.4521    111.6478
  1293.5000      0.0000    821.1036      7.2366    115.8905
  1293.7500      0.0000    841.9177      5.6344    118.4615
  1294.0000      0.0000    850.4468      4.5765    121.0322
  1294.2500      2.0000    851.7695      4.0081    126.1100
  1294.5000      2.0000    848.8869      3.8312    134.3976
  1294.7500      0.0000    842.6775      3.9056    143.8756
  1295.0000      0.0000    832.5175      4.0990    151.2663
