~Version Information
VERS.                      2.0: CWLS Log ASCII Standard - VERSION 2.0
WRAP.                       NO: One line per depth step
~Well Information Block
STRT.FT               840.0000: 
STOP.FT              2448.5000: 
STEP.FT                 0.2500: 
NULL.                -999.2500: 
COMP.          Petrogulf Corporation: COMPANY
WELL.             Leier 17-42V: WELL
FLD.           Purgatorie River: FIELD
LOC.           2309' FNL & 1062' FEL SENE 17 33S 67W: LOCATION
PROV.                 Colorado: PROVINCE
CNTY.               Las Animas: COUNTRY
SRVC.                Patterson: SERVICE COMPANY
DATE.          Thu Sep 22 09:40:29 2005: LOG DATE
UWI.                 071 08409: UNIQUE WELL ID
~Curve Information Block
DEPT.FT            0 000 00 00: Depth
SP.mV                         : DIL Spontaneous Potential
RILD.Ohm-m                    : DIL Deep Resistivity
RILM.Ohm-m                    : DIL Medium Resistivity
RLL3.Ohm-m                    : DIL Shallow Resistivity
GR.GAPI                       : Gamma Ray
~Parameter Information Block
~A  Depth        SP         RILD        RILM        RLL3         GR     
# ...
  1792.0000    206.7059      8.3264      8.3045     11.4635    134.5768
  1792.2500    207.1179      8.5970      8.5385     12.0072    141.4463
  1792.5000    207.2768      8.7667      8.6574     11.8244    135.6447
  1792.7500    207.1276      9.0158      8.8664     10.7396    142.0986
  1793.0000    206.7504      9.2092      9.0393      9.7933    128.1536
  1793.2500    205.9672      9.3584      9.4259      9.8471    124.9562
  1793.5000    204.9135      9.4528      9.9303     12.0205    141.7319
  1793.7500    203.6600      9.5241     10.5521     15.9461    132.2374
  1794.0000    202.5764      9.5056     11.0357     21.1548    133.6516
  1794.2500    201.4472      9.4426     11.3998     23.8506    123.6628
  1794.5000    200.3922      9.4477     11.1477     25.2591    119.7040
  1794.7500    199.3136      9.4745     10.6624     24.3481    125.7671
  1795.0000    198.3711      9.6533     10.1979     18.0889    108.6605
  1795.2500    197.3429      9.7580      9.7829     12.9181    124.4796
  1795.5000    196.2742     10.0324      9.4878     11.0160    139.9704
  1795.7500    194.9724     10.4040      9.4963     11.0157    157.2192
  1796.0000    193.7098     10.6389      9.6882     11.6446    159.0517
  1796.2500    192.4210     11.0586      9.9617     12.6040    173.2120
  1796.5000    191.2146     11.4004     10.2405     13.0746    195.4564
  1796.7500    189.9432     11.8507     10.5643     13.1985    188.5484
  1797.0000    188.7040     12.2434     11.0147     13.2247    157.4530
  1797.2500    187.3435     12.7009     11.6118     13.3767    153.4935
  1797.5000    185.7360     13.4049     12.4759     13.8187    121.0682
  1797.7500    183.9056     14.1966     13.7540     15.6663    131.2777
  1798.0000    181.9105     14.8240     15.6668     22.2966    153.5151
  1798.2500    179.6583     15.9525     17.8699     38.2444    152.7239
  1798.5000    177.3730     17.1809     20.7981     66.8142    132.3953
  1798.7500    175.3470     18.0263     23.9672     92.7370    136.8156
  1799.0000    173.4488     19.7608     27.4630    110.4453     88.6707
  1799.2500    172.0426     21.8924     30.4739    122.0693     66.2294
  1799.5000    171.2657     23.4848     35.6114    122.8448     34.2603
  1799.7500    171.0647     26.4244     40.6228    119.5275     36.2008
  1800.0000    171.3873     28.5106     44.5179    120.5723     39.9902
  1800.2500    172.3527     30.6133     48.2513    118.3742     42.9003
  1800.5000    173.8211     31.6855     51.2455    104.4454     37.6038
  1800.7500    175.8929     31.3022     55.6044     79.9519     48.9591
  1801.0000    178.7370     30.8487     58.9202     59.8416     31.7833
  1801.2500    181.9517     29.5856     56.7270     72.6413     37.6535
  1801.5000    185.8715     27.3791     53.9631    138.8618     63.2957
  1801.7500    190.0124     25.3834     50.4703    225.5198     67.1896
  1802.0000    194.5379     23.4499     44.2372    177.2987     52.8157
  1802.2500    198.7083     21.7933     36.3325     74.4261     52.7079
  1802.5000    202.7663     20.3875     29.6490     34.1843     59.0376
  1802.7500    205.7321     19.3478     24.3867     24.3399     56.4113
  1803.0000    208.0235     18.0746     20.6014     21.5648     80.5335
  1803.2500    209.5150     17.3612     18.3449     16.7921    116.3764
  1803.5000    210.5069     16.5529     16.6730     13.5336    128.6265
  1803.7500    211.0928     15.7079     15.7612     12.9620    129.6411
  1804.0000    211.4814     14.9366     14.9883     13.4044    129.6794
  1804.2500    211.7442     14.3367     14.2345     13.8737    144.8517
  1804.5000    211.9870     13.6917     14.0105     13.9066    160.9321
  1804.7500    212.1458     13.0617     13.5883     14.4626    158.5608
  1805.0000    212.3557     12.6158     13.0365     15.9676    154.9032
  1805.2500    212.5565     12.4400     12.5672     16.8153    151.6941
  1805.5000    212.6663     12.3494     12.1078     15.6745    157.7473
  1805.7500    212.6745     12.2812     11.7138     13.8192    140.8187
  1806.0000    212.5708     12.3875     11.6268     12.5065    136.2354
  1806.2500    212.3347     12.5913     11.6823     11.9206    134.0442
  1806.5000    211.9669     12.7011     11.9997     12.1034    127.3247
  1806.7500    211.3960     12.9318     12.3331     13.2249    153.7543
  1807.0000    210.6750     13.0371     12.9903     14.5394    154.3952
  1807.2500    209.9551     13.2627     13.4001     15.4816    160.7665
  1807.5000    209.2243     13.2976     13.8580     15.5927    171.2013
  1807.7500    208.5374     13.1490     14.3950     16.3463    126.1325
  1808.0000    207.7858     13.0986     14.6794     18.0094    116.2262
  1808.2500    207.0496     13.1197     14.8588     19.6267    126.6948
  1808.5000    206.1333     13.0360     15.2246     19.1903    136.9205
  1808.7500    205.1021     12.9896     15.2334     18.1017    120.2567
  1809.0000    203.7493     12.8868     15.0141     18.0399    130.0659
  1809.2500    202.1931     12.5933     14.6804     17.7287    143.7998
  1809.5000    200.4858     12.5321     14.2286     17.0928    133.3227
  1809.7500    198.8440     12.4633     13.6396     15.5735    130.8938
  1810.0000    197.1811     12.3816     13.0587     14.1663    138.1283
  1810.2500    195.7420     12.2406     12.5972     13.3402    138.5480
  1810.5000    194.3621     11.8650     12.1596     12.5444    147.0246
  1810.7500    193.1113     11.7431     11.9445     12.2325    151.7928
  1811.0000    192.0432     11.5123     11.5731     11.9466    165.4557
  1811.2500    190.8133     11.3758     11.4122     11.3905    162.5564
  1811.5000    189.5567     11.0801     11.4478     11.2545    147.1159
  1811.7500    188.3141     10.8084     11.4340     12.8039    174.5560
  1812.0000    186.8899     10.4932     11.4187     15.9959    178.9500
  1812.2500    185.5842     10.3358     11.2292     17.3385    146.9002
  1812.5000    184.2368     10.3202     10.9552     16.2160    149.5505
  1812.7500    183.0331     10.3502     10.5550     15.2687    134.6374
  1813.0000    181.7398     10.4792     10.3565     13.6782    162.0308
  1813.2500    180.5680     10.6778     10.1058     11.5839    146.2283
  1813.5000    179.5401     10.8236     10.0816     10.2340    146.5003
  1813.7500    178.6048     11.1113     10.2765     10.4786    159.2757
  1814.0000    177.9893     11.4645     10.6511     11.3257    158.8917
  1814.2500    177.5948     11.6434     10.9943     12.3843    149.7807
  1814.5000    177.5200     11.6269     11.5562     13.5439    154.9200
  1814.7500    177.7041     11.5046     12.1750     15.0636    170.9494
  1815.0000    178.1347     11.2549     12.7629     17.2980    141.0729
  1815.2500    178.7324     11.2327     13.3218     22.0186    133.5104
  1815.5000    179.3791     11.2670     13.3079     26.7666    174.5259
  1815.7500    180.0955     11.3946     13.1780     27.5190    170.7977
  1816.0000    180.8340     11.6388     12.9489     22.7904    145.0206
  1816.2500    181.5332     11.8053     12.5032     17.3247    132.0828
  1816.5000    181.9892     11.9036     12.0410     13.5861    122.5495
  1816.7500    182.4959     12.1198     12.0090     11.8650    123.3229
  1817.0000    183.1361     12.3297     12.0294     11.3295    119.8832
  1817.2500    184.0621     12.4718     12.4005     11.5402    133.0748
  1817.5000    185.4160     12.2805     12.6435     12.4821    147.0016
  1817.7500    187.1267     11.9682     13.1181     13.5669    154.0426
  1818.0000    189.4989     11.4923     13.4271     14.9555    127.5777
  1818.2500    192.0716     11.0732     13.3385     18.1484    156.0488
  1818.5000    194.9027     10.7455     12.8919     23.8372    164.2534
  1818.7500    197.8558     10.4678     12.1726     22.0588    150.7362
  1819.0000    200.1808     10.1857     11.4150     15.1866    141.6131
  1819.2500    201.9442     10.0118     10.7702     11.3511    122.5663
  1819.5000    202.9998      9.8796     10.2135      9.8475     99.5855
  1819.7500    203.7288      9.8578      9.9057      9.4562    110.7932
