~Version Information
VERS.                      2.0: CWLS Log ASCII Standard - VERSION 2.0
WRAP.                       NO: One line per depth step
~Well Information Block
STRT.FT               902.0000: 
STOP.FT              2428.2000: 
STEP.FT                 0.1000: 
NULL.                -999.2500: 
COMP.          Pioneer Natural Resources: COMPANY
WELL.            Victory 12-14: WELL
FLD.           Purgatoire River: FIELD
LOC.           2434' FNL & 188' FWL: LOCATION
PROV.                 Colorado: PROVINCE
CNTY.               Las Animas: COUNTRY
SRVC.                Patterson: SERVICE COMPANY
DATE.          Mon Apr 18 07:24:17 2005: LOG DATE
UWI.           05 071 08332 00: UNIQUE WELL ID
~Curve Information Block
DEPT.FT            0 000 00 00: Depth
DCAL.in                       : CDL Caliper
RHOB.g/cc                     : CDL Bulk Density
RHOC.g/cc                     : CDL Density Correction
DPOR.pu                       : CDL Density Porosity
GR.GAPI                       : Gamma Ray
NPOR.pu                       : Neutron Porosity
~Parameter Information Block
~A  Depth       DCAL        RHOB        RHOC        DPOR         GR         NPOR    
   902.0000      5.0770      2.4101      0.3169     14.5407     61.7447     17.9444
   902.1000      5.0770      2.7309      0.6279     -4.9047     61.3956     17.5225
   902.2000      5.0770      2.9524      0.8262    -18.3248     60.7453     17.2710
   902.3000      5.0835      3.0235      0.7817    -22.6375     59.5232     17.7649
   902.4000      5.0835      2.9438      0.5967    -17.8033     58.5675     18.6077
   902.5000      5.0995      2.7314      0.3747     -4.9323     58.4366     19.1736
   902.6000      5.0995      2.3886      0.1428     15.8423     58.6152     19.2996
   902.7000      5.0995      1.9061     -0.1480     45.0841     58.6150     19.2122
   902.8000      5.1041      1.3109     -0.4576     81.1598     57.6114     18.7167
   902.9000      5.1041      0.7036     -0.7034    117.9620     54.9692     17.8542
   903.0000      5.1048      0.2209     -0.8792    147.2205     51.0306     17.5018
   903.1000      5.1048     -0.0350     -0.8986    162.7256     49.0781     17.9560
   903.2000      5.1048     -0.0420     -0.7482    163.1488     53.3015     18.2027
   903.3000      5.0687      0.1371     -0.4339    152.2977     60.6973     17.5079
   903.4000      5.0687      0.3792     -0.0634    137.6235     64.6883     16.6305
   903.5000      5.0527      0.5392      0.2319    127.9270     65.9964     16.7576
   903.6000      5.0527      0.5301      0.0694    128.4790     68.5074     17.9098
   903.7000      5.0527      0.3881     -0.2386    137.0830     72.0320     18.5267
   903.8000      5.0558      0.2186     -0.4723    147.3565     74.6704     17.9485
   903.9000      5.0558      0.1072     -0.6646    154.1075     76.5954     17.4620
   904.0000      5.0377      0.0847     -0.6173    155.4714     78.3147     17.8260
   904.1000      5.0377      0.1406     -0.5537    152.0853     77.8503     17.8285
   904.2000      5.0377      0.2996     -0.4799    142.4462     73.6524     16.7193
   904.3000      5.0475      0.6646     -0.3771    120.3254     69.1275     15.9688
   904.4000      5.0475      1.2858     -0.1271     82.6779     70.8005     16.4876
   904.5000      4.8521      1.9874      0.2082     40.1564     79.9096     17.5700
   904.6000      4.8521      2.4921      0.3816      9.5705     89.8084     18.7268
   904.7000      4.8521      2.7221      0.2981     -4.3692     95.4825     19.6234
   904.8000      3.8546      2.7773      0.3476     -7.7181     98.0515     19.8672
   904.9000      3.8546      2.7096      0.3199     -3.6127    100.4238     19.7713
   905.0000      7.6612      2.5260      0.0959      7.5180    102.9553     19.8013
   905.1000      7.6612      2.3076     -0.4406     20.7537    108.6068     20.0960
   905.2000      7.6612      2.1533     -0.4488     30.1023    121.0335     20.7918
   905.3000      8.2071      2.0643     -0.4822     35.4940    133.1511     21.8802
   905.4000      8.2071      1.9999     -0.5277     39.3985    136.0583     22.8136
   905.5000      8.2068      1.9509     -0.5504     42.3692    133.8524     23.0411
   905.6000      8.2068      1.9255     -0.5620     43.9086    132.0760     22.8464
   905.7000      8.2068      1.9279     -0.6145     43.7623    131.6830     23.0085
   905.8000      8.2053      1.9480     -0.6072     42.5450    137.6588     23.6347
   905.9000      8.2053      1.9674     -0.5336     41.3716    148.9171     24.1429
   906.0000      8.2065      1.9698     -0.5274     41.2264    154.9171     24.0974
   906.1000      8.2065      1.9488     -0.4952     42.4951    151.7984     23.8173
   906.2000      8.2065      1.9218     -0.5377     44.1314    148.4289     24.0894
   906.3000      8.2067      1.9169     -0.5581     44.4297    147.3082     24.8778
   906.4000      8.2067      1.9395     -0.5399     43.0582    143.6049     25.4494
   906.5000      8.2064      1.9652     -0.4990     41.5002    141.6535     25.6112
   906.6000      8.2064      1.9632     -0.5029     41.6250    145.9586     25.4607
   906.7000      8.2064      1.9336     -0.5408     43.4204    147.7045     24.9331
   906.8000      8.2074      1.9142     -0.6344     44.5939    142.5610     24.0387
   906.9000      8.2074      1.9237     -0.5378     44.0208    138.3310     23.0506
   907.0000      8.2055      1.9331     -0.4891     43.4458    137.3473     22.4273
   907.1000      8.2055      1.9294     -0.5529     43.6750    136.6261     22.3808
   907.2000      8.2055      1.9299     -0.5493     43.6411    133.5448     22.9127
   907.3000      8.2067      1.9311     -0.4930     43.5719    126.4308     23.5528
   907.4000      8.2067      1.9252     -0.5454     43.9249    118.2134     23.2916
   907.5000      8.2075      1.9374     -0.5664     43.1887    112.4988     22.1646
   907.6000      8.2075      1.9784     -0.4917     40.7047    108.5002     21.7449
   907.7000      8.2075      2.0052     -0.3636     39.0801    106.9523     22.5251
   907.8000      8.2061      1.9877     -0.5442     40.1405    109.2337     23.1926
   907.9000      8.2061      1.9610     -0.6231     41.7594    107.9635     23.1858
   908.0000      8.2078      1.9491     -0.5008     42.4780    101.6273     23.3394
   908.1000      8.2078      1.9345     -0.5885     43.3622     96.7259     23.8102
   908.2000      8.2078      1.9097     -0.5036     44.8696     89.1969     23.4293
   908.3000      8.2047      1.8812     -0.6238     46.5941     77.2510     21.5745
   908.4000      8.2047      1.8649     -0.5215     47.5792     70.6952     19.2879
   908.5000      8.2041      1.8703     -0.5021     47.2542     70.9569     18.0499
   908.6000      8.2041      1.8888     -0.5591     46.1309     71.4439     18.3153
   908.7000      8.2041      1.9001     -0.5214     45.4501     72.3861     19.2625
   908.8000      8.2059      1.8923     -0.5747     45.9215     75.5930     19.7448
   908.9000      8.2059      1.8675     -0.5499     47.4245     78.4061     19.5529
   909.0000      8.2060      1.8210     -0.5523     50.2441     80.6608     19.2628
   909.1000      8.2060      1.7627     -0.6381     53.7735     83.3798     19.2972
   909.2000      8.2060      1.7359     -0.7147     55.4024     82.8107     19.3365
   909.3000      8.2054      1.7635     -0.6529     53.7253     78.1674     18.9936
   909.4000      8.2054      1.8104     -0.5557     50.8847     75.0901     18.6075
   909.5000      8.2072      1.8380     -0.5622     49.2149     78.3174     18.5755
   909.6000      8.2072      1.8562     -0.5614     48.1065     87.0825     18.4545
   909.7000      8.2072      1.8876     -0.5029     46.2075     92.9655     17.8108
   909.8000      8.2008      1.9208     -0.4967     44.1956     91.7313     17.0978
   909.9000      8.2008      1.9291     -0.4612     43.6922     92.4739     17.0094
   910.0000      8.2022      1.9128     -0.5654     44.6794    102.2219     17.8775
   910.1000      8.2022      1.9058     -0.5615     45.1017    115.0622     19.1870
   910.2000      8.2022      1.9220     -0.5025     44.1216    123.4019     20.3258
   910.3000      8.2026      1.9353     -0.5035     43.3156    125.1287     20.9368
   910.4000      8.2026      1.9182     -0.4984     44.3537    120.6081     20.8823
   910.5000      8.2024      1.8735     -0.6008     47.0577    116.9124     20.8286
   910.6000      8.2024      1.8375     -0.6782     49.2450    118.4364     21.0896
   910.7000      8.2024      1.8421     -0.6486     48.9610    122.0051     20.8905
   910.8000      8.2016      1.8822     -0.5448     46.5331    123.5702     20.3105
   910.9000      8.2016      1.9363     -0.6090     43.2523    122.6058     20.6215
   911.0000      8.2055      1.9907     -0.4830     39.9603    121.7944     21.8473
   911.1000      8.2055      2.0361     -0.5251     37.2035    122.4403     22.9015
   911.2000      8.2055      2.0672     -0.4547     35.3190    125.8868     23.3617
   911.3000      8.2024      2.0716     -0.4254     35.0572    130.6714     23.5039
   911.4000      8.2024      2.0563     -0.5568     35.9810    131.5258     23.6177
   911.5000      8.2048      2.0512     -0.4879     36.2925    129.0057     23.7163
