~Version Information
VERS.                      2.0: CWLS Log ASCII Standard - VERSION 2.0
WRAP.                       NO: One line per depth step
~Well Information Block
STRT.FT               742.5000: 
STOP.FT              2463.5000: 
STEP.FT                 0.2500: 
NULL.                -999.2500: 
COMP.          Petrogulf Corporation: COMPANY
WELL.           Montoya 12-44V: WELL
FLD.           Purgatorie River: FIELD
LOC.           698' FSL & 599' FEL: LOCATION
CNTY.               Las Animas: COUNTY
SRVC.                         : SERVICE COMPANY
DATE.          Sun Aug 08 06:43:17 2004: LOG DATE
UWI.           05 071 08094 00: UNIQUE WELL ID
STAT.                 Colorado: STATE
~Curve Information Block
DEPT.FT            0 000 00 00: Depth
SN.Ohm-m                      : IEL Short Normal
SP.mV                         : IEL Spontaneous Potential
DIR.Ohm-m                     : IEL Induction Resistivity
GR.GAPI                       : Gamma Ray
~Parameter Information Block
~A  Depth        SN          SP         DIR          GR     
# ...
  2317.0000     17.2561     43.0745 100000.0000     62.5695
  2317.2500     17.4502     40.3525 100000.0000     60.8030
  2317.5000     17.3263     37.3055 100000.0000     58.6259
  2317.7500     16.8882     33.9178 100000.0000     58.3671
  2318.0000     16.2076     30.0618 100000.0000     60.5570
  2318.2500     15.3954     25.4874 100000.0000     63.6085
  2318.5000     14.5573     19.8347 100000.0000     69.8308
  2318.7500     13.7590     12.6540 100000.0000     74.6418
  2319.0000     13.0183      3.4459 100000.0000     82.2667
  2319.2500     12.3253     -8.3166 100000.0000     87.3548
  2319.5000     11.6712    -23.1584 100000.0000     94.8279
  2319.7500     11.0613    -41.5847 100000.0000     99.8777
  2320.0000     10.5024    -64.0355      2.4541    108.1849
  2320.2500      9.9730    -90.8203      0.8197    114.3999
  2320.5000      9.4028   -122.0086      0.3590    123.8540
  2320.7500      8.6849   -157.3041      0.1631    128.9383
  2321.0000      7.7213   -195.9288      0.0767    132.3849
  2321.2500      6.4810   -236.5585      0.0412    131.4429
  2321.5000      5.0344   -277.3661      0.0267    126.3511
  2321.7500      3.5402   -316.1781      0.0208    121.4184
  2322.0000      2.1854   -350.7595      0.0188    111.8993
  2322.2500      1.1139   -379.1591      0.0188    103.6988
  2322.5000      0.3835   -400.0422      0.0200     89.0533
  2322.7500     -0.0276   -412.9297      0.0222     79.1963
  2323.0000     -0.1785   -418.2625      0.0255     67.3617
  2323.2500     -0.1187   -417.2832      0.0306     62.4628
  2323.5000      0.1325   -411.7453      0.0385     59.4883
  2323.7500      0.5673   -403.5325      0.0502     59.7001
  2324.0000      1.1417   -394.2639      0.0652     61.6926
  2324.2500      1.7391   -384.9836      0.0813     63.1497
  2324.5000      2.1864   -375.9780      0.0961     64.2486
  2324.7500      2.3296   -366.7709      0.1114     64.1162
  2325.0000      2.1230   -356.2776      0.1342     63.5091
  2325.2500      1.6640   -343.0973      0.1747     63.5502
  2325.5000      1.1511   -325.8748      0.2428     64.9265
  2325.7500      0.8048   -303.6599      0.3408     66.6350
  2326.0000      0.8085   -276.1847      0.4504     69.6969
  2326.2500      1.2907   -243.9838      0.5245     71.4979
  2326.5000      2.3216   -208.3331      0.5206     72.8641
  2326.7500      3.8954   -171.0244      0.4549     72.5012
  2327.0000      5.9033   -134.0350      0.3780     69.9092
  2327.2500      8.1316    -99.1973      0.3242     67.0921
  2327.5000     10.3129    -67.9235      0.3071     62.2478
  2327.7500     12.2110    -41.0750      0.3345     59.2693
  2328.0000     13.6913    -18.9498      0.4227     55.9055
  2328.2500     14.7383     -1.3914      0.6140     54.5392
  2328.5000     15.4227     12.0651      1.0381     53.7503
  2328.7500     15.8465     22.0352      2.2714     53.8634
  2329.0000     16.1004     29.1723     13.1732     54.3672
  2329.2500     16.2457     34.0970 100000.0000     54.6281
  2329.5000     16.3184     37.3635 100000.0000     55.0318
  2329.7500     16.3398     39.4520 100000.0000     55.7258
  2330.0000     16.3260     40.7572 100000.0000     57.9632
  2330.2500     16.2898     41.5912 100000.0000     60.0275
  2330.5000     16.2397     42.1784 100000.0000     62.6015
  2330.7500     16.1778     42.6693 100000.0000     63.1149
  2331.0000     16.1005     43.1615 100000.0000     61.7505
  2331.2500     15.9983     43.7227 100000.0000     60.0117
  2331.5000     15.8600     44.4066 100000.0000     57.6314
  2331.7500     15.6826     45.2588 100000.0000     56.7892
  2332.0000     15.4829     46.3044 100000.0000     56.9673
  2332.2500     15.2995     47.5264 100000.0000     57.9785
  2332.5000     15.1768     48.8580     84.8917     60.4318
  2332.7500     15.1394     50.1823     59.9692     62.2519
  2333.0000     15.1765     51.3588     69.0623     64.1425
  2333.2500     15.2492     52.2525    139.6398     64.2290
  2333.5000     15.3141     52.7724 100000.0000     62.4790
  2333.7500     15.3474     52.8878 100000.0000     60.7499
  2334.0000     15.3533     52.6342 100000.0000     59.0201
  2334.2500     15.3563     52.1056 100000.0000     59.0573
  2334.5000     15.3833     51.4321    120.3485     60.7105
  2334.7500     15.4456     50.7571     39.1528     62.2460
  2335.0000     15.5268     50.2195     22.4842     64.0032
  2335.2500     15.5851     49.9382     16.1231     64.3806
  2335.5000     15.5668     50.0029     13.1487     63.7902
  2335.7500     15.4284     50.4631     11.6707     63.1955
  2336.0000     15.1605     51.3259     10.9845     63.8701
  2336.2500     14.8106     52.5501     10.7777     66.5460
  2336.5000     14.4931     54.0507     10.8979     74.8009
  2336.7500     14.3680     55.7053     11.2665     82.6503
  2337.0000     14.5862     57.3700     11.8351     95.9764
  2337.2500     15.2232     58.8965     12.5550    104.6315
  2337.5000     16.2369     60.1554     13.3562    115.4613
  2337.7500     17.4765     61.0517     14.1467    120.5189
  2338.0000     18.7383     61.5374     14.8366    124.4391
  2338.2500     19.8420     61.6181     15.3748    124.9035
  2338.5000     20.6845     61.3483     15.7718    123.4055
  2338.7500     21.2485     60.8167     16.0928    121.5243
  2339.0000     21.5690     60.1285     16.4288    118.1829
  2339.2500     21.6937     59.3840     16.8640    116.1044
  2339.5000     21.6639     58.6572     17.4420    114.0969
  2339.7500     21.5213     57.9882     18.1345    113.7757
  2340.0000     21.3211     57.3811     18.8249    114.4413
  2340.2500     21.1336     56.8171     19.3385    115.0718
  2340.5000     21.0303     56.2671     19.5395    115.6198
  2340.7500     21.0625     55.7098     19.4253    115.8579
  2341.0000     21.2432     55.1368     19.1176    116.5637
  2341.2500     21.5430     54.5526     18.7557    117.0700
  2341.5000     21.9050     53.9755     18.4066    116.6257
  2341.7500     22.2722     53.4267     18.0613    115.1429
  2342.0000     22.6074     52.9318     17.6866    112.3431
  2342.2500     22.8875     52.5182     17.2759    111.3234
  2342.5000     23.0813     52.2157     16.8531    111.8473
  2342.7500     23.1316     52.0607     16.4454    112.8122
  2343.0000     22.9651     52.0927     16.0599    113.1605
  2343.2500     22.5236     52.3474     15.6814    111.9450
  2343.5000     21.7950     52.8484     15.2890    108.0341
  2343.7500     20.8272     53.5982     14.8775    104.6660
  2344.0000     19.7252     54.5705     14.4670     99.9400
  2344.2500     18.6377     55.7112     14.0886     97.6882
  2344.5000     17.7292     56.9389     13.7578     96.0668
  2344.7500     17.1341     58.1545     13.4626     96.0425
  2345.0000     16.9069     59.2569     13.1765     97.2343
  2345.2500     17.0031     60.1548     12.8804     98.5824
  2345.5000     17.3053     60.7858     12.5708    100.6351
  2345.7500     17.6801     61.1235     12.2504    101.4183
  2346.0000     18.0314     61.1858     11.9225    101.1489
  2346.2500     18.3225     61.0218     11.6017    100.2789
  2346.5000     18.5622     60.6973     11.3252     99.1186
  2346.7500     18.7673     60.2722     11.1404     99.0150
  2347.0000     18.9250     59.7817     11.0719     99.9957
  2347.2500     18.9775     59.2311     11.0914    101.1169
  2347.5000     18.8357     58.6076     11.1147    102.9930
  2347.7500     18.4140     57.9003     11.0400    104.1313
  2348.0000     17.6662     57.1213     10.8103    104.8907
  2348.2500     16.6069     56.3225     10.4486    104.0512
  2348.5000     15.3147     55.5926     10.0325    100.0406
  2348.7500     13.9192     55.0410      9.6426     96.0054
  2349.0000     12.5802     54.7710      9.3314     90.3027
  2349.2500     11.4593     54.8570      9.1188     88.4024
  2349.5000     10.6834     55.3261      9.0017     90.3738
  2349.7500     10.3070     56.1507      8.9633     95.1249
  2350.0000     10.2942     57.2578      8.9789    105.9648
  2350.2500     10.5400     58.5418      9.0192    113.9054
