~Version Information
VERS.                      2.0: CWLS Log ASCII Standard - VERSION 2.0
WRAP.                       NO: One line per depth step
~Well Information Block
STRT.FT               840.0000: 
STOP.FT              2020.0000: 
STEP.FT                 0.1000: 
NULL.                -999.2500: 
COMP.          Petrogulf Corporation: COMPANY
WELL.           Lavedure 7-44R: WELL
FLD.           Purgatorie River: FIELD
LOC.           946' FSL & 521' FEL: LOCATION
PROV.                 Colorado: PROVINCE
CNTY.               Las Animas: COUNTRY
SRVC.                Patterson: SERVICE COMPANY
DATE.          Mon Sep 26 08:30:48 2005: LOG DATE
UWI.                          : UNIQUE WELL ID
~Curve Information Block
DEPT.FT            0 000 00 00: Depth
DCAL.in                       : CDL Caliper
RHOB.g/cc                     : CDL Bulk Density
RHOC.g/cc                     : CDL Density Correction
DPOR.pu                       : CDL Density Porosity
GR.GAPI                       : Gamma Ray
NPOR.pu                       : Neutron Porosity
~Parameter Information Block
~A  Depth       DCAL        RHOB        RHOC        DPOR         GR         NPOR    
# ...
  1617.6000      7.7895      2.5493      0.0696      6.1000    168.7518     27.8582
  1617.7000      7.7895      2.5642      0.1203      5.2007    172.3498     27.6722
  1617.8000      7.7960      2.5818      0.1366      4.1341    176.8234     27.5448
  1617.9000      7.7960      2.5872      0.1374      3.8065    175.5067     27.4872
  1618.0000      7.8425      2.5803      0.0696      4.2215    170.6681     27.6188
  1618.1000      7.8425      2.5744      0.1060      4.5821    167.5658     27.9760
  1618.2000      7.8425      2.5750      0.0828      4.5436    167.5454     28.2363
  1618.3000      7.8774      2.5769      0.0910      4.4292    167.7656     28.1294
  1618.4000      7.8774      2.5733      0.0639      4.6460    165.6790     27.7599
  1618.5000      7.8887      2.5630      0.0407      5.2703    162.5874     27.3503
  1618.6000      7.8887      2.5470      0.0631      6.2411    161.4335     26.9969
  1618.7000      7.8887      2.5344     -0.0228      7.0031    159.3166     26.7143
  1618.8000      7.8675      2.5376      0.0362      6.8130    154.2309     26.3292
  1618.9000      7.8675      2.5462      0.0544      6.2883    149.1540     25.8390
  1619.0000      7.7945      2.5501      0.0238      6.0528    143.5300     25.5064
  1619.1000      7.7945      2.5567      0.0584      5.6547    137.7569     25.2712
  1619.2000      7.7945      2.5712      0.0628      4.7773    135.2077     25.0095
  1619.3000      7.7437      2.5924      0.0374      3.4903    135.1352     24.8655
  1619.4000      7.7437      2.6103      0.0431      2.4049    135.3207     24.6694
  1619.5000      7.7124      2.6043      0.0626      2.7673    134.7492     24.1363
  1619.6000      7.7124      2.5716      0.0630      4.7506    132.2016     23.5375
  1619.7000      7.7124      2.5423     -0.0101      6.5302    127.6486     23.3653
  1619.8000      7.7695      2.5425      0.0362      6.5174    124.3917     23.7487
  1619.9000      7.7695      2.5667      0.0575      5.0481    125.0912     24.3409
  1620.0000      7.8077      2.6002      0.0561      3.0184    127.1718     24.7377
  1620.1000      7.8077      2.6283      0.1121      1.3140    127.8334     24.9400
  1620.2000      7.8077      2.6393      0.0678      0.6509    125.3400     24.9498
  1620.3000      7.8860      2.6383      0.0884      0.7063    118.5821     24.5324
  1620.4000      7.8860      2.6305      0.1016      1.1810    111.6688     23.8637
  1620.5000      7.8641      2.6158      0.0754      2.0723    110.5299     23.3858
  1620.6000      7.8641      2.6010      0.0787      2.9672    114.7462     23.2057
  1620.7000      7.8641      2.5907      0.0407      3.5957    119.7077     23.1372
  1620.8000      7.7813      2.5814      0.0498      4.1571    123.0151     23.1271
  1620.9000      7.7813      2.5704      0.0505      4.8213    126.2873     23.2622
  1621.0000      7.7780      2.5649      0.0386      5.1599    130.4352     23.3756
  1621.1000      7.7780      2.5688      0.0607      4.9195    133.8458     23.2859
  1621.2000      7.7780      2.5735      0.0444      4.6365    136.5999     23.1781
  1621.3000      7.7934      2.5709      0.0448      4.7966    139.7984     23.3923
  1621.4000      7.7934      2.5605      0.0024      5.4260    144.1182     24.1362
  1621.5000      7.8301      2.5465      0.0322      6.2748    150.3228     25.2075
  1621.6000      7.8301      2.5322      0.0282      7.1406    157.1284     26.0962
  1621.7000      7.8301      2.5234      0.0022      7.6704    161.9809     26.6711
  1621.8000      7.8730      2.5304      0.0338      7.2500    164.4310     27.1860
  1621.9000      7.8730      2.5468      0.0937      6.2532    165.3554     27.7432
  1622.0000      7.9258      2.5543      0.0763      5.7999    165.6637     28.3179
  1622.1000      7.9258      2.5539      0.0492      5.8259    165.5893     28.7621
  1622.2000      7.9258      2.5579      0.0666      5.5839    165.2762     28.7426
  1622.3000      7.9312      2.5680      0.0529      4.9708    165.5154     28.1694
  1622.4000      7.9312      2.5778      0.0735      4.3752    164.5654     27.3749
  1622.5000      7.9311      2.5792      0.0773      4.2891    161.8544     26.8935
  1622.6000      7.9311      2.5710      0.0903      4.7892    160.3628     26.8569
  1622.7000      7.9311      2.5583      0.0561      5.5595    157.8594     26.7586
  1622.8000      7.9380      2.5495      0.0404      6.0931    151.5988     26.4175
  1622.9000      7.9380      2.5466      0.0430      6.2640    145.8953     26.2651
  1623.0000      7.9371      2.5397      0.0548      6.6828    143.5391     26.4554
  1623.1000      7.9371      2.5212      0.0332      7.8069    140.6499     26.6159
  1623.2000      7.9371      2.5007     -0.0085      9.0470    135.9671     26.4642
  1623.3000      7.9315      2.4973     -0.0158      9.2521    132.8857     26.2136
  1623.4000      7.9315      2.5164      0.0175      8.0963    133.1032     26.2351
  1623.5000      7.9343      2.5366      0.0761      6.8702    135.3281     26.4379
  1623.6000      7.9343      2.5370      0.0534      6.8478    137.0204     26.4260
  1623.7000      7.9343      2.5273      0.0499      7.4358    135.0475     26.1574
  1623.8000      7.9232      2.5232      0.0740      7.6839    129.6839     25.8119
  1623.9000      7.9232      2.5250      0.0194      7.5731    125.6392     25.5848
  1624.0000      7.9192      2.5270      0.0527      7.4548    124.7593     25.6347
  1624.1000      7.9192      2.5220      0.0416      7.7557    125.1598     25.9273
  1624.2000      7.9192      2.5100      0.0501      8.4850    126.2917     26.1479
  1624.3000      7.9220      2.4931      0.0289      9.5110    127.8878     26.1077
  1624.4000      7.9220      2.4732     -0.0013     10.7130    127.3038     26.0540
  1624.5000      7.9041      2.4603     -0.0054     11.4995    125.2658     26.1295
  1624.6000      7.9041      2.4640      0.0255     11.2703    126.1961     26.0594
  1624.7000      7.9041      2.4867      0.0402      9.8997    129.2638     25.7446
  1624.8000      7.8673      2.5218      0.0545      7.7724    129.6191     25.3049
  1624.9000      7.8673      2.5589      0.0675      5.5225    125.2498     24.6880
  1625.0000      7.8215      2.5931      0.1137      3.4499    118.0501     23.9198
  1625.1000      7.8215      2.6190      0.1397      1.8773    110.5996     23.3364
  1625.2000      7.8215      2.6225      0.1734      1.6657    104.6862     23.2097
  1625.3000      7.7730      2.6004      0.1354      3.0057    101.3596     23.2213
  1625.4000      7.7730      2.5729      0.1171      4.6754     98.1670     22.8157
  1625.5000      7.7279      2.5580      0.1071      5.5769     93.4825     22.1839
  1625.6000      7.7279      2.5568      0.0971      5.6493     89.4248     21.8399
  1625.7000      7.7279      2.5708      0.0642      4.8019     87.5550     21.5041
  1625.8000      7.6085      2.5992      0.0862      3.0767     87.3739     20.7943
  1625.9000      7.6085      2.6279      0.0887      1.3409     86.6768     19.9332
  1626.0000      7.6088      2.6438      0.1130      0.3728     84.2841     19.2064
  1626.1000      7.6088      2.6476      0.1292      0.1466     80.4692     18.8680
  1626.2000      7.6088      2.6444      0.1332      0.3397     76.8730     18.9994
  1626.3000      7.6983      2.6330      0.1028      1.0288     75.7971     19.2034
  1626.4000      7.6983      2.6114      0.1031      2.3415     76.4675     19.1947
  1626.5000      7.7765      2.5884      0.0328      3.7305     77.4250     19.1847
  1626.6000      7.7765      2.5764      0.0328      4.4635     79.7138     19.5421
  1626.7000      7.7765      2.5738      0.0589      4.6181     83.3308     20.2950
  1626.8000      7.8455      2.5697      0.0441      4.8651     86.5370     21.0020
  1626.9000      7.8455      2.5626      0.0079      5.2944     87.9814     21.4208
  1627.0000      7.9060      2.5584      0.0477      5.5498     87.0589     21.7641
  1627.1000      7.9060      2.5547      0.0429      5.7774     84.8094     22.2286
