~Version Information
VERS.                      2.0: CWLS Log ASCII Standard - VERSION 2.0
WRAP.                       NO: One line per depth step
~Well Information Block
STRT.FT               530.0000: 
STOP.FT              1825.0000: 
STEP.FT                 0.1000: 
NULL.                -999.2500: 
COMP.          Pioneer Natural Resources: COMPANY
WELL.          Vision 31-11 Tr: WELL
FLD.           Purgatoire River: FIELD
LOC.           742' FNL & 1593' FEL: LOCATION
STAT.                 Colorado: State
CNTY.               Las Animas: COUNTY
CTRY. USA : Country
SECT. 11 : Section
TOWN. 32S : Township
RANG. 66W : Range
SRVC.                Patterson: SERVICE COMPANY
DATE.          Mon Oct 10 07:17:32 2005: LOG DATE
API.           05 071 08305 00: UNIQUE WELL ID
~Curve Information Block
DEPT.FT            0 000 00 00: Depth
DCAL.in                       : CDL Caliper
RHOB.g/cc                     : CDL Bulk Density
RHOC.g/cc                     : CDL Density Correction
DPOR.pu                       : CDL Density Porosity
GR.GAPI                       : Gamma Ray
NPOR.pu                       : Neutron Porosity
~Parameter Information Block
~A  Depth       DCAL        RHOB        RHOC        DPOR         GR         NPOR    
# ...
  1298.0000      8.3312      2.4250      0.1518     13.6335    101.7947     27.2772
  1298.1000      8.3312      2.3696      0.0621     16.9946    103.5210     27.2179
  1298.2000      8.3312      2.2756      0.0360     22.6918    106.1912     27.1590
  1298.3000      8.3667      2.1380      0.0343     31.0306    110.3171     27.6325
  1298.4000      8.3667      1.9908     -0.0875     39.9499    116.1648     28.0993
  1298.5000      8.3097      1.8832     -0.1047     46.4698    119.5975     28.2876
  1298.6000      8.3097      1.8033     -0.0613     51.3180    118.1615     28.3506
  1298.7000      8.3097      1.7054     -0.0717     57.2497    116.8491     28.4487
  1298.8000      8.3854      1.5997     -0.1072     63.6552    116.5638     28.5549
  1298.9000      8.3854      1.5362     -0.0435     67.5059    114.5902     28.5313
  1299.0000      8.3931      1.5169      0.1083     68.6704    112.2868     28.7561
  1299.1000      8.3931      1.4989      0.0608     69.7657    111.4166     29.3741
  1299.2000      8.3931      1.4652      0.0094     71.8039    110.6518     29.9715
  1299.3000      8.5880      1.4332     -0.0134     73.7429    104.9190     30.4908
  1299.4000      8.5880      1.4165     -0.0279     74.7572     94.7312     31.3834
  1299.5000      8.7615      1.4143      0.0063     74.8885     86.5240     32.5675
  1299.6000      8.7615      1.4242      0.0160     74.2902     82.7354     33.3854
  1299.7000      8.7615      1.4524      0.0722     72.5809     82.0229     33.2943
  1299.8000      8.6219      1.5068      0.0827     69.2820     79.8200     32.4135
  1299.9000      8.6219      1.5871      0.1126     64.4201     71.6873     31.6101
  1300.0000      8.4293      1.6959      0.1083     57.8262     60.3740     31.4472
  1300.1000      8.4293      1.8402      0.1463     49.0761     52.5073     32.0119
  1300.2000      8.4293      2.0074      0.1931     38.9484     50.4267     33.2272
  1300.3000      8.4245      2.1693      0.1948     29.1349     52.3741     34.0565
  1300.4000      8.4245      2.3091      0.2720     20.6582     55.6858     33.3177
  1300.5000      8.3864      2.4147      0.3113     14.2633     57.4839     31.5322
  1300.6000      8.3864      2.4755      0.3117     10.5785     58.3617     29.8866
  1300.7000      8.3864      2.5037      0.1629      8.8675     60.7098     28.7283
  1300.8000      8.3765      2.5197      0.0942      7.8973     63.1000     27.5899
  1300.9000      8.3765      2.5291      0.0474      7.3261     64.0814     26.3616
  1301.0000      8.3297      2.5352      0.0805      6.9564     63.8938     25.3176
  1301.1000      8.3297      2.5436      0.0768      6.4515     64.1169     24.4881
  1301.2000      8.3297      2.5573      0.0434      5.6208     67.2270     23.7577
  1301.3000      8.1620      2.5658      0.1044      5.1031     73.8267     23.5172
  1301.4000      8.1620      2.5577      0.0626      5.5948     83.5997     24.1676
  1301.5000      8.1460      2.5507      0.0424      6.0156     94.8975     24.9452
  1301.6000      8.1460      2.5573      0.1188      5.6172    104.6357     24.7937
  1301.7000      8.1460      2.5567      0.0891      5.6522    110.6930     23.6604
  1301.8000      8.1805      2.5425      0.0468      6.5152    113.6662     22.6015
  1301.9000      8.1805      2.5340      0.0134      7.0284    114.4983     22.2398
  1302.0000      8.2179      2.5365      0.0643      6.8810    114.5647     21.8211
  1302.1000      8.2179      2.5362      0.0507      6.8994    116.4809     21.3870
  1302.2000      8.2179      2.5279      0.0354      7.4002    119.2827     21.7610
  1302.3000      8.1914      2.5237     -0.0046      7.6554    117.3539     22.8959
  1302.4000      8.1914      2.5303      0.0630      7.2572    111.8347     23.9737
  1302.5000      8.2016      2.5353      0.0596      6.9538    112.2718     24.1219
  1302.6000      8.2016      2.5290      0.0669      7.3337    121.7007     23.5299
  1302.7000      8.2016      2.5109      0.0471      8.4292    133.4025     23.7627
  1302.8000      8.2164      2.4884      0.0039      9.7923    139.8913     24.7867
  1302.9000      8.2164      2.4806     -0.0061     10.2659    137.0534     24.6265
  1303.0000      8.1810      2.4970      0.0622      9.2749    128.8615     23.1877
  1303.1000      8.1810      2.5258      0.0802      7.5250    122.8055     22.1939
  1303.2000      8.1810      2.5489      0.1291      6.1289    120.6545     22.2231
  1303.3000      8.1765      2.5574      0.1165      5.6131    119.9252     22.7367
  1303.4000      8.1765      2.5643      0.0487      5.1955    121.0232     23.1782
  1303.5000      8.1750      2.5753      0.1703      4.5264    127.2518     22.6880
  1303.6000      8.1750      2.5804      0.1029      4.2201    136.6755     20.9737
  1303.7000      8.1750      2.5911      0.0863      3.5713    140.9460     19.6517
  1303.8000      8.1742      2.6131      0.0849      2.2356    135.9688     19.7083
  1303.9000      8.1742      2.6269      0.0920      1.4015    131.3660     20.0164
  1304.0000      8.1543      2.6274      0.0435      1.3702    133.8084     19.9004
  1304.1000      8.1543      2.6217      0.0813      1.7149    135.1348     20.0860
  1304.2000      8.1543      2.6110      0.0455      2.3633    128.7881     20.7414
  1304.3000      8.1361      2.6046      0.0365      2.7529    119.6702     21.1731
  1304.4000      8.1361      2.6022      0.0688      2.8968    112.8853     20.7189
  1304.5000      8.1445      2.5921      0.0889      3.5065    106.5877     20.0024
  1304.6000      8.1445      2.5768      0.0874      4.4389    102.7201     20.3770
  1304.7000      8.1445      2.5660      0.0384      5.0893    105.7216     21.7137
  1304.8000      8.1434      2.5599      0.0736      5.4600    108.7170     22.5836
  1304.9000      8.1434      2.5499      0.0621      6.0672    106.0292     22.8910
  1305.0000      8.1512      2.5342      0.0360      7.0202    103.6294     23.1080
  1305.1000      8.1512      2.5196      0.0288      7.9016    104.4622     22.1644
  1305.2000      8.1512      2.5144      0.0471      8.2170    106.1133     20.2419
  1305.3000      8.1474      2.5213      0.0369      7.8012    107.4537     19.0301
  1305.4000      8.1474      2.5351      0.0297      6.9624    107.4069     19.1411
  1305.5000      8.1206      2.5456      0.0085      6.3249    105.8422     20.0642
  1305.6000      8.1206      2.5475      0.0748      6.2145    103.8062     20.7462
  1305.7000      8.1206      2.5450      0.0457      6.3621    102.1095     20.7605
  1305.8000      8.1366      2.5419      0.0817      6.5496    102.3047     21.1860
  1305.9000      8.1366      2.5353      0.0347      6.9535    103.2987     22.5944
  1306.0000      8.1567      2.5264      0.0151      7.4911    103.2577     24.1770
  1306.1000      8.1567      2.5247     -0.0129      7.5932    103.8054     24.9975
  1306.2000      8.1567      2.5341      0.0244      7.0255    104.1151     24.7287
  1306.3000      8.1481      2.5391      0.0498      6.7228    101.4123     23.4556
  1306.4000      8.1481      2.5294      0.0164      7.3076     99.4882     21.9280
  1306.5000      8.1425      2.5152      0.0133      8.1719    100.9847     21.5830
  1306.6000      8.1425      2.5047      0.0525      8.8088    101.3950     22.0225
  1306.7000      8.1425      2.4969      0.0241      9.2776     98.2831     21.8610
  1306.8000      8.1369      2.4969     -0.0186      9.2778     96.3406     21.6402
  1306.9000      8.1369      2.5192     -0.0508      7.9278     97.9354     22.7234
  1307.0000      8.1474      2.5628      0.0409      5.2845     97.4481     24.4469
  1307.1000      8.1474      2.6095      0.0361      2.4564     94.0257     24.8551
  1307.2000      8.1474      2.6517      0.0254     -0.1014     94.4220     23.2250
  1307.3000      8.1553      2.6890      0.0837     -2.3637     98.7941     20.4686
  1307.4000      8.1553      2.7196      0.0738     -4.2186    101.3457     18.3487
  1307.5000      8.1429      2.7464      0.0944     -5.8410     99.4750     18.1792
