~Version Information
VERS.                      2.0: CWLS Log ASCII Standard - VERSION 2.0
WRAP.                       NO: One line per depth step
~Well Information Block
STRT.FT               250.0000: 
STOP.FT              2600.7000: 
STEP.FT                 0.1000: 
NULL.                -999.2500: 
COMP.          Pioneer Natural Resources: COMPANY
WELL.              Quack 22-24: WELL
FLD.           Purgatoire River: FIELD
LOC.           2492' FNL & 2459' FWL--: LOCATION
PROV.                 Colorado: PROVINCE
CNTY.               Las Animas: COUNTRY
SRVC.                Patterson: SERVICE COMPANY
DATE.          Mon Jun 13 08:03:15 2005: LOG DATE
UWI.            05 071 0840200: UNIQUE WELL ID
~Curve Information Block
DEPT.FT            0 000 00 00: Depth
DCAL.in                       : CDL Caliper
RHOB.g/cc                     : CDL Bulk Density
RHOC.g/cc                     : CDL Density Correction
DPOR.pu                       : CDL Density Porosity
NPOR.pu                       : Neutron Porosity
GR.GAPI                       : Gamma Ray
~Parameter Information Block
~A  Depth       DCAL        RHOB        RHOC        DPOR        NPOR         GR     
   250.0000      8.1251      2.4941     -0.2627      9.4466     39.0697     70.3821
   250.1000      8.1251      2.5131     -0.2117      8.2964     38.6996     75.7095
   250.2000      8.1251      2.5233     -0.2350      7.6760     38.9008     81.5726
   250.3000      8.1271      2.5126     -0.1881      8.3243     39.4452     93.9743
   250.4000      8.1271      2.4877     -0.2287      9.8387     39.8567    115.5902
   250.5000      8.1280      2.4689     -0.2341     10.9749     40.0707    135.3088
   250.6000      8.1280      2.4726     -0.2895     10.7488     40.3186    140.5473
   250.7000      8.1280      2.5000     -0.2445      9.0926     40.6694    132.8564
   250.8000      8.1270      2.5347     -0.2296      6.9870     40.8066    120.5005
   250.9000      8.1270      2.5537     -0.2082      5.8372     40.5296    110.5092
   251.0000      8.1258      2.5488     -0.2206      6.1347     40.2473    105.8350
   251.1000      8.1258      2.5320     -0.2592      7.1494     40.2123    102.2021
   251.2000      8.1258      2.5137     -0.2119      8.2584     39.8709     94.0581
   251.3000      8.1246      2.4900     -0.2119      9.6962     38.8415     84.5344
   251.4000      8.1246      2.4509     -0.2314     12.0682     37.6649     81.4651
   251.5000      8.1247      2.3913     -0.2837     15.6758     36.8201     87.3641
   251.6000      8.1247      2.3182     -0.3026     20.1118     36.1004     97.8161
   251.7000      8.1247      2.2440     -0.3705     24.6083     35.0625    103.9950
   251.8000      8.1255      2.1829     -0.3391     28.3063     33.2961    100.5516
   251.9000      8.1255      2.1500     -0.3536     30.3009     30.5896     92.7342
   252.0000      8.1250      2.1579     -0.3467     29.8229     27.5440     88.4859
   252.1000      8.1250      2.1962     -0.2326     27.5044     25.1060     89.0423
   252.2000      8.1250      2.2266     -0.1733     25.6591     23.3093     92.0717
   252.3000      8.1289      2.2068     -0.1479     26.8629     21.8815     94.9755
   252.4000      8.1289      2.1135     -0.0618     32.5176     20.5689     95.5777
   252.5000      8.1558      1.9996     -0.2101     39.4152     19.2847     95.0887
   252.6000      8.1558      1.9776     -0.1650     40.7540     18.5585     96.0486
   252.7000      8.1558      2.0848     -0.0523     34.2556     18.1982     97.8981
   252.8000      8.2910      2.2582      0.1592     23.7425     17.6463    100.1213
   252.9000      8.2910      2.4098      0.3387     14.5583     17.3276    102.8102
   253.0000      8.6694      2.4906      0.3271      9.6621     17.7863    104.5626
   253.1000      8.6694      2.5088      0.3541      8.5586     18.8263    104.3563
   253.2000      8.6694      2.4948      0.2811      9.4067     19.8280    101.7696
   253.3000      9.2867      2.4716      0.2820     10.8114     20.4604     99.5886
   253.4000      9.2867      2.4524      0.2244     11.9779     20.9714    102.1335
   253.5000      9.9515      2.4393      0.2376     12.7706     21.5048    107.1465
   253.6000      9.9515      2.4109      0.2403     14.4904     21.9552    108.0512
   253.7000      9.9515      2.3508      0.1180     18.1315     22.3080    103.3612
   253.8000     10.4096      2.2808      0.0827     22.3737     22.4214     99.9897
   253.9000     10.4096      2.2362      0.0252     25.0795     22.3189    103.2277
   254.0000     10.5989      2.2430      0.0311     24.6697     22.4355    109.9833
   254.1000     10.5989      2.3075      0.0610     20.7591     22.8108    113.9533
   254.2000     10.5989      2.4000      0.1729     15.1545     22.9978    115.3997
   254.3000     10.6810      2.4772      0.1967     10.4705     23.0179    118.7445
   254.4000     10.6810      2.5284      0.2455      7.3699     23.0389    123.4019
   254.5000     10.7629      2.5637      0.2615      5.2320     22.6276    122.6805
   254.6000     10.7629      2.5775      0.2814      4.3936     21.5491    114.8023
   254.7000     10.7629      2.5553      0.2032      5.7367     20.3532    106.8302
   254.8000     10.8228      2.5123      0.1167      8.3477     19.4073    102.0475
   254.9000     10.8228      2.4856      0.1341      9.9642     18.7556     98.8427
   255.0000     10.9556      2.4836      0.1346     10.0875     18.4115     97.4388
   255.1000     10.9556      2.4792      0.1388     10.3521     18.2255     96.8384
   255.2000     10.9556      2.4554      0.1011     11.7920     18.0944     94.6786
   255.3000     10.9778      2.4244      0.0553     13.6701     18.1090     92.8181
   255.4000     10.9778      2.4033      0.0287     14.9513     18.3487     93.2613
   255.5000     10.9921      2.3962      0.0381     15.3793     18.7293     92.7408
   255.6000     10.9921      2.4033      0.0211     14.9541     19.0313     89.3237
   255.7000     10.9921      2.4247      0.0744     13.6538     19.1702     87.6878
   255.8000     11.0025      2.4461      0.0826     12.3579     19.3810     90.1665
   255.9000     11.0025      2.4506      0.0807     12.0819     19.9320     92.1993
   256.0000     11.0091      2.4446      0.0581     12.4473     20.7087     92.2368
   256.1000     11.0091      2.4429      0.0461     12.5519     21.3458     91.6126
   256.2000     11.0091      2.4406      0.0958     12.6910     21.7287     90.8685
   256.3000     11.0167      2.4305      0.0485     13.3008     21.9878     93.3714
   256.4000     11.0167      2.4232      0.0710     13.7470     22.2647    100.6338
   256.5000     11.0294      2.4245      0.0582     13.6680     22.5827    106.3344
   256.6000     11.0294      2.4306      0.0682     13.2940     22.9948    106.0281
   256.7000     11.0294      2.4312      0.0853     13.2603     23.4577    104.8850
   256.8000     11.0429      2.4147      0.0523     14.2584     24.0196    108.3063
   256.9000     11.0429      2.3927      0.0148     15.5929     24.8069    117.1478
   257.0000     11.0546      2.3960      0.0012     15.3943     25.8105    128.5253
   257.1000     11.0546      2.4334      0.0562     13.1251     26.8573    138.1498
   257.2000     11.0546      2.4735      0.1012     10.6977     27.6056    144.6027
   257.3000     11.0608      2.4870      0.0849      9.8763     28.1021    150.4341
   257.4000     11.0608      2.4729      0.1140     10.7322     28.7051    160.6146
   257.5000     11.0667      2.4401      0.0579     12.7190     29.3610    173.7474
   257.6000     11.0667      2.4090      0.0495     14.6066     29.6482    181.0029
   257.7000     11.0667      2.4031      0.0675     14.9608     29.4836    180.4365
   257.8000     11.0819      2.4249      0.1172     13.6443     29.1167    178.6464
   257.9000     11.0819      2.4506      0.1485     12.0866     28.6421    179.2321
   258.0000     11.1140      2.4498      0.1501     12.1320     27.9262    178.8542
   258.1000     11.1140      2.4123      0.1249     14.4069     26.8039    175.3889
   258.2000     11.1140      2.3575      0.0522     17.7254     25.8625    170.8923
   258.3000     11.1801      2.3188      0.0375     20.0700     25.6533    167.2329
   258.4000     11.1801      2.3156      0.0292     20.2692     25.5842    168.6337
   258.5000     11.2740      2.3391      0.0628     18.8426     25.2218    176.7236
   258.6000     11.2740      2.3554      0.1073     17.8576     24.8643    181.7327
   258.7000     11.2740      2.3329      0.1150     19.2163     24.6523    174.0129
   258.8000     11.3643      2.2795      0.0546     22.4539     24.4453    160.6970
   258.9000     11.3643      2.2328      0.0277     25.2857     24.0433    153.4358
   259.0000     11.4421      2.2193      0.0610     26.1054     23.4147    150.9623
   259.1000     11.4421      2.2358      0.0930     25.1006     22.6489    150.9733
   259.2000     11.4421      2.2654      0.0880     23.3109     21.7415    154.1866
   259.3000     11.5020      2.2903      0.1445     21.8020     21.1108    154.7166
   259.4000     11.5020      2.2921      0.1727     21.6931     21.2666    146.7775
   259.5000     11.5851      2.2695      0.1760     23.0585     21.8574    135.8276
