~Version Information
VERS.                      2.0: CWLS Log ASCII Standard - VERSION 2.0
WRAP.                       NO: One line per depth step
~Well Information Block
STRT.FT               -11.0000: 
STOP.FT              2634.5000: 
STEP.FT                 0.2500: 
NULL.                -999.2500: 
COMP.          Evergreen Operating Corporation: COMPANY
WELL.          Sand PebbleS 13-33: WELL
FLD.           Purgatorie River: FIELD
LOC.           1883' FSL & 63' FWL--: LOCATION
PROV.                 Colorado: PROVINCE
CNTY.               Las Animas: COUNTRY
SRVC.          Patterson Wireline: SERVICE COMPANY
DATE.          Fri Mar 18 09:37:20 2005: LOG DATE
UWI.          005 071 08224 : UNIQUE WELL ID
~Curve Information Block
DEPT.FT            0 000 00 00: Depth
CCL.                          : Casing Collar Locator
TT3.usec                      : CBL 3' Travel Time
AMP3.mV                       : CBL 3' Amplitude
GR.GAPI                       : Gamma Ray
~Parameter Information Block
~A  Depth       CCL         TT3         AMP3         GR     
# ...
   860.0000      0.0000    764.4990      5.3510     89.7974
   860.2500      0.0000    759.6343      5.4451    101.1917
   860.5000      0.0000    749.1358      5.5436    112.0956
   860.7500      0.0000    735.5505      5.6694    121.4164
   861.0000      0.0000    723.6188      5.8561    128.3833
   861.2500      0.0000    717.0679      6.1173    132.8592
   861.5000      0.0000    716.4261      6.4313    135.5222
   861.7500      0.0000    719.7432      6.7494    137.2577
   862.0000      0.0000    724.7122      7.0208    138.3211
   862.2500      0.0000    729.8279      7.2130    138.3412
   862.5000      0.0000    734.2490      7.3176    137.2305
   862.7500      0.0000    737.5416      7.3402    135.5619
   863.0000      0.0000    739.7830      7.2907    133.7393
   863.2500      0.0000    741.5006      7.1858    131.3905
   863.5000      0.0000    743.1290      7.0514    128.1111
   863.7500      0.0000    744.4226      6.9130    124.4758
   864.0000      0.0000    744.5944      6.7796    121.9147
   864.2500      0.0000    743.2419      6.6365    121.4608
   864.5000      0.0000    741.0065      6.4549    122.4551
   864.7500      0.0000    739.1238      6.2098    122.5835
   865.0000      0.0000    738.5345      5.8952    119.6349
   865.2500      0.0000    739.6781      5.5289    113.4381
   865.5000      0.0000    742.7346      5.1454    105.9335
   865.7500      0.0000    747.3994      4.7850     99.3972
   866.0000      0.0000    752.3273      4.4852     94.7794
   866.2500      0.0000    755.3114      4.2675     91.6010
   866.5000      0.0000    754.5181      4.1260     89.1492
   866.7500      0.0000    749.8309      4.0332     87.4780
   867.0000      0.0000    743.1200      3.9647     87.0476
   867.2500      0.0000    737.0888      3.9186     87.6368
   867.5000      0.0000    733.5597      3.9079     88.1332
   867.7500      0.0000    732.5673      3.9384     87.5237
   868.0000      0.0000    732.8318      4.0008     85.7580
   868.2500      0.0000    732.8951      4.0849     83.4711
   868.5000      0.0000    731.8140      4.1893     81.1947
   868.7500      0.0000    728.8937      4.3124     79.1727
   869.0000      0.0000    722.9659      4.4461     77.7407
   869.2500      0.0000    712.3082      4.5879     77.4651
   869.5000      0.0000    695.7924      4.7520     78.7487
   869.7500      0.0000    674.4841      4.9519     81.4222
   870.0000      0.0000    652.2410      5.1722     84.9027
   870.2500      0.0000    634.5735      5.3655     88.7043
   870.5000      0.0000    626.0318      5.4831     92.4336
   870.7500      0.0000    627.4532      5.5091     95.4364
   871.0000      0.0000    635.3647      5.4697     97.1192
   871.2500      0.0000    644.5159      5.4160     97.7490
   871.5000      0.0000    651.2723      5.3962     98.3466
   871.7500      0.0000    654.8717      5.4307     99.4912
   872.0000      0.0000    656.4009      5.4982    100.5721
   872.2500      0.0000    657.4499      5.5463    100.5487
   872.5000      0.0000    659.7431      5.5289     99.1558
   872.7500      0.0000    665.4050      5.4437     97.0832
   873.0000      0.0000    676.8804      5.3381     95.2321
   873.2500      0.0000    695.9141      5.2781     94.0524
   873.5000      0.0000    721.9688      5.3079     93.2660
   873.7500      0.0000    751.2445      5.4281     91.9778
   874.0000      0.0000    777.3699      5.6028     89.3289
   874.2500      0.0000    793.9521      5.7820     85.2056
   874.5000      0.0000    797.9353      5.9261     80.2550
   874.7500      0.0000    791.4824      6.0193     75.4680
   875.0000      0.0000    780.3079      6.0648     71.8252
   875.2500      0.0000    769.2169      6.0697     69.8934
   875.5000      0.0000    759.1229      6.0343     69.4008
   875.7500      0.0000    748.8455      5.9622     69.3845
   876.0000      0.0000    738.9440      5.8795     68.9707
   876.2500      0.0000    732.2148      5.8312     68.0679
   876.5000      0.0000    730.5412      5.8507     67.3097
   876.7500      0.0000    732.6797      5.9324     67.2963
   877.0000      0.0000    735.6674      6.0385     67.8397
   877.2500      0.0000    737.5355      6.1310     68.0247
   877.5000      0.0000    738.1149      6.1976     66.9861
   877.7500      0.0000    737.9797      6.2525     64.6579
   878.0000      0.0000    737.4877      6.3185     61.9140
   878.2500      0.0000    736.6638      6.4099     60.1887
   878.5000      0.0000    735.3403      6.5282     60.9927
   878.7500      0.0000    733.2292      6.6642     65.3446
   879.0000      0.0000    730.1508      6.8003     73.1539
   879.2500      0.0000    726.4021      6.9175     83.1829
   879.5000      0.0000    722.7943      7.0067     93.8528
   879.7500      0.0000    720.1591      7.0734    104.0429
   880.0000      0.0000    718.8299      7.1250    112.9447
   880.2500      0.0000    718.3109      7.1474    119.5111
   880.5000      0.0000    716.9153      7.0978    122.8057
   880.7500      0.0000    711.4822      6.9366    123.1891
   881.0000      0.0000    698.7482      6.6772    122.6373
   881.2500      0.0000    679.3823      6.3868    123.3486
   881.5000      0.0000    661.3166      6.1237    126.3503
   881.7500      0.0000    656.0154      5.8947    131.5970
   882.0000      0.0000    667.9650      5.6905    138.2302
   882.2500      0.0000    688.8324      5.5258    143.9731
   882.5000      0.0000    704.8930      5.4184    145.6550
   882.7500      0.0000    709.9181      5.3603    141.9357
   883.0000     -2.0000    709.1496      5.3349    135.2368
   883.2500      0.0000    711.8232      5.3411    130.1054
   883.5000      0.0000    722.0139      5.4005    129.7342
   883.7500      0.0000    736.3403      5.5568    134.1869
   884.0000      0.0000    747.8444      5.8465    141.2594
   884.2500      0.0000    750.8934      6.2383    148.3841
   884.5000      0.0000    744.1710      6.6208    153.9266
   884.7500      0.0000    730.8942      6.8896    157.3658
   885.0000      0.0000    716.5123      7.0274    159.1449
   885.2500      0.0000    705.5345      7.0774    160.6297
   885.5000      0.0000    699.8495      7.0722    163.3257
   885.7500      0.0000    699.1622      7.0218    167.3468
   886.0000      0.0000    702.0770      6.9375    171.0931
   886.2500      0.0000    706.5604      6.8367    172.9102
   886.5000      0.0000    710.2172      6.7325    172.7679
   886.7500      0.0000    711.4187      6.6305    171.8873
   887.0000      0.0000    710.5571      6.5314    170.6884
   887.2500      0.0000    709.6648      6.4314    167.4782
   887.5000      0.0000    710.5375      6.3275    159.7045
   887.7500      0.0000    713.5219      6.2250    146.6734
   888.0000      0.0000    717.8680      6.1359    130.8344
   888.2500      0.0000    722.3794      6.0646    116.5476
   888.5000      0.0000    725.6027      6.0000    107.7562
   888.7500      0.0000    726.0035      5.9289    106.1291
   889.0000      0.0000    722.2245      5.8504    110.4258
   889.2500      0.0000    712.8394      5.7774    117.4504
   889.5000      0.0000    696.6071      5.7293    124.1553
   889.7500      0.0000    674.9317      5.7186    129.1789
   890.0000      0.0000    654.6696      5.7382    132.5192
   890.2500      0.0000    645.6302      5.7655    134.2304
   890.5000      0.0000    651.8970      5.7819    133.9268
   890.7500      0.0000    665.5873      5.7827    131.5186
   891.0000      0.0000    671.0941      5.7760    127.9960
   891.2500      0.0000    657.3009      5.7786    125.0765
   891.5000      0.0000    627.9849      5.8036    123.9847
   891.7500      0.0000    601.2565      5.8467    124.7702
   892.0000      0.0000    596.1035      5.8916    127.0848
   892.2500      0.0000    617.0407      5.9299    131.2595
   892.5000      0.0000    652.0754      5.9658    137.9767
   892.7500      0.0000    684.3876      6.0018    146.8696
   893.0000      0.0000    704.0090      6.0300    155.9718
   893.2500      0.0000    710.3828      6.0387    162.8942
