~Version Information
VERS.                      2.0: CWLS Log ASCII Standard - VERSION 2.0
WRAP.                       NO: One line per depth step
~Well Information Block
STRT.FT                15.0000: 
STOP.FT              2620.5000: 
STEP.FT                 0.2500: 
NULL.                -999.2500: 
COMP.          Pioneer Natural Resources: COMPANY
WELL.               Zink 44-10: WELL
FLD.           Purgatoire River: FIELD
LOC.           548' FSL & 473' FEL: LOCATION
PROV.                 Colorado: PROVINCE
CNTY.               Las Animas: COUNTRY
SRVC.                Patterson: SERVICE COMPANY
DATE.          Tue Jun 21 13:36:23 2005: LOG DATE
UWI.           05 071 08380 00: UNIQUE WELL ID
~Curve Information Block
DEPT.FT            0 000 00 00: Depth
GR.GAPI                       : Gamma Ray
CCL.                          : Casing Collar Locator
TT3.usec                      : CBL 3' Travel Time
AMP3.mV                       : CBL 3' Amplitude
~Parameter Information Block
~A  Depth        GR         CCL         TT3         AMP3    
# ...
  1221.0000    127.4385      0.0000    692.0768      7.3648
  1221.2500    124.3752      0.0000    678.8089      7.5405
  1221.5000    124.8020      2.5000    655.4359      7.6615
  1221.7500    127.4277      2.5000    627.2308      7.6999
  1222.0000    129.5844      2.5000    598.8052      7.7033
  1222.2500    128.8563      0.0000    572.0512      7.8102
  1222.5000    124.1512      0.0000    550.9882      8.1841
  1222.7500    115.8853      0.0000    546.2932      8.8498
  1223.0000    105.7666      0.0000    568.6049      9.6127
  1223.2500     96.3847      0.0000    615.6093     10.2131
  1223.5000     90.4832      0.0000    670.0900     10.5413
  1223.7500     89.8652      0.0000    712.4442     10.6616
  1224.0000     94.2237      0.0000    733.1282     10.6793
  1224.2500    101.0051      0.0000    734.3763     10.6488
  1224.5000    107.2127      0.0000    724.5980     10.5760
  1224.7500    111.8056      0.0000    712.3387     10.4502
  1225.0000    115.9303      0.0000    702.7539     10.2659
  1225.2500    120.6152      0.0000    697.1119     10.0331
  1225.5000    125.0043      0.0000    694.4260      9.7810
  1225.7500    127.4850      0.0000    693.3419      9.5463
  1226.0000    127.9573      0.0000    692.9810      9.3558
  1226.2500    127.9994      0.0000    692.9893      9.2140
  1226.5000    128.8927      0.0000    693.3983      9.1058
  1226.7500    130.2595      0.0000    694.6324      9.0102
  1227.0000    130.6475      0.0000    697.5663      8.9143
  1227.2500    128.7923      0.0000    703.4349      8.8186
  1227.5000    124.3526      0.0000    713.3484      8.7245
  1227.7500    117.9910      0.0000    727.4120      8.6187
  1228.0000    110.8628      0.0000    743.7414      8.4746
  1228.2500    103.8244      0.0000    758.2781      8.2737
  1228.5000     97.1071      0.0000    766.4625      8.0245
  1228.7500     90.7616      0.0000    766.2285      7.7602
  1229.0000     85.1915      0.0000    759.4645      7.5223
  1229.2500     80.9758      0.0000    750.1381      7.3486
  1229.5000     78.2883      0.0000    741.3132      7.2698
  1229.7500     76.7884      0.0000    734.2313      7.3042
  1230.0000     76.0601      0.0000    729.3503      7.4471
  1230.2500     75.8918      0.0000    727.1838      7.6710
  1230.5000     76.0944      0.0000    727.7691      7.9405
  1230.7500     76.3178      0.0000    729.5706      8.2254
  1231.0000     76.2279      0.0000    729.7390      8.5033
  1231.2500     75.7356      0.0000    726.2220      8.7597
  1231.5000     74.8960      0.0000    719.3876      8.9956
  1231.7500     73.5862      0.0000    711.2960      9.2304
  1232.0000     71.4401      0.0000    703.9419      9.4919
  1232.2500     68.2773      0.0000    698.4489      9.7963
  1232.5000     64.5499      0.0000    695.1180     10.1346
  1232.7500     61.1064      0.0000    693.6146     10.4720
  1233.0000     58.5242      0.0000    693.2602     10.7611
  1233.2500     56.9241      0.0000    693.4235     10.9620
  1233.5000     56.3464      0.0000    693.7239     11.0594
  1233.7500     57.0050      0.0000    693.9868     11.0672
  1234.0000     59.1297      0.0000    694.1312     11.0208
  1234.2500     62.6310      0.0000    694.1252     10.9611
  1234.5000     66.8550      0.0000    693.9819     10.9171
  1234.7500     70.7026      0.0000    693.7529     10.8937
  1235.0000     73.2560      0.0000    693.4685     10.8754
  1235.2500     74.4767      0.0000    693.0457     10.8413
  1235.5000     75.2666      0.0000    692.2147     10.7785
  1235.7500     76.8093      0.0000    690.6382     10.6876
  1236.0000     79.9355      0.0000    688.3419     10.5816
  1236.2500     85.0071      0.0000    686.1096     10.4811
  1236.5000     91.9071      0.0000    685.1450     10.4031
  1236.7500     99.6469      0.0000    686.0307     10.3526
  1237.0000    106.2388      0.0000    688.1183     10.3225
  1237.2500    109.8114      0.0000    690.0842     10.3005
  1237.5000    110.1942      0.0000    690.8379     10.2740
  1237.7500    109.0470      0.0000    689.8612     10.2346
  1238.0000    108.4146      0.0000    687.1924     10.1821
  1238.2500    109.4168      0.0000    683.5412     10.1234
  1238.5000    112.0658      0.0000    680.2998     10.0662
  1238.7500    115.6235      0.0000    679.0419     10.0174
  1239.0000    118.7645      0.0000    680.7441      9.9842
  1239.2500    119.7320      0.0000    685.2460      9.9712
  1239.5000    116.9443      0.0000    691.1819      9.9734
  1239.7500    109.9715      0.0000    696.4340      9.9766
  1240.0000    100.3048      0.0000    699.1097      9.9690
  1240.2500     91.0810      0.0000    698.6680      9.9469
  1240.5000     85.4686      0.0000    696.2251      9.9106
  1240.7500     84.8199      0.0000    693.5730      9.8615
  1241.0000     88.1426      0.0000    691.9155      9.8080
  1241.2500     93.2150      0.0000    691.5435      9.7637
  1241.5000     98.2464      0.0000    692.3574      9.7381
  1241.7500    102.6623      0.0000    694.2994      9.7316
  1242.0000    106.5678      0.0000    697.1670      9.7421
  1242.2500    109.8826      0.0000    700.2595      9.7693
  1242.5000    112.3995      0.0000    702.7775      9.8117
  1242.7500    114.4713      0.0000    704.9159      9.8607
  1243.0000    117.1065      0.0000    708.0772      9.9012
  1243.2500    121.3702      0.0000    713.3611      9.9186
  1243.5000    127.8018      0.0000    719.9915      9.9048
  1243.7500    135.9790      0.0000    725.7963      9.8561
  1244.0000    144.2942      0.0000    729.2025      9.7698
  1244.2500    150.5897      0.0000    730.3764      9.6495
  1244.5000    153.4186      0.0000    730.5114      9.5157
  1244.7500    152.7474      0.0000    730.5961      9.4041
  1245.0000    149.7510      0.0000    731.0972      9.3492
  1245.2500    146.2595      0.0000    732.2054      9.3618
  1245.5000    143.8851      0.0000    733.8034      9.4178
  1245.7500    142.9805      0.0000    735.4296      9.4735
  1246.0000    142.3773      0.0000    736.6093      9.5005
  1246.2500    140.3602      0.0000    737.0645      9.5080
  1246.5000    136.1378      0.0000    736.4623      9.5245
  1246.7500    130.5385      0.0000    734.1429      9.5627
  1247.0000    125.2409      0.0000    729.4025      9.6059
  1247.2500    121.4500      0.0000    722.2978      9.6264
  1247.5000    119.4787      0.0000    714.1599      9.6106
  1247.7500    119.1579      0.0000    707.0728      9.5696
  1248.0000    120.0193      0.0000    702.6845      9.5297
  1248.2500    121.1646      0.0000    701.4847      9.5124
  1248.5000    121.6539      0.0000    702.8840      9.5195
  1248.7500    121.4430      0.0000    705.7222      9.5370
  1249.0000    121.7805      0.0000    709.0577      9.5476
  1249.2500    124.3276      0.0000    712.8747      9.5381
  1249.5000    129.4961      0.0000    717.7954      9.5033
  1249.7500    135.5219      0.0000    723.9119      9.4578
  1250.0000    139.5600      0.0000    730.3483      9.4433
  1250.2500    140.0820      0.0000    736.1334      9.5110
  1250.5000    138.0838      0.0000    740.9269      9.6910
  1250.7500    135.9101      0.0000    744.7001      9.9764
  1251.0000    135.3493      0.0000    747.3210     10.3323
  1251.2500    136.9573      0.0000    748.8144     10.7160
  1251.5000    140.3489      0.0000    749.6811     11.0958
  1251.7500    144.3408      0.0000    750.7768     11.4556
  1252.0000    147.2781      0.0000    753.0684     11.7817
  1252.2500    148.1934      0.0000    757.1927     12.0438
  1252.5000    147.7357      0.0000    762.7595     12.1968
  1252.7500    147.3203      0.0000    768.3243     12.2098
  1253.0000    147.2639      0.0000    772.4203     12.1024
  1253.2500    146.3034      0.0000    774.4410     11.9471
  1253.5000    143.2253      0.0000    774.4275     11.8266
  1253.7500    138.5550      0.0000    772.3962     11.7814
  1254.0000    134.3074      0.0000    768.2793     11.7917
  1254.2500    132.4118      0.0000    762.4454     11.8095
