~Version Information
VERS.                      2.0: CWLS Log ASCII Standard - VERSION 2.0
WRAP.                       NO: One line per depth step
~Well Information Block
STRT.FT               840.0000: 
STOP.FT              2020.0000: 
STEP.FT                 0.1000: 
NULL.                -999.2500: 
COMP.          Petrogulf Corporation: COMPANY
WELL.           Lavedure 7-44R: WELL
FLD.           Purgatorie River: FIELD
LOC.           946' FSL & 521' FEL: LOCATION
PROV.                 Colorado: PROVINCE
CNTY.               Las Animas: COUNTRY
SRVC.                Patterson: SERVICE COMPANY
DATE.          Mon Sep 26 08:30:48 2005: LOG DATE
UWI.                          : UNIQUE WELL ID
~Curve Information Block
DEPT.FT            0 000 00 00: Depth
DCAL.in                       : CDL Caliper
RHOB.g/cc                     : CDL Bulk Density
RHOC.g/cc                     : CDL Density Correction
DPOR.pu                       : CDL Density Porosity
GR.GAPI                       : Gamma Ray
NPOR.pu                       : Neutron Porosity
~Parameter Information Block
~A  Depth       DCAL        RHOB        RHOC        DPOR         GR         NPOR    
# ...
  1224.0000      8.1641      2.6646      0.0399     -0.8840    126.2509     28.4023
  1224.1000      8.1641      2.6790      0.0364     -1.7563    127.1423     28.5093
  1224.2000      8.1641      2.6969      0.0784     -2.8410    128.3450     28.4652
  1224.3000      8.1550      2.7049     -0.0027     -3.3257    128.6614     28.2184
  1224.4000      8.1550      2.6953      0.0123     -2.7455    127.1134     27.8764
  1224.5000      8.1482      2.6569     -0.0111     -0.4190    125.2838     27.5882
  1224.6000      8.1482      2.6010     -0.0316      2.9713    126.4906     27.5142
  1224.7000      8.1482      2.5644     -0.0779      5.1859    131.2584     27.6292
  1224.8000      8.1413      2.5621     -0.0112      5.3265    133.5109     27.8169
  1224.9000      8.1413      2.5758      0.0005      4.4982    128.1042     27.8534
  1225.0000      8.1314      2.5882      0.0190      3.7435    119.8796     27.6262
  1225.1000      8.1314      2.5960      0.0280      3.2722    116.2811     27.3385
  1225.2000      8.1314      2.5994      0.0710      3.0690    119.2973     27.1352
  1225.3000      8.1226      2.5962      0.0417      3.2583    126.0622     27.0103
  1225.4000      8.1226      2.5853      0.0238      3.9218    130.6877     26.9233
  1225.5000      8.1084      2.5671      0.0241      5.0223    130.4470     26.8263
  1225.6000      8.1084      2.5511     -0.0335      5.9968    128.2396     26.7766
  1225.7000      8.1084      2.5472      0.0081      6.2285    128.1557     26.7890
  1225.8000      8.0905      2.5485      0.0010      6.1518    131.0742     26.6724
  1225.9000      8.0905      2.5459     -0.0044      6.3094    132.0730     26.3750
  1226.0000      8.0746      2.5396      0.0285      6.6931    129.3543     26.0353
  1226.1000      8.0746      2.5296      0.0448      7.2966    128.4748     25.7641
  1226.2000      8.0746      2.5220     -0.0026      7.7570    130.9469     25.7658
  1226.3000      8.0675      2.5303      0.0335      7.2561    131.5351     26.2352
  1226.4000      8.0675      2.5699      0.0043      4.8562    127.9758     27.0401
  1226.5000      8.0582      2.6524      0.0545     -0.1434    123.3526     27.7029
  1226.6000      8.0582      2.7668      0.1048     -7.0778    118.2503     27.9415
  1226.7000      8.0582      2.8906      0.1324    -14.5821    108.8789     27.9639
  1226.8000      8.0530      3.0195      0.1499    -22.3957     95.4342     27.9152
  1226.9000      8.0530      3.1553      0.2158    -30.6252     82.9921     27.7131
  1227.0000      8.0444      3.2702      0.2498    -37.5892     73.8079     27.4024
  1227.1000      8.0444      3.3338      0.2022    -41.4400     65.7456     27.1111
  1227.2000      8.0444      3.3663      0.1130    -43.4103     58.5503     26.8523
  1227.3000      8.0350      3.3971      0.0842    -45.2775     54.1148     26.6231
  1227.4000      8.0350      3.4143     -0.0391    -46.3222     50.5811     26.4834
  1227.5000      8.0252      3.4045     -0.0861    -45.7298     45.9988     26.4743
  1227.6000      8.0252      3.3812     -0.0723    -44.3157     42.4754     26.3666
  1227.7000      8.0252      3.3548     -0.0079    -42.7179     42.1812     25.9221
  1227.8000      8.0215      3.3225     -0.1102    -40.7567     45.5229     25.1873
  1227.9000      8.0215      3.2729     -0.0066    -37.7526     52.2647     24.3602
  1228.0000      8.0319      3.1893     -0.0501    -32.6830     59.7716     23.8792
  1228.1000      8.0319      3.0814     -0.1494    -26.1440     66.7719     23.9804
  1228.2000      8.0319      2.9692     -0.1174    -19.3441     75.6423     24.4923
  1228.3000      8.0316      2.8627     -0.1646    -12.8900     85.9131     25.2104
  1228.4000      8.0316      2.7834     -0.0744     -8.0867     94.1401     25.8453
  1228.5000      8.0409      2.7316      0.0288     -4.9433     99.8984     26.1609
  1228.6000      8.0409      2.6827      0.0647     -1.9821    106.3786     26.2655
  1228.7000      8.0409      2.6317      0.0431      1.1105    115.8769     26.4764
  1228.8000      8.0458      2.5874      0.0689      3.7968    125.8474     26.9976
  1228.9000      8.0458      2.5548      0.0384      5.7712    134.3406     27.7956
  1229.0000      8.0514      2.5352      0.0429      6.9585    142.4008     28.5074
  1229.1000      8.0514      2.5232      0.0195      7.6868    146.7480     28.8620
  1229.2000      8.0514      2.5140      0.0455      8.2427    146.6406     29.0502
  1229.3000      8.0596      2.5087      0.0592      8.5650    147.5467     29.2557
  1229.4000      8.0596      2.5111      0.0315      8.4168    149.4347     29.3763
  1229.5000      8.0637      2.5170      0.0481      8.0616    148.5910     29.3682
  1229.6000      8.0637      2.5095      0.0519      8.5125    148.2123     29.4336
  1229.7000      8.0637      2.4851      0.0437      9.9947    152.8338     29.6054
  1229.8000      8.0655      2.4605      0.0400     11.4856    158.7726     29.7335
  1229.9000      8.0655      2.4458      0.0686     12.3731    161.6553     29.8142
  1230.0000      8.0778      2.4389      0.0652     12.7942    163.0566     29.9348
  1230.1000      8.0778      2.4340      0.0709     13.0887    162.8661     30.0489
  1230.2000      8.0778      2.4229      0.0956     13.7632    158.2091     30.0529
  1230.3000      8.0951      2.4025      0.0990     14.9987    150.0596     29.9798
  1230.4000      8.0951      2.3734      0.0764     16.7639    145.6234     29.9669
  1230.5000      8.1082      2.3259      0.1350     19.6396    147.3865     30.1751
  1230.6000      8.1082      2.2509      0.0710     24.1894    148.6238     30.4490
  1230.7000      8.1082      2.1525      0.0145     30.1507    147.6796     30.5261
  1230.8000      8.1178      2.0347     -0.0027     37.2938    144.7257     30.5861
  1230.9000      8.1178      1.9073     -0.0627     45.0114    136.8459     30.8438
  1231.0000      8.1344      1.7930     -0.0755     51.9397    127.4009     31.1718
  1231.1000      8.1344      1.6983     -0.0614     57.6799    121.6280     31.4923
  1231.2000      8.1344      1.6180     -0.0557     62.5470    117.1359     31.8092
  1231.3000      8.1472      1.5652     -0.0841     65.7438    110.4751     31.9779
  1231.4000      8.1472      1.5555      0.0029     66.3348    103.4953     32.0536
  1231.5000      8.1585      1.5777     -0.0055     64.9895     99.2726     32.3143
  1231.6000      8.1585      1.6150     -0.0074     62.7244     98.9965     32.8035
  1231.7000      8.1585      1.6712     -0.0190     59.3215    103.4514     33.1955
  1231.8000      8.1515      1.7585      0.0705     54.0330    111.1947     33.2623
  1231.9000      8.1515      1.8669      0.1326     47.4622    117.7157     33.1825
  1232.0000      8.1621      1.9622      0.1707     41.6828    121.6315     33.2102
  1232.1000      8.1621      2.0250      0.1161     37.8782    126.0805     33.3468
  1232.2000      8.1621      2.0764      0.0622     34.7622    131.0257     33.4333
  1232.3000      8.1543      2.1436      0.0469     30.6898    136.3171     33.3641
  1232.4000      8.1543      2.2208      0.1064     26.0109    143.0685     33.0476
  1232.5000      8.1607      2.2896      0.0988     21.8452    147.1280     32.6149
  1232.6000      8.1607      2.3440      0.1489     18.5439    144.9620     32.3281
  1232.7000      8.1607      2.3741      0.1474     16.7205    140.2789     32.1360
  1232.8000      8.1821      2.3675      0.1067     17.1216    137.1947     31.8579
  1232.9000      8.1821      2.3307      0.0547     19.3508    136.8446     31.5340
  1233.0000      8.2114      2.2784      0.0653     22.5203    138.4975     31.3621
  1233.1000      8.2114      2.2195      0.0493     26.0924    140.6010     31.4119
  1233.2000      8.2114      2.1586      0.0054     29.7846    141.9237     31.6023
  1233.3000      8.3618      2.0929      0.0135     33.7658    140.5019     31.7093
  1233.4000      8.3618      2.0271     -0.0340     37.7501    136.6437     31.7107
  1233.5000      8.4155      1.9863      0.0048     40.2255    131.9039     31.8596
