~Version Information
VERS.                      2.0: CWLS Log ASCII Standard - VERSION 2.0
WRAP.                       NO: One line per depth step
~Well Information Block
STRT.FT               930.0000: 
STOP.FT              2783.2500: 
STEP.FT                 0.2500: 
NULL.                -999.2500: 
COMP.          Pioneer Natural Resources: COMPANY
WELL.           Desoto 13-7TR: WELL
FLD.           Purgatoire River: FIELD
LOC.           1404' FSL & 1115' FWL: LOCATION
PROV.                 Colorado: PROVINCE
CNTY.               Las Animas: COUNTRY
SRVC.                Patterson: SERVICE COMPANY
DATE.          Fri Jan 14 11:02:13 2005: LOG DATE
UWI.           05 071 08216 00: UNIQUE WELL ID
~Curve Information Block
DEPT.FT            0 000 00 00: Depth
SN.Ohm-m                      : IEL Short Normal
SP.mV                         : IEL Spontaneous Potential
DIR.Ohm-m                     : IEL Induction Resistivity
GR.GAPI                       : Gamma Ray
~Parameter Information Block
~A  Depth        SN          SP         DIR          GR     
# ...
  1667.0000     18.8456      2.5399     14.0775    125.3613
  1667.2500     18.5478      2.6680     14.3665    125.3155
  1667.5000     18.0159      2.7973     14.7260    124.7527
  1667.7500     17.2918      2.9069     15.1078    123.1194
  1668.0000     16.4687      2.9820     15.4503    118.2291
  1668.2500     15.7103      3.0174     15.6960    113.9934
  1668.5000     15.2254      3.0190     15.8132    108.3113
  1668.7500     15.1902      3.0015     15.8133    106.0963
  1669.0000     15.6567      2.9839     15.7491    105.8600
  1669.2500     16.5036      2.9844     15.6870    107.3614
  1669.5000     17.4765      3.0156     15.6715    110.6917
  1669.7500     18.3040      3.0822     15.7043    113.0016
  1670.0000     18.8176      3.1822     15.7512    116.4156
  1670.2500     18.9931      3.3088     15.7667    118.8439
  1670.5000     18.9080      3.4541     15.7198    122.8138
  1670.7500     18.6677      3.6110     15.6046    125.3940
  1671.0000     18.3587      3.7747     15.4331    128.1219
  1671.2500     18.0374      3.9421     15.2230    128.6134
  1671.5000     17.7401      4.1107     14.9919    127.4804
  1671.7500     17.4955      4.2776     14.7595    126.2678
  1672.0000     17.3285      4.4393     14.5527    125.2702
  1672.2500     17.2524      4.5909     14.4026    125.5583
  1672.5000     17.2550      4.7265     14.3346    127.1446
  1672.7500     17.2927      4.8390     14.3564    128.4180
  1673.0000     17.3095      4.9202     14.4536    129.3545
  1673.2500     17.2731      4.9623     14.5961    128.6074
  1673.5000     17.2058      4.9582     14.7531    124.9392
  1673.7500     17.1820      4.9037     14.9112    121.2942
  1674.0000     17.2960      4.7993     15.0843    116.1312
  1674.2500     17.6210      4.6518     15.3103    114.2179
  1674.5000     18.1811      4.4751     15.6364    114.6159
  1674.7500     18.9435      4.2902     16.1009    116.4991
  1675.0000     19.8288      4.1214     16.7180    119.3149
  1675.2500     20.7328      3.9927     17.4688    119.5863
  1675.5000     21.5473      3.9217     18.2995    115.9888
  1675.7500     22.1789      3.9155     19.1304    111.0928
  1676.0000     22.5824      3.9687     19.8798    101.9722
  1676.2500     22.8022      4.0656     20.4938     96.3985
  1676.5000     22.9738      4.1849     20.9640     91.7264
  1676.7500     23.2516      4.3047     21.3180     92.2057
  1677.0000     23.7025      4.4074     21.5915     98.2209
  1677.2500     24.2612      4.4803     21.8078    104.4604
  1677.5000     24.7826      4.5149     21.9722    114.0285
  1677.7500     25.1385      4.5051     22.0775    118.9872
  1678.0000     25.2795      4.4456     22.1097    122.6687
  1678.2500     25.2418      4.3338     22.0588    122.2559
  1678.5000     25.1173      4.1718     21.9386    117.9129
  1678.7500     25.0118      3.9692     21.8018    113.6615
  1679.0000     25.0109      3.7438     21.7305    107.8036
  1679.2500     25.1555      3.5187     21.8031    105.3472
  1679.5000     25.4292      3.3179     22.0577    104.1732
  1679.7500     25.7590      3.1607     22.4755    104.4155
  1680.0000     26.0396      3.0573     22.9857    104.5385
  1680.2500     26.1790      3.0082     23.4898    103.6210
  1680.5000     26.1427      3.0057     23.8920    100.6510
  1680.7500     25.9719      3.0386     24.1261     98.4927
  1681.0000     25.7616      3.0974     24.1682     97.2944
  1681.2500     25.6042      3.1769     24.0329     98.8007
  1681.5000     25.5271      3.2769     23.7581    104.0858
  1681.7500     25.4641      3.3999     23.3863    108.1774
  1682.0000     25.2864      3.5480     22.9467    112.2078
  1682.2500     24.8728      3.7200     22.4478    112.5724
  1682.5000     24.1743      3.9110     21.8870    110.4237
  1682.7500     23.2431      4.1124     21.2696    108.7633
  1683.0000     22.2176      4.3139     20.6229    109.0066
  1683.2500     21.2632      4.5045     19.9907    112.0781
  1683.5000     20.4939      4.6746     19.4116    120.5689
  1683.7500     19.9221      4.8170     18.8995    127.2615
  1684.0000     19.4781      4.9279     18.4354    135.6486
  1684.2500     19.0770      5.0081     17.9796    139.1246
  1684.5000     18.6817      5.0623     17.4981    141.6341
  1684.7500     18.3187      5.0981     16.9884    142.3272
  1685.0000     18.0436      5.1230     16.4832    142.4751
  1685.2500     17.8876      5.1427     16.0324    141.7922
  1685.5000     17.8271      5.1590     15.6787    139.8693
  1685.7500     17.7934      5.1707     15.4451    138.9112
  1686.0000     17.7090      5.1769     15.3332    139.6410
  1686.2500     17.5237      5.1802     15.3257    141.5973
  1686.5000     17.2378      5.1901     15.3916    144.8000
  1686.7500     16.9120      5.2233     15.4955    145.7496
  1687.0000     16.6552      5.2997     15.6094    144.5991
  1687.2500     16.5806      5.4364     15.7219    142.6960
  1687.5000     16.7420      5.6413     15.8396    139.6127
  1687.7500     17.0902      5.9093     15.9793    137.8983
  1688.0000     17.4911      6.2227     16.1595    135.8274
  1688.2500     17.8071      6.5569     16.3940    134.4485
  1688.5000     17.9937      6.8870     16.6923    131.7255
  1688.7500     18.1425      7.1951     17.0589    129.2546
  1689.0000     18.4394      7.4731     17.4915    124.6077
  1689.2500     19.0624      7.7223     17.9777    121.1213
  1689.5000     20.0765      7.9495     18.4969    116.1018
  1689.7500     21.3825      8.1615     19.0262    113.5261
  1690.0000     22.7554      8.3621     19.5477    111.6575
  1690.2500     23.9558      8.5504     20.0488    111.7662
  1690.5000     24.8446      8.7231     20.5206    113.2357
  1690.7500     25.4218      8.8769     20.9572    114.5885
  1691.0000     25.7674      9.0120     21.3540    116.6737
  1691.2500     25.9506      9.1324     21.7024    117.7917
  1691.5000     25.9857      9.2451     21.9832    117.9300
  1691.7500     25.8545      9.3577     22.1670    116.2793
  1692.0000     25.5494      9.4766     22.2224    111.3722
  1692.2500     25.0889      9.6060     22.1266    107.7612
  1692.5000     24.5083      9.7486     21.8710    104.7816
  1692.7500     23.8508      9.9059     21.4658    105.4915
  1693.0000     23.1627     10.0795     20.9401    110.4425
  1693.2500     22.4823     10.2709     20.3348    115.4249
  1693.5000     21.8250     10.4808     19.6897    123.7235
  1693.7500     21.1820     10.7089     19.0335    129.1359
  1694.0000     20.5364     10.9534     18.3836    136.3885
  1694.2500     19.8804     11.2118     17.7522    140.3114
  1694.5000     19.2182     11.4811     17.1532    144.3565
  1694.7500     18.5608     11.7580     16.6018    145.7604
  1695.0000     17.9253     12.0391     16.1083    146.2801
  1695.2500     17.3378     12.3194     15.6739    145.8927
  1695.5000     16.8282     12.5921     15.2928    144.7054
  1695.7500     16.4121     12.8482     14.9596    143.8302
  1696.0000     16.0804     13.0774     14.6738    143.1029
  1696.2500     15.8106     13.2692     14.4380    143.2280
  1696.5000     15.5883     13.4152     14.2516    143.7783
  1696.7500     15.4204     13.5098     14.1049    143.7216
  1697.0000     15.3311     13.5512     13.9775    142.3702
  1697.2500     15.3460     13.5418     13.8441    140.9298
  1697.5000     15.4739     13.4875     13.6873    139.2460
  1697.7500     15.6962     13.3978     13.5078    139.0698
  1698.0000     15.9652     13.2851     13.3234    140.2837
  1698.2500     16.2180     13.1644     13.1546    141.6364
  1698.5000     16.3999     13.0514     13.0137    143.7640
  1698.7500     16.4841     12.9607     12.9051    145.1006
  1699.0000     16.4686     12.9029     12.8368    146.9562
  1699.2500     16.3499     12.8826     12.8247    148.0342
  1699.5000     16.1041     12.8981     12.8851    149.1115
  1699.7500     15.6975     12.9421     13.0189    149.1768
  1700.0000     15.1192     13.0052     13.2032    147.7704
  1700.2500     14.4107     13.0794     13.3987    145.8378
