~Version Information
VERS.                      2.0: CWLS Log ASCII Standard - VERSION 2.0
WRAP.                       NO: One line per depth step
~Well Information Block
STRT.FT               955.2500: 
STOP.FT              2226.0000: 
STEP.FT                 0.2500: 
NULL.                -999.2500: 
COMP.          Petrogulf Corporation: COMPANY
WELL.             Burson 8-13R: WELL
FLD.           Purgatorie River: FIELD
LOC.           1045' FNL & 2189' FEL: LOCATION
CNTY.               Las Animas: COUNTY
SRVC.                         : SERVICE COMPANY
DATE.          Fri Apr 30 04:52:15 2004: LOG DATE
UWI.           05 071 08039 00: UNIQUE WELL ID
STAT.                 Colorado: STATE
~Curve Information Block
DEPT.FT            0 000 00 00: Depth
SP.mV                         : DIL Spontaneous Potential
RILD.Ohm-m                    : DIL Deep Resistivity
RILM.Ohm-m                    : DIL Medium Resistivity
RLL3.Ohm-m                    : DIL Shallow Resistivity
~Parameter Information Block
~A  Depth        SP         RILD        RILM        RLL3    
# ...
  1859.7500    123.6126      6.9465      7.8847     10.3122
  1860.0000    123.6327      6.8543      7.7050      9.5772
  1860.2500    123.6577      6.7782      7.5334      9.0133
  1860.5000    123.6779      6.7146      7.3739      8.6708
  1860.7500    123.6771      6.6585      7.2282      8.4656
  1861.0000    123.6393      6.6061      7.0972      8.2694
  1861.2500    123.5561      6.5550      6.9817      8.0154
  1861.5000    123.4322      6.5029      6.8838      7.7347
  1861.7500    123.2831      6.4477      6.8062      7.4976
  1862.0000    123.1311      6.3895      6.7512      7.3443
  1862.2500    123.0003      6.3316      6.7196      7.2881
  1862.5000    122.9095      6.2790      6.7094      7.3536
  1862.7500    122.8664      6.2365      6.7157      7.5689
  1863.0000    122.8679      6.2057      6.7317      7.9180
  1863.2500    122.9057      6.1853      6.7493      8.3181
  1863.5000    122.9727      6.1717      6.7603      8.6575
  1863.7500    123.0605      6.1605      6.7588      8.8617
  1864.0000    123.1550      6.1479      6.7424      8.9262
  1864.2500    123.2385      6.1319      6.7129      8.8788
  1864.5000    123.2995      6.1120      6.6760      8.7189
  1864.7500    123.3450      6.0877      6.6387      8.4253
  1865.0000    123.3989      6.0581      6.6064      8.0375
  1865.2500    123.4849      6.0221      6.5806      7.6852
  1865.5000    123.6089      5.9793      6.5587      7.4993
  1865.7500    123.7571      5.9310      6.5351      7.4982
  1866.0000    123.9080      5.8801      6.5027      7.5846
  1866.2500    124.0433      5.8301      6.4564      7.6401
  1866.5000    124.1490      5.7843      6.3942      7.6025
  1866.7500    124.2135      5.7454      6.3189      7.4662
  1867.0000    124.2299      5.7159      6.2378      7.2474
  1867.2500    124.2039      5.6978      6.1604      6.9772
  1867.5000    124.1571      5.6925      6.0962      6.7196
  1867.7500    124.1189      5.7010      6.0518      6.5652
  1868.0000    124.1136      5.7224      6.0305      6.5691
  1868.2500    124.1498      5.7537      6.0327      6.6860
  1868.5000    124.2163      5.7908      6.0577      6.7907
  1868.7500    124.2870      5.8311      6.1048      6.7957
  1869.0000    124.3335      5.8758      6.1735      6.7487
  1869.2500    124.3413      5.9299      6.2639      6.7931
  1869.5000    124.3194      6.0004      6.3764      7.0298
  1869.7500    124.2941      6.0926      6.5110      7.4437
  1870.0000    124.2917      6.2091      6.6674      7.9627
  1870.2500    124.3204      6.3506      6.8438      8.5457
  1870.5000    124.3696      6.5164      7.0376      9.1807
  1870.7500    124.4227      6.7054      7.2473      9.8161
  1871.0000    124.4707      6.9160      7.4749     10.3334
  1871.2500    124.5129      7.1460      7.7275     10.6241
  1871.5000    124.5469      7.3928      8.0165     10.7236
  1871.7500    124.5593      7.6526      8.3536     10.8786
  1872.0000    124.5325      7.9198      8.7454     11.4564
  1872.2500    124.4607      8.1848      9.1891     12.7264
  1872.5000    124.3588      8.4341      9.6699     14.6516
  1872.7500    124.2525      8.6534     10.1622     16.8421
  1873.0000    124.1620      8.8327     10.6339     18.7394
  1873.2500    124.0966      8.9687     11.0539     19.9257
  1873.5000    124.0587      9.0632     11.3965     20.3337
  1873.7500    124.0459      9.1183     11.6408     20.1997
  1874.0000    124.0497      9.1341     11.7692     19.8175
  1874.2500    124.0567      9.1101     11.7684     19.3008
  1874.5000    124.0559      9.0465     11.6356     18.5533
  1874.7500    124.0473      8.9461     11.3832     17.4572
  1875.0000    124.0440      8.8134     11.0376     16.0622
  1875.2500    124.0632      8.6533     10.6325     14.5708
  1875.5000    124.1148      8.4707     10.2017     13.1740
  1875.7500    124.1971      8.2709      9.7729     11.9501
  1876.0000    124.2989      8.0616      9.3661     10.9009
  1876.2500    124.4005      7.8520      8.9939     10.0291
  1876.5000    124.4785      7.6503      8.6632      9.3696
  1876.7500    124.5151      7.4608      8.3751      8.9644
  1877.0000    124.5090      7.2837      8.1263      8.8045
  1877.2500    124.4764      7.1169      7.9096      8.7943
  1877.5000    124.4411      6.9592      7.7168      8.7938
  1877.7500    124.4190      6.8119      7.5404      8.7159
  1878.0000    124.4108      6.6776      7.3745      8.5679
  1878.2500    124.4091      6.5594      7.2165      8.3894
  1878.5000    124.4102      6.4584      7.0666      8.1709
  1878.7500    124.4158      6.3720      6.9273      7.8544
  1879.0000    124.4259      6.2943      6.8024      7.4004
  1879.2500    124.4348      6.2184      6.6951      6.8456
  1879.5000    124.4350      6.1393      6.6067      6.3107
  1879.7500    124.4236      6.0568      6.5356      5.9623
  1880.0000    124.4068      5.9746      6.4766      5.9315
  1880.2500    124.3998      5.8981      6.4222      6.2203
  1880.5000    124.4204      5.8315      6.3652      6.6744
  1880.7500    124.4758      5.7773      6.3017      7.0673
  1881.0000    124.5550      5.7360      6.2327      7.2332
  1881.2500    124.6399      5.7052      6.1635      7.1465
  1881.5000    124.7217      5.6796      6.1010      6.9016
  1881.7500    124.8040      5.6520      6.0506      6.6289
  1882.0000    124.8877      5.6166      6.0145      6.4180
  1882.2500    124.9561      5.5730      5.9913      6.3018
  1882.5000    124.9805      5.5255      5.9756      6.2809
  1882.7500    124.9426      5.4800      5.9594      6.3310
  1883.0000    124.8530      5.4401      5.9338      6.3936
  1883.2500    124.7474      5.4059      5.8929      6.3974
  1883.5000    124.6646      5.3767      5.8363      6.3084
  1883.7500    124.6262      5.3522      5.7699      6.1551
  1884.0000    124.6295      5.3342      5.7027      5.9991
  1884.2500    124.6551      5.3254      5.6434      5.8876
  1884.5000    124.6796      5.3287      5.5984      5.8251
  1884.7500    124.6832      5.3458      5.5703      5.7789
  1885.0000    124.6543      5.3773      5.5604      5.7092
  1885.2500    124.5927      5.4231      5.5696      5.6078
  1885.5000    124.5086      5.4824      5.6008      5.5144
  1885.7500    124.4166      5.5541      5.6597      5.4963
  1886.0000    124.3303      5.6359      5.7537      5.6083
  1886.2500    124.2628      5.7250      5.8889      5.8804
  1886.5000    124.2262      5.8187      6.0657      6.3490
  1886.7500    124.2279      5.9161      6.2772      7.0712
  1887.0000    124.2672      6.0196      6.5103      8.0680
  1887.2500    124.3367      6.1337      6.7498      9.2580
  1887.5000    124.4249      6.2629      6.9823     10.4800
  1887.7500    124.5152      6.4101      7.1971     11.5731
  1888.0000    124.5838      6.5753      7.3859     12.3950
  1888.2500    124.6064      6.7563      7.5445     12.7927
  1888.5000    124.5729      6.9494      7.6759     12.6432
  1888.7500    124.4959      7.1503      7.7916     11.9690
  1889.0000    124.4044      7.3522      7.9098     10.9974
  1889.2500    124.3292      7.5457      8.0494     10.0939
  1889.5000    124.2898      7.7190      8.2247      9.6365
  1889.7500    124.2862      7.8615      8.4407      9.9105
  1890.0000    124.3021      7.9681      8.6903     11.0246
  1890.2500    124.3193      8.0414      8.9533     12.8358
  1890.5000    124.3352      8.0903      9.1975     14.9253
  1890.7500    124.3639      8.1281      9.3884     16.6981
  1891.0000    124.4200      8.1701      9.5028     17.6246
  1891.2500    124.5040      8.2326      9.5414     17.5224
  1891.5000    124.6035      8.3312      9.5270     16.6559
  1891.7500    124.7047      8.4772      9.4934     15.4969
  1892.0000    124.8028      8.6725      9.4739     14.3526
  1892.2500    124.9007      8.9064      9.4973     13.2517
  1892.5000    125.0003      9.1572      9.5878     12.1693
  1892.7500    125.0938      9.3975      9.7645     11.2976
  1893.0000    125.1670      9.6017     10.0381     11.1271
