~Version Information
VERS.                      2.0: CWLS Log ASCII Standard - VERSION 2.0
WRAP.                       NO: One line per depth step
~Well Information Block
STRT.FT               954.4000: 
STOP.FT              2380.0000: 
STEP.FT                 0.1000: 
NULL.                -999.2500: 
COMP.          Petrogulf Corporation: COMPANY
WELL.             State 16-24V: WELL
FLD.           Purgatorie River: FIELD
LOC.           481' FSL & 2419' FWL: LOCATION
CNTY.               Las Animas: COUNTY
SRVC.                         : SERVICE COMPANY
DATE.          Tue May 04 07:31:25 2004: LOG DATE
UWI.           05 071 08014 00: UNIQUE WELL ID
STAT.                 Colorado: STATE
~Curve Information Block
DEPT.FT            0 000 00 00: Depth
DCAL.in                       : CDL Caliper
RHOB.g/cc                     : CDL Bulk Density
RHOC.g/cc                     : CDL Density Correction
DPOR.pu                       : CDL Density Porosity
GR.GAPI                       : Gamma Ray
~Parameter Information Block
~A  Depth       DCAL        RHOB        RHOC        DPOR         GR     
# ...
  1716.0000      7.9295      2.6155      0.1081      2.0907    110.9322
  1716.1000      7.9295      2.5875      0.0776      3.7874    116.1548
  1716.2000      7.9295      2.5524      0.1326      5.9138    118.2993
  1716.3000      7.9068      2.5131      0.0091      8.2940    114.6666
  1716.4000      7.9068      2.5009     -0.0313      9.0366    112.6429
  1716.5000      7.9001      2.5419      0.0654      6.5536    113.5615
  1716.6000      7.9001      2.6102      0.1142      2.4137    116.6843
  1716.7000      7.9001      2.6550      0.2645     -0.3018    120.9959
  1716.8000      7.8675      2.6453      0.2100      0.2877    126.7382
  1716.9000      7.8675      2.5959      0.1414      3.2816    136.2230
  1717.0000      7.8690      2.5571      0.0653      5.6279    143.7428
  1717.1000      7.8690      2.5669      0.0895      5.0352    139.7463
  1717.2000      7.8690      2.6026      0.0991      2.8702    124.8007
  1717.3000      7.8710      2.6051      0.2382      2.7203    115.2494
  1717.4000      7.8710      2.5655      0.0921      5.1217    123.1060
  1717.5000      7.8741      2.5347      0.0479      6.9898    134.4235
  1717.6000      7.8741      2.5349      0.0646      6.9765    130.4039
  1717.7000      7.8741      2.5486      0.0060      6.1443    118.0505
  1717.8000      7.8834      2.5648      0.0276      5.1651    113.2918
  1717.9000      7.8834      2.5762      0.1156      4.4716    119.7188
  1718.0000      7.9006      2.5720      0.1279      4.7295    132.3426
  1718.1000      7.9006      2.5517      0.1061      5.9557    136.1436
  1718.2000      7.9006      2.5279      0.0454      7.3981    125.1082
  1718.3000      7.9036      2.5132      0.0362      8.2899    109.8541
  1718.4000      7.9036      2.4952      0.1537      9.3841    101.8568
  1718.5000      7.8844      2.4548     -0.0115     11.8285    108.4598
  1718.6000      7.8844      2.4161     -0.0521     14.1745    127.8288
  1718.7000      7.8844      2.4136      0.0060     14.3290    149.7420
  1718.8000      7.9044      2.4439      0.0269     12.4928    162.1229
  1718.9000      7.9044      2.4817      0.1103     10.1982    163.0262
  1719.0000      7.9161      2.5126      0.0629      8.3298    159.5762
  1719.1000      7.9161      2.5340      0.0990      7.0308    151.6377
  1719.2000      7.9161      2.5381      0.1781      6.7791    135.4734
  1719.3000      7.9021      2.5227      0.1152      7.7166    116.8394
  1719.4000      7.9021      2.4956      0.0637      9.3556    105.4088
  1719.5000      7.8444      2.4758      0.0820     10.5554    102.5511
  1719.6000      7.8444      2.4869      0.0976      9.8864    102.5474
  1719.7000      7.8444      2.5249      0.0653      7.5790    102.1724
  1719.8000      7.8266      2.5693      0.0963      4.8932    103.9566
  1719.9000      7.8266      2.6012      0.1268      2.9590    111.2754
  1720.0000      7.8299      2.5941      0.1355      3.3860    117.7671
  1720.1000      7.8299      2.5402      0.1146      6.6528    114.4711
  1720.2000      7.8299      2.4703      0.1902     10.8931    106.9423
  1720.3000      7.8890      2.4233      0.1129     13.7382    107.6244
  1720.4000      7.8890      2.4253      0.0105     13.6191    122.3740
  1720.5000      7.8605      2.4622      0.1240     11.3823    147.3646
  1720.6000      7.8605      2.4819      0.2258     10.1889    165.2752
  1720.7000      7.8605      2.4789      0.1403     10.3696    167.8694
  1720.8000      7.8298      2.4947      0.2035      9.4110    173.2642
  1720.9000      7.8298      2.5252      0.2695      7.5613    186.3693
  1721.0000      7.8373      2.5326      0.2300      7.1129    189.0383
  1721.1000      7.8373      2.5078      0.2079      8.6173    179.2990
  1721.2000      7.8373      2.4679      0.2189     11.0351    171.4202
  1721.3000      7.9012      2.4301      0.2131     13.3259    169.9666
  1721.4000      7.9012      2.4036      0.1604     14.9318    168.9783
  1721.5000      7.9335      2.3865      0.1419     15.9720    164.9683
  1721.6000      7.9335      2.3761      0.1587     16.5981    167.3208
  1721.7000      7.9335      2.3806      0.0847     16.3258    184.9319
  1721.8000      7.9353      2.3897      0.1651     15.7785    198.2265
  1721.9000      7.9353      2.3701      0.1170     16.9649    184.8165
  1722.0000      7.9520      2.3212      0.0701     19.9287    162.2151
  1722.1000      7.9520      2.2732      0.0849     22.8341    156.7467
  1722.2000      7.9520      2.2417      0.0110     24.7447    163.3940
  1722.3000      7.9468      2.2257      0.0133     25.7124    164.2045
  1722.4000      7.9468      2.2224      0.0201     25.9133    158.8336
  1722.5000      7.9206      2.2219      0.0579     25.9478    156.0857
  1722.6000      7.9206      2.2060      0.1531     26.9101    154.8979
  1722.7000      7.9206      2.1723      0.0686     28.9505    156.5752
  1722.8000      7.9235      2.1498      0.0716     30.3147    161.9991
  1722.9000      7.9235      2.1655      0.0913     29.3635    163.9027
  1723.0000      7.9204      2.2143      0.0809     26.4084    162.8185
  1723.1000      7.9204      2.2695      0.1689     23.0606    162.3258
  1723.2000      7.9204      2.3018      0.2010     21.1004    160.9391
  1723.3000      7.9132      2.3069      0.1690     20.7948    158.2082
  1723.4000      7.9132      2.3156      0.2487     20.2681    155.9451
  1723.5000      7.9233      2.3621      0.2372     17.4493    155.6036
  1723.6000      7.9233      2.4386      0.3256     12.8128    156.7791
  1723.7000      7.9233      2.4954      0.2211      9.3718    158.9454
  1723.8000      7.9489      2.5090      0.1694      8.5441    159.4467
  1723.9000      7.9489      2.5030      0.2138      8.9109    156.4863
  1724.0000      7.9467      2.4933      0.2176      9.4957    153.9147
  1724.1000      7.9467      2.4816      0.2205     10.2031    152.0267
  1724.2000      7.9467      2.4841      0.1140     10.0539    149.7631
  1724.3000      7.9136      2.5092      0.1758      8.5330    143.8570
  1724.4000      7.9136      2.5317      0.1173      7.1685    131.1411
  1724.5000      7.9125      2.5159      0.1568      8.1302    118.7199
  1724.6000      7.9125      2.4504      0.0844     12.0961    111.2300
  1724.7000      7.9125      2.3646      0.0682     17.2956    103.1078
  1724.8000      7.9088      2.3048     -0.0375     20.9203     95.1092
  1724.9000      7.9088      2.2956     -0.0371     21.4788     95.9955
  1725.0000      7.9045      2.3215      0.0379     19.9076    103.3053
  1725.1000      7.9045      2.3608      0.0261     17.5282    104.0163
  1725.2000      7.9045      2.4155      0.0182     14.2098     98.9243
  1725.3000      7.8916      2.4845      0.1373     10.0290     97.4810
  1725.4000      7.8916      2.5432      0.1835      6.4735     96.9683
  1725.5000      7.8880      2.5641      0.2538      5.2082     90.4040
  1725.6000      7.8880      2.5372      0.2392      6.8334     80.3963
  1725.7000      7.8880      2.4844      0.1888     10.0363     71.4273
  1725.8000      7.8661      2.4399      0.1088     12.7361     63.7007
  1725.9000      7.8661      2.4119      0.1257     14.4307     58.7173
  1726.0000      7.8522      2.3880      0.1459     15.8798     57.3077
  1726.1000      7.8522      2.3702      0.0949     16.9557     56.9533
  1726.2000      7.8522      2.3737      0.0353     16.7462     53.7458
  1726.3000      7.8423      2.4051      0.0342     14.8404     49.4321
  1726.4000      7.8423      2.4625      0.0384     11.3640     50.5097
  1726.5000      7.8470      2.5240      0.1870      7.6339     58.5952
  1726.6000      7.8470      2.5434      0.2394      6.4585     69.0487
  1726.7000      7.8470      2.5111      0.1127      8.4192     74.0577
  1726.8000      7.8748      2.4778      0.1065     10.4386     68.2920
  1726.9000      7.8748      2.4692      0.1923     10.9590     55.3381
  1727.0000      7.8614      2.4594      0.2037     11.5496     45.0319
  1727.1000      7.8614      2.4379      0.1468     12.8530     42.3985
