~Version Information
 VERS.                      2.0: CWLS Log ASCII Standard - VERSION 2.0
 WRAP.                       NO: One line per depth step
 ~Well Information Block
 STRT.FT               763.7500: 
 STOP.FT              2577.0000: 
 STEP.FT                 0.2500: 
 NULL.                -999.2500: 
 COMP.          Petrogulf Corporation: COMPANY
 WELL.               J&P 12-33V: WELL
 FLD.           Purgatorie River: FIELD
 LOC.           2005' FSL & 1928' FEL: LOCATION
 CNTY.               Las Animas: COUNTY
 SRVC.                         : SERVICE COMPANY
 DATE.          Sat Aug 28 09:00:36 2004: LOG DATE
 UWI.           05 071 08092 00: UNIQUE WELL ID
 STAT.                 Colorado: STATE
 PROV.                         :Province
 ~Curve Information Block
 DEPT.FT            0 000 00 00: Depth
 SP.mV                         : DIL Spontaneous Potential
 RILD.Ohm-m                    : DIL Deep Resistivity
 RILM.Ohm-m                    : DIL Medium Resistivity
 RLL3.Ohm-m                    : DIL Shallow Resistivity
 GR.GAPI                       : Gamma Ray
 ~Parameter Information Block
 ~A  Depth        SP         RILD        RILM        RLL3         GR     
# ...
  2079.7500     -8.1617     18.3644     18.7301     21.3802    141.5359
  2080.0000     -8.3166     18.2002     18.4528     22.0009    139.7436
  2080.2500     -8.4678     17.9346     18.1603     23.2774    136.7382
  2080.5000     -8.6053     17.5943     17.8453     24.9858    130.4596
  2080.7500     -8.7223     17.2119     17.5045     26.7042    126.0991
  2081.0000     -8.8166     16.8205     17.1409     27.9187    121.2965
  2081.2500     -8.8914     16.4511     16.7639     28.2042    120.0682
  2081.5000     -8.9537     16.1299     16.3881     27.3986    121.6066
  2081.7500     -9.0128     15.8747     16.0300     25.6726    124.7145
  2082.0000     -9.0769     15.6902     15.7054     23.4485    131.4366
  2082.2500     -9.1500     15.5657     15.4271     21.2187    136.0641
  2082.5000     -9.2300     15.4765     15.2033     19.3713    140.7302
  2082.7500     -9.3088     15.3900     15.0379     18.1084    141.5099
  2083.0000     -9.3741     15.2763     14.9306     17.4621    139.8594
  2083.2500     -9.4125     15.1171     14.8772     17.3617    138.0030
  2083.5000     -9.4126     14.9107     14.8703     17.6988    135.3313
  2083.7500     -9.3681     14.6695     14.8998     18.3637    133.3622
  2084.0000     -9.2793     14.4144     14.9534     19.2494    128.8447
  2084.2500     -9.1537     14.1691     15.0182     20.2421    124.5477
  2084.5000     -9.0061     13.9573     15.0814     21.2127    117.4282
  2084.7500     -8.8563     13.8016     15.1323     22.0215    113.4509
  2085.0000     -8.7272     13.7218     15.1641     22.5332    110.1782
  2085.2500     -8.6412     13.7307     15.1738     22.6426    110.0826
  2085.5000     -8.6165     13.8297     15.1633     22.3094    112.8268
  2085.7500     -8.6639     14.0058     15.1378     21.5898    116.1919
  2086.0000     -8.7842     14.2308     15.1044     20.6405    122.4445
  2086.2500     -8.9679     14.4657     15.0708     19.6761    126.5355
  2086.5000     -9.1961     14.6681     15.0432     18.8943    131.0789
  2086.7500     -9.4444     14.8011     15.0261     18.4074    132.6071
  2087.0000     -9.6872     14.8421     15.0215     18.2162    133.0101
  2087.2500     -9.9019     14.7885     15.0299     18.2343    132.7240
  2087.5000    -10.0724     14.6578     15.0508     18.3405    132.7626
  2087.7500    -10.1909     14.4808     15.0833     18.4317    133.5804
  2088.0000    -10.2581     14.2910     15.1270     18.4521    136.2485
  2088.2500    -10.2815     14.1147     15.1815     18.3941    138.8472
  2088.5000    -10.2743     13.9667     15.2460     18.2803    142.9840
  2088.7500    -10.2524     13.8505     15.3186     18.1508    144.8576
  2089.0000    -10.2324     13.7640     15.3947     18.0682    144.7677
  2089.2500    -10.2286     13.7028     15.4674     18.1256    142.6888
  2089.5000    -10.2510     13.6633     15.5266     18.4261    137.7880
  2089.7500    -10.3031     13.6408     15.5607     19.0216    134.1786
  2090.0000    -10.3812     13.6267     15.5579     19.8494    128.9920
  2090.2500    -10.4754     13.6078     15.5086     20.7247    125.8273
  2090.5000    -10.5711     13.5676     15.4076     21.4095    121.9406
  2090.7500    -10.6520     13.4914     15.2552     21.7165    120.3801
  2091.0000    -10.7034     13.3710     15.0576     21.5797    120.3221
  2091.2500    -10.7145     13.2072     14.8254     21.0536    121.9402
  2091.5000    -10.6806     13.0101     14.5723     20.2611    126.2866
  2091.7500    -10.6028     12.7968     14.3125     19.3348    129.5916
  2092.0000    -10.4881     12.5878     14.0594     18.3847    133.2364
  2092.2500    -10.3477     12.4029     13.8245     17.4927    134.1342
  2092.5000    -10.1957     12.2577     13.6165     16.7175    133.8570
  2092.7500    -10.0476     12.1609     13.4418     16.0982    133.7108
  2093.0000     -9.9195     12.1140     13.3045     15.6557    135.0531
  2093.2500     -9.8259     12.1125     13.2073     15.3941    136.9205
  2093.5000     -9.7788     12.1483     13.1518     15.3052    139.5049
  2093.7500     -9.7860     12.2125     13.1391     15.3748    139.9470
  2094.0000     -9.8498     12.2969     13.1701     15.5890    138.1411
  2094.2500     -9.9669     12.3961     13.2456     15.9360    136.0039
  2094.5000    -10.1292     12.5085     13.3663     16.4018    133.1072
  2094.7500    -10.3252     12.6360     13.5325     16.9611    131.8299
  2095.0000    -10.5432     12.7830     13.7442     17.5720    130.5477
  2095.2500    -10.7727     12.9546     14.0016     18.1803    129.8324
  2095.5000    -11.0066     13.1541     14.3044     18.7330    129.0944
  2095.7500    -11.2413     13.3831     14.6533     19.1954    129.1484
  2096.0000    -11.4756     13.6423     15.0491     19.5661    130.4073
  2096.2500    -11.7090     13.9323     15.4939     19.8849    131.8311
  2096.5000    -11.9409     14.2546     15.9905     20.2292    133.5430
  2096.7500    -12.1693     14.6104     16.5431     20.6967    133.4341
  2097.0000    -12.3912     14.9990     17.1571     21.3805    130.4979
  2097.2500    -12.6036     15.4168     17.8394     22.3489    126.7873
  2097.5000    -12.8048     15.8583     18.5977     23.6419    119.3628
  2097.7500    -12.9949     16.3200     19.4404     25.2822    113.9472
  2098.0000    -13.1762     16.8046     20.3753     27.2887    107.0203
  2098.2500    -13.3516     17.3234     21.4095     29.6710    104.0985
  2098.5000    -13.5228     17.8946     22.5478     32.3955    102.1839
  2098.7500    -13.6884     18.5381     23.7934     35.3331    101.6376
  2099.0000    -13.8426     19.2685     25.1486     38.2338    100.4148
  2099.2500    -13.9760     20.0908     26.6158     40.7805     99.1401
  2099.5000    -14.0769     20.9979     28.1990     42.7342     97.0854
  2099.7500    -14.1350     21.9710     29.9043     44.0928     95.9286
  2100.0000    -14.1430     22.9790     31.7395     45.1423     94.5976
  2100.2500    -14.0992     23.9807     33.7110     46.3305     93.8224
  2100.5000    -14.0069     24.9298     35.8209     48.0387     92.3697
  2100.7500    -13.8745     25.7863     38.0597     50.4331     90.9729
  2101.0000    -13.7135     26.5290     40.3999     53.5420     88.2025
  2101.2500    -13.5368     27.1607     42.7865     57.4992     86.1104
  2101.5000    -13.3567     27.7014     45.1305     62.6972     82.9817
  2101.7500    -13.1832     28.1720     47.3063     69.6008     80.9096
  2102.0000    -13.0235     28.5800     49.1620     78.2373     77.4256
  2102.2500    -12.8823     28.9168     50.5436     87.7178     74.6846
  2102.5000    -12.7625     29.1698     51.3315     96.2223     70.4060
  2102.7500    -12.6665     29.3422     51.4777    101.6051     68.0898
  2103.0000    -12.5971     29.4633     51.0243    102.3236     66.4070
  2103.2500    -12.5569     29.5800     50.0963     98.1391     66.6895
  2103.5000    -12.5481     29.7355     48.8704     90.1662     69.1503
  2103.7500    -12.5715     29.9507     47.5374     80.2810     72.1025
  2104.0000    -12.6257     30.2203     46.2698     70.3032     78.4033
  2104.2500    -12.7075     30.5225     45.2060     61.4620     83.5330
  2104.5000    -12.8113     30.8333     44.4451     54.3751     91.4230
  2104.7500    -12.9302     31.1349     44.0507     49.3706     96.0012
  2105.0000    -13.0560     31.4198     44.0566     46.7962    100.8643
  2105.2500    -13.1810     31.6941     44.4726     47.0857    102.3411
  2105.5000    -13.2986     31.9830     45.2882     50.5806    100.8473
  2105.7500    -13.4049     32.3353     46.4750     57.2452     96.7694
  2106.0000    -13.4994     32.8213     47.9886     66.4465     86.4554
  2106.2500    -13.5848     33.5263     49.7716     76.9687     78.3441
  2106.5000    -13.6656     34.5384     51.7608     87.3541     68.0031
  2106.7500    -13.7455     35.9371     53.8949     96.4605     63.7148
  2107.0000    -13.8253     37.7790     56.1243    103.9322     60.9241
  2107.2500    -13.9015     40.0808     58.4184    110.2888     60.2843
  2107.5000    -13.9665     42.8005     60.7664    116.5685     59.2610
