~Version Information
VERS.                      2.0: CWLS Log ASCII Standard - VERSION 2.0
WRAP.                       NO: One line per depth step
~Well Information Block
STRT.FT               430.0000: 
STOP.FT              2417.0000: 
STEP.FT                 0.2500: 
NULL.                -999.2500: 
COMP.          Evergreen Operating Corporation: COMPANY
WELL.          McCullough 34-32: WELL
FLD.           Purgatorie River: FIELD
LOC.           261' FSL & 2098' FEL: LOCATION
PROV.                 Colorado: PROVINCE
CNTY.               Las Animas: COUNTRY
SRVC.                Patterson: SERVICE COMPANY
DATE.          Sun May 16 02:33:07 2004: LOG DATE
UWI.           05 071 07953 00: UNIQUE WELL ID
~Curve Information Block
DEPT.FT            0 000 00 00: Depth
SN.Ohm-m                      : IEL Short Normal
SP.mV                         : IEL Spontaneous Potential
DIR.Ohm-m                     : IEL Induction Resistivity
GR.GAPI                       : Gamma Ray
~Parameter Information Block
~A  Depth        SN          SP         DIR          GR     
# ...
  1971.0000     32.5868    135.7513     29.8897     44.8939
  1971.2500     32.6808    135.6654     29.9583     45.2516
  1971.5000     32.5595    135.5185     30.0164     47.0567
  1971.7500     32.2739    135.3467     30.0853     49.2568
  1972.0000     31.8692    135.1927     30.1947     54.6044
  1972.2500     31.4015    135.0953     30.3538     60.0458
  1972.5000     30.9577    135.0850     30.5319     71.3070
  1972.7500     30.6126    135.1791     30.6693     80.0640
  1973.0000     30.3642    135.3707     30.7140     91.9349
  1973.2500     30.1475    135.6218     30.6528     96.9526
  1973.5000     29.9099    135.8744     30.5101     98.1582
  1973.7500     29.6609    136.0787     30.3182     95.0059
  1974.0000     29.4846    136.2154     30.0835     86.6079
  1974.2500     29.4978    136.2930     29.7726     80.1409
  1974.5000     29.7507    136.3317     29.3331     71.2135
  1974.7500     30.1567    136.3489     28.7401     66.4981
  1975.0000     30.5319    136.3513     28.0362     61.6659
  1975.2500     30.7281    136.3335     27.3233     59.7088
  1975.5000     30.7283    136.2831     26.7104     58.0876
  1975.7500     30.6059    136.1942     26.2630     57.8792
  1976.0000     30.4190    136.0770     25.9867     59.4048
  1976.2500     30.1616    135.9560     25.8450     61.8070
  1976.5000     29.7842    135.8605     25.7904     67.1797
  1976.7500     29.2473    135.8163     25.7888     71.7803
  1977.0000     28.5969    135.8387     25.8209     80.2037
  1977.2500     27.9844    135.9252     25.8690     86.5159
  1977.5000     27.5427    136.0535     25.9066     95.2749
  1977.7500     27.2686    136.1935     25.9044     99.2371
  1978.0000     27.0814    136.3230     25.8464    100.4932
  1978.2500     26.9444    136.4336     25.7352     97.9009
  1978.5000     26.8829    136.5211     25.5847     89.8677
  1978.7500     26.9295    136.5790     25.4080     82.9002
  1979.0000     27.0915    136.6046     25.2142     72.0610
  1979.2500     27.3522    136.6070     25.0171     65.5182
  1979.5000     27.6746    136.5967     24.8467     57.9186
  1979.7500     28.0094    136.5733     24.7546     54.7172
  1980.0000     28.3189    136.5355     24.8023     52.6188
  1980.2500     28.5952    136.5013     25.0338     52.5828
  1980.5000     28.8652    136.5044     25.4467     53.6001
  1980.7500     29.1815    136.5694     25.9833     54.4166
  1981.0000     29.5860    136.6959     26.5534     54.8974
  1981.2500     30.0742    136.8650     27.0776     54.3716
  1981.5000     30.5999    137.0542     27.5200     52.4803
  1981.7500     31.1228    137.2453     27.8847     50.9536
  1982.0000     31.6434    137.4262     28.1905     49.0799
  1982.2500     32.1433    137.5896     28.4449     48.3593
  1982.5000     32.5509    137.7322     28.6359     48.1985
  1982.7500     32.8512    137.8534     28.7346     48.8286
  1983.0000     33.0975    137.9533     28.7056     51.5669
  1983.2500     33.2730    138.0315     28.5231     55.1170
  1983.5000     33.3127    138.0881     28.1991     63.0856
  1983.7500     33.2074    138.1273     27.8068     69.3362
  1984.0000     32.9951    138.1604     27.4742     78.1301
  1984.2500     32.7237    138.2067     27.3333     82.9257
  1984.5000     32.4413    138.2916     27.4597     88.3737
  1984.7500     32.2062    138.4388     27.8422     90.7160
  1985.0000     32.0791    138.6597     28.4074     91.2495
  1985.2500     32.0942    138.9463     29.0810     88.9346
  1985.5000     32.2679    139.2697     29.8358     81.4147
  1985.7500     32.6237    139.5897     30.6788     74.5346
  1986.0000     33.1558    139.8716     31.5819     63.6444
  1986.2500     33.7921    140.0977     32.4195     57.2698
  1986.5000     34.4319    140.2659     32.9888     50.3511
  1986.7500     35.0172    140.3809     33.1308     47.5359
  1987.0000     35.5632    140.4505     32.8560     45.2101
  1987.2500     36.1138    140.4906     32.3375     44.5274
  1987.5000     36.6600    140.5278     31.7872     44.8219
  1987.7500     37.1213    140.5903     31.3404     46.0869
  1988.0000     37.4018    140.6939     31.0259     49.7416
  1988.2500     37.4346    140.8375     30.8006     53.4256
  1988.5000     37.1820    141.0096     30.6001     61.1622
  1988.7500     36.6212    141.1972     30.3739     67.9858
  1989.0000     35.7743    141.3919     30.0951     80.5969
  1989.2500     34.7776    141.5932     29.7532     90.0335
  1989.5000     33.8499    141.8090     29.3508    103.7506
  1989.7500     33.1433    142.0471     28.9050    111.1024
  1990.0000     32.6677    142.3034     28.4450    117.6122
  1990.2500     32.3579    142.5569     27.9999    119.0330
  1990.5000     32.1387    142.7836     27.5875    119.1382
  1990.7500     31.9140    142.9727     27.2150    119.8359
  1991.0000     31.5618    143.1313     26.8860    124.3643
  1991.2500     31.0074    143.2762     26.6048    130.0781
  1991.5000     30.2938    143.4271     26.3710    141.5750
  1991.7500     29.5330    143.6008     26.1716    149.8277
  1992.0000     28.8041    143.8055     25.9771    160.2313
  1992.2500     28.1229    144.0343     25.7481    164.5378
  1992.5000     27.4692    144.2689     25.4500    166.4734
  1992.7500     26.8453    144.4907     25.0703    165.1675
  1993.0000     26.3393    144.6879     24.6260    160.1447
  1993.2500     26.0608    144.8551     24.1550    155.0419
  1993.5000     25.9727    144.9933     23.6950    145.1832
  1993.7500     25.9014    145.1101     23.2657    137.4492
  1994.0000     25.7163    145.2152     22.8660    124.6629
  1994.2500     25.4078    145.3106     22.4849    115.6299
  1994.5000     25.0345    145.3854     22.1166    101.7192
  1994.7500     24.6537    145.4225     21.7652     92.4841
  1995.0000     24.2692    145.4131     21.4407     79.5007
  1995.2500     23.8426    145.3654     21.1528     72.0306
  1995.5000     23.3698    145.3015     20.9097     63.4023
  1995.7500     22.9198    145.2486     20.7200     59.5153
  1996.0000     22.5872    145.2303     20.5905     56.2105
  1996.2500     22.4066    145.2578     20.5193     55.3684
  1996.5000     22.3199    145.3237     20.4891     55.5168
  1996.7500     22.2643    145.4065     20.4708     56.1104
  1997.0000     22.2431    145.4812     20.4395     56.7672
  1997.2500     22.2598    145.5314     20.3941     56.5727
  1997.5000     22.2932    145.5572     20.3630     55.2894
  1997.7500     22.3540    145.5742     20.3890     54.1610
  1998.0000     22.4812    145.6033     20.5042     52.6686
  1998.2500     22.7053    145.6551     20.7138     51.8737
  1998.5000     23.0290    145.7201     20.9966     50.9235
  1998.7500     23.4064    145.7757     21.3175     50.5712
  1999.0000     23.7564    145.8052     21.6439     50.8021
  1999.2500     24.0152    145.8094     21.9559     51.4508
  1999.5000     24.1746    145.8003     22.2480     52.7185
  1999.7500     24.2833    145.7890     22.5256     53.6573
  2000.0000     24.4179    145.7827     22.8006     56.0015
  2000.2500     24.6407    145.7884     23.0904     58.9814
  2000.5000     24.9634    145.8102     23.4150     66.1438
  2000.7500     25.3505    145.8459     23.7901     72.0853
  2001.0000     25.7604    145.8855     24.2171     80.4613
  2001.2500     26.1849    145.9170     24.6743     84.3169
  2001.5000     26.6731    145.9327     25.1195     85.9893
  2001.7500     27.3051    145.9339     25.5071     84.1506
  2002.0000     28.1223    145.9293     25.8162     77.9087
  2002.2500     29.1006    145.9268     26.0700     72.5993
  2002.5000     30.1973    145.9237     26.3274     64.8855
  2002.7500     31.3892    145.9046     26.6478     60.4654
  2003.0000     32.6383    145.8493     27.0462     54.9806
  2003.2500     33.8311    145.7453     27.4702     52.0572
  2003.5000     34.7795    145.5964     27.8177     49.0110
  2003.7500     35.3002    145.4262     27.9930     48.1199
  2004.0000     35.3060    145.2739     27.9621     48.9277
  2004.2500     34.8517    145.1815     27.7609     51.1468
