~Version Information
VERS.                      2.0: CWLS Log ASCII Standard - VERSION 2.0
WRAP.                       NO: One line per depth step
~Well Information Block
STRT.FT               506.1000: 
STOP.FT              2140.0000: 
STEP.FT                 0.1000: 
NULL.                -999.2500: 
COMP.          Petrogulf Corporation: COMPANY
WELL.            Montoya 1-44R: WELL
FLD.           Purgatorie River: FIELD
LOC.           658' FSL & 1052' FWL: LOCATION
CNTY.               Las Animas: COUNTY
SRVC.                         : SERVICE COMPANY
DATE.          Tue Nov 16 04:33:40 2004: LOG DATE
UWI.           05 071 08239 00: UNIQUE WELL ID
STAT.                 Colorado: STATE
~Curve Information Block
DEPT.FT            0 000 00 00: Depth
DCAL.in                       : CDL Caliper
RHOB.g/cc                     : CDL Bulk Density
RHOC.g/cc                     : CDL Density Correction
DPOR.pu                       : CDL Density Porosity
GR.GAPI                       : Gamma Ray
NPOR.pu                       : Neutron Porosity
~Parameter Information Block
~A  Depth       DCAL        RHOB        RHOC        DPOR         GR         NPOR    
# ...
   880.5000      8.2926      1.5017     -0.0522     69.5956    121.1013     18.3644
   880.6000      8.2926      1.4754     -0.0553     71.1885    115.6259     18.1950
   880.7000      8.2926      1.4843     -0.0327     70.6502    107.7892     18.1597
   880.8000      8.3054      1.5244      0.0528     68.2180     99.6617     18.3452
   880.9000      8.3054      1.5863      0.0726     64.4644     95.3034     18.5680
   881.0000      8.3033      1.6561      0.1256     60.2336     96.1527     18.3729
   881.1000      8.3033      1.7182      0.1242     56.4730     99.4382     17.6675
   881.2000      8.3033      1.7621      0.1453     53.8133    101.5335     16.9149
   881.3000      8.2961      1.7817      0.1268     52.6215     99.8120     16.4935
   881.4000      8.2961      1.7743      0.1269     53.0729     95.5455     16.2935
   881.5000      8.2989      1.7395      0.0663     55.1797     92.3049     16.0216
   881.6000      8.2989      1.6812      0.0168     58.7132     90.8182     15.8870
   881.7000      8.2989      1.6118     -0.0666     62.9203     89.3361     16.2174
   881.8000      8.3002      1.5440     -0.0612     67.0284     88.7464     16.8069
   881.9000      8.3002      1.4857     -0.0990     70.5620     90.3497     17.4081
   882.0000      8.2920      1.4539     -0.0898     72.4920     92.3525     17.8571
   882.1000      8.2920      1.4630     -0.0064     71.9414     93.0067     17.7430
   882.2000      8.2920      1.5001      0.0880     69.6885     93.7906     17.0726
   882.3000      8.2846      1.5377      0.0955     67.4123     93.5636     16.3955
   882.4000      8.2846      1.5587      0.0785     66.1385     86.7784     16.1729
   882.5000      8.2819      1.5583      0.0714     66.1628     77.8788     16.3854
   882.6000      8.2819      1.5410      0.0437     67.2147     75.7684     16.4392
   882.7000      8.2819      1.5176      0.0290     68.6311     78.5319     15.9487
   882.8000      8.2800      1.4916      0.0384     70.2034     81.0852     15.3486
   882.9000      8.2800      1.4596     -0.0086     72.1483     80.9738     15.1581
   883.0000      8.2811      1.4223     -0.0149     74.4075     78.3509     15.1287
   883.1000      8.2811      1.3878     -0.0709     76.4945     76.5024     14.7801
   883.2000      8.2811      1.3666     -0.0409     77.7813     77.6094     14.2768
   883.3000      8.2824      1.3602      0.0292     78.1672     80.2926     13.9021
   883.4000      8.2824      1.3621      0.0576     78.0563     81.7039     13.6281
   883.5000      8.2879      1.3656      0.0855     77.8446     79.5600     13.4220
   883.6000      8.2879      1.3651      0.1118     77.8699     71.8411     13.2824
   883.7000      8.2879      1.3563      0.1137     78.4035     61.0484     13.2335
   883.8000      8.2936      1.3392      0.0868     79.4412     53.8810     13.3476
   883.9000      8.2936      1.3201      0.0647     80.5993     50.5377     13.6887
   884.0000      8.3019      1.3087      0.0193     81.2923     47.7257     14.3510
   884.1000      8.3019      1.3121      0.0308     81.0841     46.0060     15.4724
   884.2000      8.3019      1.3369      0.0149     79.5825     46.2835     16.9118
   884.3000      8.3119      1.3960      0.0046     76.0024     46.2436     18.4033
   884.4000      8.3119      1.4936      0.0937     70.0852     43.0332     19.9155
   884.5000      8.3014      1.6143      0.1537     62.7703     39.0452     21.3140
   884.6000      8.3014      1.7424      0.1972     55.0045     38.6862     22.3795
   884.7000      8.3014      1.8703      0.2339     47.2572     43.5182     23.2424
   884.8000      8.2694      1.9929      0.2629     39.8223     51.8803     24.1651
   884.9000      8.2694      2.1083      0.2826     32.8282     60.4233     25.3260
   885.0000      8.2089      2.2143      0.2273     26.4055     67.4522     26.6627
   885.1000      8.2089      2.3074      0.2199     20.7647     72.4010     27.9227
   885.2000      8.2089      2.3848      0.1627     16.0732     75.1374     28.7841
   885.3000      8.1309      2.4437      0.0958     12.5051     79.1592     28.9645
   885.4000      8.1309      2.4807      0.0580     10.2632     87.6232     28.7380
   885.5000      8.0918      2.4975      0.0675      9.2394     98.4936     28.6931
   885.6000      8.0918      2.5051      0.0252      8.7815    108.9157     28.5593
   885.7000      8.0918      2.5092      0.0603      8.5345    119.2636     27.7346
   885.8000      8.0890      2.5042      0.0517      8.8370    132.4319     26.6940
   885.9000      8.0890      2.4901      0.0172      9.6921    145.9535     26.2334
   886.0000      8.0924      2.4731      0.0264     10.7217    151.8318     26.0468
   886.1000      8.0924      2.4564      0.0262     11.7357    148.6300     25.4828
   886.2000      8.0924      2.4388      0.0133     12.7976    141.6331     24.7796
   886.3000      8.0950      2.4151      0.0235     14.2382    137.0353     24.4973
   886.4000      8.0950      2.3886     -0.0312     15.8428    137.6118     24.7635
   886.5000      8.0978      2.3727      0.0007     16.8047    140.2093     25.2458
   886.6000      8.0978      2.3657      0.0258     17.2312    141.1025     25.5893
   886.7000      8.0978      2.3592      0.0285     17.6270    141.2754     25.8273
   886.8000      8.0994      2.3592      0.0321     17.6229    144.8844     26.0914
   886.9000      8.0994      2.3760      0.0576     16.6032    153.3264     26.2264
   887.0000      8.0956      2.4135      0.0706     14.3342    159.0914     26.1812
   887.1000      8.0956      2.4698      0.0850     10.9218    155.2758     26.4578
   887.2000      8.0956      2.5332      0.1209      7.0808    149.8756     27.3048
   887.3000      8.0953      2.5886      0.1391      3.7226    151.2986     28.1348
   887.4000      8.0953      2.6288      0.1362      1.2866    155.8774     28.6103
   887.5000      8.1009      2.6493      0.1765      0.0417    158.7909     28.8715
   887.6000      8.1009      2.6514      0.1367     -0.0851    157.8819     28.9630
   887.7000      8.1009      2.6464      0.1401      0.2208    150.9445     28.8415
   887.8000      8.0988      2.6400      0.1570      0.6081    141.8166     28.4087
   887.9000      8.0988      2.6343      0.0862      0.9496    135.6353     27.7780
   888.0000      8.0949      2.6341      0.0906      0.9621    135.5014     27.2324
   888.1000      8.0949      2.6352      0.0858      0.8968    144.4057     26.9048
   888.2000      8.0949      2.6363      0.0564      0.8303    155.5522     26.9012
   888.3000      8.0974      2.6448      0.0536      0.3180    155.2969     27.1728
   888.4000      8.0974      2.6603      0.0531     -0.6216    144.6826     27.3037
   888.5000      8.0987      2.6772      0.0450     -1.6493    136.9456     27.0735
   888.6000      8.0987      2.6898      0.0726     -2.4129    138.7633     26.8038
   888.7000      8.0987      2.6918      0.0769     -2.5305    144.9586     26.8192
   888.8000      8.0982      2.6839      0.0510     -2.0538    144.2108     27.1297
   888.9000      8.0982      2.6720      0.0157     -1.3322    134.7809     27.4953
   889.0000      8.0956      2.6544      0.0493     -0.2653    126.1561     27.6194
   889.1000      8.0956      2.6238      0.0117      1.5857    123.1788     27.4470
   889.2000      8.0956      2.5842     -0.0080      3.9901    125.5899     27.0949
   889.3000      8.0956      2.5476      0.0029      6.2056    131.1483     26.7948
   889.4000      8.0956      2.5264     -0.0365      7.4922    134.9805     26.8613
   889.5000      8.0981      2.5340     -0.0187      7.0307    135.3541     27.2407
   889.6000      8.0981      2.5766      0.0019      4.4511    135.2870     27.5812
   889.7000      8.0981      2.6283      0.0893      1.3132    135.2026     27.6086
   889.8000      8.0993      2.6443      0.1114      0.3478    133.0876     27.0598
   889.9000      8.0993      2.6163      0.1078      2.0408    131.8605     25.9469
   890.0000      8.0960      2.5779      0.0683      4.3686    134.0311     25.0062
