~Version Information
VERS.                      2.0: CWLS Log ASCII Standard - VERSION 2.0
WRAP.                       NO: One line per depth step
~Well Information Block
STRT.FT               870.0000: 
STOP.FT              2519.5000: 
STEP.FT                 0.2500: 
NULL.                -999.2500: 
COMP.          Pioneer Natural Resources: COMPANY
WELL.              Tiaga 23-14: WELL
FLD.           Purgatoire River: FIELD
LOC.           2168' FSL & 2030' FWL: LOCATION
PROV.                 Colorado: PROVINCE
CNTY.               Las Animas: COUNTRY
SRVC.                         : SERVICE COMPANY
DATE.          Sat May 07 08:44:43 2005: LOG DATE
UWI.           05 071 08329 00: UNIQUE WELL ID
~Curve Information Block
DEPT.FT            0 000 00 00: Depth
LTEN.lb                       : Surface Line Tension
SN.Ohm-m                      : IEL Short Normal
SP.mV                         : IEL Spontaneous Potential
DIR.Ohm-m                     : IEL Induction Resistivity
GR.GAPI                       : Gamma Ray
~Parameter Information Block
~A  Depth       LTEN         SN          SP         DIR          GR     
# ...
  1206.0000    724.6320     44.9607    -81.2037     45.8478     90.3615
  1206.2500    725.1365     46.0933    -81.4146     47.5248     89.3899
  1206.5000    724.6746     47.4813    -81.6485     49.0972     88.4372
  1206.7500    723.5079     49.2760    -81.8870     50.3874     87.9717
  1207.0000    721.6998     51.2809    -82.1133     51.2954     86.7613
  1207.2500    718.9845     53.0702    -82.3109     51.7927     85.3026
  1207.5000    715.2206     54.2412    -82.4600     51.8813     82.2044
  1207.7500    710.9459     54.7749    -82.5396     51.5843     79.8935
  1208.0000    707.2622     55.1968    -82.5387     50.9657     76.8944
  1208.2500    705.0622     56.1225    -82.4645     50.1294     75.5504
  1208.5000    704.4707     57.5674    -82.3394     49.1604     74.6368
  1208.7500    705.0656     59.0518    -82.1885     48.0558     74.7179
  1209.0000    706.3381     60.1300    -82.0299     46.7000     75.8987
  1209.2500    707.7579     60.3543    -81.8750     44.9063     77.3826
  1209.5000    708.7599     59.3532    -81.7337     42.5063     80.3887
  1209.7500    709.1212     57.3543    -81.6206     39.4422     82.7035
  1210.0000    709.3207     55.0447    -81.5520     35.8224     86.3574
  1210.2500    710.1675     52.9616    -81.5372     31.9206     88.7021
  1210.5000    711.9355     51.4131    -81.5747     28.1053     91.5526
  1210.7500    714.0917     50.5847    -81.6585     24.7195     92.7649
  1211.0000    715.9187     50.3136    -81.7907     21.9798     93.4611
  1211.2500    717.1289     49.9779    -81.9846     19.9566     93.1890
  1211.5000    717.8142     48.8380    -82.2541     18.6274     91.5885
  1211.7500    718.1744     46.5705    -82.5964     17.9662     89.8068
  1212.0000    718.4719     43.6759    -82.9804     18.0646     86.9917
  1212.2500    718.9303     41.3990    -83.3519     19.3494     85.9298
  1212.5000    719.4786     40.9794    -83.6528     23.2463     86.7318
  1212.7500    719.7173     42.6831    -83.8439     36.1213     88.8976
  1213.0000    719.1968     45.4260    -83.9170    198.0635     93.7382
  1213.2500    717.6922     47.5718    -83.8929 100000.0000     97.3753
  1213.5000    715.3231     48.3198    -83.8098 100000.0000    102.4926
  1213.7500    712.5967     47.9683    -83.7069 100000.0000    105.3143
  1214.0000    710.2870     46.8406    -83.6116 100000.0000    108.6020
  1214.2500    709.0975     44.8553    -83.5328 100000.0000    110.4989
  1214.5000    709.3669     42.2248    -83.4654 100000.0000    113.5830
  1214.7500    711.0728     39.5634    -83.3977 100000.0000    115.8197
  1215.0000    714.0103     37.2648    -83.3160 100000.0000    118.6306
  1215.2500    717.8173     35.3504    -83.2093 100000.0000    119.5741
  1215.5000    721.8573     33.7351    -83.0771 100000.0000    119.5307
  1215.7500    725.2978     32.3512    -82.9399 100000.0000    119.2294
  1216.0000    727.4346     31.1547    -82.8397 100000.0000    120.0111
  1216.2500    728.0007     30.0719    -82.8251 100000.0000    121.8162
  1216.5000    727.1917     28.9624    -82.9249 100000.0000    125.8278
  1216.7500    725.4304     27.7805    -83.1286 100000.0000    128.6282
  1217.0000    723.1149     26.6665    -83.3916 100000.0000    132.2667
  1217.2500    720.5468     25.8204    -83.6612 100000.0000    134.3190
  1217.5000    718.0502     25.4685    -83.9060 100000.0000    136.9108
  1217.7500    716.0399     25.6958    -84.1332 100000.0000    138.0902
  1218.0000    714.8497     26.1589    -84.3983 100000.0000    138.4476
  1218.2500    714.4393     26.4137    -84.8117 100000.0000    137.6805
  1218.5000    714.3465     26.3565    -85.5443 100000.0000    135.7002
  1218.7500    714.0992     25.9788    -86.8227 100000.0000    134.3455
  1219.0000    713.6139     25.2494    -88.9286 100000.0000    132.4606
  1219.2500    713.1212     24.2187    -92.2033     45.3874    130.9344
  1219.5000    712.8925     22.5696    -97.0388      2.0105    127.2615
  1219.7500    713.2524     19.5579   -103.7893      0.7571    123.2786
  1220.0000    714.6904     15.1000   -112.5018      0.3797    114.1569
  1220.2500    717.4666     10.4389   -122.5157      0.2174    106.0825
  1220.5000    721.0772      7.0671   -132.3574      0.1455     92.8102
  1220.7500    724.4223      5.3417   -140.3573      0.1217     84.8096
  1221.0000    726.5623      4.6521   -145.6146      0.1324     76.3409
  1221.2500    727.2760      4.3917   -148.3690      0.1854     73.5909
  1221.5000    726.9373      4.2976   -149.5102      0.3163     73.3560
  1221.7500    725.9862      4.2796   -149.8825      0.6261     74.8437
  1222.0000    724.4943      4.2900   -149.9779      1.6088     77.2127
  1222.2500    722.1400      4.2987   -149.9970     17.8312     77.6186
  1222.5000    718.6135      4.2971   -150.0000 100000.0000     75.5202
  1222.7500    714.0881      4.2894   -150.0001 100000.0000     72.6594
  1223.0000    709.3743      4.2818   -150.0001 100000.0000     67.5565
  1223.2500    705.5580      4.2947   -150.0001 100000.0000     64.2664
  1223.5000    703.3059      4.3523   -150.0001 100000.0000     59.7867
  1223.7500    702.4390      4.4380   -150.0001 100000.0000     56.9293
  1224.0000    702.1289      4.4903   -150.0001 100000.0000     52.6671
  1224.2500    701.5944      4.4700   -149.9999 100000.0000     50.0965
  1224.5000    700.7933      4.4056   -149.9966 100000.0000     47.5243
  1224.7500    700.3350      4.3457   -149.9774 100000.0000     47.1165
  1225.0000    700.6361      4.3061   -149.8885 100000.0000     48.8935
  1225.2500    701.3765      4.2812   -149.5618 100000.0000     51.8960
  1225.5000    701.8447      4.2648   -148.6064 100000.0000     59.5983
  1225.7500    701.5995      4.2594   -146.3668 100000.0000     66.8416
  1226.0000    700.7333      4.3081   -142.1181 100000.0000     79.5488
  1226.2500    699.6783      4.5505   -135.4999      2.0816     87.8109
  1226.5000    698.7207      5.2889   -126.8693      0.7094     97.4249
  1226.7500    697.5850      6.9583   -117.2414      0.3210    101.2091
  1227.0000    695.5716      9.8220   -107.8708      0.1590    103.3384
  1227.2500    692.2151     13.5540    -99.7761      0.0907    103.4277
  1227.5000    687.7435     17.2697    -93.4379      0.0664    103.6076
  1227.7500    682.8333     20.1670    -88.7883      0.0664    104.4010
  1228.0000    678.0388     22.0869    -85.4600      0.0909    106.1455
  1228.2500    673.5729     23.2861    -83.0704      0.1602    106.8131
  1228.5000    669.6400     23.9982    -81.3463      0.3259    105.9359
  1228.7500    666.7823     24.5227    -80.1067      0.7265    104.2047
  1229.0000    665.6155     25.1649    -79.2152      2.1636    101.1002
  1229.2500    666.2180     25.9394    -78.5608 100000.0000     99.3462
  1229.5000    667.9377     26.7598    -78.0584 100000.0000     97.4801
  1229.7500    669.8478     27.5927    -77.6536 100000.0000     96.5593
  1230.0000    671.2717     28.3334    -77.3195 100000.0000     95.2480
  1230.2500    671.8760     28.9410    -77.0474 100000.0000     94.1962
  1230.5000    671.5360     29.4421    -76.8343 100000.0000     91.8420
  1230.7500    670.2778     29.8452    -76.6717 100000.0000     89.4281
  1231.0000    668.2329     30.4198    -76.5412 100000.0000     84.4062
  1231.2500    665.4968     31.5574    -76.4186 100000.0000     80.4520
  1231.5000    662.1229     33.2682    -76.2859 100000.0000     74.4585
  1231.7500    658.2778     35.2871    -76.1426    142.4660     70.7873
  1232.0000    654.2349     37.2400    -76.0052     93.3088     66.1177
  1232.2500    650.2772     38.6657    -75.8935    174.8384     63.7056
  1232.5000    646.7282     39.3472    -75.8161 100000.0000     61.2118
  1232.7500    643.9208     39.4004    -75.7670 100000.0000     60.1882
  1233.0000    641.9715     39.1074    -75.7330 100000.0000     59.2835
  1233.2500    640.6705     38.8453    -75.7015 100000.0000     58.9411
  1233.5000    639.7393     38.7220    -75.6664 100000.0000     58.6166
  1233.7500    639.1415     38.3761    -75.6274 100000.0000     58.4016
