~Version Information
VERS.                      2.0: CWLS Log ASCII Standard - VERSION 2.0
WRAP.                       NO: One line per depth step
~Well Information Block
STRT.FT               698.9000: 
STOP.FT              2460.4000: 
STEP.FT                 0.1000: 
NULL.                -999.2500: 
COMP.          Petrogulf Corporation: COMPANY
WELL.             State 16-23V: WELL
FLD.           Purgatorie River: FIELD
LOC.           2414' FSL & 2215' FWL: LOCATION
PROV.                 Colorado: PROVINCE
CNTY.               Las Animas: COUNTRY
SRVC.                         : SERVICE COMPANY
DATE.          Mon Jun 09 14:24:56 2003: LOG DATE
UWI.           05 071 07865 00: UNIQUE WELL ID
~Curve Information Block
DEPT.FT            0 000 00 00: Depth
DCAL.in                       : CDL Caliper
RHOB.g/cc                     : CDL Bulk Density
RHOC.g/cc                     : CDL Density Correction
DPOR.pu                       : CDL Density Porosity
GR.GAPI                       : Gamma Ray
NPOR.pu                       : Neutron Porosity
~Parameter Information Block
~A  Depth       DCAL        RHOB        RHOC        DPOR         GR         NPOR    
# ...
  1649.3000      8.0970      2.4820      0.0511     10.1789     51.9681     19.3689
  1649.4000      8.0970      2.4804      0.0492     10.2778     52.2353     19.2934
  1649.5000      8.1115      2.4791      0.0479     10.3579     52.5330     19.2353
  1649.6000      8.1115      2.4781      0.0472     10.4186     52.8232     19.1970
  1649.7000      8.1115      2.4774      0.0471     10.4608     53.0799     19.1789
  1649.8000      8.1231      2.4770      0.0475     10.4869     53.2890     19.1796
  1649.9000      8.1231      2.4767      0.0482     10.5009     53.4470     19.1946
  1650.0000      8.1283      2.4766      0.0493     10.5078     53.5554     19.2171
  1650.1000      8.1283      2.4765      0.0505     10.5136     53.6187     19.2380
  1650.2000      8.1283      2.4763      0.0517     10.5247     53.6401     19.2477
  1650.3000      8.1277      2.4760      0.0529     10.5474     53.6188     19.2364
  1650.4000      8.1277      2.4753      0.0541     10.5872     53.5499     19.1958
  1650.5000      8.1256      2.4743      0.0550     10.6490     53.4275     19.1197
  1650.6000      8.1256      2.4728      0.0557     10.7364     53.2442     19.0049
  1650.7000      8.1256      2.4709      0.0562     10.8516     52.9981     18.8503
  1650.8000      8.1213      2.4686      0.0564     10.9952     52.6932     18.6572
  1650.9000      8.1213      2.4658      0.0562     11.1664     52.3416     18.4282
  1651.0000      8.1206      2.4625      0.0557     11.3631     51.9625     18.1670
  1651.1000      8.1206      2.4589      0.0549     11.5819     51.5803     17.8777
  1651.2000      8.1206      2.4550      0.0538     11.8183     51.2203     17.5651
  1651.3000      8.1264      2.4509      0.0523     12.0671     50.9026     17.2348
  1651.4000      8.1264      2.4467      0.0507     12.3228     50.6381     16.8934
  1651.5000      8.1263      2.4424      0.0489     12.5791     50.4243     16.5487
  1651.6000      8.1263      2.4383      0.0471     12.8300     50.2453     16.2095
  1651.7000      8.1263      2.4344      0.0455     13.0696     50.0721     15.8853
  1651.8000      8.1082      2.4307      0.0440     13.2922     49.8702     15.5855
  1651.9000      8.1082      2.4274      0.0430     13.4929     49.6063     15.3190
  1652.0000      8.0774      2.4245      0.0426     13.6672     49.2534     15.0929
  1652.1000      8.0774      2.4221      0.0428     13.8119     48.7976     14.9119
  1652.2000      8.0774      2.4202      0.0437     13.9243     48.2408     14.7786
  1652.3000      8.0610      2.4189      0.0454     14.0033     47.5968     14.6924
  1652.4000      8.0610      2.4182      0.0478     14.0486     46.8919     14.6508
  1652.5000      8.0665      2.4180      0.0509     14.0612     46.1586     14.6487
  1652.6000      8.0665      2.4183      0.0546     14.0431     45.4340     14.6805
  1652.7000      8.0665      2.4190      0.0587     13.9975     44.7529     14.7397
  1652.8000      8.0663      2.4202      0.0629     13.9282     44.1491     14.8204
  1652.9000      8.0663      2.4216      0.0672     13.8400     43.6535     14.9180
  1653.0000      8.0461      2.4233      0.0713     13.7379     43.2940     15.0292
  1653.1000      8.0461      2.4251      0.0750     13.6273     43.0951     15.1521
  1653.2000      8.0461      2.4270      0.0781     13.5138     43.0742     15.2859
  1653.3000      8.0244      2.4289      0.0804     13.4029     43.2397     15.4310
  1653.4000      8.0244      2.4306      0.0820     13.2996     43.5866     15.5877
  1653.5000      8.0171      2.4321      0.0826     13.2088     44.0937     15.7564
  1653.6000      8.0171      2.4333      0.0823     13.1345     44.7217     15.9366
  1653.7000      8.0171      2.4342      0.0810     13.0802     45.4176     16.1269
  1653.8000      8.0366      2.4347      0.0789     13.0483     46.1174     16.3242
  1653.9000      8.0366      2.4348      0.0760     13.0405     46.7549     16.5238
  1654.0000      8.0763      2.4346      0.0725     13.0574     47.2692     16.7195
  1654.1000      8.0763      2.4339      0.0686     13.0984     47.6154     16.9035
  1654.2000      8.0763      2.4328      0.0645     13.1621     47.7698     17.0670
  1654.3000      8.1050      2.4314      0.0605     13.2463     47.7364     17.2015
  1654.4000      8.1050      2.4298      0.0570     13.3479     47.5453     17.2989
  1654.5000      8.1142      2.4279      0.0541     13.4631     47.2492     17.3532
  1654.6000      8.1142      2.4258      0.0522     13.5881     46.9162     17.3607
  1654.7000      8.1142      2.4236      0.0513     13.7189     46.6192     17.3203
  1654.8000      8.1124      2.4215      0.0515     13.8514     46.4226     17.2339
  1654.9000      8.1124      2.4193      0.0525     13.9819     46.3758     17.1057
  1655.0000      8.1080      2.4172      0.0542     14.1073     46.5032     16.9420
  1655.1000      8.1080      2.4153      0.0563     14.2247     46.8054     16.7504
  1655.2000      8.1080      2.4135      0.0586     14.3318     47.2568     16.5398
  1655.3000      8.1074      2.4120      0.0606     14.4267     47.8145     16.3187
  1655.4000      8.1074      2.4106      0.0623     14.5079     48.4254     16.0956
  1655.5000      8.1063      2.4095      0.0636     14.5741     49.0328     15.8780
  1655.6000      8.1063      2.4087      0.0642     14.6243     49.5844     15.6719
  1655.7000      8.1063      2.4082      0.0644     14.6575     50.0376     15.4814
  1655.8000      8.1015      2.4079      0.0641     14.6730     50.3598     15.3091
  1655.9000      8.1015      2.4079      0.0635     14.6703     50.5327     15.1552
  1656.0000      8.0953      2.4083      0.0627     14.6490     50.5495     15.0191
  1656.1000      8.0953      2.4090      0.0618     14.6090     50.4162     14.8988
  1656.2000      8.0953      2.4099      0.0610     14.5505     50.1485     14.7925
  1656.3000      8.0941      2.4112      0.0604     14.4744     49.7740     14.6987
  1656.4000      8.0941      2.4127      0.0601     14.3818     49.3275     14.6168
  1656.5000      8.0955      2.4145      0.0602     14.2744     48.8488     14.5476
  1656.6000      8.0955      2.4165      0.0608     14.1545     48.3789     14.4930
  1656.7000      8.0955      2.4186      0.0618     14.0249     47.9551     14.4560
  1656.8000      8.1028      2.4208      0.0632     13.8887     47.6114     14.4398
  1656.9000      8.1028      2.4231      0.0647     13.7492     47.3731     14.4475
  1657.0000      8.1169      2.4254      0.0664     13.6100     47.2589     14.4809
  1657.1000      8.1169      2.4277      0.0680     13.4748     47.2802     14.5404
  1657.2000      8.1169      2.4298      0.0693     13.3471     47.4419     14.6245
  1657.3000      8.1220      2.4317      0.0702     13.2299     47.7476     14.7294
  1657.4000      8.1220      2.4334      0.0706     13.1261     48.1948     14.8498
  1657.5000      8.1191      2.4349      0.0704     13.0382     48.7809     14.9792
  1657.6000      8.1191      2.4360      0.0695     12.9679     49.5022     15.1111
  1657.7000      8.1191      2.4369      0.0679     12.9167     50.3556     15.2390
  1657.8000      8.1180      2.4374      0.0658     12.8850     51.3370     15.3580
  1657.9000      8.1180      2.4376      0.0631     12.8731     52.4442     15.4647
  1658.0000      8.1146      2.4375      0.0599     12.8804     53.6747     15.5575
  1658.1000      8.1146      2.4371      0.0564     12.9056     55.0259     15.6363
  1658.2000      8.1146      2.4364      0.0526     12.9467     56.4935     15.7024
  1658.3000      8.1165      2.4355      0.0487     13.0011     58.0672     15.7576
  1658.4000      8.1165      2.4344      0.0448     13.0654     59.7295     15.8038
  1658.5000      8.1300      2.4333      0.0410     13.1357     61.4551     15.8426
  1658.6000      8.1300      2.4321      0.0374     13.2072     63.2075     15.8749
  1658.7000      8.1300      2.4310      0.0342     13.2749     64.9443     15.9009
  1658.8000      8.1467      2.4300      0.0315     13.3337     66.6154     15.9199
