~Version Information
 VERS.                                  2.0 : CWLS LAS VERSION
 WRAP.                                   NO : WRAPING MODE
 SWARE .                 MController 2.5.0J : SOFTWARE VERSION
~Well Information
 WELL.                       Galloway 32-13 : WELL
 COMP.   Pioneer Natural Resources USA Inc. : COMPANY
 FLD.                         Spanish Peaks : FIELD
 LOC.                SW/NE Sec 13 T32S R66W : LOCATION
 DATE.                             7/6-7/05 : DATE(S) LOGGED
 SRVC.       BLANCO Geological Services LLC : SERVICE COMPANY
 STAT.                                   CO : STATE
 CNTY.                           Las Animas : COUNTY
 CTRY.                                  USA : COUNTRY
 API.                       05-071-08423-00 : API NUMBER
 STRT.FT                             596.00 : START DEPTH
 STOP.FT                            2075.00 : STOP DEPTH
 STEP.FT                               1.00 : DEPTH INCREMENT
 NULL.                                -9999 : NULL VALUE
~Curve information
 DEPTH.FT                                   :
 ROP.MIN/FT                                 :
 GAS.UNITS                                  :
~ASCII Log data
# ...
      1196.0         0.23        103.6 
      1197.0         0.20        100.1 
      1198.0         0.30         97.6 
      1199.0         0.30        101.4 
      1200.0         0.27        108.2 
      1201.0         0.27         99.0 
      1202.0         0.30         93.7 
      1203.0         0.23         97.1 
      1204.0         0.23         99.7 
      1205.0         0.20        102.4 
      1206.0         0.25        109.8 
      1207.0         0.23        115.9 
      1208.0         0.23        110.0 
      1209.0         0.30        105.2 
      1210.0         0.20        107.5 
      1211.0         0.27        103.7 
      1212.0         0.23         96.3 
      1213.0         0.27         91.1 
      1214.0         0.20         90.6 
      1215.0         0.23         90.9 
      1216.0         0.20         93.1 
      1217.0         0.33         93.0 
      1218.0         0.23         85.4 
      1219.0         0.22         81.5 
      1220.0         0.23         84.0 
      1221.0         0.20         89.4 
      1222.0         0.20         95.5 
      1223.0         0.23         98.4 
      1224.0         0.17         97.4 
      1225.0         0.27         94.3 
      1226.0         0.17         92.1 
      1227.0         0.23         88.3 
      1228.0         0.20         85.2 
      1229.0         0.27         81.8 
      1230.0         0.27         79.3 
      1231.0         0.27         77.8 
      1232.0         0.20         78.3 
      1233.0         0.30         85.4 
      1234.0         0.32         92.8 
      1235.0         0.23         90.3 
      1236.0         0.30         83.4 
      1237.0         0.23         81.8 
      1238.0         0.27         74.0 
      1239.0         0.20         68.2 
      1240.0         0.23         68.0 
      1241.0         0.27         77.3 
      1242.0         0.27         85.9 
      1243.0         0.20         89.0 
      1244.0         0.20         90.2 
      1245.0         0.23         91.0 
      1246.0         0.23         89.7 
      1247.0         0.27         88.4 
      1248.0         0.22         93.7 
      1249.0         0.23        104.3 
      1250.0         0.23        108.4 
      1251.0         0.27        105.1 
      1252.0         0.20         98.6 
      1253.0         0.23         88.6 
      1254.0         0.23         81.1 
      1255.0         0.23         76.3 
      1256.0         0.20         76.4 
      1257.0         0.30         82.1 
      1258.0         0.27         82.8 
      1259.0         0.23         81.0 
      1260.0         0.27         80.1 
      1261.0         0.23         80.6 
      1262.0         0.22         82.1 
      1263.0         0.27         89.0 
      1264.0         0.23         91.8 
      1265.0         0.23         86.9 
      1266.0         0.20         82.4 
      1267.0         0.20         82.6 
      1268.0         0.27         89.1 
      1269.0         0.23         98.6 
      1270.0         0.23        108.5 
      1271.0         0.27        111.3 
      1272.0         0.23        110.2 
      1273.0         0.27        110.9 
      1274.0         0.20        124.6 
      1275.0         0.27        128.4 
      1276.0         0.22        114.5 
      1277.0         0.30        100.7 
      1278.0         0.23        104.6 
      1279.0         0.23        117.5 
      1280.0         0.30        132.1 
      1281.0         0.33        135.8 
      1282.0         0.27        136.1 
      1283.0         0.37        140.9 
      1284.0         0.43        153.9 
      1285.0         0.40        155.7 
      1286.0         0.45        136.6 
      1287.0         0.43        141.7 
      1288.0         0.40        153.1 
      1289.0         0.40        149.6 
      1290.0         0.43        128.5 
      1291.0         0.43        150.8 
      1292.0         0.43        150.1 
      1293.0         0.43        146.3 
      1294.0         0.48        253.9 
      1295.0         0.37        303.5 
      1296.0         0.40        142.3 
      1297.0         0.47        165.8 
      1298.0         0.43        179.3 
      1299.0         0.50        164.1 
      1300.0         0.43        156.0 
      1301.0         0.48        154.9 
      1302.0         0.53        155.3 
      1303.0         0.53        193.9 
      1304.0         0.37        151.8 
      1305.0         0.40        143.5 
      1306.0         0.20        159.1 
      1307.0         0.30        177.2 
      1308.0         0.30        183.7 
      1309.0         0.30        170.5 
      1310.0         0.30        139.3 
      1311.0         0.48        152.7 
      1312.0         0.50        182.6 
      1313.0         0.33        153.6 
      1314.0         0.37        154.2 
      1315.0         0.50        160.2 
      1316.0         0.50        152.8 
      1317.0         0.50        148.0 
      1318.0         0.32        158.1 
      1319.0         0.30        165.1 
      1320.0         0.30        178.7 
      1321.0         0.30        186.2 
      1322.0         0.37        167.9 
      1323.0         0.27        158.5 
      1324.0         0.37        148.6 
      1325.0         0.27        147.3 
      1326.0         0.27        148.7 
      1327.0         0.37        154.1 
      1328.0         0.37        172.1 
      1329.0         0.32        175.4 
      1330.0         0.27        169.7 
      1331.0         0.43        155.7 
      1332.0         0.30        151.4 
      1333.0         0.30        148.8 
      1334.0         0.33        151.3 
      1335.0         0.30        169.6 
      1336.0         0.30        181.6 
      1337.0         0.27        188.5 
      1338.0         0.30        148.7 
      1339.0         0.32        139.6 
      1340.0         0.27        154.2 
      1341.0         0.37        189.3 
      1342.0         0.20        199.6 
      1343.0         0.37        177.3 
      1344.0         0.27        156.3 
      1345.0         0.33        157.1 
      1346.0         0.27        134.0 
      1347.0         0.27        138.6 
      1348.0         0.30        159.9 
      1349.0         0.33        171.0 
      1350.0         0.27        201.4 
      1351.0         0.35        219.9 
      1352.0         0.30        180.2 
      1353.0         0.30        143.9 
      1354.0         0.27        139.6 
      1355.0         0.27        158.8 
      1356.0         0.33        162.8 
      1357.0         0.27        161.7 
      1358.0         0.30        179.3 
      1359.0         0.33        182.8 
      1360.0         0.30        145.7 
      1361.0         0.27        132.1 
      1362.0         0.25        153.2 
      1363.0         0.23        162.8 
      1364.0         0.27        168.2 
      1365.0         0.27        154.0 
      1366.0         0.30        134.4 
      1367.0         0.30        133.8 
      1368.0         0.27        138.0 
      1369.0         0.30        141.3 
      1370.0         0.30        147.4 
      1371.0         0.33        151.7 
      1372.0         0.33        140.7 
      1373.0         0.23        136.2 
      1374.0         0.38        148.0 
      1375.0         0.33        122.3 
      1376.0         0.33        137.2 
      1377.0         0.30        159.1 
      1378.0         0.30        168.8 
      1379.0         0.23        170.8 
      1380.0         0.33        159.8 
      1381.0         0.27        147.7 
      1382.0         0.33        136.0 
      1383.0         0.30        135.8 
      1384.0         0.30        148.6 
      1385.0         0.48        155.8 
      1386.0         0.30        155.7 
      1387.0         0.30        152.4 
      1388.0         0.40        150.1 
      1389.0         0.30        146.0 
      1390.0         0.33        143.9 
      1391.0         0.27        148.0 
      1392.0         0.30        151.3 
      1393.0         0.30        143.1 
      1394.0         0.23        142.1 
      1395.0         0.25        147.1 
