~Version Information
 VERS.                      2.0: CWLS Log ASCII Standard - VERSION 2.0
 WRAP.                       NO: One line per depth step
 ~Well Information Block
 STRT.FT               465.6000: 
 STOP.FT              1777.2000: 
 STEP.FT                 0.1000: 
 NULL.                -999.2500: 
 COMP.          Petrogulf Corporation: COMPANY
 WELL.          Alexander 9-43R: WELL
 FLD.           Purgatorie River: FIELD
 LOC.           1652' FSL & 1049' FEL: LOCATION
 CNTY.               Las Animas: COUNTY
 SRVC.                         : SERVICE COMPANY
 DATE.          Fri Sep 03 15:08:45 2004: LOG DATE
 UWI.           05 071 08036 00: UNIQUE WELL ID
 STAT.                 Colorado: STATE
 PROV.                         :Province
 ~Curve Information Block
 DEPT.FT            0 000 00 00: Depth
 DCAL.in                       : CDL Caliper
 RHOB.g/cc                     : CDL Bulk Density
 RHOC.g/cc                     : CDL Density Correction
 DPOR.pu                       : CDL Density Porosity
 GR.GAPI                       : Gamma Ray
 NPOR.pu                       : Neutron Porosity
 ~Parameter Information Block
 ~A  Depth       DCAL        RHOB        RHOC        DPOR         GR         NPOR    
# ...
  1089.6000      8.2060      2.3975      0.0944     15.3030    151.5026     25.2997
  1089.7000      8.2060      2.4420      0.1827     12.6032    153.9135     25.8269
  1089.8000      8.1946      2.4832      0.2568     10.1106    152.8285     26.3622
  1089.9000      8.1946      2.5129      0.2686      8.3098    153.4140     26.4441
  1090.0000      8.1850      2.5341      0.3699      7.0232    159.1539     26.2693
  1090.1000      8.1850      2.5550      0.2680      5.7591    166.3592     26.1900
  1090.2000      8.1850      2.5680      0.2855      4.9700    170.7852     26.3685
  1090.3000      8.1879      2.5491      0.1858      6.1135    172.8846     26.7174
  1090.4000      8.1879      2.5082      0.0455      8.5968    174.2694     26.8394
  1090.5000      8.1926      2.4861      0.0696      9.9322    176.8843     26.6641
  1090.6000      8.1926      2.4921      0.0926      9.5711    178.8831     26.6921
  1090.7000      8.1926      2.5069      0.0638      8.6727    177.0177     27.1828
  1090.8000      8.1462      2.5208      0.0855      7.8306    175.1674     27.7023
  1090.9000      8.1462      2.5252      0.1601      7.5622    175.6226     27.8770
  1091.0000      8.1285      2.5174      0.0967      8.0352    173.6737     27.5816
  1091.1000      8.1285      2.5157      0.0702      8.1390    168.8794     26.9566
  1091.2000      8.1285      2.5291      0.0727      7.3301    167.1483     26.5046
  1091.3000      8.1461      2.5378      0.0541      6.7987    165.9410     26.5545
  1091.4000      8.1461      2.5243      0.0725      7.6177    158.5559     26.9066
  1091.5000      8.1581      2.4969      0.0622      9.2764    148.9287     27.1275
  1091.6000      8.1581      2.4783      0.0425     10.4085    143.7201     27.0535
  1091.7000      8.1581      2.4777      0.0483     10.4452    141.5450     26.6580
  1091.8000      8.1631      2.4943     -0.0170      9.4379    137.3954     26.1494
  1091.9000      8.1631      2.5277      0.0740      7.4125    130.5444     26.1303
  1092.0000      8.1677      2.5644      0.1182      5.1869    126.9153     26.7763
  1092.1000      8.1677      2.5920      0.1172      3.5151    129.0342     27.6114
  1092.2000      8.1677      2.6172      0.0653      1.9895    131.2005     28.2088
  1092.3000      8.1735      2.6423      0.0965      0.4666    128.4937     28.4854
  1092.4000      8.1735      2.6478      0.1879      0.1342    120.9817     28.3943
  1092.5000      8.1432      2.6289      0.0755      1.2773    112.0614     27.9070
  1092.6000      8.1432      2.6143      0.0813      2.1636    108.3952     27.2750
  1092.7000      8.1432      2.6145      0.0820      2.1510    110.4570     26.8478
  1092.8000      8.1351      2.6021      0.0877      2.9032    111.4881     26.8350
  1092.9000      8.1351      2.5573      0.0275      5.6169    108.9779     27.2232
  1093.0000      8.1279      2.5030     -0.0228      8.9107    108.1137     27.4244
  1093.1000      8.1279      2.4725     -0.0416     10.7563    112.7438     27.0858
  1093.2000      8.1279      2.4697     -0.0318     10.9254    117.1053     26.6671
  1093.3000      8.1289      2.4823     -0.0011     10.1634    115.2348     26.2118
  1093.4000      8.1289      2.5051     -0.0026      8.7824    110.0829     25.4968
  1093.5000      8.1248      2.5332      0.0676      7.0793    109.1330     25.0859
  1093.6000      8.1248      2.5535      0.1036      5.8467    114.3430     25.3455
  1093.7000      8.1248      2.5588      0.0906      5.5250    120.1604     25.7753
  1093.8000      8.1145      2.5523      0.0949      5.9186    123.4480     26.0269
  1093.9000      8.1145      2.5357      0.1472      6.9280    127.2667     26.0886
  1094.0000      8.1246      2.5199      0.0985      7.8849    133.3364     25.9920
  1094.1000      8.1246      2.5271      0.1060      7.4475    139.2347     25.9308
  1094.2000      8.1246      2.5547      0.1415      5.7729    143.4085     25.9902
  1094.3000      8.1301      2.5755      0.1438      4.5144    143.6337     25.8028
  1094.4000      8.1301      2.5814      0.1670      4.1605    137.3865     25.1855
  1094.5000      8.1497      2.5895      0.1423      3.6685    130.0999     24.6549
  1094.6000      8.1497      2.6060      0.1899      2.6695    124.8722     24.7161
  1094.7000      8.1497      2.6174      0.1835      1.9757    119.1608     25.1947
  1094.8000      8.1620      2.6165      0.2095      2.0277    116.2443     25.6485
  1094.9000      8.1620      2.6114      0.1551      2.3388    119.1480     25.8377
  1095.0000      8.1684      2.6053      0.1739      2.7082    128.1588     25.7472
  1095.1000      8.1684      2.5926      0.1080      3.4814    138.0610     25.7244
  1095.2000      8.1684      2.5761      0.1374      4.4796    140.9436     25.7455
  1095.3000      8.1683      2.5600      0.0825      5.4555    138.8483     25.4628
  1095.4000      8.1683      2.5439      0.1255      6.4305    135.6711     25.1238
  1095.5000      8.1649      2.5301      0.0868      7.2695    129.8363     25.0693
  1095.6000      8.1649      2.5219      0.0783      7.7613    121.9890     25.1236
  1095.7000      8.1649      2.5183      0.0943      7.9808    115.7805     25.0266
  1095.8000      8.1346      2.5162      0.0967      8.1092    114.7773     24.7778
  1095.9000      8.1346      2.5144      0.0719      8.2200    118.6262     24.5632
  1096.0000      8.1316      2.5095      0.0845      8.5176    122.8738     24.7114
  1096.1000      8.1316      2.5010      0.0664      9.0310    126.6700     25.1772
  1096.2000      8.1316      2.4944      0.1044      9.4307    133.4513     25.3468
  1096.3000      8.1283      2.4922      0.0766      9.5648    138.1220     25.1032
  1096.4000      8.1283      2.4990      0.0620      9.1538    134.6753     24.8862
  1096.5000      8.1172      2.5190      0.1024      7.9413    127.8508     24.8652
  1096.6000      8.1172      2.5430      0.0873      6.4845    123.2162     24.8219
  1096.7000      8.1172      2.5587      0.1367      5.5360    120.7943     24.4389
  1096.8000      8.1238      2.5659      0.1237      5.0953    121.2323     23.9150
  1096.9000      8.1238      2.5741      0.1206      4.5973    125.0408     23.7529
  1097.0000      8.1203      2.5802      0.1228      4.2280    125.6135     23.9254
  1097.1000      8.1203      2.5747      0.0947      4.5618    118.9882     24.2504
  1097.2000      8.1203      2.5630      0.0751      5.2707    110.3387     24.8653
  1097.3000      8.1086      2.5526      0.1081      5.9037    105.5570     25.6925
  1097.4000      8.1086      2.5414      0.1097      6.5847    106.5952     25.9857
  1097.5000      8.1168      2.5357      0.0557      6.9284    113.5066     25.3891
  1097.6000      8.1168      2.5374      0.1343      6.8214    121.2333     24.7056
  1097.7000      8.1168      2.5327      0.0329      7.1120    122.7630     24.6643
  1097.8000      8.1027      2.5218      0.0276      7.7689    119.1375     25.1056
  1097.9000      8.1027      2.5093      0.0803      8.5283    116.8949     25.5700
  1098.0000      8.0942      2.4951      0.0142      9.3872    118.0206     25.8031
  1098.1000      8.0942      2.4882      0.0753      9.8075    117.8121     25.7874
  1098.2000      8.0942      2.4890      0.0436      9.7574    113.5903     25.3520
  1098.3000      8.0955      2.4904      0.0572      9.6721    106.1473     24.4710
  1098.4000      8.0955      2.4917      0.0267      9.5946    100.0687     23.7936
  1098.5000      8.0979      2.4895      0.0462      9.7266    102.8834     23.8085
  1098.6000      8.0979      2.4729      0.0501     10.7328    113.2192     24.2065
  1098.7000      8.0979      2.4478     -0.0047     12.2525    122.0618     24.4068
  1098.8000      8.0999      2.4337      0.0266     13.1087    125.9451     24.4779
  1098.9000      8.0999      2.4338     -0.0052     13.1046    126.3334     24.5927
  1099.0000      8.1034      2.4382      0.0165     12.8376    125.8576     24.2312
  1099.1000      8.1034      2.4365      0.0314     12.9416    126.8377     23.6732
