~Version Information
VERS.                      2.0: CWLS Log ASCII Standard - VERSION 2.0
WRAP.                       NO: One line per depth step
~Well Information Block
STRT.FT                -7.5000: 
STOP.FT               978.5000: 
STEP.FT                 0.2500: 
NULL.                -999.2500: 
COMP.          Pioneer Natural Resources: COMPANY
WELL.          Piggyback 33-25: WELL
FLD.           Purgatoire River: FIELD
LOC.           1600' FSL & 1800' FEL: LOCATION
PROV.                 Colorado: PROVINCE
CNTY.               Las Animas: COUNTRY
SRVC.                Patterson: SERVICE COMPANY
DATE.          Mon May 09 09:22:28 2005: LOG DATE
UWI.           05 071 08233 00: UNIQUE WELL ID
~Curve Information Block
DEPT.FT            0 000 00 00: Depth
CCL.                          : Casing Collar Locator
TT3.usec                      : CBL 3' Travel Time
AMP3.mV                       : CBL 3' Amplitude
GR.GAPI                       : Gamma Ray
~Parameter Information Block
~A  Depth       CCL         TT3         AMP3         GR     
# ...
   495.0000      0.0000    753.3748      7.2321    113.3172
   495.2500      0.0000    759.8041      7.0544    112.1544
   495.5000      0.0000    763.6778      6.8551    112.3903
   495.7500      0.0000    764.3419      6.6809    114.6595
   496.0000      0.0000    763.2523      6.5687    118.0852
   496.2500      0.0000    762.6219      6.5411    120.7143
   496.5000      0.0000    763.7114      6.6051    121.0788
   496.7500      0.0000    766.0784      6.7440    119.4155
   497.0000      0.0000    768.3113      6.9134    117.6722
   497.2500      0.0000    769.1807      7.0545    118.4725
   497.5000      0.0000    768.1297      7.1199    123.5939
   497.7500      0.0000    765.3387      7.0980    132.5762
   498.0000      0.0000    761.7193      7.0207    142.4225
   498.2500      0.0000    758.4025      6.9471    149.1337
   498.5000      0.0000    755.7508      6.9280    150.3180
   498.7500      0.0000    753.0743      6.9760    146.6294
   499.0000      0.0000    749.5954      7.0649    140.6785
   499.2500      0.0000    745.6016      7.1568    134.7964
   499.5000      0.0000    742.6868      7.2248    130.0677
   499.7500      0.0000    742.8550      7.2524    127.0061
   500.0000      0.0000    746.9130      7.2246    126.2265
   500.2500      0.0000    753.4419      7.1338    128.1795
   500.5000      0.0000    759.5186      6.9930    132.6975
   500.7500      0.0000    762.5875      6.8331    139.0235
   501.0000      0.0000    761.7399      6.6856    146.0407
   501.2500      0.0000    757.6642      6.5719    152.4845
   501.5000      0.0000    751.8484      6.5015    157.2257
   501.7500      0.0000    745.9081      6.4713    159.5562
   502.0000      0.0000    741.3889      6.4659    159.3526
   502.2500      0.0000    739.6227      6.4659    157.2507
   502.5000      0.0000    741.1385      6.4563    154.7283
   502.7500      0.0000    745.1785      6.4313    153.5042
   503.0000      0.0000    749.9393      6.3960    154.3300
   503.2500      0.0000    753.1838      6.3642    156.3999
   503.5000      0.0000    752.9479      6.3502    158.2428
   503.7500      0.0000    748.5852      6.3593    159.2692
   504.0000      0.0000    741.4623      6.3874    160.2161
   504.2500      0.0000    734.1696      6.4318    161.9642
   504.5000      0.0000    728.7967      6.4976    164.2572
   504.7500      0.0000    726.0922      6.5941    165.8302
   505.0000      0.0000    726.0428      6.7224    165.6386
   505.2500      0.0000    728.7186      6.8709    163.8097
   505.5000      0.0000    734.1913      7.0225    161.4608
   505.7500      0.0000    741.6511      7.1673    159.7233
   506.0000      0.0000    748.8943      7.3070    159.0654
   506.2500      0.0000    753.1552      7.4441    159.3716
   506.5000      0.0000    752.7416      7.5667    160.1985
   506.7500      0.0000    748.0343      7.6514    161.1087
   507.0000      0.0000    741.1254      7.6853    162.2728
   507.2500      0.0000    734.5237      7.6783    164.3695
   507.5000      0.0000    729.8394      7.6511    167.3313
   507.7500      0.0000    727.2907      7.6176    169.7221
   508.0000      0.0000    726.1842      7.5847    170.0760
   508.2500      0.0000    725.7120      7.5619    168.6202
   508.5000      0.0000    725.4047      7.5562    167.2176
   508.7500      0.0000    725.1418      7.5536    167.5334
   509.0000      0.0000    724.9776      7.5152    169.3130
   509.2500      0.0000    724.9803      7.4048    170.5151
   509.5000      0.0000    725.1367      7.2284    169.2824
   509.7500      0.0000    725.3439      7.0376    165.7868
   510.0000      0.0000    725.4832      6.8878    162.0149
   510.2500      0.0000    725.5107      6.7931    159.8732
   510.5000      0.0000    725.4673      6.7258    159.9207
   510.7500      0.0000    725.4138      6.6574    161.7322
   511.0000      0.0000    725.4237      6.5911    164.3597
   511.2500      0.0000    725.6699      6.5518    165.9444
   511.5000      0.0000    726.5303      6.5510    163.9078
   511.7500      0.0000    728.5154      6.5720    156.5842
   512.0000      0.0000    731.8750      6.5863    144.5828
   512.2500      0.0000    736.0662      6.5808    130.2522
   512.5000      0.0000    739.6676      6.5682    116.1644
   512.7500      0.0000    741.0908      6.5778    104.1930
   513.0000      0.0000    739.6168      6.6337     95.3233
   513.2500      0.0000    735.9135      6.7360     89.7672
   513.5000      0.0000    731.5927      6.8589     87.4411
   513.7500      0.0000    728.1397      6.9694     88.6293
   514.0000      0.0000    726.1260      7.0510     94.0130
   514.2500      0.0000    725.3215      7.1120    103.7745
   514.5000      0.0000    725.3440      7.1690    116.6944
   514.7500      0.0000    726.1302      7.2293    130.1708
   515.0000      0.0000    727.9291      7.2964    141.1670
   515.2500      0.0000    730.8868      7.3838    147.6186
   515.5000      0.0000    734.7336      7.5075    149.5688
   515.7500      0.0000    739.1298      7.6618    148.9597
   516.0000      0.0000    744.3796      7.8155    147.8145
   516.2500      0.0000    750.9991      7.9274    146.4401
   516.5000      0.0000    758.0247      7.9550    143.5264
   516.7500      0.0000    762.6366      7.8556    137.7199
   517.0000      0.0000    762.6417      7.6050    128.9265
   517.2500      0.0000    759.0910      7.2265    118.5581
   517.5000      0.0000    755.5984      6.7970    108.8355
   517.7500      0.0000    755.4932      6.4203    101.4829
   518.0000      0.0000    760.2158      6.1767     96.7708
   518.2500      0.0000    769.1711      6.0756     93.7999
   518.5000      2.0000    779.7669      6.0595     91.7415
   518.7500     -2.0000    788.3362      6.0664     90.7815
   519.0000     -2.0000    792.1014      6.0948     91.8921
   519.2500      0.0000    789.9586      6.2267     95.7491
   519.5000      0.0000    781.6821      6.5808    101.8860
   519.7500      0.0000    768.0966      7.1883    108.7405
   520.0000      0.0000    752.2898      7.8800    114.3848
   520.2500      0.0000    738.8018      8.3561    117.3764
   520.5000      0.0000    730.9713      8.4356    117.3247
   520.7500      0.0000    729.6917      8.2015    115.0316
   521.0000      0.0000    734.2179      7.8702    112.1685
   521.2500      0.0000    742.8367      7.5845    110.4515
   521.5000      0.0000    752.6210      7.3682    110.5901
   521.7500      0.0000    759.8104      7.2063    111.6705
   522.0000      0.0000    761.7991      7.0973    111.7049
   522.2500      0.0000    759.3123      7.0477    109.1984
   522.5000      0.0000    756.2309      7.0588    104.5040
   522.7500      0.0000    756.3644      7.1276     99.7868
   523.0000      0.0000    760.0043      7.2516     97.5342
   523.2500      0.0000    763.8013      7.4287     98.6412
   523.5000      0.0000    763.6955      7.6454    101.5904
   523.7500      0.0000    757.4269      7.8694    103.6577
   524.0000      0.0000    744.8909      8.0636    103.2178
   524.2500      0.0000    727.7519      8.2109    100.9070
   524.5000      0.0000    709.2833      8.3214     98.7042
   524.7500      0.0000    693.3752      8.4141     98.3701
   525.0000      0.0000    682.5443      8.4953    100.7111
   525.2500      0.0000    676.8319      8.5554    105.5532
   525.5000      0.0000    674.6428      8.5797    111.9519
   525.7500      0.0000    674.3448      8.5565    118.7676
   526.0000      0.0000    675.2454      8.4775    125.4184
   526.2500      0.0000    677.8414      8.3430    131.9027
   526.5000      0.0000    683.5401      8.1776    137.9799
   526.7500      0.0000    693.4709      8.0391    142.8263
   527.0000      0.0000    706.5064      7.9982    145.8252
   527.2500      0.0000    718.3932      8.0895    147.3379
   527.5000      0.0000    723.8646      8.2777    148.4666
   527.7500      0.0000    720.3977      8.4768    150.2740
   528.0000      0.0000    710.0208      8.6055    153.0440
   528.2500      0.0000    697.7641      8.6277    155.8603
