~Version Information
VERS.                      2.0: CWLS Log ASCII Standard - VERSION 2.0
WRAP.                       NO: One line per depth step
~Well Information Block
STRT.FT               698.9000: 
STOP.FT              2459.5000: 
STEP.FT                 0.1000: 
NULL.                -999.2500: 
COMP.          Petrogulf Corporation: COMPANY
WELL.             State 16-23V: WELL
FLD.           Purgatorie River: FIELD
LOC.           2414' FSL & 2215' FWL: LOCATION
PROV.                 Colorado: PROVINCE
CNTY.               Las Animas: COUNTRY
SRVC.                         : SERVICE COMPANY
DATE.          Mon Jun 09 12:47:39 2003: LOG DATE
UWI.           05 071 07865 00: UNIQUE WELL ID
~Curve Information Block
DEPT.FT            0 000 00 00: Depth
SP.mV                         : DIL Spontaneous Potential
RILD.Ohm-m                    : DIL Deep Resistivity
RILM.Ohm-m                    : DIL Medium Resistivity
RLL3.Ohm-m                    : DIL Shallow Resistivity
GR.GAPI                       : Gamma Ray
~Parameter Information Block
~A  Depth        SP         RILD        RILM        RLL3         GR     
# ...
  1169.3000     10.4608     12.4298     14.1372     27.5166    108.4846
  1169.4000     10.4608     12.4298     14.1372     27.5166    112.6946
  1169.5000     10.5067     12.3298     13.6751     20.3919    117.0164
  1169.6000     10.5067     12.3298     13.6751     20.3919    121.2867
  1169.7000     10.5067     12.3298     13.6751     20.3919    125.3608
  1169.8000     10.5427     12.2127     13.3295     16.1862    129.1172
  1169.9000     10.5427     12.2127     13.3295     16.1862    132.4616
  1170.0000     10.5638     12.0633     13.1020     14.4063    135.3233
  1170.1000     10.5638     12.0633     13.1020     14.4063    137.6548
  1170.2000     10.5638     12.0633     13.1020     14.4063    139.4333
  1170.3000     10.5696     11.8861     12.9750     14.0626    140.6524
  1170.4000     10.5696     11.8861     12.9750     14.0626    141.3307
  1170.5000     10.5608     11.7084     12.9229     14.4826    141.5063
  1170.6000     10.5608     11.7084     12.9229     14.4826    141.2413
  1170.7000     10.5608     11.7084     12.9229     14.4826    140.6171
  1170.8000     10.5484     11.5632     12.9165     15.3709    139.7364
  1170.9000     10.5484     11.5632     12.9165     15.3709    138.7119
  1171.0000     10.5508     11.4684     12.9172     16.5857    137.6635
  1171.1000     10.5508     11.4684     12.9172     16.5857    136.7032
  1171.2000     10.5508     11.4684     12.9172     16.5857    135.9269
  1171.3000     10.5770     11.4235     12.8791     17.8992    135.4022
  1171.4000     10.5770     11.4235     12.8791     17.8992    135.1614
  1171.5000     10.6247     11.4215     12.7715     18.8996    135.2037
  1171.6000     10.6247     11.4215     12.7715     18.8996    135.4893
  1171.7000     10.6247     11.4215     12.7715     18.8996    135.9528
  1171.8000     10.6941     11.4547     12.6041     19.1722    136.5121
  1171.9000     10.6941     11.4547     12.6041     19.1722    137.0784
  1172.0000     10.7888     11.5106     12.4272     18.6350    137.5682
  1172.1000     10.7888     11.5106     12.4272     18.6350    137.9119
  1172.2000     10.7888     11.5106     12.4272     18.6350    138.0650
  1172.3000     10.9074     11.5783     12.3034     17.6510    138.0068
  1172.4000     10.9074     11.5783     12.3034     17.6510    137.7439
  1172.5000     11.0400     11.6667     12.2766     16.7662    137.3065
  1172.6000     11.0400     11.6667     12.2766     16.7662    136.7378
  1172.7000     11.0400     11.6667     12.2766     16.7662    136.0843
  1172.8000     11.1748     11.8016     12.3597     16.3406    135.3819
  1172.9000     11.1748     11.8016     12.3597     16.3406    134.6503
  1173.0000     11.3050     11.9901     12.5446     16.3893    133.8857
  1173.1000     11.3050     11.9901     12.5446     16.3893    133.0586
  1173.2000     11.3050     11.9901     12.5446     16.3893    132.1286
  1173.3000     11.4285     12.1947     12.8191     16.7259    131.0533
  1173.4000     11.4285     12.1947     12.8191     16.7259    129.8052
  1173.5000     11.5379     12.3516     13.1776     17.2170    128.3844
  1173.6000     11.5379     12.3516     13.1776     17.2170    126.8252
  1173.7000     11.5379     12.3516     13.1776     17.2170    125.1913
  1173.8000     11.6177     12.4184     13.6169     17.8804    123.5658
  1173.9000     11.6177     12.4184     13.6169     17.8804    122.0306
  1174.0000     11.6625     12.3982     14.1069     18.7435    120.6516
  1174.1000     11.6625     12.3982     14.1069     18.7435    119.4649
  1174.2000     11.6625     12.3982     14.1069     18.7435    118.4696
  1174.3000     11.6864     12.3213     14.5484     19.6318    117.6283
  1174.4000     11.6864     12.3213     14.5484     19.6318    116.8856
  1174.5000     11.6942     12.2182     14.7854     20.1992    116.1707
  1174.6000     11.6942     12.2182     14.7854     20.1992    115.4256
  1174.7000     11.6942     12.2182     14.7854     20.1992    114.6150
  1174.8000     11.6717     12.1145     14.7266     20.2776    113.7392
  1174.9000     11.6717     12.1145     14.7266     20.2776    112.8347
  1175.0000     11.6157     12.0379     14.4417     20.0906    111.9743
  1175.1000     11.6157     12.0379     14.4417     20.0906    111.2527
  1175.2000     11.6157     12.0379     14.4417     20.0906    110.7762
  1175.3000     11.5461     12.0164     14.0885     19.9566    110.6396
  1175.4000     11.5461     12.0164     14.0885     19.9566    110.9132
  1175.5000     11.4807     12.0691     13.7886     19.8711    111.6277
  1175.6000     11.4807     12.0691     13.7886     19.8711    112.7632
  1175.7000     11.4807     12.0691     13.7886     19.8711    114.2501
  1175.8000     11.4162     12.2043     13.6013     19.5599    115.9700
  1175.9000     11.4162     12.2043     13.6013     19.5599    117.7695
  1176.0000     11.3428     12.4218     13.5572     18.9157    119.4752
  1176.1000     11.3428     12.4218     13.5572     18.9157    120.9110
  1176.2000     11.3428     12.4218     13.5572     18.9157    121.9178
  1176.3000     11.2630     12.7061     13.6757     18.2611    122.3717
  1176.4000     11.2630     12.7061     13.6757     18.2611    122.2026
  1176.5000     11.1858     13.0177     13.9665     18.1395    121.4009
  1176.6000     11.1858     13.0177     13.9665     18.1395    120.0200
  1176.7000     11.1858     13.0177     13.9665     18.1395    118.1745
  1176.8000     11.1090     13.2994     14.4325     19.0024    116.0162
  1176.9000     11.1090     13.2994     14.4325     19.0024    113.7160
  1177.0000     11.0174     13.4981     15.0655     21.3078    111.4326
  1177.1000     11.0174     13.4981     15.0655     21.3078    109.2918
  1177.2000     11.0174     13.4981     15.0655     21.3078    107.3651
  1177.3000     10.8983     13.5888     15.8211     25.8270    105.6661
  1177.4000     10.8983     13.5888     15.8211     25.8270    104.1562
  1177.5000     10.7574     13.5865     16.5820     33.4137    102.7609
  1177.6000     10.7574     13.5865     16.5820     33.4137    101.3917
  1177.7000     10.7574     13.5865     16.5820     33.4137     99.9707
  1177.8000     10.6172     13.5368     17.1524     43.7848     98.4445
  1177.9000     10.6172     13.5368     17.1524     43.7848     96.7982
  1178.0000     10.5050     13.4882     17.3322     54.0276     95.0577
  1178.1000     10.5050     13.4882     17.3322     54.0276     93.2829
  1178.2000     10.5050     13.4882     17.3322     54.0276     91.5621
  1178.3000     10.4422     13.4583     17.0511     59.0453     90.0014
  1178.4000     10.4422     13.4583     17.0511     59.0453     88.7153
  1178.5000     10.4367     13.4259     16.4271     55.2923     87.8150
  1178.6000     10.4367     13.4259     16.4271     55.2923     87.4084
  1178.7000     10.4367     13.4259     16.4271     55.2923     87.5838
  1178.8000     10.4747     13.3596     15.6777     44.4618     88.4043
  1178.9000     10.4747     13.3596     15.6777     44.4618     89.8967
  1179.0000     10.5271     13.2538     14.9927     32.1014     92.0417
  1179.1000     10.5271     13.2538     14.9927     32.1014     94.7726
  1179.2000     10.5271     13.2538     14.9927     32.1014     97.9729
  1179.3000     10.5665     13.1277     14.4816     22.6929    101.4862
  1179.4000     10.5665     13.1277     14.4816     22.6929    105.1342
  1179.5000     10.5795     12.9972     14.1814     17.3032    108.7346
  1179.6000     10.5795     12.9972     14.1814     17.3032    112.1269
  1179.7000     10.5795     12.9972     14.1814     17.3032    115.1910
  1179.8000     10.5721     12.8636     14.0806     14.9693    117.8597
  1179.9000     10.5721     12.8636     14.0806     14.9693    120.1219
  1180.0000     10.5640     12.7248     14.1328     14.4591    122.0144
  1180.1000     10.5640     12.7248     14.1328     14.4591    123.6082
  1180.2000     10.5640     12.7248     14.1328     14.4591    124.9876
  1180.3000     10.5751     12.5824     14.2699     14.8649    126.2331
  1180.4000     10.5751     12.5824     14.2699     14.8649    127.4015
