~Version Information
VERS.                      2.0: CWLS Log ASCII Standard - VERSION 2.0
WRAP.                       NO: One line per depth step
~Well Information Block
STRT.FT               840.0000: 
STOP.FT              2266.0000: 
STEP.FT                 0.1000: 
NULL.                -999.2500: 
COMP.          Pioneer Natural Resources: COMPANY
WELL.              Tonto 42-23: WELL
FLD.           Purgatoire River: FIELD
LOC.           2217' FNL & 423' FEL: LOCATION
PROV.                 Colorado: PROVINCE
CNTY.               Las Animas: COUNTRY
SRVC.                Patterson: SERVICE COMPANY
DATE.          Mon Apr 18 07:15:48 2005: LOG DATE
UWI.           05 071 08335 00: UNIQUE WELL ID
~Curve Information Block
DEPT.FT            0 000 00 00: Depth
DCAL.in                       : CDL Caliper
RHOB.g/cc                     : CDL Bulk Density
RHOC.g/cc                     : CDL Density Correction
DPOR.pu                       : CDL Density Porosity
GR.GAPI                       : Gamma Ray
NPOR.pu                       : Neutron Porosity
~Parameter Information Block
~A  Depth       DCAL        RHOB        RHOC        DPOR         GR         NPOR    
# ...
  2059.2000      7.8014      2.1947      0.1355     27.5960     71.7410     30.3075
  2059.3000      7.8038      2.2250      0.0819     25.7581     66.8986     30.7676
  2059.4000      7.8038      2.2679      0.1409     23.1590     62.8095     31.3838
  2059.5000      7.8337      2.3239      0.2149     19.7627     61.9354     31.7139
  2059.6000      7.8337      2.3724      0.2250     16.8222     65.1246     31.5413
  2059.7000      7.8337      2.4034      0.1720     14.9479     67.9755     30.9181
  2059.8000      7.8435      2.4252      0.1227     13.6254     68.7079     29.8178
  2059.9000      7.8435      2.4435      0.1807     12.5131     70.6374     28.7377
  2060.0000      7.8457      2.4566      0.1325     11.7202     73.6959     28.6504
  2060.1000      7.8457      2.4727      0.1482     10.7447     76.0000     29.1384
  2060.2000      7.8457      2.4982      0.1576      9.1976     78.6825     28.7179
  2060.3000      7.8467      2.5216      0.1680      7.7796     82.9637     27.6189
  2060.4000      7.8467      2.5280      0.1195      7.3929     85.8999     26.9816
  2060.5000      7.8519      2.5198      0.0687      7.8939     83.6772     26.4015
  2060.6000      7.8519      2.5162      0.0089      8.1066     77.2675     25.6349
  2060.7000      7.8519      2.5231      0.0735      7.6924     71.3107     25.6732
  2060.8000      7.8720      2.5226      0.0783      7.7233     70.3547     26.5689
  2060.9000      7.8720      2.5167      0.0191      8.0775     73.6122     27.1234
  2061.0000      7.8715      2.5267      0.0613      7.4725     78.4918     26.8231
  2061.1000      7.8715      2.5545      0.0524      5.7899     84.0263     26.4341
  2061.2000      7.8715      2.5929     -0.0081      3.4621     85.6581     27.1988
  2061.3000      7.8919      2.6248      0.1022      1.5271     82.5572     28.9697
  2061.4000      7.8919      2.6248      0.0830      1.5261     80.4669     29.6045
  2061.5000      7.9000      2.5965      0.1045      3.2424     79.3165     28.4267
  2061.6000      7.9000      2.5638      0.0380      5.2230     77.9796     27.0480
  2061.7000      7.9000      2.5403      0.0540      6.6489     81.4126     26.4273
  2061.8000      7.9072      2.5309      0.0174      7.2193     88.5120     26.2296
  2061.9000      7.9072      2.5401      0.0427      6.6633     90.5859     26.1133
  2062.0000      7.9018      2.5602      0.0559      5.4450     84.9593     26.1120
  2062.1000      7.9018      2.5770      0.0342      4.4224     77.9710     26.1577
  2062.2000      7.9018      2.5737      0.0570      4.6268     76.1116     26.3528
  2062.3000      7.9040      2.5541     -0.0292      5.8130     79.9526     26.7621
  2062.4000      7.9040      2.5539      0.0029      5.8263     84.5765     27.1788
  2062.5000      7.9155      2.5715      0.1129      4.7565     86.2728     27.0987
  2062.6000      7.9155      2.5698      0.0899      4.8612     86.8943     26.2570
  2062.7000      7.9155      2.5461      0.0151      6.2948     87.0582     25.2821
  2062.8000      7.9108      2.5250      0.0214      7.5741     84.1679     24.8331
  2062.9000      7.9108      2.5163      0.0256      8.1004     81.2437     24.9292
  2063.0000      7.9085      2.5154      0.0201      8.1603     84.9653     25.1043
  2063.1000      7.9085      2.5160      0.0788      8.1213     91.7811     25.0655
  2063.2000      7.9085      2.5120      0.0665      8.3655     93.3958     25.4141
  2063.3000      7.9098      2.4996      0.0680      9.1159     90.1205     26.3923
  2063.4000      7.9098      2.4830      0.0114     10.1220     84.5843     26.7100
  2063.5000      7.9060      2.4761      0.0044     10.5416     78.8949     25.9730
  2063.6000      7.9060      2.4835      0.0378     10.0931     76.9470     25.4465
  2063.7000      7.9060      2.4930      0.0199      9.5150     80.6462     25.5802
  2063.8000      7.9135      2.4977      0.0066      9.2329     87.1084     25.7483
  2063.9000      7.9135      2.4995      0.0643      9.1241     92.3208     25.8931
  2064.0000      7.9206      2.5012      0.0390      9.0191     93.8215     26.4428
  2064.1000      7.9206      2.5052      0.0336      8.7766     91.7823     27.4627
  2064.2000      7.9206      2.5045      0.0636      8.8177     89.0416     28.0987
  2064.3000      7.9011      2.4966      0.0560      9.2970     88.5598     27.3632
  2064.4000      7.9011      2.4949      0.0398      9.3979     89.7698     25.9083
  2064.5000      7.8986      2.5031      0.0506      8.9030     88.7088     25.4679
  2064.6000      7.8986      2.5088      0.0348      8.5570     85.5966     26.1167
  2064.7000      7.8986      2.5039      0.0701      8.8556     85.8120     26.4565
  2064.8000      7.9045      2.4870      0.1136      9.8798     90.0282     25.9363
  2064.9000      7.9045      2.4700      0.0347     10.9079     94.3396     25.1409
  2065.0000      7.9038      2.4721      0.0586     10.7838     95.3059     25.2285
  2065.1000      7.9038      2.4868      0.0573      9.8929     93.9546     26.2090
  2065.2000      7.9038      2.4899      0.0882      9.7054     96.1226     26.3960
  2065.3000      7.8989      2.4741      0.0518     10.6633    100.5685     25.5387
  2065.4000      7.8989      2.4563      0.0286     11.7375     99.3389     25.7083
  2065.5000      7.8986      2.4500      0.0775     12.1234     90.9212     27.5449
  2065.6000      7.8986      2.4509      0.0136     12.0671     80.6182     29.3144
  2065.7000      7.8986      2.4499      0.0916     12.1255     75.2524     29.7982
  2065.8000      7.9081      2.4223      0.0942     13.8014     76.3196     28.9387
  2065.9000      7.9081      2.3532      0.0167     17.9903     79.1740     27.5040
  2066.0000      7.9089      2.2724     -0.0565     22.8847     80.9518     26.6966
  2066.1000      7.9089      2.2191     -0.0414     26.1163     80.8046     26.8729
  2066.2000      7.9089      2.2016     -0.0603     27.1776     78.1560     27.4088
  2066.3000      7.9156      2.2075     -0.0267     26.8185     75.0009     27.6042
  2066.4000      7.9156      2.2237     -0.0228     25.8364     73.6351     27.5101
  2066.5000      7.9243      2.2525      0.0320     24.0925     74.3314     27.6170
  2066.6000      7.9243      2.3039      0.0829     20.9755     75.9370     28.2308
  2066.7000      7.9243      2.3703      0.1836     16.9509     76.3612     28.7240
  2066.8000      7.9474      2.4285      0.1788     13.4263     74.4141     28.4816
  2066.9000      7.9474      2.4654      0.1887     11.1905     72.8107     28.1930
  2067.0000      7.9842      2.4820      0.0688     10.1848     75.1962     27.8863
  2067.1000      7.9842      2.4901      0.0440      9.6912     80.3640     26.9568
  2067.2000      7.9842      2.5047      0.0333      8.8054     84.6285     26.3134
  2067.3000      7.9446      2.5204      0.1046      7.8568     85.3123     26.5235
  2067.4000      7.9446      2.5254      0.0224      7.5523     81.8395     26.5569
  2067.5000      7.9243      2.5309      0.0337      7.2190     77.7136     26.2778
  2067.6000      7.9243      2.5436      0.0730      6.4501     77.7321     26.4171
  2067.7000      7.9243      2.5478      0.0883      6.1931     81.9962     26.6115
  2067.8000      7.9230      2.5434      0.0164      6.4624     86.0388     26.3333
  2067.9000      7.9230      2.5505      0.0304      6.0304     87.9865     26.3123
  2068.0000      7.9238      2.5648      0.0952      5.1611     89.8700     26.7793
  2068.1000      7.9238      2.5659      0.0594      5.0949     92.6864     27.0495
  2068.2000      7.9238      2.5556      0.0730      5.7235     93.9460     27.1174
  2068.3000      7.9146      2.5447      0.0716      6.3840     92.8096     27.4227
  2068.4000      7.9146      2.5412      0.0123      6.5925     91.5583     28.2460
  2068.5000      7.9057      2.5409      0.1120      6.6147     91.3070     29.0887
  2068.6000      7.9057      2.5399      0.0147      6.6730     89.4493     29.3926
  2068.7000      7.9057      2.5592      0.0156      5.5041     85.1162     29.2395
