~Version Information
VERS.                      2.0: CWLS Log ASCII Standard - VERSION 2.0
WRAP.                       NO: One line per depth step
~Well Information Block
STRT.FT               620.0000: 
STOP.FT              2660.0000: 
STEP.FT                 0.1000: 
NULL.                -999.2500: 
COMP.          Evergreen Operating Corporation: COMPANY
WELL.             Carbon 34-21: WELL
FLD.           Purgatoire River: FIELD
LOC.           56' FSL & 2304' FEL: LOCATION
PROV.                 Colorado: PROVINCE
CNTY.               Las Animas: COUNTRY
SRVC.                Patterson: SERVICE COMPANY
DATE.          Mon Sep 13 14:13:15 2004: LOG DATE
UWI.           05 071 08117 00: UNIQUE WELL ID
~Curve Information Block
DEPT.FT            0 000 00 00: Depth
DCAL.in                       : CDL Caliper
DPOR.pu                       : CDL Density Porosity
NPOR.pu                       : Neutron Porosity
RHOB.g/cc                     : CDL Bulk Density
RHOC.g/cc                     : CDL Density Correction
GR.GAPI                       : Gamma Ray
~Parameter Information Block
~A  Depth       DCAL        DPOR        NPOR        RHOB        RHOC         GR     
# ...
  1704.8000      8.0258      8.1866     22.1031      2.5149      0.0069    160.0639
  1704.9000      8.0258      7.7963     23.0293      2.5214      0.0610    170.7309
  1705.0000      8.0276      7.4391     24.3283      2.5273      0.0250    168.3065
  1705.1000      8.0276      6.8306     24.8078      2.5373      0.0434    154.6231
  1705.2000      8.0276      5.6542     24.8818      2.5567      0.0627    144.8639
  1705.3000      8.0294      4.5827     25.5329      2.5744      0.0787    144.7530
  1705.4000      8.0294      4.3453     26.4049      2.5783      0.0909    147.7231
  1705.5000      8.0297      4.7516     26.3660      2.5716      0.0631    147.7995
  1705.6000      8.0297      4.8097     25.5291      2.5706     -0.0093    143.7289
  1705.7000      8.0297      4.1303     25.3016      2.5819      0.0135    139.7686
  1705.8000      8.0279      3.8784     26.2309      2.5860      0.0780    141.0626
  1705.9000      8.0279      4.8356     27.2995      2.5702      0.0539    146.4574
  1706.0000      8.0264      6.1871     27.5044      2.5479      0.0379    152.0108
  1706.1000      8.0264      6.9796     27.1421      2.5348     -0.0210    156.0891
  1706.2000      8.0264      7.3456     26.5647      2.5288      0.0351    156.7630
  1706.3000      8.0275      7.8440     25.4644      2.5206     -0.0006    152.7087
  1706.4000      8.0275      8.1711     24.1802      2.5152      0.0082    146.4069
  1706.5000      8.0291      7.8705     23.6719      2.5201      0.0090    145.6747
  1706.6000      8.0291      7.4299     24.2350      2.5274      0.0070    151.0242
  1706.7000      8.0291      7.5494     25.2067      2.5254      0.0240    150.0087
  1706.8000      8.0286      8.1152     25.9340      2.5161      0.0470    141.4724
  1706.9000      8.0286      8.4710     26.3655      2.5102      0.0071    137.3344
  1707.0000      8.0271      8.5734     26.6509      2.5085      0.0451    141.7552
  1707.1000      8.0271      9.7091     26.9544      2.4898      0.0548    147.7817
  1707.2000      8.0271     13.1674     27.5968      2.4327      0.0713    152.2737
  1707.3000      8.0269     18.1676     28.2606      2.3502     -0.0038    153.9460
  1707.4000      8.0269     22.1763     28.2282      2.2841     -0.0429    148.9787
  1707.5000      8.0302     23.7035     27.8715      2.2589     -0.0441    146.4754
  1707.6000      8.0302     23.0643     27.7776      2.2694     -0.0395    154.2167
  1707.7000      8.0302     20.7448     27.7985      2.3077      0.0030    161.9262
  1707.8000      8.0310     17.5265     27.9317      2.3608      0.0992    157.2679
  1707.9000      8.0310     14.7935     28.0784      2.4059      0.1592    140.6061
  1708.0000      8.0274     13.0627     27.8723      2.4345      0.1647    127.4601
  1708.1000      8.0274     11.8800     27.4141      2.4540      0.1746    129.9881
  1708.2000      8.0274     10.8659     26.9688      2.4707      0.1508    140.8820
  1708.3000      8.0235      9.7172     26.3809      2.4897      0.1092    147.2460
  1708.4000      8.0235      8.6730     25.7887      2.5069      0.0800    149.8356
  1708.5000      8.0240      8.4681     25.7125      2.5103      0.0619    155.3603
  1708.6000      8.0240      8.9420     26.0315      2.5025      0.0148    163.0352
  1708.7000      8.0240      9.2911     26.3299      2.4967      0.0307    167.2843
  1708.8000      8.0314      9.2682     26.5588      2.4971      0.0352    166.6392
  1708.9000      8.0314      8.9046     26.6184      2.5031      0.0085    164.8770
  1709.0000      8.0440      8.5458     26.5972      2.5090      0.0564    160.8927
  1709.1000      8.0440      8.9544     26.6159      2.5023      0.0602    157.7288
  1709.2000      8.0440      9.8306     26.4795      2.4878      0.0016    163.6343
  1709.3000      8.0537      9.8108     26.0871      2.4881      0.0329    172.3244
  1709.4000      8.0537      8.5238     25.7338      2.5094      0.0729    172.9574
  1709.5000      8.0582      7.0815     25.9624      2.5332      0.0924    168.1444
  1709.6000      8.0582      6.6560     26.7270      2.5402      0.0736    164.8106
  1709.7000      8.0582      7.7406     27.4695      2.5223      0.0863    162.2857
  1709.8000      8.0585     10.2305     27.8876      2.4812      0.0467    158.3956
  1709.9000      8.0585     13.0977     28.2063      2.4339      0.0307    156.4714
  1710.0000      8.0570     15.2046     28.7200      2.3991      0.0186    157.0403
  1710.1000      8.0570     16.4166     29.0277      2.3791      0.0294    154.3301
  1710.2000      8.0570     17.5256     28.7140      2.3608      0.0256    146.0069
  1710.3000      8.0586     19.0910     28.4331      2.3350     -0.0433    138.9706
  1710.4000      8.0586     21.1022     29.0733      2.3018      0.0129    138.4564
  1710.5000      8.0683     23.3281     30.3883      2.2651     -0.0408    138.9235
  1710.6000      8.0683     25.1041     31.4010      2.2358     -0.0220    134.1006
  1710.7000      8.0683     26.6178     31.8091      2.2108      0.0052    125.5778
  1710.8000      8.0827     28.9328     32.0295      2.1726      0.0046    124.3006
  1710.9000      8.0827     32.2621     32.3546      2.1177     -0.0052    133.7529
  1711.0000      8.0952     36.4254     32.7223      2.0490      0.0109    141.8528
  1711.1000      8.0952     41.6722     33.2353      1.9624      0.0000    140.5030
  1711.2000      8.0952     47.6525     33.9766      1.8637     -0.0541    132.0159
  1711.3000      8.1032     53.4304     34.2770      1.7684     -0.0474    118.1112
  1711.4000      8.1032     58.3742     33.8582      1.6868     -0.0630    100.7456
  1711.5000      8.1091     61.6455     33.5996      1.6329     -0.1111     87.6422
  1711.6000      8.1091     62.6603     34.1458      1.6161     -0.0763     82.8021
  1711.7000      8.1091     62.4470     34.8905      1.6196      0.0007     81.8832
  1711.8000      8.1301     62.9220     34.8993      1.6118      0.0769     75.3472
  1711.9000      8.1301     64.7624     34.5055      1.5814      0.0692     62.9463
  1712.0000      8.1746     67.0354     34.4056      1.5439      0.0946     55.2115
  1712.1000      8.1746     68.7472     34.3752      1.5157      0.1096     55.3821
  1712.2000      8.1746     69.1552     34.1961      1.5089      0.0868     58.8248
  1712.3000      8.2197     67.4184     33.7896      1.5376      0.0752     64.2755
  1712.4000      8.2197     63.2137     33.1427      1.6070      0.0456     69.4980
  1712.5000      8.2271     57.0931     32.4960      1.7080      0.0726     73.5834
  1712.6000      8.2271     50.4595     31.7259      1.8174      0.1327     81.0129
  1712.7000      8.2271     45.0989     30.8327      1.9059      0.1927     88.4285
  1712.8000      8.1952     41.8072     30.3732      1.9602      0.2076     90.7548
  1712.9000      8.1952     39.8627     30.4035      1.9923      0.1784     92.1003
  1713.0000      8.1851     38.2567     30.3350      2.0188      0.1589     96.6559
  1713.1000      8.1851     37.0356     30.1054      2.0389      0.1482    100.5890
  1713.2000      8.1851     36.3935     30.0658      2.0495      0.0654     98.4842
  1713.3000      8.1736     35.2511     30.1286      2.0684      0.0334     92.1120
  1713.4000      8.1736     32.2810     30.0744      2.1174      0.0485     89.9793
  1713.5000      8.1497     27.4627     29.7924      2.1969      0.1357     94.4050
  1713.6000      8.1497     22.1626     29.2831      2.2843      0.2649     99.2817
  1713.7000      8.1497     17.7186     28.5374      2.3576      0.3153    104.5133
  1713.8000      8.1371     14.3806     27.8067      2.4127      0.3723    115.2714
  1713.9000      8.1371     12.1198     27.2922      2.4500      0.3887    129.8627
  1714.0000      8.1014     11.1480     26.7604      2.4661      0.3403    137.7632
  1714.1000      8.1014     11.3956     26.3113      2.4620      0.3401    132.9898
  1714.2000      8.1014     12.4026     26.2031      2.4454      0.3005    125.0378
  1714.3000      8.0609     13.6615     26.5231      2.4246      0.2515    124.8577
