~Version Information
 VERS.                                  2.0 : CWLS LAS VERSION
 WRAP.                                   NO : WRAPING MODE
 SWARE .                 MController 2.5.0J : SOFTWARE VERSION
~Well Information
 WELL.                       Ei-Ei-Oh 31-24 : WELL
 COMP.    Pioneer Natural Resources USA Inc : COMPANY
 FLD.                      Purgatoire River : FIELD
 LOC.                NW/NE Sec 24 T32S R67W : LOCATION
 DATE.                         6/12-13/2005 : DATE(S) LOGGED
 SRVC.       Blanco Geological Services LLC : SERVICE COMPANY
 STAT.                                   CO : STATE
 CNTY.                           Las Animas : COUNTY
 CTRY.                                  USA : COUNTRY
 API.                       05-071-08403-00 : API NUMBER
 STRT.FT                             436.00 : START DEPTH
 STOP.FT                            2853.00 : STOP DEPTH
 STEP.FT                               1.00 : DEPTH INCREMENT
 NULL.                                -9999 : NULL VALUE
~Curve information
 DEPTH.FT                                   :
 ROP.MIN/FT                                 :
 GAS.UNITS                                  :
~ASCII Log data
# ...
      1236.0         0.17         17.7 
      1237.0         0.20         13.8 
      1238.0         0.17         10.8 
      1239.0         0.20          9.3 
      1240.0         0.20          9.1 
      1241.0         0.20          9.3 
      1242.0         0.17          9.1 
      1243.0         0.17          8.2 
      1244.0         0.17          7.8 
      1245.0         0.17          8.0 
      1246.0         0.13          6.9 
      1247.0         0.13          7.1 
      1248.0         0.20          7.2 
      1249.0         0.15          6.9 
      1250.0         0.20          6.9 
      1251.0         0.17          6.6 
      1252.0         0.27          6.2 
      1253.0         0.33          6.7 
      1254.0         0.27          7.2 
      1255.0         0.20          7.4 
      1256.0         2.18         18.0 
      1257.0         0.70         98.6 
      1258.0         0.37        149.6 
      1259.0         0.67        153.4 
      1260.0         0.37         82.6 
      1261.0         0.30         43.7 
      1262.0         0.23         26.4 
      1263.0         0.25         18.5 
      1264.0         0.17         13.5 
      1265.0         0.20         12.4 
      1266.0         0.23         11.3 
      1267.0         0.43          9.6 
      1268.0         0.20         10.3 
      1269.0         0.20         10.9 
      1270.0         0.17         11.3 
      1271.0         0.17         12.0 
      1272.0         0.17         11.9 
      1273.0         0.17         11.2 
      1274.0         0.20         11.3 
      1275.0         0.17         11.7 
      1276.0         0.17         15.5 
      1277.0         0.13         22.4 
      1278.0         0.20         36.6 
      1279.0         0.20         50.4 
      1280.0         0.22         56.5 
      1281.0         0.20         57.2 
      1282.0         0.23         55.1 
      1283.0         0.20         46.6 
      1284.0         0.23         39.5 
      1285.0         0.20         32.3 
      1286.0         2.28         48.9 
      1287.0         0.50        122.2 
      1288.0         0.43        185.7 
      1289.0         0.40        186.3 
      1290.0         0.30        145.1 
      1291.0         0.23         99.2 
      1292.0         0.30         67.2 
      1293.0         0.20         39.1 
      1294.0         0.20         26.8 
      1295.0         0.17         20.0 
      1296.0         0.17         17.6 
      1297.0         0.18         14.8 
      1298.0         0.20         12.9 
      1299.0         0.23         11.8 
      1300.0         0.23         11.2 
      1301.0         0.17          9.2 
      1302.0         0.20         10.5 
      1303.0         0.23         12.7 
      1304.0         0.23         13.6 
      1305.0         0.23         13.9 
      1306.0         0.20         13.4 
      1307.0         0.23         12.9 
      1308.0         0.23         13.6 
      1309.0         0.20         13.4 
      1310.0         0.27         13.2 
      1311.0         0.42         22.3 
      1312.0         0.20         27.1 
      1313.0         0.20         31.7 
      1314.0         0.13         33.6 
      1315.0         0.27         34.2 
      1316.0         2.62        143.8 
      1317.0         0.33        203.5 
      1318.0         0.63        209.1 
      1319.0         0.33        133.5 
      1320.0         0.23         90.2 
      1321.0         0.27         67.3 
      1322.0         0.20         45.8 
      1323.0         0.23         36.0 
      1324.0         0.20         29.5 
      1325.0         0.20         29.4 
      1326.0         0.23         28.1 
      1327.0         0.28         27.2 
      1328.0         0.20         27.5 
      1329.0         0.17         25.1 
      1330.0         0.23         24.5 
      1331.0         0.27         24.2 
      1332.0         0.20         22.1 
      1333.0         0.13         23.9 
      1334.0         0.20         27.1 
      1335.0         0.17         32.3 
      1336.0         0.20         35.7 
      1337.0         0.20         41.0 
      1338.0         0.23         41.1 
      1339.0         0.23         42.4 
      1340.0         0.20         45.2 
      1341.0         0.20         42.0 
      1342.0         0.20         40.7 
      1343.0         0.25         41.2 
      1344.0         0.23         43.2 
      1345.0         0.27         43.9 
      1346.0         2.17        137.9 
      1347.0         0.43        242.0 
      1348.0         0.52        339.2 
      1349.0         0.40        321.3 
      1350.0         0.33        208.4 
      1351.0         0.37        120.7 
      1352.0         0.30         72.0 
      1353.0         0.27         56.3 
      1354.0         0.23         44.9 
      1355.0         0.23         38.6 
      1356.0         0.20         39.4 
      1357.0         0.20         39.6 
      1358.0         0.17         39.4 
      1359.0         0.32         40.2 
      1360.0         0.33         40.7 
      1361.0         0.23         39.7 
      1362.0         0.17         38.5 
      1363.0         0.17         36.4 
      1364.0         0.13         35.1 
      1365.0         0.17         32.9 
      1366.0         0.13         30.0 
      1367.0         0.17         29.2 
      1368.0         0.20         28.8 
      1369.0         0.20         29.3 
      1370.0         0.20         30.6 
      1371.0         0.23         32.8 
      1372.0         0.23         33.0 
      1373.0         0.23         31.7 
      1374.0         0.23         30.8 
      1375.0         0.22         30.8 
      1376.0         2.43        128.8 
      1377.0         0.50        252.3 
      1378.0         0.35        271.1 
      1379.0         0.30        255.1 
      1380.0         0.27        178.1 
      1381.0         0.33        113.5 
      1382.0         0.30         64.3 
      1383.0         0.30         44.4 
      1384.0         0.30         36.8 
      1385.0         0.27         33.0 
      1386.0         0.23         31.9 
      1387.0         0.20         31.7 
      1388.0         0.23         30.6 
      1389.0         0.20         30.4 
      1390.0         0.28         31.3 
      1391.0         0.20         31.2 
      1392.0         0.17         30.1 
      1393.0         0.23         30.1 
      1394.0         0.17         28.3 
      1395.0         0.13         27.8 
      1396.0         0.17         27.7 
      1397.0         0.17         27.3 
      1398.0         0.13         27.1 
      1399.0         0.13         25.4 
      1400.0         0.13         25.7 
      1401.0         0.10         24.9 
      1402.0         0.20         24.4 
      1403.0         0.17         24.6 
      1404.0         0.20         25.4 
      1405.0         0.20         26.1 
      1406.0         3.18        294.7 
      1407.0         0.37        290.9 
      1408.0         0.27        202.5 
      1409.0         0.32        133.8 
      1410.0         0.33         81.0 
      1411.0         0.27         49.8 
      1412.0         0.27         37.1 
      1413.0         0.13         28.5 
      1414.0         0.10         25.8 
      1415.0         0.13         24.3 
      1416.0         0.10         20.6 
      1417.0         0.17         19.9 
      1418.0         0.23         19.9 
      1419.0         0.23         30.4 
      1420.0         0.23         64.5 
      1421.0         0.20        101.7 
      1422.0         0.17        125.1 
      1423.0         0.20        141.4 
      1424.0         0.25        148.7 
      1425.0         0.17        149.0 
      1426.0         0.20        147.8 
      1427.0         0.20        143.6 
      1428.0         0.20        138.8 
      1429.0         0.20        134.3 
      1430.0         0.17        128.6 
      1431.0         0.20        124.5 
      1432.0         0.20        119.8 
      1433.0         0.20        116.3 
      1434.0         0.20        113.6 
      1435.0         0.23        113.8 
