~Version Information
VERS.                      2.0: CWLS Log ASCII Standard - VERSION 2.0
WRAP.                       NO: One line per depth step
~Well Information Block
STRT.FT                -7.5000: 
STOP.FT              1716.7500: 
STEP.FT                 0.2500: 
NULL.                -999.2500: 
COMP.          Pioneer Natural Resources: COMPANY
WELL.          Lookout Point 31-23 Tr: WELL
FLD.           Purgatorie River: FIELD
LOC.           541' FNL & 1786' FEL--------: LOCATION
PROV.                       CO: PROVINCE
CNTY.               Las Animas: COUNTRY
SRVC.                         : SERVICE COMPANY
DATE.          Fri Jan 28 08:30:47 2005: LOG DATE
UWI.         005 071 08260 : UNIQUE WELL ID
~Curve Information Block
DEPT.FT            0 000 00 00: Depth
CCL.                          : Casing Collar Locator
TT3.usec                      : CBL 3' Travel Time
AMP3.mV                       : CBL 3' Amplitude
GR.GAPI                       : Gamma Ray
~Parameter Information Block
~A  Depth       CCL         TT3         AMP3         GR     
# ...
  1332.5000      0.0000    589.7064      5.9104    132.1958
  1332.7500      0.0000    595.7013      5.7244    120.4675
  1333.0000      0.0000    608.0939      5.6051    108.9496
  1333.2500      0.0000    625.1989      5.6357    100.9708
  1333.5000      0.0000    638.8262      5.8260     99.1308
  1333.7500      0.0000    641.1887      6.0968    103.5379
  1334.0000      0.0000    630.4799      6.3291    112.0077
  1334.2500      0.0000    611.3517      6.4495    121.6562
  1334.5000      0.0000    591.6723      6.4755    129.9053
  1334.7500      0.0000    577.8073      6.4755    134.6887
  1335.0000      0.0000    570.9178      6.4909    135.1708
  1335.2500      0.0000    567.4532      6.5065    132.8235
  1335.5000      0.0000    563.5658      6.4923    130.8216
  1335.7500      0.0000    558.7338      6.4506    131.2316
  1336.0000      0.0000    555.2305      6.4141    132.8353
  1336.2500      0.0000    555.6671      6.4177    132.2855
  1336.5000      0.0000    561.4677      6.4854    127.2915
  1336.7500      0.0000    571.7725      6.6154    118.3388
  1337.0000      0.0000    582.3580      6.7537    107.8883
  1337.2500      0.0000    587.1920      6.8064     98.9318
  1337.5000      0.0000    583.2079      6.7171     94.2930
  1337.7500      0.0000    573.1803      6.5277     95.9668
  1338.0000      0.0000    562.7321      6.3417    103.7593
  1338.2500      0.0000    555.1993      6.2272    114.4381
  1338.5000      0.0000    550.0203      6.1683    123.0766
  1338.7500      0.0000    544.9728      6.1129    125.9783
  1339.0000      0.0000    538.9706      6.0523    122.4782
  1339.2500      0.0000    532.9973      6.0431    114.2066
  1339.5000      0.0000    528.8221      6.1481    103.3396
  1339.7500      0.0000    527.0922      6.3644     91.8549
  1340.0000      0.0000    527.0960      6.6096     81.6908
  1340.2500      0.0000    528.6136      6.7739     74.5996
  1340.5000      0.0000    533.4212      6.7831     71.5806
  1340.7500      0.0000    544.8323      6.6310     72.5258
  1341.0000      0.0000    566.1339      6.3730     76.2467
  1341.2500      0.0000    598.8839      6.0935     80.9126
  1341.5000      0.0000    640.8193      5.8643     84.8754
  1341.7500      0.0000    684.5994      5.7213     87.1877
  1342.0000      0.0000    719.7061      5.6607     87.3932
  1342.2500      0.0000    736.8387      5.6442     85.4338
  1342.5000      0.0000    732.2590      5.6224     82.2199
  1342.7500      0.0000    710.2511      5.5725     79.6835
  1343.0000      0.0000    681.1423      5.5124     79.3701
  1343.2500      0.0000    653.9952      5.4804     80.8682
  1343.5000      0.0000    630.6902      5.5013     81.9977
  1343.7500      0.0000    608.5681      5.5708     80.6976
  1344.0000      0.0000    586.9735      5.6676     76.8431
  1344.2500      0.0000    568.4053      5.7758     72.5385
  1344.5000      0.0000    554.9613      5.8882     70.7434
  1344.7500      0.0000    546.7358      5.9815     73.2960
  1345.0000      0.0000    543.1388      6.0071     79.8091
  1345.2500      0.0000    544.0770      5.9225     88.1017
  1345.5000      0.0000    550.3033      5.7252     95.4715
  1345.7500      0.0000    563.5861      5.4537     99.7286
  1346.0000      0.0000    585.4226      5.1694     99.6813
  1346.2500      0.0000    613.8268      4.9346     95.3520
  1346.5000      0.0000    641.8352      4.7843     87.9761
  1346.7500      0.0000    660.9583      4.7197     79.4695
  1347.0000      0.0000    665.9736      4.7460     71.4923
  1347.2500      0.0000    655.0247      4.8938     64.9092
  1347.5000      0.0000    627.3184      5.1682     60.0033
  1347.7500      0.0000    585.5275      5.4969     56.9865
  1348.0000      2.0000    540.9426      5.7628     56.2361
  1348.2500      2.0000    511.5193      5.8832     58.0036
  1348.5000      0.0000    510.9561      5.8489     61.8039
  1348.7500      0.0000    538.9905      5.7116     66.3120
  1349.0000      0.0000    582.1644      5.5600     70.1776
  1349.2500      0.0000    623.7089      5.4937     72.8418
  1349.5000      0.0000    653.2065      5.5943     74.4190
  1349.7500      0.0000    668.6788      5.8994     75.2147
  1350.0000      0.0000    672.9614      6.3641     75.7185
  1350.2500      0.0000    670.6995      6.8366     76.5212
  1350.5000      0.0000    667.1902      7.1246     77.6767
  1350.7500      0.0000    666.3276      7.1452     78.5046
  1351.0000      0.0000    668.4563      6.9938     78.4520
  1351.2500      0.0000    670.9469      6.8444     77.7532
  1351.5000      0.0000    670.8558      6.8035     76.8780
  1351.7500      0.0000    667.3275      6.8720     75.8186
  1352.0000      0.0000    662.7437      7.0019     74.3189
  1352.2500      0.0000    661.3881      7.1424     72.5095
  1352.5000      0.0000    665.6487      7.2461     70.9599
  1352.7500      0.0000    673.5301      7.2809     70.2680
  1353.0000      0.0000    680.3394      7.2503     70.7666
  1353.2500      0.0000    681.8260      7.1907     72.3859
  1353.5000      0.0000    675.1483      7.1403     74.5803
  1353.7500      0.0000    658.7922      7.1175     76.5250
  1354.0000      0.0000    633.8466      7.1290     77.5421
  1354.2500      0.0000    605.2083      7.1811     77.3933
  1354.5000      0.0000    579.6666      7.2692     76.4353
  1354.7500      0.0000    561.8005      7.3645     75.6936
  1355.0000      0.0000    551.9128      7.4302     76.5237
  1355.2500      0.0000    547.5059      7.4520     79.9803
  1355.5000      0.0000    545.8552      7.4413     86.5704
  1355.7500      0.0000    545.2672      7.4070     96.2696
  1356.0000      0.0000    544.9949      7.3476    108.0659
  1356.2500      0.0000    544.7780      7.2725    119.5548
  1356.5000      0.0000    544.5306      7.2017    127.7936
  1356.7500      0.0000    544.2156      7.1406    131.0960
  1357.0000      0.0000    543.8330      7.0807    129.9310
  1357.2500      0.0000    543.4189      7.0284    126.2160
  1357.5000      0.0000    543.0213      7.0054    122.1760
  1357.7500      0.0000    542.6689      7.0196    119.5722
  1358.0000      0.0000    542.3609      7.0546    119.0386
  1358.2500      0.0000    542.1602      7.0931    119.8114
  1358.5000      0.0000    542.4003      7.1295    120.3699
  1358.7500      0.0000    543.9683      7.1505    119.3533
  1359.0000      0.0000    548.2708      7.1220    115.9364
  1359.2500      0.0000    556.4997      7.0183    109.8633
  1359.5000      0.0000    568.5526      6.8561    101.5784
  1359.7500      0.0000    582.6605      6.6852     92.2925
  1360.0000      0.0000    595.8232      6.5533     83.6644
  1360.2500      0.0000    604.2180      6.4852     77.1923
  1360.5000      0.0000    604.1094      6.4820     73.5123
  1360.7500      0.0000    594.3066      6.5279     71.9293
  1361.0000      0.0000    578.1312      6.5949     70.8675
  1361.2500      0.0000    561.7115      6.6437     69.3309
  1361.5000      0.0000    549.7801      6.6307     67.9392
  1361.7500      0.0000    543.3497      6.5351     68.2851
  1362.0000      0.0000    540.8278      6.3787     71.2326
  1362.2500      0.0000    540.2607      6.2066     75.9211
  1362.5000      0.0000    540.4238      6.0547     80.5204
  1362.7500      0.0000    540.6699      5.9526     83.9857
  1363.0000      0.0000    540.4041      5.9367     86.7993
  1363.2500      0.0000    539.0209      6.0255     89.9115
  1363.5000      0.0000    536.6160      6.1861     93.4630
  1363.7500      0.0000    535.0405      6.3488     96.8605
  1364.0000      0.0000    537.6936      6.4533     99.7273
  1364.2500      0.0000    546.8504      6.4767    102.2903
  1364.5000      0.0000    560.5437      6.4329    104.6790
  1364.7500      0.0000    572.8836      6.3600    106.2389
  1365.0000      0.0000    577.5573      6.3037    106.1256
  1365.2500      0.0000    570.0378      6.2971    104.6292
  1365.5000      0.0000    548.0566      6.3478    103.4418
  1365.7500      0.0000    514.1720      6.4385    104.4686
