~Version Information
VERS.                      2.0: CWLS Log ASCII Standard - VERSION 2.0
WRAP.                       NO: One line per depth step
~Well Information Block
STRT.FT               750.0000: 
STOP.FT              2433.0000: 
STEP.FT                 0.2500: 
NULL.                -999.2500: 
COMP.          Petrogulf Corporation: COMPANY
WELL.           McDaniel 9-34V: WELL
FLD.           Purgatorie River: FIELD
LOC.           620' FSL & 1800' FEL: LOCATION
PROV.                 Colorado: PROVINCE
CNTY.               Las Animas: COUNTRY
SRVC.                Patterson: SERVICE COMPANY
DATE.          Tue Sep 27 19:56:11 2005: LOG DATE
UWI.                          : UNIQUE WELL ID
~Curve Information Block
DEPT.FT            0 000 00 00: Depth
SP.mV                         : DIL Spontaneous Potential
RILD.Ohm-m                    : DIL Deep Resistivity
RILM.Ohm-m                    : DIL Medium Resistivity
RLL3.Ohm-m                    : DIL Shallow Resistivity
GR.GAPI                       : Gamma Ray
~Parameter Information Block
~A  Depth        SP         RILD        RILM        RLL3         GR     
# ...
  1534.0000    163.6549      7.3382      7.3646     10.7957    151.7077
  1534.2500    163.2097      7.3194      7.3455     10.6397    149.3782
  1534.5000    162.7073      7.3137      7.3283     10.2464    148.3000
  1534.7500    162.1891      7.3251      7.3177      9.8027    150.6528
  1535.0000    161.6902      7.3541      7.3194      9.4531    158.2038
  1535.2500    161.2361      7.3976      7.3385      9.2485    163.8822
  1535.5000    160.8412      7.4496      7.3784      9.1904    169.3419
  1535.7500    160.5110      7.5048      7.4400      9.2886    169.8089
  1536.0000    160.2430      7.5606      7.5220      9.5504    166.8191
  1536.2500    160.0297      7.6169      7.6213      9.9226    163.8893
  1536.5000    159.8599      7.6741      7.7342     10.2775    160.0021
  1536.7500    159.7197      7.7310      7.8564     10.4858    157.9138
  1537.0000    159.5944      7.7843      7.9836     10.5108    154.8122
  1537.2500    159.4695      7.8291      8.1106     10.4337    152.6114
  1537.5000    159.3328      7.8601      8.2303     10.3984    150.0604
  1537.7500    159.1764      7.8720      8.3333     10.5287    149.5040
  1538.0000    158.9975      7.8603      8.4074     10.8700    150.0118
  1538.2500    158.7987      7.8228      8.4396     11.3623    150.2040
  1538.5000    158.5873      7.7613      8.4190     11.8487    148.5113
  1538.7500    158.3736      7.6830      8.3411     12.1309    145.6582
  1539.0000    158.1690      7.5988      8.2101     12.0610    139.6693
  1539.2500    157.9847      7.5204      8.0391     11.6153    135.9346
  1539.5000    157.8300      7.4568      7.8475     10.8946    133.3889
  1539.7500    157.7112      7.4124      7.6568     10.0602    134.2981
  1540.0000    157.6293      7.3868      7.4865      9.2623    137.9668
  1540.2500    157.5778      7.3758      7.3519      8.6070    140.3928
  1540.5000    157.5406      7.3728      7.2629      8.1633    142.6213
  1540.7500    157.4919      7.3703      7.2242      7.9803    143.3490
  1541.0000    157.3985      7.3622      7.2358      8.0946    144.0471
  1541.2500    157.2252      7.3452      7.2931      8.5225    144.5411
  1541.5000    156.9417      7.3206      7.3876      9.2462    145.7656
  1541.7500    156.5302      7.2935      7.5075     10.1994    146.9672
  1542.0000    155.9912      7.2727      7.6392     11.2513    148.6591
  1542.2500    155.3447      7.2680      7.7685     12.2054    149.1674
  1542.5000    154.6277      7.2891      7.8839     12.8431    148.6332
  1542.7500    153.8874      7.3441      7.9782     13.0137    147.4403
  1543.0000    153.1724      7.4380      8.0506     12.7132    144.4638
  1543.2500    152.5237      7.5728      8.1065     12.0878    141.9370
  1543.5000    151.9673      7.7476      8.1567     11.3509    138.2755
  1543.7500    151.5103      7.9578      8.2152     10.6754    136.3417
  1544.0000    151.1405      8.1951      8.2970     10.1431    134.1056
  1544.2500    150.8291      8.4467      8.4162      9.7772    132.9451
  1544.5000    150.5363      8.6961      8.5847      9.6187    132.4507
  1544.7500    150.2177      8.9264      8.8109      9.7817    133.6257
  1545.0000    149.8309      9.1251      9.0982     10.4466    137.3627
  1545.2500    149.3419      9.2886      9.4437     11.7789    139.7211
  1545.5000    148.7302      9.4235      9.8373     13.8055    139.8038
  1545.7500    147.9930      9.5451     10.2609     16.3315    136.5060
  1546.0000    147.1469      9.6739     10.6903     18.9634    127.2821
  1546.2500    146.2279      9.8329     11.0995     21.2151    119.7096
  1546.5000    145.2875     10.0442     11.4671     22.6215    108.6827
  1546.7500    144.3862     10.3255     11.7826     22.8417    102.4520
  1547.0000    143.5842     10.6874     12.0506     21.7965     95.3942
  1547.2500    142.9305     11.1291     12.2888     19.7891     92.3303
  1547.5000    142.4540     11.6364     12.5237     17.4510     90.5435
  1547.7500    142.1579     12.1796     12.7830     15.4677     91.5846
  1548.0000    142.0194     12.7172     13.0900     14.2929     96.8187
  1548.2500    141.9947     13.2028     13.4578     14.0879    102.3098
  1548.5000    142.0289     13.5991     13.8870     14.8705    111.5342
  1548.7500    142.0653     13.8900     14.3637     16.6660    116.8784
  1549.0000    142.0555     14.0887     14.8615     19.4888    121.5299
  1549.2500    141.9648     14.2363     15.3467     23.1229    121.5285
  1549.5000    141.7750     14.3912     15.7889     26.8628    116.5709
  1549.7500    141.4845     14.6158     16.1727     29.5451    110.8824
  1550.0000    141.1063     14.9620     16.5067     30.0817    102.0379
  1550.2500    140.6664     15.4626     16.8247     28.2014     97.8797
  1550.5000    140.2000     16.1265     17.1793     24.7599     95.8945
  1550.7500    139.7482     16.9382     17.6310     21.3074     97.2542
  1551.0000    139.3523     17.8596     18.2372     19.3112    102.0080
  1551.2500    139.0487     18.8356     19.0447     19.6662    105.9167
  1551.5000    138.8632     19.7998     20.0829     22.6844    110.8043
  1551.7500    138.8081     20.6839     21.3581     28.2494    112.2318
  1552.0000    138.8815     21.4327     22.8462     35.8226    109.9625
  1552.2500    139.0695     22.0206     24.4861     44.3513    104.9741
  1552.5000    139.3502     22.4603     26.1759     52.3426     92.9070
  1552.7500    139.6983     22.7921     27.7774     58.2354     83.3294
  1553.0000    140.0886     23.0566     29.1305     60.9158     70.3727
  1553.2500    140.4982     23.2687     30.0774     60.1066     64.4648
  1553.5000    140.9071     23.4114     30.4932     56.4688     60.7376
  1553.7500    141.2977     23.4489     30.3145     51.3674     61.1170
  1554.0000    141.6543     23.3500     29.5591     46.3207     64.1313
  1554.2500    141.9616     23.1047     28.3267     42.2978     66.7413
  1554.5000    142.2053     22.7273     26.7758     39.2675     70.1852
  1554.7500    142.3713     22.2516     25.0868     36.3977     71.6769
  1555.0000    142.4464     21.7252     23.4240     32.8523     73.1666
  1555.2500    142.4185     21.2039     21.9124     28.5483     74.9848
  1555.5000    142.2768     20.7431     20.6316     24.2002     81.5910
  1555.7500    142.0126     20.3843     19.6220     20.6838     88.8245
  1556.0000    141.6204     20.1443     18.8968     18.4314    101.1317
  1556.2500    141.0999     20.0126     18.4524     17.4047    108.0060
  1556.5000    140.4581     19.9610     18.2761     17.4743    113.9506
  1556.7500    139.7124     19.9589     18.3513     18.6983    114.7589
  1557.0000    138.8913     19.9897     18.6593     21.2714    111.7493
  1557.2500    138.0347     20.0574     19.1801     25.2532    107.6453
  1557.5000    137.1905     20.1847     19.8933     30.2754    100.4572
  1557.7500    136.4088     20.4047     20.7788     35.4517     96.1742
  1558.0000    135.7344     20.7523     21.8192     39.7139     91.1892
  1558.2500    135.1990     21.2581     23.0018     42.4784     88.5276
  1558.5000    134.8153     21.9442     24.3205     44.0861     84.8884
  1558.7500    134.5746     22.8224     25.7763     45.5022     82.3958
  1559.0000    134.4493     23.8913     27.3752     47.4811     78.1495
  1559.2500    134.3980     25.1327     29.1253     49.9689     75.1691
  1559.5000    134.3752     26.5073     31.0324     52.2682     71.8817
  1559.7500    134.3385     27.9523     33.0951     53.7902     71.3334
  1560.0000    134.2555     29.3837     35.3002     54.8037     73.0782
  1560.2500    134.1066     30.7042     37.6166     56.6456     75.2149
  1560.5000    133.8834     31.8181     39.9876     61.1259     78.7629
  1560.7500    133.5861     32.6549     42.3221     69.2831     81.6555
  1561.0000    133.2194     33.1946     44.4903     80.2168     88.9213
  1561.2500    132.7903     33.4796     46.3329     90.9827     96.8438
  1561.5000    132.3075     33.6011     47.6933     97.8950    112.9725
  1561.7500    131.7833     33.6655     48.4671     98.4210    124.9599
