~Version Information
VERS.                      2.0: CWLS Log ASCII Standard - VERSION 2.0
WRAP.                       NO: One line per depth step
~Well Information Block
STRT.FT               -16.5000: 
STOP.FT              1695.5000: 
STEP.FT                 0.2500: 
NULL.                -999.2500: 
COMP.          Pioneer Natural Resources: COMPANY
WELL.          Rancher 12-35 Tr: WELL
FLD.           Purgatorie River: FIELD
LOC.           2242' FNL & 308' FWL SWNW 35 32S 67W: LOCATION
PROV.                       CO: PROVINCE
CNTY.               Las Animas: COUNTRY
SRVC.                         : SERVICE COMPANY
DATE.         Fri Jul 08 09:39:00 2005: LOG DATE
UWI.                071 08430 : UNIQUE WELL ID
~Curve Information Block
DEPT.FT            0 000 00 00: Depth
CCL.                          : Casing Collar Locator
TT3.usec                      : CBL 3' Travel Time
AMP3.mV                       : CBL 3' Amplitude
GR.GAPI                       : Gamma Ray
~Parameter Information Block
~A  Depth       CCL         TT3         AMP3         GR     
# ...
   218.0000      0.0000    871.7112      7.5741     97.6014
   218.2500      0.0000    873.2985      7.4948    100.3599
   218.5000      0.0000    874.6544      7.3618    101.8109
   218.7500      0.0000    875.4587      7.2025    100.6721
   219.0000      0.0000    875.7634      7.0610     96.4650
   219.2500      0.0000    875.6676      6.9730     90.1297
   219.5000      0.0000    875.0846      6.9440     83.4028
   219.7500      0.0000    873.7929      6.9500     77.6643
   220.0000      0.0000    871.7324      6.9632     73.3384
   220.2500      0.0000    869.1698      6.9796     70.0756
   220.5000      0.0000    866.1547      7.0192     67.2846
   220.7500      0.0000    861.5477      7.1006     64.5006
   221.0000      0.0000    853.1783      7.2195     61.3674
   221.2500      0.0000    839.8194      7.3482     57.5072
   221.5000      0.0000    823.0495      7.4517     52.6876
   221.7500      0.0000    806.7092      7.5030     47.1725
   222.0000      0.0000    794.5149      7.4925     41.8271
   222.2500      0.0000    788.1435      7.4335     37.8379
   222.5000      0.0000    786.8532      7.3577     36.2987
   222.7500      0.0000    788.3470      7.3027     37.7802
   223.0000      0.0000    790.2641      7.2907     41.8582
   223.2500      0.0000    791.3485      7.3173     46.9559
   223.5000      0.0000    791.5321      7.3544     51.0834
   223.7500      0.0000    791.2734      7.3648     53.1643
   224.0000      0.0000    790.9854      7.3209     53.7412
   224.2500      0.0000    790.8831      7.2191     54.4792
   224.5000      0.0000    791.0286      7.0842     57.0554
   224.7500      0.0000    791.3754      6.9558     62.0556
   225.0000      0.0000    791.8044      6.8656     68.3632
   225.2500      0.0000    792.1966      6.8225     73.7349
   225.5000      0.0000    792.5281      6.8141     76.3592
   225.7500      0.0000    792.8829      6.8204     75.7839
   226.0000      0.0000    793.3490      6.8262     72.4262
   226.2500      0.0000    793.8959      6.8277     66.9508
   226.5000      0.0000    794.3708      6.8284     60.5095
   226.7500      0.0000    794.6172      6.8291     54.8383
   227.0000      0.0000    794.5885      6.8192     51.3823
   227.2500      0.0000    794.3561      6.7834     50.3669
   227.5000      0.0000    794.0421      6.7201     50.8719
   227.7500      0.0000    793.7638      6.6516     51.6600
   228.0000      0.0000    793.6070      6.6157     51.8739
   228.2500      0.0000    793.6016      6.6462     51.2358
   228.5000      0.0000    793.7090      6.7566     50.0182
   228.7500      0.0000    793.8500      6.9355     48.9474
   229.0000      0.0000    793.9594      7.1532     48.8720
   229.2500      0.0000    794.0182      7.3743     50.1908
   229.5000      0.0000    794.0339      7.5679     52.4890
   229.7500      0.0000    794.0045      7.7131     54.7935
   230.0000      0.0000    793.8720      7.8031     56.2639
   230.2500      0.0000    793.4413      7.8444     56.7234
   230.5000      0.0000    792.2333      7.8474     56.5698
   230.7500      0.0000    789.4976      7.8079     56.2533
   231.0000      0.0000    784.7961      7.6914     55.9345
   231.2500      0.0000    779.2525      7.4410     55.6005
   231.5000      0.0000    776.4329      7.0269     55.3017
   231.7500      0.0000    781.1163      6.5001     55.2178
   232.0000      0.0000    795.7870      5.9809     55.5316
   232.2500      0.0000    817.7970      5.5758     56.1908
   232.5000      0.0000    840.5905      5.3091     56.7222
   232.7500      0.0000    858.2281      5.1357     56.4144
   233.0000      0.0000    868.7180      5.0024     54.9027
   233.2500     -2.5928    873.5439      4.8906     52.6121
   233.5000     -3.0000    875.1098      4.8143     50.4785
   233.7500     -2.7328    874.7968      4.7971     49.1748
   234.0000      0.0000    872.3130      4.8682     48.8062
   234.2500      0.0000    865.8896      5.0862     49.3046
   234.5000      0.0000    853.3939      5.5283     50.7188
   234.7500      0.0000    834.4813      6.2020     52.9868
   235.0000      0.0000    812.2497      6.9703     55.7960
   235.2500      0.0000    792.1900      7.6172     58.8970
   235.5000      0.0000    778.9542      8.0031     62.1275
   235.7500      0.0000    774.4936      8.1338     64.8513
   236.0000      0.0000    779.0920      8.0960     65.9474
   236.2500      0.0000    792.4249      7.9739     64.8798
   236.5000      0.0000    812.3611      7.8233     62.4132
   236.7500      0.0000    833.7635      7.6855     59.8597
   237.0000      0.0000    850.0447      7.5929     57.8695
   237.2500      0.0000    856.2443      7.5625     56.2911
   237.5000      0.0000    850.9771      7.5905     55.0093
   237.7500      0.0000    837.0426      7.6568     54.3930
   238.0000      0.0000    820.9788      7.7379     54.7389
   238.2500      0.0000    809.9858      7.8208     55.6249
   238.5000      0.0000    806.5438      7.9067     56.2386
   238.7500      0.0000    806.0018      8.0003     56.2796
   239.0000      0.0000    801.2138      8.0941     56.1936
   239.2500      0.0000    789.7418      8.1636     56.4585
   239.5000      0.0000    775.4242      8.1806     56.9806
   239.7500      0.0000    763.5793      8.1298     57.3366
   240.0000      0.0000    756.4777      8.0175     57.3277
   240.2500      0.0000    753.2068      7.8709     57.1281
   240.5000      0.0000    751.9150      7.7257     57.0309
   240.7500      0.0000    751.3360      7.6077     57.1742
   241.0000      0.0000    750.9596      7.5243     57.4986
   241.2500      0.0000    750.6665      7.4724     57.8691
   241.5000      0.0000    750.4253      7.4506     58.1749
   241.7500      0.0000    750.2003      7.4609     58.4298
   242.0000      0.0000    749.9865      7.5037     58.7959
   242.2500      0.0000    749.8339      7.5763     59.3029
   242.5000      0.0000    749.8172      7.6753     59.5939
   242.7500      0.0000    749.9778      7.7983     59.3034
   243.0000      0.0000    750.2857      7.9408     58.6737
   243.2500      0.0000    750.6420      8.0931     58.3655
   243.5000      0.0000    750.9306      8.2392     58.6022
   243.7500      0.0000    751.1044      8.3639     58.9006
   244.0000      0.0000    751.3391      8.4618     58.6811
   244.2500      0.0000    752.2931      8.5393     57.7259
   244.5000      0.0000    755.3748      8.6067     55.9647
   244.7500      0.0000    762.4861      8.6680     53.3131
   245.0000      0.0000    774.4282      8.7203     50.0609
   245.2500      0.0000    788.5222      8.7614     47.1720
   245.5000      0.0000    798.4650      8.7932     45.8183
   245.7500      0.0000    798.5656      8.8160     46.5287
   246.0000      0.0000    788.8528      8.8219     48.8130
   246.2500      0.0000    775.0281      8.7972     51.5448
   246.5000      0.0000    763.3213      8.7315     53.6772
   246.7500      0.0000    756.3164      8.6250     54.7899
   247.0000      0.0000    753.1918      8.4919     55.1846
   247.2500      0.0000    752.1312      8.3562     55.5000
   247.5000      0.0000    751.8599      8.2417     56.1053
   247.7500      0.0000    751.8070      8.1578     56.6957
   248.0000      0.0000    751.7800      8.0979     56.4368
   248.2500      0.0000    751.7177      8.0512     54.7494
   248.5000      0.0000    751.6061      8.0135     52.1086
   248.7500      0.0000    751.4631      7.9865     49.8158
   249.0000      0.0000    751.3120      7.9727     48.8462
   249.2500      0.0000    751.1606      7.9724     49.1412
   249.5000      0.0000    751.0167      7.9835     50.0045
   249.7500      0.0000    750.9907      8.0021     50.7819
   250.0000      0.0000    751.5137      8.0251     51.1269
   250.2500      0.0000    753.5774      8.0502     50.9975
   250.5000      0.0000    758.6263      8.0735     50.6578
   250.7500      0.0000    767.4591      8.0898     50.6819
   251.0000      0.0000    778.4308      8.1032     51.7215
   251.2500      0.0000    787.1426      8.1328     53.9248
