~Version Information
VERS.                      2.0: CWLS Log ASCII Standard - VERSION 2.0
WRAP.                       NO: One line per depth step
~Well Information Block
STRT.FT               546.2500: 
STOP.FT              2496.7500: 
STEP.FT                 0.2500: 
NULL.                -999.2500: 
COMP.          Petrogulf Corporation: COMPANY
WELL.               Egan 9-11V: WELL
FLD.           Purgatorie River: FIELD
LOC.           724' FNL & 1379' FWL: LOCATION
PROV.                 Colorado: PROVINCE
CNTY.               Las Animas: COUNTRY
SRVC.          Patterson Wireline: SERVICE COMPANY
DATE.          Fri Jul 11 23:32:41 2003: LOG DATE
UWI.           05 071 07875 00: UNIQUE WELL ID
~Curve Information Block
DEPT.FT            0 000 00 00: Depth
SP.mV                         : DIL Spontaneous Potential
RILD.Ohm-m                    : DIL Deep Resistivity
RILM.Ohm-m                    : DIL Medium Resistivity
RLL3.Ohm-m                    : DIL Shallow Resistivity
GR.GAPI                       : Gamma Ray
~Parameter Information Block
~A  Depth        SP         RILD        RILM        RLL3         GR     
# ...
  1974.2500    -76.2831     18.7380     21.0155     28.9059     86.2006
  1974.5000    -76.3798     18.7499     21.3914     31.0877     72.2980
  1974.7500    -76.5213     18.7868     21.8404     32.1748     63.6795
  1975.0000    -76.6844     18.8775     22.3468     32.2840     54.3072
  1975.2500    -76.8232     19.0448     22.8968     31.7414     50.5808
  1975.5000    -76.8907     19.3027     23.4797     30.9788     47.6082
  1975.7500    -76.8596     19.6547     24.0884     30.3769     46.5744
  1976.0000    -76.7315     20.0919     24.7198     30.0894     45.6208
  1976.2500    -76.5334     20.5915     25.3734     30.0014     45.2775
  1976.5000    -76.3072     21.1195     26.0501     29.9041     45.3595
  1976.7500    -76.0975     21.6393     26.7505     29.7568     45.8137
  1977.0000    -75.9400     22.1217     27.4731     29.8292     46.5744
  1977.2500    -75.8498     22.5492     28.2132     30.6107     46.6078
  1977.5000    -75.8147     22.9140     28.9614     32.5111     45.1836
  1977.7500    -75.8000     23.2148     29.7039     35.4807     43.1659
  1978.0000    -75.7649     23.4564     30.4227     38.7971     39.1564
  1978.2500    -75.6840     23.6495     31.0968     41.3034     36.4562
  1978.5000    -75.5588     23.8073     31.7049     42.0833     33.3507
  1978.7500    -75.4133     23.9413     32.2277     41.0700     32.2259
  1979.0000    -75.2770     24.0610     32.6508     39.0236     31.9310
  1979.2500    -75.1703     24.1758     32.9669     36.9302     32.3577
  1979.5000    -75.1003     24.2960     33.1769     35.4312     33.2411
  1979.7500    -75.0674     24.4275     33.2895     34.7213     33.7791
  1980.0000    -75.0728     24.5665     33.3205     34.7615     34.7574
  1980.2500    -75.1227     24.6992     33.2900     35.4033     35.8419
  1980.5000    -75.2273     24.8124     33.2200     36.2849     38.2911
  1980.7500    -75.3989     24.9038     33.1317     36.7669     40.2531
  1981.0000    -75.6453     24.9825     33.0432     36.2212     43.3493
  1981.2500    -75.9627     25.0586     32.9664     34.5666     45.6510
  1981.5000    -76.3293     25.1308     32.9055     32.5296     49.9436
  1981.7500    -76.7072     25.1810     32.8552     31.3197     53.2590
  1982.0000    -77.0527     25.1808     32.7992     31.9897     57.7027
  1982.2500    -77.3325     25.1034     32.7106     34.9157     59.4467
  1982.5000    -77.5390     24.9352     32.5532     39.5136     59.6256
  1982.7500    -77.6921     24.6770     32.2855     44.2201     58.5063
  1983.0000    -77.8245     24.3374     31.8669     47.0127     56.4573
  1983.2500    -77.9612     23.9238     31.2650     46.5213     55.7247
  1983.5000    -78.1086     23.4407     30.4636     42.9980     56.2931
  1983.7500    -78.2579     22.8923     29.4670     38.1718     57.6100
  1984.0000    -78.3941     22.2860     28.3009     33.9683     60.3278
  1984.2500    -78.5037     21.6311     27.0082     31.2264     62.5759
  1984.5000    -78.5786     20.9376     25.6420     29.4785     67.3305
  1984.7500    -78.6181     20.2164     24.2568     27.7448     71.9042
  1985.0000    -78.6293     19.4800     22.9023     25.4384     80.8633
  1985.2500    -78.6258     18.7432     21.6182     22.6535     87.7082
  1985.5000    -78.6259     18.0222     20.4333     19.8568     98.1797
  1985.7500    -78.6512     17.3332     19.3652     17.4809    104.8858
  1986.0000    -78.7202     16.6913     18.4220     15.7521    114.1794
  1986.2500    -78.8384     16.1081     17.6045     14.7020    119.5353
  1986.5000    -78.9922     15.5892     16.9083     14.2088    125.0958
  1986.7500    -79.1558     15.1328     16.3250     14.0592    126.3549
  1987.0000    -79.3048     14.7304     15.8437     14.0657    124.2261
  1987.2500    -79.4254     14.3709     15.4524     14.1834    120.7672
  1987.5000    -79.5132     14.0450     15.1380     14.5116    114.1832
  1987.7500    -79.5697     13.7491     14.8872     15.1616    109.6177
  1988.0000    -79.6007     13.4851     14.6869     16.0981    103.2586
  1988.2500    -79.6173     13.2579     14.5244     17.0919     99.6126
  1988.5000    -79.6355     13.0705     14.3883     17.8231     95.3077
  1988.7500    -79.6703     12.9219     14.2684     18.0539     93.3285
  1989.0000    -79.7287     12.8072     14.1559     17.7513     92.0646
  1989.2500    -79.8082     12.7190     14.0442     17.0851     92.6478
  1989.5000    -79.9018     12.6492     13.9284     16.3139     95.8264
  1989.7500    -80.0029     12.5898     13.8053     15.6436     99.2260
  1990.0000    -80.1074     12.5323     13.6734     15.1571    105.5690
  1990.2500    -80.2106     12.4675     13.5321     14.8386    110.3631
  1990.5000    -80.3034     12.3879     13.3824     14.6352    117.8829
  1990.7500    -80.3668     12.2891     13.2257     14.4974    122.4543
  1991.0000    -80.3736     12.1716     13.0642     14.3881    127.3484
  1991.2500    -80.2976     12.0395     12.9005     14.2763    129.0863
  1991.5000    -80.1305     11.8990     12.7377     14.1350    130.1677
  1991.7500    -79.8910     11.7567     12.5791     13.9496    130.4640
  1992.0000    -79.6193     11.6179     12.4283     13.7343    130.8992
  1992.2500    -79.3583     11.4873     12.2885     13.5332    131.3707
  1992.5000    -79.1342     11.3690     12.1631     13.3935    132.3921
  1992.7500    -78.9449     11.2678     12.0550     13.3257    133.0126
  1993.0000    -78.7633     11.1887     11.9667     13.2990    133.0080
  1993.2500    -78.5494     11.1358     11.9002     13.2795    132.0077
  1993.5000    -78.2655     11.1107     11.8567     13.2694    129.1041
  1993.7500    -77.8873     11.1110     11.8370     13.2983    126.6419
  1994.0000    -77.4096     11.1320     11.8410     13.3810    122.8199
  1994.2500    -76.8475     11.1687     11.8679     13.4971    120.3164
  1994.5000    -76.2367     11.2173     11.9158     13.6141    116.7058
  1994.7500    -75.6287     11.2749     11.9821     13.7256    114.5978
  1995.0000    -75.0778     11.3373     12.0628     13.8710    112.2705
  1995.2500    -74.6203     11.3982     12.1535     14.1268    111.1587
  1995.5000    -74.2600     11.4503     12.2484     14.5713    109.3845
  1995.7500    -73.9638     11.4883     12.3418     15.2289    107.8232
  1996.0000    -73.6758     11.5100     12.4275     16.0163    105.2305
  1996.2500    -73.3416     11.5166     12.5003     16.7282    103.8259
  1996.5000    -72.9319     11.5117     12.5558     17.1021    102.9917
  1996.7500    -72.4478     11.4991     12.5911     16.9548    103.5842
  1997.0000    -71.9096     11.4819     12.6051     16.3119    106.2318
  1997.2500    -71.3420     11.4612     12.5981     15.4224    108.7079
  1997.5000    -70.7698     11.4347     12.5716     14.6309    111.9963
  1997.7500    -70.2206     11.3981     12.5280     14.1990    113.1089
  1998.0000    -69.7271     11.3457     12.4701     14.1928    112.7865
  1998.2500    -69.3245     11.2743     12.4009     14.4826    111.6680
  1998.5000    -69.0426     11.1859     12.3232     14.8378    109.8293
  1998.7500    -68.8969     11.0884     12.2401     15.0564    108.9768
  1999.0000    -68.8808     10.9935     12.1553     15.0512    108.2999
  1999.2500    -68.9604     10.9123     12.0727     14.8515    108.0683
  1999.5000    -69.0793     10.8523     11.9973     14.5529    108.0947
  1999.7500    -69.1738     10.8172     11.9347     14.2617    108.6014
  2000.0000    -69.1954     10.8093     11.8911     14.0537    110.3257
  2000.2500    -69.1265     10.8316     11.8734     13.9543    111.9628
  2000.5000    -68.9823     10.8882     11.8889     13.9495    114.5554
  2000.7500    -68.7998     10.9835     11.9453     14.0135    116.0551
  2001.0000    -68.6199     11.1221     12.0504     14.1229    117.7750
  2001.2500    -68.4720     11.3082     12.2124     14.2560    118.6986
  2001.5000    -68.3641     11.5456     12.4397     14.4044    120.1018
  2001.7500    -68.2825     11.8356     12.7408     14.5967    121.0703
  2002.0000    -68.2011     12.1752     13.1242     14.9154    122.0566
