~Version Information
 VERS.                                  2.0 : CWLS LAS VERSION
 WRAP.                                   NO : WRAPING MODE
 SWARE .                 MController 2.5.0N : SOFTWARE VERSION
~Well Information
 WELL.                                  N/A : WELL
 COMP.                                  N/A : COMPANY
 FLD.                                   N/A : FIELD
 LOC.                                   N/A : LOCATION
 DATE.                                  N/A : DATE(S) LOGGED
 SRVC.                                  N/A : SERVICE COMPANY
 STAT.                                  N/A : STATE
 CNTY.                                  N/A : COUNTY
 CTRY.                                  N/A : COUNTRY
 API.                                   N/A : API NUMBER
 STRT.FT                               0.00 : START DEPTH
 STOP.FT                            2050.00 : STOP DEPTH
 STEP.FT                               1.00 : DEPTH INCREMENT
 NULL.                                -9999 : NULL VALUE
~Curve information
 DEPTH.FT                                   :
 ROP.MIN/FT                                 :
 GAS.UNITS                                  :
~ASCII Log data
# ...
      1800.0         4.08        109.8 
      1801.0         0.63         55.3 
      1802.0         0.40         43.9 
      1803.0         0.32         40.1 
      1804.0         0.33         39.5 
      1805.0         0.30         39.1 
      1806.0         0.23         38.7 
      1807.0         0.30         37.4 
      1808.0         0.37         35.4 
      1809.0         0.53         32.8 
      1810.0         0.30         30.8 
      1811.0         0.37         30.1 
      1812.0         0.48         29.0 
      1813.0         0.50         28.0 
      1814.0         0.33         26.9 
      1815.0         0.30         26.8 
      1816.0         0.30         26.5 
      1817.0         0.40         26.1 
      1818.0         0.37         25.8 
      1819.0         0.33         26.2 
      1820.0         0.33         26.0 
      1821.0         0.20         25.9 
      1822.0         0.32         24.9 
      1823.0         0.27         24.6 
      1824.0         0.23         24.2 
      1825.0         0.30         24.0 
      1826.0         0.30         24.1 
      1827.0         0.53         24.5 
      1828.0         0.57         22.8 
      1829.0         0.33         19.4 
      1830.0         2.42        112.5 
      1831.0         0.43        110.0 
      1832.0         0.37         90.0 
      1833.0         0.27         71.9 
      1834.0         0.20         59.7 
      1835.0         0.23         52.1 
      1836.0         0.28         45.3 
      1837.0         0.30         39.6 
      1838.0         0.40         35.9 
      1839.0         0.40         33.1 
      1840.0         0.40         30.9 
      1841.0         0.27         26.6 
      1842.0         0.33         24.7 
      1843.0         0.30         23.6 
      1844.0         0.23         23.8 
      1845.0         0.23         23.8 
      1846.0         0.27         23.1 
      1847.0         0.28         22.4 
      1848.0         0.27         21.2 
      1849.0         0.30         20.7 
      1850.0         0.37         21.2 
      1851.0         0.33         20.9 
      1852.0         0.30         21.4 
      1853.0         0.23         21.6 
      1854.0         0.13         21.6 
      1855.0         0.23         21.3 
      1856.0         0.23         20.8 
      1857.0         0.30         19.5 
      1858.0         0.27         18.3 
      1859.0         0.28         15.6 
      1860.0         3.35         86.2 
      1861.0         0.27         67.8 
      1862.0         0.27         62.7 
      1863.0         0.33         57.2 
      1864.0         0.23         50.9 
      1865.0         0.33         46.8 
      1866.0         0.33         41.1 
      1867.0         0.47         35.5 
      1868.0         0.43         32.8 
      1869.0         0.37         28.9 
      1870.0         0.22         26.9 
      1871.0         0.23         25.1 
      1872.0         0.27         23.6 
      1873.0         0.30         22.6 
      1874.0         0.23         20.5 
      1875.0         0.27         20.3 
      1876.0         0.23         19.5 
      1877.0         0.27         19.2 
      1878.0         0.27         19.4 
      1879.0         0.27         19.5 
      1880.0         0.27         19.4 
      1881.0         0.23         19.6 
      1882.0         0.23         19.7 
      1883.0         0.20         19.8 
      1884.0         0.22         19.8 
      1885.0         0.20         20.1 
      1886.0         0.23         19.7 
      1887.0         0.23         18.3 
      1888.0         0.20         17.7 
      1889.0         0.17         16.3 
      1890.0         4.05         91.0 
      1891.0         0.37         55.1 
      1892.0         0.23         44.0 
      1893.0         0.30         37.8 
      1894.0         0.23         33.1 
      1895.0         0.27         29.9 
      1896.0         0.32         28.2 
      1897.0         0.30         26.5 
      1898.0         0.23         24.5 
      1899.0         0.23         22.9 
      1900.0         0.27         21.5 
      1901.0         0.23         20.4 
      1902.0         0.23         20.3 
      1903.0         0.13         20.2 
      1904.0         0.13         19.8 
      1905.0         0.10         20.2 
      1906.0         0.23         19.9 
      1907.0         0.23         19.9 
      1908.0         0.20         19.5 
      1909.0         0.17         19.2 
      1910.0         0.17         19.2 
      1911.0         0.17         19.4 
      1912.0         0.22         22.7 
      1913.0         0.17         23.1 
      1914.0         0.13         23.2 
      1915.0         0.13         22.0 
      1916.0         0.13         21.6 
      1917.0         0.17         19.8 
      1918.0         0.13         19.7 
      1919.0         0.17         19.0 
      1920.0         0.30         17.7 
      1921.0         0.33         20.3 
      1922.0         2.62         93.5 
      1923.0         0.37         56.0 
      1924.0         0.37         45.8 
      1925.0         0.30         37.5 
      1926.0         0.30         32.5 
      1927.0         0.37         28.8 
      1928.0         0.50         25.9 
      1929.0         0.38         25.4 
      1930.0         0.23         25.1 
      1931.0         0.23         24.8 
      1932.0         0.27         24.2 
      1933.0         0.37         22.3 
      1934.0         0.27         21.1 
      1935.0         0.27         19.8 
      1936.0         0.27         19.1 
      1937.0         0.37         18.7 
      1938.0         0.33         17.3 
      1939.0         0.30         16.3 
      1940.0         0.35         16.7 
      1941.0         0.30         16.4 
      1942.0         0.33         15.8 
      1943.0         0.33         15.8 
      1944.0         0.23         15.1 
      1945.0         0.27         14.9 
      1946.0         0.33         14.9 
      1947.0         0.30         14.5 
      1948.0         0.33         14.0 
      1949.0         0.27         14.1 
      1950.0         0.33         13.5 
      1951.0         0.25         11.1 
      1952.0         3.75         84.3 
      1953.0         0.33         56.1 
      1954.0         0.33         47.6 
      1955.0         0.33         39.0 
      1956.0         0.37         32.2 
      1957.0         0.43         25.3 
      1958.0         0.37         21.1 
      1959.0         0.37         19.3 
      1960.0         0.48         18.7 
      1961.0         0.37         16.6 
      1962.0         0.33         15.5 
      1963.0         0.33         14.7 
      1964.0         0.33         14.4 
      1965.0         0.33         13.5 
      1966.0         0.37         13.3 
      1967.0         0.33         13.1 
      1968.0         0.37         12.7 
      1969.0         0.38         12.0 
      1970.0         0.37         11.9 
      1971.0         0.43         10.9 
      1972.0         0.33         10.7 
      1973.0         0.33         10.1 
      1974.0         0.33         10.0 
      1975.0         0.33         10.2 
      1976.0         0.30          9.5 
      1977.0         0.33         10.0 
      1978.0         0.30         10.1 
      1979.0         0.38          9.8 
      1980.0         0.37          9.3 
      1981.0         0.33          8.2 
      1982.0         3.55         75.5 
      1983.0         0.47         64.5 
      1984.0         0.37         47.1 
      1985.0         0.43         36.2 
      1986.0         0.47         26.7 
      1987.0         0.37         21.5 
      1988.0         0.38         18.9 
      1989.0         0.30         17.1 
      1990.0         0.23         16.0 
      1991.0         0.20         15.6 
      1992.0         0.23         15.4 
      1993.0         0.23         14.6 
      1994.0         0.23         14.9 
      1995.0         0.23         15.0 
      1996.0         0.30         14.5 
      1997.0         0.30         14.0 
      1998.0         0.30         13.8 
      1999.0         0.27         12.8 
