~Version Information
 VERS.                                  2.0 : CWLS LAS VERSION
 WRAP.                                   NO : WRAPING MODE
 SWARE .                 MController 2.5.0N : SOFTWARE VERSION
~Well Information
 WELL.                         State 16-41V : WELL
 COMP.                Petrogulf Corporation : COMPANY
 FLD.                      Purgatoire River : FIELD
 LOC.                NE/NE Sec 16 T33S R67W : LOCATION
 DATE.                             08/01/05 : DATE(S) LOGGED
 SRVC.       BLANCO Geological Services LLC : SERVICE COMPANY
 STAT.                                   CO : STATE
 CNTY.                           Las Animas : COUNTY
 CTRY.                                  USA : COUNTRY
 API.                       05-071-08344-00 : API NUMBER
 STRT.FT                             582.00 : START DEPTH
 STOP.FT                            2275.00 : STOP DEPTH
 STEP.FT                               1.00 : DEPTH INCREMENT
 NULL.                                -9999 : NULL VALUE
~Curve information
 DEPTH.FT                                   :
 ROP.MIN/FT                                 :
 GAS.UNITS                                  :
~ASCII Log data
# ...
      1382.0         0.27         14.3 
      1383.0         0.27         13.7 
      1384.0         0.27         13.7 
      1385.0         0.30         14.9 
      1386.0         0.20         15.0 
      1387.0         0.17         15.9 
      1388.0         0.17         15.9 
      1389.0         0.13         16.0 
      1390.0         0.17         16.1 
      1391.0         0.22         16.1 
      1392.0         0.27         15.0 
      1393.0         0.27         13.5 
      1394.0         0.27         11.3 
      1395.0         0.30         12.3 
      1396.0         0.27         14.0 
      1397.0         0.20         13.1 
      1398.0         0.23         11.9 
      1399.0         0.23          9.4 
      1400.0         0.37          8.8 
      1401.0         0.23         10.9 
      1402.0         0.23         15.4 
      1403.0         0.22         20.9 
      1404.0         0.23         27.5 
      1405.0         0.43         37.5 
      1406.0         1.43         40.0 
      1407.0         0.33         29.6 
      1408.0         0.33         24.7 
      1409.0         0.32         19.8 
      1410.0         0.30         16.8 
      1411.0         0.17         15.5 
      1412.0         0.30         14.5 
      1413.0         0.33         14.3 
      1414.0         0.33         13.9 
      1415.0         0.27         13.8 
      1416.0         0.20         13.6 
      1417.0         0.20         13.2 
      1418.0         0.20         13.0 
      1419.0         0.20         12.6 
      1420.0         0.20         12.3 
      1421.0         0.27         12.3 
      1422.0         0.25         12.0 
      1423.0         0.27         11.9 
      1424.0         0.27         12.1 
      1425.0         0.37         14.7 
      1426.0         0.27         14.7 
      1427.0         0.23         13.0 
      1428.0         0.20          9.6 
      1429.0         0.20          7.6 
      1430.0         0.27          6.5 
      1431.0         0.20          7.0 
      1432.0         0.23          9.5 
      1433.0         0.20         13.4 
      1434.0         0.28         22.4 
      1435.0         0.23         31.4 
      1436.0         2.17         58.4 
      1437.0         0.33         31.7 
      1438.0         0.23         25.2 
      1439.0         0.28         21.2 
      1440.0         0.23         17.7 
      1441.0         0.30         16.0 
      1442.0         0.37         15.5 
      1443.0         0.37         15.1 
      1444.0         0.27         14.6 
      1445.0         0.30         13.9 
      1446.0         0.30         12.7 
      1447.0         0.23         12.1 
      1448.0         0.27         11.8 
      1449.0         0.27         11.1 
      1450.0         0.25         11.9 
      1451.0         0.23         13.7 
      1452.0         0.23         16.6 
      1453.0         0.20         17.8 
      1454.0         0.20         17.7 
      1455.0         0.20         16.0 
      1456.0         0.20         12.1 
      1457.0         0.20         10.2 
      1458.0         0.20          8.3 
      1459.0         0.20          8.0 
      1460.0         0.17          8.8 
      1461.0         0.33         12.9 
      1462.0         0.17         17.3 
      1463.0         0.17         23.6 
      1464.0         0.20         31.6 
      1465.0         0.42         47.1 
      1466.0         1.47         52.8 
      1467.0         0.33         31.1 
      1468.0         0.33         24.9 
      1469.0         0.27         20.1 
      1470.0         0.35         17.8 
      1471.0         0.17         16.0 
      1472.0         0.27         15.2 
      1473.0         0.30         14.5 
      1474.0         0.33         13.4 
      1475.0         0.27         12.5 
      1476.0         0.27         12.1 
      1477.0         0.23         11.7 
      1478.0         0.23         11.6 
      1479.0         0.23         11.6 
      1480.0         0.23         11.8 
      1481.0         0.23         11.5 
      1482.0         0.23         11.9 
      1483.0         0.22         14.2 
      1484.0         0.20         14.5 
      1485.0         0.20         13.6 
      1486.0         0.20         12.6 
      1487.0         0.20         10.3 
      1488.0         0.23          8.5 
      1489.0         0.23          7.7 
      1490.0         0.10          7.9 
      1491.0         0.17          9.4 
      1492.0         0.17         11.6 
      1493.0         0.20         15.5 
      1494.0         0.27         22.9 
      1495.0         0.23         32.6 
      1496.0         2.12         71.8 
      1497.0         0.53         42.6 
      1498.0         0.37         28.2 
      1499.0         0.33         22.5 
      1500.0         0.33         19.0 
      1501.0         0.35         17.8 
      1502.0         0.27         16.3 
      1503.0         0.23         15.7 
      1504.0         0.23         15.0 
      1505.0         0.20         14.3 
      1506.0         0.20         14.3 
      1507.0         0.20         14.0 
      1508.0         0.17         13.4 
      1509.0         0.20         13.6 
      1510.0         0.23         14.2 
      1511.0         0.27         14.2 
      1512.0         0.23         14.3 
      1513.0         0.20         15.0 
      1514.0         0.23         15.4 
      1515.0         0.20         14.7 
      1516.0         0.22         13.6 
      1517.0         0.10         11.4 
      1518.0         0.13         10.1 
      1519.0         0.17          9.4 
      1520.0         0.17          9.1 
      1521.0         0.17          8.8 
      1522.0         0.17          9.6 
      1523.0         0.17         11.7 
      1524.0         0.20         15.3 
      1525.0         0.23         21.8 
      1526.0         1.63         65.1 
      1527.0         0.18         63.2 
      1528.0         0.20         60.4 
      1529.0         0.30         55.4 
      1530.0         0.30         46.8 
      1531.0         0.33         37.8 
      1532.0         0.23         30.9 
      1533.0         0.43         27.7 
      1534.0         0.37         24.3 
      1535.0         0.33         21.2 
      1536.0         0.23         19.3 
      1537.0         0.28         18.5 
      1538.0         0.30         17.3 
      1539.0         0.27         16.2 
      1540.0         0.30         15.9 
      1541.0         0.23         15.7 
      1542.0         0.23         16.0 
      1543.0         0.20         17.5 
      1544.0         0.20         19.8 
      1545.0         0.23         21.8 
      1546.0         0.20         21.0 
      1547.0         0.20         18.7 
      1548.0         0.20         14.7 
      1549.0         0.17         12.2 
      1550.0         0.20         10.6 
      1551.0         0.18          9.5 
      1552.0         0.17          9.7 
      1553.0         0.20         11.6 
      1554.0         0.17         13.9 
      1555.0         0.27         20.7 
      1556.0         2.00         60.5 
      1557.0         0.33         49.2 
      1558.0         0.32         41.0 
      1559.0         0.30         34.3 
      1560.0         0.30         27.8 
      1561.0         0.30         24.6 
      1562.0         0.27         21.2 
      1563.0         0.27         19.4 
      1564.0         0.27         18.3 
      1565.0         0.40         17.9 
      1566.0         0.30         17.3 
      1567.0         0.30         17.0 
      1568.0         0.23         16.2 
      1569.0         0.25         16.3 
      1570.0         0.27         15.9 
      1571.0         0.20         15.7 
      1572.0         0.20         14.9 
      1573.0         0.23         15.0 
      1574.0         0.20         15.7 
      1575.0         0.20         17.6 
      1576.0         0.20         19.4 
      1577.0         0.17         19.2 
      1578.0         0.23         17.4 
      1579.0         0.20         13.0 
      1580.0         0.23         10.5 
      1581.0         0.20          8.8 
