~Version Information
VERS.                      2.0: CWLS Log ASCII Standard - VERSION 2.0
WRAP.                       NO: One line per depth step
~Well Information Block
STRT.FT               362.0000: 
STOP.FT               983.0000: 
STEP.FT                 0.1000: 
NULL.                -999.2500: 
COMP.          Pioneer Natural Resources: COMPANY
WELL.             Tomcat 32-10: WELL
FLD.           Purgatoire River: FIELD
LOC.           2286' FNL & 2463' FEL: LOCATION
PROV.                 Colorado: PROVINCE
CNTY.               Las Animas: COUNTRY
SRVC.                Patterson: SERVICE COMPANY
DATE.          Tue Mar 22 11:24:45 2005: LOG DATE
UWI.           05 071 08301 00: UNIQUE WELL ID
~Curve Information Block
DEPT.FT            0 000 00 00: Depth
DCAL.in                       : CDL Caliper
RHOB.g/cc                     : CDL Bulk Density
RHOC.g/cc                     : CDL Density Correction
DPOR.pu                       : CDL Density Porosity
GR.GAPI                       : Gamma Ray
NPOR.pu                       : Neutron Porosity
~Parameter Information Block
~A  Depth       DCAL        RHOB        RHOC        DPOR         GR         NPOR    
# ...
   438.8000      8.3057      2.4727     -0.0179     10.7443    176.2264     25.4070
   438.9000      8.3057      2.4600     -0.0123     11.5145    182.9259     25.8697
   439.0000      8.3276      2.4664     -0.0011     11.1300    185.0685     26.0842
   439.1000      8.3276      2.4853      0.0429      9.9801    180.5280     26.2251
   439.2000      8.3276      2.5078      0.0285      8.6207    178.1853     26.5707
   439.3000      8.3178      2.5333      0.0469      7.0735    184.2643     26.8623
   439.4000      8.3178      2.5495      0.1235      6.0912    187.2404     27.0326
   439.5000      8.3562      2.5454      0.0619      6.3411    177.7819     27.2481
   439.6000      8.3562      2.5377      0.0586      6.8073    165.8199     27.4706
   439.7000      8.3562      2.5451      0.0537      6.3587    158.2146     27.5447
   439.8000      8.4022      2.5546      0.1172      5.7794    150.3854     27.3016
   439.9000      8.4022      2.5419      0.0869      6.5540    142.4625     26.8601
   440.0000      8.2497      2.5139      0.0283      8.2501    133.4132     26.5657
   440.1000      8.2497      2.4921      0.0399      9.5725    121.1117     26.3203
   440.2000      8.2497      2.4824     -0.0436     10.1582    121.0039     25.6756
   440.3000      8.1472      2.4814      0.0297     10.2202    113.7094     24.7729
   440.4000      8.1472      2.4794      0.0198     10.3399    106.4154     24.2105
   440.5000      8.1078      2.4704      0.0120     10.8841     96.4305     24.0922
   440.6000      8.1078      2.4491      0.0372     12.1746     86.9077     24.0246
   440.7000      8.1078      2.4151      0.0112     14.2362     83.4479     23.8058
   440.8000      8.0245      2.3939     -0.0727     15.5193     87.8510     23.7155
   440.9000      8.0245      2.4064     -0.0366     14.7639     93.6489     23.7114
   441.0000      8.0269      2.4318      0.0300     13.2221     94.9923     23.4190
   441.1000      8.0269      2.4481      0.0179     12.2344     93.1581     22.9965
   441.2000      8.0269      2.4527      0.0526     11.9548     88.4350     22.8013
   441.3000      8.0106      2.4421      0.0415     12.5998     83.0158     22.7886
   441.4000      8.0106      2.4271     -0.0091     13.5094     80.3574     22.5556
   441.5000      8.0011      2.4274      0.0196     13.4895     80.0447     21.9916
   441.6000      8.0011      2.4356      0.0318     12.9937     79.6453     21.7036
   441.7000      8.0011      2.4375      0.0246     12.8804     78.1787     21.9278
   441.8000      8.0018      2.4442     -0.0002     12.4707     76.7912     22.2493
   441.9000      8.0018      2.4595      0.0262     11.5455     74.8116     22.5276
   442.0000      7.9987      2.4590      0.0290     11.5787     73.2853     22.7123
   442.1000      7.9987      2.4337      0.0205     13.1107     75.1967     22.5315
   442.2000      7.9987      2.4030      0.0160     14.9680     80.5207     22.0443
   442.3000      8.0074      2.3842     -0.0401     16.1092     84.5324     21.5396
   442.4000      8.0074      2.3774      0.0441     16.5222     83.5032     21.0486
   442.5000      8.0063      2.3730      0.0520     16.7884     77.7768     20.4354
   442.6000      8.0063      2.3706      0.0628     16.9331     70.7497     19.8932
   442.7000      8.0063      2.3779      0.0475     16.4911     65.5251     19.6924
   442.8000      7.9998      2.3884      0.0932     15.8535     62.9696     19.7163
   442.9000      7.9998      2.3798      0.1008     16.3782     63.2907     19.6787
   443.0000      8.0471      2.3516      0.0253     18.0822     64.7788     19.6136
   443.1000      8.0471      2.3273     -0.0044     19.5549     65.2828     19.5274
   443.2000      8.0471      2.3183      0.0449     20.1035     66.3326     19.3284
   443.3000      8.0310      2.3162      0.0482     20.2331     69.6916     19.4103
   443.4000      8.0310      2.3144      0.0072     20.3372     71.6109     19.9543
   443.5000      8.0426      2.3272     -0.0260     19.5652     69.6713     20.4048
   443.6000      8.0426      2.3638      0.0419     17.3442     65.7333     20.4091
   443.7000      8.0426      2.4052      0.0985     14.8380     61.2323     20.3135
   443.8000      8.0599      2.4358      0.0644     12.9819     59.6490     20.4197
   443.9000      8.0599      2.4550      0.1441     11.8161     65.5167     20.5810
   444.0000      8.0258      2.4620      0.1346     11.3937     74.4050     20.7067
   444.1000      8.0258      2.4696      0.1139     10.9362     77.6910     20.9127
   444.2000      8.0258      2.4826      0.1486     10.1467     76.7393     21.1521
   444.3000      7.9966      2.4831      0.1554     10.1145     77.4112     21.2066
   444.4000      7.9966      2.4707      0.0670     10.8688     78.6624     21.0795
   444.5000      8.0041      2.4645      0.0850     11.2396     78.1904     21.0601
   444.6000      8.0041      2.4702      0.0608     10.8972     77.6051     21.2377
   444.7000      8.0041      2.4817      0.0526     10.2001     79.2711     21.3087
   444.8000      8.0307      2.4938      0.0528      9.4674     81.7920     21.1775
   444.9000      8.0307      2.5015      0.0662      8.9988     81.6982     21.0596
   445.0000      8.0587      2.5012      0.0394      9.0208     77.7324     20.8812
   445.1000      8.0587      2.4913      0.0464      9.6199     70.8097     20.6531
   445.2000      8.0587      2.4694      0.0427     10.9470     64.5576     20.5192
   445.3000      8.0593      2.4381     -0.0421     12.8407     61.3088     20.3093
   445.4000      8.0593      2.4081     -0.0229     14.6634     57.2172     19.9464
   445.5000      8.1061      2.3867     -0.0305     15.9566     51.3577     19.6372
   445.6000      8.1061      2.3782     -0.0411     16.4738     50.2252     19.5915
   445.7000      8.1061      2.3892     -0.0358     15.8037     56.9996     19.8068
   445.8000      8.1194      2.4179      0.0357     14.0696     68.0123     20.2017
   445.9000      8.1194      2.4462      0.0186     12.3519     74.5155     20.6756
   446.0000      8.1027      2.4637      0.0512     11.2888     70.8061     20.8833
   446.1000      8.1027      2.4690      0.1123     10.9725     64.4983     20.6395
   446.2000      8.1027      2.4623      0.0580     11.3760     62.5620     20.3139
   446.3000      8.0485      2.4482      0.0518     12.2292     60.6585     20.2428
   446.4000      8.0485      2.4244      0.0364     13.6734     57.8945     20.2615
   446.5000      8.0390      2.3952     -0.0401     15.4411     57.8076     20.1190
   446.6000      8.0390      2.3877      0.0011     15.8983     59.2288     19.8340
   446.7000      8.0390      2.4168     -0.0266     14.1316     59.8377     19.5529
   446.8000      8.0536      2.4608      0.0580     11.4652     58.0973     19.4915
   446.9000      8.0536      2.4820      0.1039     10.1801     54.6315     19.8472
   447.0000      8.0480      2.4672      0.0531     11.0776     54.3727     20.3442
   447.1000      8.0480      2.4383      0.0457     12.8325     57.9124     20.4889
   447.2000      8.0480      2.4188      0.0466     14.0135     57.8536     20.1779
   447.3000      8.0506      2.4118      0.0312     14.4380     52.3430     19.6320
   447.4000      8.0506      2.4066      0.0052     14.7525     48.4876     19.2063
   447.5000      8.0205      2.3948      0.0018     15.4696     49.5010     19.0086
   447.6000      8.0205      2.3812      0.0554     16.2903     53.5396     18.8938
   447.7000      8.0205      2.3771      0.0336     16.5391     59.5172     18.9145
   447.8000      8.0102      2.3824      0.0781     16.2191     63.9650     19.0276
   447.9000      8.0102      2.3860      0.0396     16.0012     63.2058     19.0877
   448.0000      7.9999      2.3835      0.0991     16.1523     59.0828     19.2146
   448.1000      7.9999      2.3799      0.0331     16.3707     54.0576     19.3156
   448.2000      7.9999      2.3850      0.0642     16.0591     50.5097     19.0392
   448.3000      7.9790      2.3974      0.0808     15.3069     51.8643     18.5790
