~Version Information
VERS.                      2.0: CWLS Log ASCII Standard - VERSION 2.0
WRAP.                       NO: One line per depth step
~Well Information Block
STRT.FT               953.8000: 
STOP.FT              2226.0000: 
STEP.FT                 0.1000: 
NULL.                -999.2500: 
COMP.          Petrogulf Corporation: COMPANY
WELL.             Burson 8-13R: WELL
FLD.           Purgatorie River: FIELD
LOC.           1045' FNL & 2189' FEL: LOCATION
CNTY.               Las Animas: COUNTY
SRVC.                         : SERVICE COMPANY
DATE.          Fri Apr 30 07:30:36 2004: LOG DATE
UWI.           05 071 08039 00: UNIQUE WELL ID
STAT.                 Colorado: STATE
~Curve Information Block
DEPT.FT            0 000 00 00: Depth
DCAL.in                       : CDL Caliper
RHOB.g/cc                     : CDL Bulk Density
RHOC.g/cc                     : CDL Density Correction
DPOR.pu                       : CDL Density Porosity
NPOR.pu                       : Neutron Porosity
GR.GAPI                       : Gamma Ray
~Parameter Information Block
~A  Depth       DCAL        RHOB        RHOC        DPOR        NPOR         GR     
# ...
  1453.0000      7.9388      2.5719      0.0862      4.7347     25.3423    131.8797
  1453.1000      7.9388      2.5647      0.0245      5.1675     25.0472    128.3803
  1453.2000      7.9388      2.5474      0.0431      6.2177     24.3541    124.3332
  1453.3000      7.9456      2.5325     -0.0069      7.1233     23.4458    122.1095
  1453.4000      7.9456      2.5382     -0.0244      6.7779     22.8508    120.6676
  1453.5000      7.9433      2.5643      0.0724      5.1950     22.5750    115.0830
  1453.6000      7.9433      2.5898      0.0571      3.6456     22.4404    108.4117
  1453.7000      7.9433      2.6027      0.0870      2.8663     22.5987    109.7451
  1453.8000      7.9389      2.6018      0.0556      2.9233     22.9453    116.4714
  1453.9000      7.9389      2.5893      0.0674      3.6808     23.2363    119.3011
  1454.0000      7.9504      2.5687      0.0471      4.9270     23.5081    118.8318
  1454.1000      7.9504      2.5522      0.0053      5.9264     23.6708    119.0733
  1454.2000      7.9504      2.5509      0.0226      6.0072     23.5158    120.3752
  1454.3000      7.9475      2.5541      0.0398      5.8106     23.2940    122.3212
  1454.4000      7.9475      2.5456      0.0234      6.3288     23.0713    123.6626
  1454.5000      7.9404      2.5327     -0.0090      7.1063     22.7937    123.3710
  1454.6000      7.9404      2.5367      0.0119      6.8679     22.7531    121.8885
  1454.7000      7.9404      2.5617      0.0261      5.3535     22.7508    119.5820
  1454.8000      7.9314      2.5914      0.0714      3.5526     22.4774    115.0251
  1454.9000      7.9314      2.6075      0.0700      2.5785     22.1724    108.8139
  1455.0000      7.9187      2.6110      0.0880      2.3650     22.0662    105.1951
  1455.1000      7.9187      2.6100      0.0594      2.4244     22.1464    106.4271
  1455.2000      7.9187      2.6013      0.0742      2.9527     22.5732    113.1860
  1455.3000      7.9290      2.5885      0.0470      3.7268     23.1468    121.5612
  1455.4000      7.9290      2.5913      0.0409      3.5596     23.2695    123.5657
  1455.5000      7.9308      2.6078      0.1028      2.5606     23.1499    116.9259
  1455.6000      7.9308      2.6169      0.0673      2.0079     23.3070    109.2929
  1455.7000      7.9308      2.6232      0.0489      1.6223     23.4974    107.7490
  1455.8000      7.9319      2.6315      0.1107      1.1200     23.4221    110.2626
  1455.9000      7.9319      2.6257      0.0747      1.4710     23.1944    111.9276
  1456.0000      7.9300      2.6140      0.0413      2.1791     22.9179    110.0355
  1456.1000      7.9300      2.6149      0.0628      2.1249     22.7063    106.8661
  1456.2000      7.9300      2.6173      0.0704      1.9826     22.5224    105.1659
  1456.3000      7.9284      2.6076      0.0754      2.5722     22.1272    103.1640
  1456.4000      7.9284      2.5941      0.0406      3.3884     21.8577     98.3167
  1456.5000      7.9239      2.5908      0.0581      3.5861     22.0666     91.8189
  1456.6000      7.9239      2.6025      0.0494      2.8760     22.2467     89.7607
  1456.7000      7.9239      2.6243      0.0723      1.5593     22.1213     95.3292
  1456.8000      7.9337      2.6421      0.0819      0.4780     21.7598    100.3726
  1456.9000      7.9337      2.6435      0.0767      0.3932     21.2671     96.2012
  1457.0000      7.9365      2.6301      0.0500      1.2084     20.8626     86.7698
  1457.1000      7.9365      2.6151      0.0527      2.1154     20.7394     80.9701
  1457.2000      7.9365      2.6115      0.0350      2.3313     21.0741     82.3229
  1457.3000      7.9285      2.6158      0.0684      2.0736     21.4507     89.4940
  1457.4000      7.9285      2.6153      0.0498      2.1042     21.6615     98.3619
  1457.5000      7.9277      2.6119      0.0516      2.3075     22.3153    103.9043
  1457.6000      7.9277      2.6113      0.0793      2.3471     23.1604    105.2912
  1457.7000      7.9277      2.6115      0.0604      2.3305     23.2770    106.4689
  1457.8000      7.9299      2.6124      0.0558      2.2809     22.7217    112.4510
  1457.9000      7.9299      2.6071      0.0752      2.6013     22.2961    124.9670
  1458.0000      7.9325      2.5948      0.0176      3.3446     22.4377    137.9085
  1458.1000      7.9325      2.5935      0.0367      3.4256     23.0335    147.7673
  1458.2000      7.9325      2.6040      0.1013      2.7857     23.7144    155.8591
  1458.3000      7.9308      2.6039      0.0836      2.7948     23.9859    159.1145
  1458.4000      7.9308      2.5901      0.0284      3.6310     23.6549    156.3591
  1458.5000      7.9302      2.5820      0.0210      4.1211     23.0215    151.5092
  1458.6000      7.9302      2.5885      0.0558      3.7284     22.4250    147.8875
  1458.7000      7.9302      2.6039      0.0438      2.7919     22.2279    144.1410
  1458.8000      7.9323      2.6237      0.0685      1.5922     22.5024    138.9400
  1458.9000      7.9323      2.6410      0.1167      0.5429     22.7853    138.5675
  1459.0000      7.9341      2.6398      0.1355      0.6209     22.9289    145.6412
  1459.1000      7.9341      2.6167      0.0526      2.0205     23.1801    149.5851
  1459.2000      7.9341      2.5886      0.0621      3.7216     23.4535    139.3327
  1459.3000      7.9315      2.5705      0.0567      4.8193     23.6246    121.2520
  1459.4000      7.9315      2.5821      0.0143      4.1142     23.6639    111.7429
  1459.5000      7.9290      2.6337      0.0709      0.9878     23.6508    113.4112
  1459.6000      7.9290      2.6976      0.1199     -2.8877     24.0271    116.0312
  1459.7000      7.9290      2.7447      0.1303     -5.7424     24.5867    112.6921
  1459.8000      7.9313      2.7723      0.1383     -7.4110     24.4531    106.8737
  1459.9000      7.9313      2.7809      0.1502     -7.9322     23.8351    104.1995
  1460.0000      7.9277      2.7610      0.1414     -6.7265     23.6523    102.5529
  1460.1000      7.9277      2.7181      0.0500     -4.1295     23.8390     99.8856
  1460.2000      7.9277      2.6790      0.0306     -1.7572     23.7746     98.8097
  1460.3000      7.9308      2.6570     -0.0096     -0.4255     23.3666     97.6448
  1460.4000      7.9308      2.6466     -0.0178      0.2031     22.7351     95.4727
  1460.5000      7.9301      2.6465     -0.0586      0.2139     22.0849     95.5309
  1460.6000      7.9301      2.6525      0.0438     -0.1529     21.5207     94.7155
  1460.7000      7.9301      2.6457      0.0381      0.2579     21.2481     89.2491
  1460.8000      7.9305      2.6231      0.0145      1.6283     21.4071     86.3662
  1460.9000      7.9305      2.5999      0.0254      3.0385     21.3115     89.5699
  1461.0000      7.9306      2.5820      0.0648      4.1206     20.5031     91.1270
  1461.1000      7.9306      2.5683      0.0431      4.9539     19.4515     85.8340
  1461.2000      7.9306      2.5651      0.0586      5.1452     18.7948     76.8724
  1461.3000      7.9351      2.5740      0.0852      4.6052     18.8226     71.1998
  1461.4000      7.9351      2.5836      0.0866      4.0222     19.0357     73.8918
  1461.5000      7.9315      2.5909      0.0745      3.5797     18.5437     81.2611
  1461.6000      7.9315      2.6005      0.0547      2.9996     17.7134     83.2240
  1461.7000      7.9315      2.6114      0.0354      2.3422     17.8516     77.8277
  1461.8000      7.9319      2.6211      0.0103      1.7533     19.0885     72.5695
  1461.9000      7.9319      2.6264      0.0762      1.4327     20.2352     70.9625
  1462.0000      7.9301      2.6207      0.0772      1.7767     20.5533     70.5105
  1462.1000      7.9301      2.6005      0.0632      2.9983     20.2223     69.6384
  1462.2000      7.9301      2.5717      0.0395      4.7452     19.8527     70.4926
  1462.3000      7.9301      2.5461      0.0320      6.2993     20.1261     75.7018
  1462.4000      7.9301      2.5290      0.0117      7.3319     20.8782     81.2971
  1462.5000      7.9322      2.5219      0.0004      7.7652     21.3316     79.8253
