~Version Information
VERS.                      2.0: CWLS Log ASCII Standard - VERSION 2.0
WRAP.                       NO: One line per depth step
~Well Information Block
STRT.FT               245.0000: 
STOP.FT              1919.7000: 
STEP.FT                 0.1000: 
NULL.                -999.2500: 
COMP.          Pioneer Natural Resources: COMPANY
WELL.          Oink Oink 14-36 Tr: WELL
FLD.           Purgatoire River: FIELD
LOC.           236' FSL & 164' FWL--: LOCATION
PROV.                 Colorado: PROVINCE
CNTY.               Las Animas: COUNTRY
SRVC.                Patterson: SERVICE COMPANY
DATE.          Fri Jun 10 08:23:18 2005: LOG DATE
UWI.           05 071 08393 00: UNIQUE WELL ID
~Curve Information Block
DEPT.FT            0 000 00 00: Depth
DCAL.in                       : CDL Caliper
RHOB.g/cc                     : CDL Bulk Density
RHOC.g/cc                     : CDL Density Correction
DPOR.pu                       : CDL Density Porosity
NPOR.pu                       : Neutron Porosity
GR.GAPI                       : Gamma Ray
~Parameter Information Block
~A  Depth       DCAL        RHOB        RHOC        DPOR        NPOR         GR     
# ...
  1013.0000      8.0145      2.5505      0.0454      6.0290     17.2325     89.9181
  1013.1000      8.0145      2.5310      0.0019      7.2150     16.8160     95.8391
  1013.2000      8.0145      2.5364      0.0294      6.8877     16.5514     95.8401
  1013.3000      8.0114      2.5573      0.0640      5.6178     16.4209     89.8906
  1013.4000      8.0114      2.5852      0.0611      3.9301     16.1920     83.9251
  1013.5000      8.0106      2.6178      0.0866      1.9522     15.5034     82.6867
  1013.6000      8.0106      2.6463      0.1285      0.2260     14.5929     85.8127
  1013.7000      8.0106      2.6644      0.1071     -0.8726     14.1107     89.9975
  1013.8000      8.0116      2.6714      0.1497     -1.2945     14.4894     91.8976
  1013.9000      8.0116      2.6645      0.1161     -0.8758     15.7295     90.8717
  1014.0000      8.0123      2.6491      0.0723      0.0524     17.0759     89.1490
  1014.1000      8.0123      2.6324      0.0870      1.0650     17.6329     88.7986
  1014.2000      8.0123      2.6181      0.0437      1.9329     17.1630     88.9753
  1014.3000      8.0137      2.6141      0.0608      2.1781     16.2868     87.4060
  1014.4000      8.0137      2.6168      0.0705      2.0149     15.6822     83.7974
  1014.5000      8.0149      2.6171      0.0571      1.9944     15.4482     81.9413
  1014.6000      8.0149      2.6167      0.0511      2.0206     15.7821     86.0526
  1014.7000      8.0149      2.6198      0.0481      1.8294     16.9439     92.2419
  1014.8000      8.0151      2.6289      0.0278      1.2761     18.5647     92.9742
  1014.9000      8.0151      2.6375      0.1055      0.7560     19.7754     89.0188
  1015.0000      8.0148      2.6403      0.0529      0.5880     20.5241     87.3730
  1015.1000      8.0148      2.6459      0.0907      0.2481     21.2759     91.4604
  1015.2000      8.0148      2.6552      0.0693     -0.3124     21.8317     96.5611
  1015.3000      8.0149      2.6591      0.0615     -0.5491     21.7041     99.4061
  1015.4000      8.0149      2.6496      0.0551      0.0253     21.0410    101.7435
  1015.5000      8.0150      2.6278      0.0119      1.3484     20.8067    103.6861
  1015.6000      8.0150      2.6097      0.0048      2.4450     21.2465    104.3333
  1015.7000      8.0150      2.6061      0.0082      2.6611     21.5699    103.6451
  1015.8000      8.0143      2.6066      0.0588      2.6329     21.5941    103.0843
  1015.9000      8.0143      2.6013      0.0186      2.9538     21.6418    102.2305
  1016.0000      8.0134      2.5969      0.0661      3.2166     21.6312    101.9280
  1016.1000      8.0134      2.5960      0.0597      3.2724     21.4835    106.8237
  1016.2000      8.0134      2.5937      0.0946      3.4097     21.1008    113.4559
  1016.3000      8.0127      2.5890      0.0671      3.6963     20.6296    116.2366
  1016.4000      8.0127      2.5839      0.0579      4.0040     20.5569    116.1484
  1016.5000      8.0181      2.5823      0.0453      4.1011     20.7935    113.5164
  1016.6000      8.0181      2.5888      0.0846      3.7081     20.8964    110.4667
  1016.7000      8.0181      2.6026      0.0722      2.8699     20.9040    109.9290
  1016.8000      8.0337      2.6173      0.0720      1.9797     21.5772    110.4170
  1016.9000      8.0337      2.6250      0.0624      1.5163     23.2356    108.6887
  1017.0000      8.0525      2.6166      0.0841      2.0260     24.6709    107.4232
  1017.1000      8.0525      2.5878      0.0383      3.7712     25.0907    112.1748
  1017.2000      8.0525      2.5413      0.0221      6.5851     25.6165    122.6547
  1017.3000      8.0643      2.4830     -0.0082     10.1229     26.8365    132.4319
  1017.4000      8.0643      2.4266     -0.0358     13.5401     27.8670    134.9723
  1017.5000      8.0678      2.3826     -0.0282     16.2046     28.2827    131.6705
  1017.6000      8.0678      2.3439     -0.0096     18.5545     28.4120    131.1440
  1017.7000      8.0678      2.3064     -0.0223     20.8223     28.4090    134.6119
  1017.8000      8.0687      2.2836     -0.0219     22.2089     28.3907    136.1521
  1017.9000      8.0687      2.2797      0.0185     22.4443     28.3771    134.9519
  1018.0000      8.0792      2.2726      0.0885     22.8704     28.0283    134.1774
  1018.1000      8.0792      2.2440      0.0862     24.6048     27.3641    135.7829
  1018.2000      8.0792      2.2071      0.0957     26.8407     27.1718    138.7855
  1018.3000      8.0995      2.1823      0.1014     28.3479     27.5903    139.7736
  1018.4000      8.0995      2.1739      0.1224     28.8559     27.7900    137.0470
  1018.5000      8.1128      2.1754      0.0761     28.7612     27.6606    132.0087
  1018.6000      8.1128      2.1766      0.0817     28.6887     27.6208    124.9849
  1018.7000      8.1128      2.1715      0.0343     29.0017     27.6290    118.5688
  1018.8000      8.1155      2.1684      0.0325     29.1896     27.6713    116.4299
  1018.9000      8.1155      2.1793      0.0778     28.5292     27.8987    117.3591
  1019.0000      8.1157      2.2080      0.1183     26.7872     27.9157    117.0141
  1019.1000      8.1157      2.2537      0.1506     24.0171     27.4314    113.3614
  1019.2000      8.1157      2.3089      0.1590     20.6702     27.5393    110.4692
  1019.3000      8.1167      2.3579      0.1809     17.7051     28.9604    110.6722
  1019.4000      8.1167      2.3872      0.1385     15.9273     30.9513    109.2840
  1019.5000      8.1187      2.3919      0.1378     15.6401     32.2297    105.1487
  1019.6000      8.1187      2.3745      0.0604     16.6999     32.2368    103.0131
  1019.7000      8.1187      2.3546      0.0334     17.9030     31.6476    106.3757
  1019.8000      8.1198      2.3571      0.0636     17.7530     31.2293    112.2706
  1019.9000      8.1198      2.3817      0.1057     16.2632     30.9307    115.6749
  1020.0000      8.1192      2.4057      0.1215     14.8047     30.3102    119.2633
  1020.1000      8.1192      2.4148      0.0986     14.2565     29.2392    124.2187
  1020.2000      8.1192      2.4141      0.0759     14.2940     28.4093    127.9767
  1020.3000      8.1183      2.4144      0.0426     14.2810     28.6660    133.2235
  1020.4000      8.1183      2.4220      0.0447     13.8199     29.6221    140.5952
  1020.5000      8.1186      2.4356      0.0881     12.9932     30.3020    141.8583
  1020.6000      8.1186      2.4437      0.1043     12.5040     30.2148    131.9677
  1020.7000      8.1186      2.4373      0.1134     12.8883     29.3323    119.5030
  1020.8000      8.1196      2.4227      0.0520     13.7775     28.1093    117.9700
  1020.9000      8.1196      2.4147      0.0546     14.2581     27.3564    125.9522
  1021.0000      8.1182      2.4226      0.0552     13.7840     27.4655    131.1967
  1021.1000      8.1182      2.4415      0.0739     12.6381     27.9023    132.3668
  1021.2000      8.1182      2.4595      0.1067     11.5449     27.8788    134.4966
  1021.3000      8.1154      2.4777      0.0895     10.4445     27.2499    134.8930
  1021.4000      8.1154      2.5066      0.1133      8.6890     26.5834    131.0476
  1021.5000      8.1145      2.5394      0.1096      6.7036     26.5230    130.8568
  1021.6000      8.1145      2.5588      0.1193      5.5275     26.8391    140.8315
  1021.7000      8.1145      2.5685      0.0794      4.9393     26.8288    147.5918
  1021.8000      8.1164      2.5828      0.1153      4.0706     26.4837    139.2640
  1021.9000      8.1164      2.5933      0.1165      3.4336     26.5710    129.2083
  1022.0000      8.1201      2.5856      0.0725      3.9055     27.2734    129.7576
  1022.1000      8.1201      2.5627      0.0369      5.2920     27.8178    134.5645
  1022.2000      8.1201      2.5315      0.0325      7.1816     28.0057    136.9691
  1022.3000      8.1211      2.4943      0.0199      9.4365     28.5806    137.0349
  1022.4000      8.1211      2.4427      0.0285     12.5634     29.7645    136.8537
  1022.5000      8.1205      2.3657     -0.0326     17.2324     30.9115    136.5726
