~Version Information
VERS.                      2.0: CWLS Log ASCII Standard - VERSION 2.0
WRAP.                       NO: One line per depth step
~Well Information Block
STRT.FT               480.1000: 
STOP.FT              2029.0000: 
STEP.FT                 0.1000: 
NULL.                -999.2500: 
COMP.          Petrogulf Corporation: COMPANY
WELL.            Montoya 7-12R: WELL
FLD.           Purgatorie River: FIELD
LOC.           1769' FNL & 658' FWL: LOCATION
CNTY.               Las Animas: COUNTY
SRVC.                         : SERVICE COMPANY
DATE.          Mon Nov 22 07:21:54 2004: LOG DATE
UWI.           05 071 08240 00: UNIQUE WELL ID
STAT.                 Colorado: STATE
~Curve Information Block
DEPT.FT            0 000 00 00: Depth
DCAL.in                       : CDL Caliper
RHOB.g/cc                     : CDL Bulk Density
RHOC.g/cc                     : CDL Density Correction
DPOR.pu                       : CDL Density Porosity
GR.GAPI                       : Gamma Ray
NPOR.pu                       : Neutron Porosity
~Parameter Information Block
~A  Depth       DCAL        RHOB        RHOC        DPOR         GR         NPOR    
# ...
  1708.9000      7.9994      2.5698      0.0087      4.8613    122.0637     29.9667
  1709.0000      7.9710      2.5769      0.0381      4.4300    127.3609     29.7655
  1709.1000      7.9710      2.5790      0.0065      4.3020    127.8037     29.4082
  1709.2000      7.9710      2.5775     -0.0020      4.3958    122.2699     29.0742
  1709.3000      8.0010      2.5847      0.0135      3.9589    116.4510     28.6722
  1709.4000      8.0010      2.5937      0.0409      3.4095    112.1803     28.2725
  1709.5000      8.0150      2.5934      0.0602      3.4277    108.3113     28.2005
  1709.6000      8.0150      2.5853      0.0307      3.9215    105.7699     28.2335
  1709.7000      8.0150      2.5766      0.0241      4.4515    106.2146     27.9888
  1709.8000      7.9650      2.5750      0.0403      4.5427    111.3885     27.6792
  1709.9000      7.9650      2.5831      0.0433      4.0524    119.5139     27.6265
  1710.0000      7.9664      2.5926      0.0724      3.4783    126.6658     28.2384
  1710.1000      7.9664      2.5935      0.0616      3.4240    130.6320     29.6236
  1710.2000      7.9664      2.5792      0.0658      4.2898    130.9794     30.9637
  1710.3000      7.9910      2.5506      0.0599      6.0264    128.9132     31.1516
  1710.4000      7.9910      2.5231      0.0162      7.6935    127.3110     30.6846
  1710.5000      7.9921      2.5127      0.0349      8.3220    128.1108     30.9174
  1710.6000      7.9921      2.5177      0.0390      8.0183    128.0345     31.3107
  1710.7000      7.9921      2.5275      0.0429      7.4237    122.5789     31.0549
  1710.8000      8.0208      2.5406     -0.0134      6.6294    115.3885     30.9231
  1710.9000      8.0208      2.5580      0.0302      5.5775    115.8181     31.3436
  1711.0000      8.0729      2.5632      0.0448      5.2617    124.9253     31.7682
  1711.1000      8.0729      2.5459      0.0194      6.3088    130.7458     31.7675
  1711.2000      8.0729      2.5250      0.0173      7.5742    126.1613     31.5994
  1711.3000      8.0803      2.5205      0.0554      7.8459    119.2827     31.5669
  1711.4000      8.0803      2.5311      0.0031      7.2043    117.3387     31.3684
  1711.5000      8.0888      2.5414      0.0543      6.5820    118.4327     31.2838
  1711.6000      8.0888      2.5376      0.0189      6.8098    119.6207     31.9437
  1711.7000      8.0888      2.5303      0.0056      7.2575    121.7184     32.9880
  1711.8000      8.0317      2.5340      0.0502      7.0288    126.5992     33.5684
  1711.9000      8.0317      2.5405      0.1055      6.6385    131.6429     33.1911
  1712.0000      8.0084      2.5340      0.0755      7.0282    132.1508     32.1875
  1712.1000      8.0084      2.5124      0.0701      8.3374    128.4626     31.4904
  1712.2000      8.0084      2.4863      0.0397      9.9224    123.7054     31.4877
  1712.3000      8.0165      2.4778      0.0197     10.4368    119.5601     31.9484
  1712.4000      8.0165      2.4999      0.0343      9.0998    117.6909     32.6666
  1712.5000      7.9973      2.5320      0.0682      7.1530    117.1051     32.9516
  1712.6000      7.9973      2.5416      0.0637      6.5702    112.5470     32.2932
  1712.7000      7.9973      2.5207      0.0282      7.8355    104.6043     31.8589
  1712.8000      7.9828      2.4894     -0.0108      9.7335    100.9813     32.2049
  1712.9000      7.9828      2.4700      0.0032     10.9071    105.2093     32.1091
  1713.0000      7.9774      2.4707     -0.0245     10.8644    112.1302     31.4336
  1713.1000      7.9774      2.4909     -0.0141      9.6453    114.7318     31.1711
  1713.2000      7.9774      2.5232      0.0555      7.6843    112.0859     31.5141
  1713.3000      7.9710      2.5565      0.0337      5.6687    107.5405     31.9226
  1713.4000      7.9710      2.5845      0.0917      3.9719    101.7695     32.0012
  1713.5000      7.9696      2.6048      0.0860      2.7412     95.7787     31.7249
  1713.6000      7.9696      2.6193      0.0944      1.8622     92.9782     31.3284
  1713.7000      7.9696      2.6301      0.1335      1.2038     94.3803     31.3003
  1713.8000      7.9499      2.6366      0.1091      0.8091     98.7474     31.7981
  1713.9000      7.9499      2.6388      0.1207      0.6815    103.0273     32.2719
  1714.0000      7.9394      2.6334      0.1037      1.0086    104.0573     32.1064
  1714.1000      7.9394      2.6191      0.0795      1.8699    102.1505     30.8635
  1714.2000      7.9394      2.5952      0.0849      3.3232    102.0425     29.2232
  1714.3000      7.9379      2.5608      0.0445      5.4078    106.0511     28.8022
  1714.4000      7.9379      2.5352     -0.0183      6.9556    109.9060     29.5182
  1714.5000      7.9513      2.5356      0.0217      6.9328    108.7980     30.0212
  1714.6000      7.9513      2.5400      0.0201      6.6641    103.8404     30.4371
  1714.7000      7.9513      2.5263     -0.0067      7.4986    100.3425     31.3373
  1714.8000      7.9749      2.5114     -0.0111      8.4006     99.9097     32.0208
  1714.9000      7.9749      2.5071      0.0078      8.6633    100.4271     31.7950
  1715.0000      8.0023      2.4949      0.0084      9.3991    103.0415     30.9700
  1715.1000      8.0023      2.4776     -0.0386     10.4496    106.7333     30.5400
  1715.2000      8.0023      2.4804      0.0038     10.2762    107.4892     31.1348
  1715.3000      8.0167      2.4973      0.0400      9.2517    108.3513     32.2722
  1715.4000      8.0167      2.5008      0.0208      9.0452    111.7529     33.0311
  1715.5000      8.0547      2.4847     -0.0197     10.0189    112.1276     32.9804
  1715.6000      8.0547      2.4557      0.0426     11.7769    107.5624     32.4062
  1715.7000      8.0547      2.4126     -0.0008     14.3860    104.4309     32.0191
  1715.8000      8.0241      2.3665     -0.0303     17.1838    106.6458     32.1947
  1715.9000      8.0241      2.3409     -0.0669     18.7355    111.6860     32.7981
  1716.0000      8.0336      2.3374     -0.0309     18.9478    115.4498     33.2527
  1716.1000      8.0336      2.3321      0.0070     19.2670    116.8548     33.0145
  1716.2000      8.0336      2.3188     -0.0289     20.0750    117.5769     32.6841
  1716.3000      8.0497      2.3208     -0.0552     19.9487    116.2074     32.9879
  1716.4000      8.0497      2.3538      0.0126     17.9506    112.7909     33.2199
  1716.5000      8.0702      2.4083      0.0330     14.6480    111.6610     32.7982
  1716.6000      8.0702      2.4644      0.1006     11.2475    112.5567     32.0517
  1716.7000      8.0702      2.5039      0.0595      8.8563    113.6640     31.3474
  1716.8000      8.0944      2.5204      0.0073      7.8539    116.9506     31.1018
  1716.9000      8.0944      2.5208     -0.0011      7.8325    122.8814     31.4405
  1717.0000      8.1138      2.5196     -0.0035      7.9000    128.4570     31.9962
  1717.1000      8.1138      2.5210      0.0722      7.8167    129.4921     32.5986
  1717.2000      8.1138      2.5154      0.0356      8.1594    126.5688     33.0781
  1717.3000      8.0481      2.5098      0.0002      8.4962    127.0851     33.0590
  1717.4000      8.0481      2.5170      0.0045      8.0582    132.7421     32.8841
  1717.5000      8.1033      2.5266      0.0343      7.4786    138.3206     33.0309
  1717.6000      8.1033      2.5254      0.0039      7.5535    141.7412     33.6345
  1717.7000      8.1033      2.5212      0.0445      7.8054    144.2101     34.3261
  1717.8000      8.0646      2.5198      0.0753      7.8919    143.7481     33.8499
  1717.9000      8.0646      2.5191     -0.0059      7.9342    139.4228     31.9924
  1718.0000      8.0529      2.5200      0.0677      7.8810    134.9860     30.1708
  1718.1000      8.0529      2.5167      0.0115      8.0784    131.1093     29.0552
  1718.2000      8.0529      2.5156     -0.0169      8.1431    128.2641     27.8079
  1718.3000      8.0241      2.5245      0.0083      7.6080    127.1640     26.1772
  1718.4000      8.0241      2.5315     -0.0032      7.1797    124.5922     25.2941
