~Version Information
VERS.                      2.0: CWLS Log ASCII Standard - VERSION 2.0
WRAP.                       NO: One line per depth step
~Well Information Block
STRT.FT                -7.5000: 
STOP.FT              2304.7500: 
STEP.FT                 0.2500: 
NULL.                -999.2500: 
COMP.          Pioneer Natural Resources: COMPANY
WELL.          Foothills 12-36: WELL
FLD.           Purgatorie River: FIELD
LOC.           2450' FNL & 201' FWL--: LOCATION
PROV.                       CO: PROVINCE
CNTY.               Las Animas: COUNTRY
SRVC.          Patterson Wireline: SERVICE COMPANY
DATE.          Tue Apr 26 11:10:08 2005: LOG DATE
UWI.           05 071 08339 00: UNIQUE WELL ID
~Curve Information Block
DEPT.FT            0 000 00 00: Depth
CCL.                          : Casing Collar Locator
TT3.usec                      : CBL 3' Travel Time
AMP3.mV                       : CBL 3' Amplitude
GR.GAPI                       : Gamma Ray
~Parameter Information Block
~A  Depth       CCL         TT3         AMP3         GR     
# ...
  1198.5000      0.0000    762.3096      6.4614    104.2161
  1198.7500      0.0000    760.8765      6.5229    106.8672
  1199.0000      0.0000    761.3937      6.5502    109.3138
  1199.2500      0.0000    762.9608      6.5691    111.5712
  1199.5000      0.0000    764.5106      6.6067    113.6590
  1199.7500      0.0000    765.6476      6.6717    115.3791
  1200.0000      0.0000    766.5469      6.7455    116.4275
  1200.2500      0.0000    767.6468      6.7970    116.6861
  1200.5000      0.0000    769.3947      6.8086    116.8275
  1200.7500      0.0000    771.8135      6.7864    118.5371
  1201.0000      0.0000    774.0900      6.7463    123.3255
  1201.2500      0.0000    774.8836      6.6981    130.6839
  1201.5000      0.0000    773.3915      6.6360    137.8336
  1201.7500      0.0000    769.9709      6.5395    141.6926
  1202.0000      0.0000    765.5967      6.3893    140.8435
  1202.2500      0.0000    761.1389      6.1960    135.6077
  1202.5000      0.0000    757.4246      6.0090    127.0290
  1202.7500      0.0000    755.3514      5.8872    116.4222
  1203.0000      0.0000    755.2081      5.8607    105.4455
  1203.2500      0.0000    756.0345      5.9167     95.8638
  1203.5000      0.0000    756.2393      6.0104     89.0523
  1203.7500      0.0000    755.0336      6.0888     85.6378
  1204.0000      0.0000    753.1575      6.1180     85.3532
  1204.2500      0.0000    752.1588      6.0953     87.3794
  1204.5000      0.0000    752.9290      6.0436     91.1821
  1204.7500      0.0000    754.9605      5.9981     96.8468
  1205.0000      0.0000    756.9139      5.9926    104.2725
  1205.2500      0.0000    757.5800      6.0364    112.2855
  1205.5000      0.0000    756.2654      6.0935    118.9384
  1205.7500      0.0000    752.8802      6.0954    122.6915
  1206.0000      0.0000    748.2434      5.9965    123.3505
  1206.2500      0.0000    744.1025      5.8157    122.1057
  1206.5000      0.0000    742.2154      5.6177    120.7764
  1206.7500      0.0000    743.1309      5.4670    120.7924
  1207.0000      0.0000    745.9077      5.4041    122.3386
  1207.2500      0.0000    748.9157      5.4370    124.0798
  1207.5000      0.0000    751.1591      5.5358    123.9581
  1207.7500      0.0000    753.3842      5.6502    120.7575
  1208.0000      0.0000    757.7266      5.7437    114.7975
  1208.2500      0.0000    765.6216      5.8062    106.8581
  1208.5000      0.0000    776.3068      5.8391     97.1127
  1208.7500      0.0000    787.7393      5.8420     85.9563
  1209.0000      0.0000    798.2908      5.8191     75.1545
  1209.2500      0.0000    806.9932      5.7922     66.8428
  1209.5000      0.0000    812.7924      5.7945     61.5329
  1209.7500      0.0000    814.0515      5.8423     58.1043
  1210.0000      0.0000    809.1035      5.9163     55.5884
  1210.2500      0.0000    798.2118      5.9765     53.9901
  1210.5000      0.0000    784.7762      5.9963     53.3931
  1210.7500      0.0000    773.2866      5.9791     53.2753
  1211.0000      0.0000    766.0357      5.9414     53.1413
  1211.2500      0.0000    762.3198      5.8869     53.2417
  1211.5000      0.0000    760.0637      5.7972     54.1946
  1211.7500      0.0000    757.2728      5.6466     56.1703
  1212.0000      0.0000    752.6023      5.4252     58.6988
  1212.2500      0.0000    746.1237      5.1483     61.0902
  1212.5000      0.0000    740.2291      4.8470     62.7710
  1212.7500      0.0000    738.8936      4.5556     63.2469
  1213.0000      0.0000    744.9728      4.3140     62.2144
  1213.2500      0.0000    758.1363      4.1605     60.0853
  1213.5000      0.0000    775.4909      4.1049     58.2060
  1213.7500      0.0000    793.7290      4.1115     58.2128
  1214.0000      2.0000    810.8041      4.1161     61.1200
  1214.2500      2.0000    826.1038      4.0731     66.9952
  1214.5000      0.0000    838.8054      4.0019     75.1382
  1214.7500      0.0000    846.2877      3.9978     84.3214
  1215.0000      0.0000    845.4946      4.1826     92.9866
  1215.2500      0.0000    836.1696      4.6180     99.5326
  1215.5000      0.0000    821.6920      5.2444    102.8376
  1215.7500      0.0000    806.5662      5.8993    102.9134
  1216.0000      0.0000    793.8776      6.4107    101.0824
  1216.2500      0.0000    784.8159      6.6967     99.2136
  1216.5000      0.0000    779.2665      6.7921     98.4812
  1216.7500      0.0000    776.3163      6.7895     98.8064
  1217.0000      0.0000    774.7729      6.7600     99.4265
  1217.2500      0.0000    773.6102      6.7253     99.6483
  1217.5000      0.0000    772.0673      6.6785     98.8422
  1217.7500      0.0000    769.8110      6.6084     96.2378
  1218.0000      0.0000    767.1882      6.5105     91.6841
  1218.2500      0.0000    764.9653      6.3967     86.8109
  1218.5000      0.0000    763.6213      6.2995     84.5342
  1218.7500      0.0000    762.9939      6.2553     86.6235
  1219.0000      0.0000    762.5616      6.2770     91.7407
  1219.2500      0.0000    761.8990      6.3374     96.2272
  1219.5000      0.0000    760.9625      6.3853     97.1906
  1219.7500      0.0000    760.2125      6.3865     94.9470
  1220.0000      0.0000    760.4532      6.3527     92.2783
  1220.2500      0.0000    762.1845      6.3190     91.3253
  1220.5000      0.0000    764.9665      6.2905     91.6990
  1220.7500      0.0000    767.7921      6.2256     91.7692
  1221.0000      0.0000    770.1609      6.0795     90.9760
  1221.2500      0.0000    772.2769      5.8542     90.2095
  1221.5000      0.0000    774.1608      5.5990     90.4454
  1221.7500      0.0000    775.2876      5.3773     91.7894
  1222.0000      0.0000    775.5110      5.2370     93.7827
  1222.2500      0.0000    775.8384      5.1921     96.1884
  1222.5000      0.0000    777.7507      5.2181     99.4586
  1222.7500      0.0000    781.8981      5.2719    104.6073
  1223.0000      0.0000    787.8076      5.3245    112.3241
  1223.2500      0.0000    794.6078      5.3734    121.9121
  1223.5000      0.0000    801.5613      5.4279    131.2310
  1223.7500      0.0000    807.8837      5.4868    137.8874
  1224.0000      0.0000    812.3592      5.5290    140.5584
  1224.2500      0.0000    813.2850      5.5220    139.4958
  1224.5000      0.0000    809.1807      5.4468    136.2996
  1224.7500      0.0000    800.2546      5.3268    133.2024
  1225.0000      0.0000    789.1605      5.2223    132.0533
  1225.2500      0.0000    779.7267      5.1809    133.6456
  1225.5000      0.0000    774.6809      5.1975    137.6083
  1225.7500      0.0000    774.4714      5.2431    142.5052
  1226.0000      0.0000    777.6564      5.3149    146.2046
  1226.2500      0.0000    781.9962      5.4216    146.8326
  1226.5000      0.0000    785.5120      5.5329    143.8373
  1226.7500      0.0000    787.0320      5.5919    138.4052
  1227.0000      0.0000    786.1793      5.5827    132.8521
  1227.2500      0.0000    783.2621      5.5548    129.2820
  1227.5000      0.0000    779.3534      5.5605    128.4657
  1227.7500      0.0000    775.9623      5.5907    129.7393
  1228.0000      0.0000    774.0212      5.5931    131.5096
  1228.2500      0.0000    773.1204      5.5396    131.8491
  1228.5000      0.0000    772.0476      5.4536    129.5137
  1228.7500      0.0000    770.1426      5.3824    125.0077
  1229.0000      0.0000    768.1060      5.3600    120.1891
  1229.2500      0.0000    767.5872      5.3919    116.5642
  1229.5000      0.0000    769.9037      5.4520    114.3832
  1229.7500      0.0000    774.8552      5.4946    113.3443
  1230.0000      0.0000    780.7346      5.4893    113.4939
  1230.2500      0.0000    785.4019      5.4542    115.1484
  1230.5000      0.0000    787.0201      5.4455    118.0076
  1230.7500      0.0000    784.2861      5.5022    120.6270
  1231.0000      0.0000    777.3784      5.5989    121.2922
  1231.2500      0.0000    769.1639      5.6606    119.6857
  1231.5000      0.0000    764.1804      5.6293    117.3066
  1231.7500      0.0000    765.2504      5.5094    115.9437
