~Version Information
 VERS.                      2.0: CWLS Log ASCII Standard - VERSION 2.0
 WRAP.                       NO: One line per depth step
 ~Well Information Block
 STRT.FT               762.3000: 
 STOP.FT              2573.7000: 
 STEP.FT                 0.1000: 
 NULL.                -999.2500: 
 COMP.          Petrogulf Corporation: COMPANY
 WELL.               J&P 12-33V: WELL
 FLD.           Purgatorie River: FIELD
 LOC.           2005' FSL & 1928' FEL: LOCATION
 CNTY.               Las Animas: COUNTY
 SRVC.                         : SERVICE COMPANY
 DATE.          Sat Aug 28 11:34:36 2004: LOG DATE
 UWI.           05 071 08092 00: UNIQUE WELL ID
 STAT.                 Colorado: STATE
 PROV.                         :Province
 ~Curve Information Block
 DEPT.FT            0 000 00 00: Depth
 GR.GAPI                       : Gamma Ray
 DCAL.in                       : CDL Caliper
 DPOR.pu                       : CDL Density Porosity
 NPOR.pu                       : Neutron Porosity
 RHOB.g/cc                     : CDL Bulk Density
 RHOC.g/cc                     : CDL Density Correction
 ~Parameter Information Block
 ~A  Depth        GR         DCAL        DPOR        NPOR        RHOB        RHOC    
# ...
   781.5000     82.6968   -999.2500   -999.2500     41.4970   -999.2500   -999.2500
   781.6000     85.9873   -999.2500   -999.2500     41.5889   -999.2500   -999.2500
   781.7000     88.0830   -999.2500   -999.2500     41.5513   -999.2500   -999.2500
   781.8000     87.9043   -999.2500   -999.2500     41.4427   -999.2500   -999.2500
   781.9000     87.8553   -999.2500   -999.2500     41.3394   -999.2500   -999.2500
   782.0000     87.7082   -999.2500   -999.2500     41.3198   -999.2500   -999.2500
   782.1000     83.7245   -999.2500   -999.2500     41.4544   -999.2500   -999.2500
   782.2000     76.6743   -999.2500   -999.2500     41.5693   -999.2500   -999.2500
   782.3000     72.9773   -999.2500   -999.2500     41.2806   -999.2500   -999.2500
   782.4000     74.6029   -999.2500   -999.2500     40.6340   -999.2500   -999.2500
   782.5000     78.2169   -999.2500   -999.2500     40.0859   -999.2500   -999.2500
   782.6000     79.2591   -999.2500   -999.2500     39.6815   -999.2500   -999.2500
   782.7000     73.6821   -999.2500   -999.2500     39.4081   -999.2500   -999.2500
   782.8000     65.5323   -999.2500   -999.2500     39.4595   -999.2500   -999.2500
   782.9000     61.8081   -999.2500   -999.2500     39.7924   -999.2500   -999.2500
   783.0000     62.6190   -999.2500   -999.2500     40.2647   -999.2500   -999.2500
   783.1000     64.9864   -999.2500   -999.2500     40.7005   -999.2500   -999.2500
   783.2000     65.6825   -999.2500   -999.2500     40.8902   -999.2500   -999.2500
   783.3000     64.9142   -999.2500   -999.2500     40.7463   -999.2500   -999.2500
   783.4000     65.6710   -999.2500   -999.2500     40.2415   -999.2500   -999.2500
   783.5000     66.6349   -999.2500   -999.2500     39.6190   -999.2500   -999.2500
   783.6000     66.2407   -999.2500   -999.2500     39.2266   -999.2500   -999.2500
   783.7000     67.8831   -999.2500   -999.2500     39.0009   -999.2500   -999.2500
   783.8000     71.9058   -999.2500   -999.2500     38.7396   -999.2500   -999.2500
   783.9000     74.2463   -999.2500   -999.2500     38.5656   -999.2500   -999.2500
   784.0000     73.4566   -999.2500   -999.2500     38.7760   -999.2500   -999.2500
   784.1000     72.1023   -999.2500   -999.2500     38.9422   -999.2500   -999.2500
   784.2000     71.2395   -999.2500   -999.2500     38.5939   -999.2500   -999.2500
   784.3000     71.1717   -999.2500   -999.2500     38.1704   -999.2500   -999.2500
   784.4000     73.5008   -999.2500   -999.2500     37.9549   -999.2500   -999.2500
   784.5000     79.0337   -999.2500   -999.2500     37.8936   -999.2500   -999.2500
   784.6000     84.0093   -999.2500   -999.2500     38.1582   -999.2500   -999.2500
   784.7000     86.6347   -999.2500   -999.2500     38.6371   -999.2500   -999.2500
   784.8000     88.7343   -999.2500   -999.2500     38.9538   -999.2500   -999.2500
   784.9000     89.0955   -999.2500   -999.2500     39.0761   -999.2500   -999.2500
   785.0000     87.3030   -999.2500   -999.2500     39.1763   -999.2500   -999.2500
   785.1000     86.2837   -999.2500   -999.2500     39.3725   -999.2500   -999.2500
   785.2000     85.0985   -999.2500   -999.2500     39.5833   -999.2500   -999.2500
   785.3000     82.8055   -999.2500   -999.2500     39.4082   -999.2500   -999.2500
   785.4000     83.4564   -999.2500   -999.2500     38.8440   -999.2500   -999.2500
   785.5000     85.0089   -999.2500   -999.2500     38.5283   -999.2500   -999.2500
   785.6000     80.8306   -999.2500   -999.2500     38.7318   -999.2500   -999.2500
   785.7000     76.0914   -999.2500   -999.2500     39.2050   -999.2500   -999.2500
   785.8000     79.4796   -999.2500   -999.2500     39.6876   -999.2500   -999.2500
   785.9000     87.0187   -999.2500   -999.2500     39.9322   -999.2500   -999.2500
   786.0000     91.5982   -999.2500   -999.2500     39.9603   -999.2500   -999.2500
   786.1000     94.0679   -999.2500   -999.2500     40.0687   -999.2500   -999.2500
   786.2000     97.3646   -999.2500   -999.2500     40.3016   -999.2500   -999.2500
   786.3000    102.6084   -999.2500   -999.2500     40.4204   -999.2500   -999.2500
   786.4000    108.0632   -999.2500   -999.2500     40.3389   -999.2500   -999.2500
   786.5000    107.1860   -999.2500   -999.2500     40.3139   -999.2500   -999.2500
   786.6000     97.3071   -999.2500   -999.2500     40.5660   -999.2500   -999.2500
   786.7000     87.1938   -999.2500   -999.2500     40.8903   -999.2500      0.0328
   786.8000     83.6712   -999.2500   -999.2500     40.9146   -999.2500      0.0001
   786.9000     82.5697   -999.2500   -999.2500     40.6642   -999.2500     -0.0480
   787.0000     78.0266      2.3878   -999.2500     40.4392   -999.2500     -0.1038
   787.1000     73.0477      2.3878   -999.2500     40.3131   -999.2500     -0.0584
   787.2000     70.9246      2.3878     42.9041     40.2861      1.9421      0.0317
   787.3000     66.7825      2.3918     39.6311     40.3828      1.9961      0.0944
   787.4000     59.8703      2.3918     35.4299     40.3996      2.0654      0.1546
   787.5000     58.2400      2.3992     31.1197     40.1711      2.1365      0.2155
   787.6000     64.6716      2.3992     27.1096     39.8664      2.2027      0.2819
   787.7000     71.8997      2.3992     23.4869     39.7558      2.2625      0.3185
   787.8000     71.7372      2.3999     20.6520     39.8757      2.3092      0.3620
   787.9000     65.6517      2.3999     19.6154     40.0880      2.3263      0.3983
   788.0000     63.6987      2.3975     21.0502     40.2127      2.3027      0.3565
   788.1000     67.8540      2.3975     24.5113     40.1199      2.2456      0.2979
   788.2000     71.6730      2.3975     28.5170     39.7953      2.1795      0.2219
   788.3000     72.2318      2.3941     31.2827     39.3547      2.1338      0.2061
   788.4000     71.0332      2.3941     31.8060     39.0496      2.1252      0.1930
   788.5000     70.8362      2.3973     30.2097     38.9550      2.1515      0.2332
   788.6000     72.0219      2.3973     27.2183     38.8083      2.2009      0.2316
   788.7000     72.1383      2.3973     23.5519     38.5033      2.2614      0.3015
   788.8000     70.9844      2.3974     20.0775     38.3560      2.3187      0.3287
   788.9000     70.9862      2.3974     18.0430     38.6007      2.3523      0.3763
   789.0000     73.4548      2.3946     18.4312     38.9991      2.3459      0.3445
   789.1000     76.6057      2.3946     20.9272     39.1858      2.3047      0.3081
   789.2000     77.1764      2.3946     23.9767     39.1423      2.2544      0.2409
   789.3000     74.3544      2.3957     25.9555     39.0472      2.2217      0.2287
   789.4000     69.2742      2.3957     26.2501     38.8628      2.2169      0.2059
   789.5000     65.3181      2.3963     25.0436     38.6103      2.2368      0.2214
   789.6000     66.3008      2.3963     22.7473     38.4515      2.2747      0.2606
   789.7000     69.6706      2.3963     19.8064     38.4340      2.3232      0.2564
   789.8000     70.6684      2.3955     17.3176     38.4943      2.3643      0.3592
   789.9000     68.9180      2.3955     16.8172     38.4005      2.3725      0.3354
   790.0000     67.3112      2.3922     18.4159     38.0349      2.3461      0.2887
   790.1000     68.8971      2.3922     21.1349     37.6830      2.3013      0.2759
   790.2000     73.5423      2.3922     24.0808     37.7085      2.2527      0.2296
   790.3000     76.8235      2.3900     26.3506     37.9640      2.2152      0.1905
   790.4000     76.0046      2.3900     27.5514     38.1115      2.1954      0.2125
   790.5000     74.6714      2.3928     27.7928     38.2405      2.1914      0.2012
   790.6000     77.0290      2.3928     26.8725     38.3953      2.2066      0.2304
   790.7000     81.5419      2.3928     24.8758     38.3235      2.2395      0.2602
   790.8000     85.3940      2.3940     22.7911     38.0057      2.2739      0.3058
   790.9000     85.6539      2.3940     21.5200     37.7437      2.2949      0.3042
   791.0000     82.0530      2.3944     21.1807     37.8607      2.3005      0.3347
