~Version Information
VERS.                      2.0: CWLS Log ASCII Standard - VERSION 2.0
WRAP.                       NO: One line per depth step
~Well Information Block
STRT.FT               765.6000: 
STOP.FT              2431.0000: 
STEP.FT                 0.1000: 
NULL.                -999.2500: 
COMP.          Petrogulf Corporation: COMPANY
WELL.             Norton 9-14V: WELL
FLD.           Purgatorie River: FIELD
LOC.           230' FSL & 225' FWL: LOCATION
CNTY.               Las Animas: COUNTY
SRVC.                         : SERVICE COMPANY
DATE.          Thu Oct 28 06:20:25 2004: LOG DATE
UWI.           05 071 07891 00: UNIQUE WELL ID
STAT.                 Colorado: STATE
~Curve Information Block
DEPT.FT            0 000 00 00: Depth
DCAL.in                       : CDL Caliper
RHOB.g/cc                     : CDL Bulk Density
RHOC.g/cc                     : CDL Density Correction
DPOR.pu                       : CDL Density Porosity
GR.GAPI                       : Gamma Ray
NPOR.pu                       : Neutron Porosity
~Parameter Information Block
~A  Depth       DCAL        RHOB        RHOC        DPOR         GR         NPOR    
# ...
   890.4000      8.2342      2.2643     -0.0692     23.3736    169.3586     18.6428
   890.5000      8.2342      2.2310      0.0196     25.3922    162.4650     18.2307
   890.6000      8.2342      2.2101     -0.0126     26.6602    156.6406     18.3090
   890.7000      8.2342      2.1872     -0.0503     28.0495    153.5966     18.8593
   890.8000      8.2375      2.1678     -0.0664     29.2261    148.9675     19.5735
   890.9000      8.2375      2.1677     -0.0258     29.2308    141.6757     20.5503
   891.0000      8.2382      2.1932     -0.0064     27.6842    134.1684     21.6891
   891.1000      8.2382      2.2377      0.0700     24.9899    129.7047     22.5676
   891.2000      8.2382      2.2940      0.0997     21.5740    131.1004     23.1658
   891.3000      8.2401      2.3539      0.1670     17.9433    133.8311     23.7332
   891.4000      8.2401      2.3980      0.1677     15.2714    132.1558     24.0168
   891.5000      8.2432      2.4202      0.0999     13.9248    127.6673     23.6460
   891.6000      8.2432      2.4407      0.0748     12.6854    125.5132     22.9888
   891.7000      8.2432      2.4706      0.0959     10.8750    126.1203     22.6849
   891.8000      8.2407      2.5008      0.0950      9.0425    127.1084     22.6314
   891.9000      8.2407      2.5308      0.1144      7.2265    132.0546     22.6616
   892.0000      8.2430      2.5644      0.1923      5.1895    141.4541     22.8805
   892.1000      8.2430      2.5902      0.2050      3.6271    148.2951     23.1958
   892.2000      8.2430      2.5974      0.1851      3.1868    151.1744     23.2910
   892.3000      8.2387      2.5923      0.1356      3.4990    152.5370     22.8652
   892.4000      8.2387      2.5873      0.0759      3.7979    151.5724     22.1734
   892.5000      8.2346      2.5845      0.0705      3.9705    148.8847     21.7258
   892.6000      8.2346      2.5700      0.1212      4.8498    148.4460     21.7456
   892.7000      8.2346      2.5388      0.0476      6.7372    149.4906     22.0561
   892.8000      8.2362      2.5109     -0.0146      8.4294    148.1504     22.3396
   892.9000      8.2362      2.5019      0.0432      8.9753    145.2512     22.4039
   893.0000      8.2346      2.4925      0.0865      9.5465    143.9805     22.1426
   893.1000      8.2346      2.4603      0.0101     11.4968    141.8166     21.4531
   893.2000      8.2346      2.4111      0.0220     14.4787    136.5605     20.6474
   893.3000      8.2343      2.3611     -0.0509     17.5075    132.5122     19.9654
   893.4000      8.2343      2.3222     -0.0120     19.8674    132.3898     19.1683
   893.5000      8.2341      2.2925     -0.0046     21.6637    133.6154     18.3683
   893.6000      8.2341      2.2687     -0.0001     23.1085    132.6393     18.0237
   893.7000      8.2341      2.2501      0.0151     24.2390    129.9074     18.0507
   893.8000      8.2368      2.2309      0.0134     25.3972    128.2120     18.0636
   893.9000      8.2368      2.2099     -0.0062     26.6747    129.7444     18.0204
   894.0000      8.2396      2.1899      0.0543     27.8851    134.1609     18.0179
   894.1000      8.2396      2.1619      0.1232     29.5798    136.3111     17.8961
   894.2000      8.2396      2.1141      0.0879     32.4809    133.7763     17.3220
   894.3000      8.2375      2.0533      0.0735     36.1612    132.8389     16.3237
   894.4000      8.2375      1.9974     -0.0026     39.5506    134.7834     15.5275
   894.5000      8.2440      1.9545      0.0109     42.1544    133.5215     15.4504
   894.6000      8.2440      1.9196     -0.0534     44.2636    131.6337     15.8623
   894.7000      8.2440      1.8883     -0.0258     46.1658    132.7953     16.0772
   894.8000      8.2744      1.8633     -0.0446     47.6793    131.1717     16.0428
   894.9000      8.2744      1.8579     -0.0526     48.0070    125.8089     16.3772
   895.0000      8.2558      1.8731      0.0372     47.0835    123.4024     16.8395
   895.1000      8.2558      1.8810      0.1350     46.6075    122.4478     16.4502
   895.2000      8.2558      1.8604      0.0334     47.8546    120.9737     15.2381
   895.3000      8.2733      1.8251     -0.0028     49.9948    122.8898     14.0477
   895.4000      8.2733      1.7895      0.0005     52.1533    127.9313     13.2923
   895.5000      8.2556      1.7491      0.0294     54.5998    131.9379     12.8274
   895.6000      8.2556      1.6953      0.0137     57.8585    131.0658     12.5702
   895.7000      8.2556      1.6326     -0.0376     61.6587    123.1097     12.3903
   895.8000      8.2559      1.5803     -0.0490     64.8304    109.3368     12.0040
   895.9000      8.2559      1.5436      0.0201     67.0520     95.5862     11.5216
   896.0000      8.2514      1.5103      0.0428     69.0754     87.0610     11.3074
   896.1000      8.2514      1.4822      0.0522     70.7763     84.7886     11.4037
   896.2000      8.2514      1.4721      0.0478     71.3885     84.9953     11.3033
   896.3000      8.3043      1.4735      0.1046     71.3033     84.3375     10.6349
   896.4000      8.3043      1.4720      0.0689     71.3965     83.6236      9.8002
   896.5000      8.3756      1.4693      0.1023     71.5591     83.3787      9.2088
   896.6000      8.3756      1.4661      0.1234     71.7502     81.7303      8.6263
   896.7000      8.3756      1.4567      0.1187     72.3193     78.3676      8.0228
   896.8000      8.4684      1.4465      0.0738     72.9402     75.6597      7.9465
   896.9000      8.4684      1.4467      0.0958     72.9274     73.2197      8.5370
   897.0000      8.5087      1.4683      0.0799     71.6176     70.7057      9.5909
   897.1000      8.5087      1.5277      0.0666     68.0198     71.1662     11.1693
   897.2000      8.5087      1.6340      0.1337     61.5774     74.2027     13.2425
   897.3000      8.3970      1.7739      0.2316     53.0981     77.3426     15.3472
   897.4000      8.3970      1.9207      0.2930     44.1990     79.1221     17.0832
   897.5000      8.4645      2.0537      0.3399     36.1370     81.0876     18.5101
   897.6000      8.4645      2.1700      0.3456     29.0898     86.8101     20.0431
   897.7000      8.4645      2.2791      0.3546     22.4804     95.9997     21.8176
   897.8000      8.6993      2.3853      0.2947     16.0442    103.4925     23.5576
   897.9000      8.6993      2.4741      0.3002     10.6604    106.9956     25.0983
   898.0000      8.8235      2.5247      0.2093      7.5952    111.3184     26.2797
   898.1000      8.8235      2.5408      0.0848      6.6195    120.4150     27.1057
   898.2000      8.8235      2.5460      0.0888      6.3025    131.9248     27.9557
   898.3000      8.3446      2.5564      0.0968      5.6731    140.4087     29.0217
   898.4000      8.3446      2.5776      0.0786      4.3856    140.6103     29.8739
   898.5000      8.1958      2.6032      0.1681      2.8362    134.0287     29.8716
   898.6000      8.1958      2.6150      0.1853      2.1191    128.1508     29.2921
   898.7000      8.1958      2.6089      0.1243      2.4918    127.3711     28.9462
   898.8000      8.1782      2.5990      0.1208      3.0902    129.5420     28.9491
   898.9000      8.1782      2.6011      0.1232      2.9641    130.2562     28.6967
   899.0000      8.1815      2.6221      0.1182      1.6882    129.7478     27.9160
   899.1000      8.1815      2.6532      0.1358     -0.1925    129.7072     27.4141
   899.2000      8.1815      2.6748      0.1487     -1.5045    127.1544     27.7777
   899.3000      8.1925      2.6764      0.1117     -1.6022    119.9439     28.4696
   899.4000      8.1925      2.6632      0.0819     -0.8003    111.5860     28.6988
   899.5000      8.1736      2.6430      0.0537      0.4235    108.3167     28.3734
   899.6000      8.1736      2.6340      0.0799      0.9711    110.9018     28.0191
   899.7000      8.1736      2.6577      0.0693     -0.4674    113.8011     28.1231
   899.8000      8.1602      2.7099      0.1126     -3.6312    115.1665     28.6767
   899.9000      8.1602      2.7651      0.1553     -6.9728    115.9198     29.0220
