~Version Information
 VERS.                      2.0: CWLS Log ASCII Standard - VERSION 2.0
 WRAP.                       NO: One line per depth step
 ~Well Information Block
 STRT.FT               763.7500: 
 STOP.FT              2577.0000: 
 STEP.FT                 0.2500: 
 NULL.                -999.2500: 
 COMP.          Petrogulf Corporation: COMPANY
 WELL.               J&P 12-33V: WELL
 FLD.           Purgatorie River: FIELD
 LOC.           2005' FSL & 1928' FEL: LOCATION
 CNTY.               Las Animas: COUNTY
 SRVC.                         : SERVICE COMPANY
 DATE.          Sat Aug 28 09:00:36 2004: LOG DATE
 UWI.           05 071 08092 00: UNIQUE WELL ID
 STAT.                 Colorado: STATE
 PROV.                         :Province
 ~Curve Information Block
 DEPT.FT            0 000 00 00: Depth
 SP.mV                         : DIL Spontaneous Potential
 RILD.Ohm-m                    : DIL Deep Resistivity
 RILM.Ohm-m                    : DIL Medium Resistivity
 RLL3.Ohm-m                    : DIL Shallow Resistivity
 GR.GAPI                       : Gamma Ray
 ~Parameter Information Block
 ~A  Depth        SP         RILD        RILM        RLL3         GR     
# ...
  1603.7500    -56.4416     31.0913     40.0093     56.0210     99.9753
  1604.0000    -56.1734     30.4878     39.5813     56.3935     99.0020
  1604.2500    -55.9031     29.9616     39.0151     55.8855     99.9756
  1604.5000    -55.6191     29.5267     38.3527     54.2471    103.9056
  1604.7500    -55.3107     29.1646     37.6390     51.5332    107.4852
  1605.0000    -54.9709     28.8383     36.9160     48.1309    112.6729
  1605.2500    -54.5998     28.5140     36.2192     44.6113    115.4056
  1605.5000    -54.2072     28.1811     35.5766     41.5076    118.3906
  1605.7500    -53.8128     27.8594     35.0105     39.1479    120.0049
  1606.0000    -53.4453     27.5893     34.5388     37.6086    122.5178
  1606.2500    -53.1382     27.4150     34.1763     36.7768    124.4005
  1606.5000    -52.9255     27.3689     33.9345     36.4663    127.2217
  1606.7500    -52.8358     27.4650     33.8204     36.5282    128.7421
  1607.0000    -52.8876     27.6984     33.8362     36.9061    129.9674
  1607.2500    -53.0862     28.0496     33.9789     37.6197    129.8608
  1607.5000    -53.4220     28.4902     34.2412     38.6910    127.8978
  1607.7500    -53.8719     28.9891     34.6130     40.0636    125.2325
  1608.0000    -54.4025     29.5192     35.0836     41.5696    119.6694
  1608.2500    -54.9753     30.0646     35.6436     42.9755    115.6549
  1608.5000    -55.5522     30.6233     36.2858     44.0759    110.5189
  1608.7500    -56.1005     31.2038     37.0051     44.7757    108.1135
  1609.0000    -56.5960     31.8170     37.7965     45.1134    106.0065
  1609.2500    -57.0245     32.4687     38.6525     45.2296    105.3016
  1609.5000    -57.3815     33.1511     39.5598     45.3162    104.7373
  1609.7500    -57.6705     33.8387     40.4977     45.5685    104.5091
  1610.0000    -57.9001     34.4832     41.4384     46.1449    104.2622
  1610.2500    -58.0816     35.0192     42.3499     47.1381    104.1286
  1610.5000    -58.2273     35.3847     43.2011     48.5580    104.1849
  1610.7500    -58.3481     35.5548     43.9666     50.3282    104.6273
  1611.0000    -58.4528     35.5702     44.6293     52.2970    105.6569
  1611.2500    -58.5469     35.5336     45.1807     54.2659    105.7356
  1611.5000    -58.6320     35.5777     45.6171     56.0347    103.2409
  1611.7500    -58.7062     35.8202     45.9363     57.4425     99.7603
  1612.0000    -58.7636     36.3333     46.1368     58.3791     93.7697
  1612.2500    -58.7958     37.1284     46.2192     58.7700     90.6371
  1612.5000    -58.7921     38.1544     46.1915     58.5703     88.0795
  1612.7500    -58.7415     39.3026     46.0740     57.7931     87.4865
  1613.0000    -58.6339     40.4205     45.8992     56.5542     87.6666
  1613.2500    -58.4620     41.3398     45.7106     55.0887     88.4582
  1613.5000    -58.2228     41.9185     45.5550     53.7183     90.7049
  1613.7500    -57.9187     42.0864     45.4759     52.7918     92.6551
  1614.0000    -57.5583     41.8682     45.5063     52.6238     95.1624
  1614.2500    -57.1563     41.3691     45.6647     53.4299     95.8975
  1614.5000    -56.7320     40.7293     45.9532     55.2511     95.3742
  1614.7500    -56.3081     40.0719     46.3575     57.8899     94.3442
  1615.0000    -55.9084     39.4715     46.8484     60.9176     92.3764
  1615.2500    -55.5550     38.9474     47.3838     63.7927     90.7239
  1615.5000    -55.2661     38.4800     47.9117     66.0582     87.4234
  1615.7500    -55.0538     38.0352     48.3723     67.5200     84.8314
  1616.0000    -54.9226     37.5840     48.7000     68.3037     81.1817
  1616.2500    -54.8701     37.1144     48.8246     68.7579     79.2776
  1616.5000    -54.8876     36.6313     48.6755     69.2648     77.2764
  1616.7500    -54.9620     36.1515     48.1913     70.0586     76.5354
  1617.0000    -55.0787     35.6912     47.3318     71.1189     76.8374
  1617.2500    -55.2226     35.2492     46.0919     72.1454     78.2519
  1617.5000    -55.3798     34.7938     44.5079     72.5945     81.7053
  1617.7500    -55.5384     34.2628     42.6533     71.7975     84.2901
  1618.0000    -55.6881     33.5847     40.6249     69.1918     88.5227
  1618.2500    -55.8205     32.7146     38.5231     64.6312     92.3240
  1618.5000    -55.9291     31.6656     36.4379     58.6113    100.5731
  1618.7500    -56.0095     30.5114     34.4417     52.1938    107.4204
  1619.0000    -56.0597     29.3634     32.5896     46.5644    117.7085
  1619.2500    -56.0802     28.3339     30.9226     42.4417    123.4962
  1619.5000    -56.0737     27.5081     29.4720     39.7321    130.1485
  1619.7500    -56.0436     26.9329     28.2629     37.6936    133.7456
  1620.0000    -55.9935     26.6185     27.3144     35.5024    138.8934
  1620.2500    -55.9254     26.5487     26.6401     32.8188    142.2954
  1620.5000    -55.8392     26.6908     26.2475     29.9815    146.8920
  1620.7500    -55.7328     27.0056     26.1370     27.7832    149.2948
  1621.0000    -55.6028     27.4487     26.3001     27.0749    151.3718
  1621.2500    -55.4454     27.9662     26.7168     28.4840    151.1826
  1621.5000    -55.2577     28.4900     27.3505     32.3273    147.1069
  1621.7500    -55.0386     28.9420     28.1423     38.6138    141.2291
  1622.0000    -54.7899     29.2502     29.0050     47.0123    128.0028
  1622.2500    -54.5164     29.3678     29.8215     56.7854    117.3787
  1622.5000    -54.2263     29.2811     30.4526     66.8021    101.5310
  1622.7500    -53.9309     29.0041     30.7592     75.7260     92.5436
  1623.0000    -53.6432     28.5684     30.6374     82.3260     83.0707
  1623.2500    -53.3770     28.0171     30.0529     85.7351     79.8215
  1623.5000    -53.1446     27.3994     29.0556     85.5247     79.8029
  1623.7500    -52.9549     26.7608     27.7645     81.6449     83.1687
  1624.0000    -52.8115     26.1295     26.3287     74.3972     93.4939
  1624.2500    -52.7118     25.5065     24.8881     64.5105    103.7317
  1624.5000    -52.6466     24.8660     23.5464     53.1956    122.5991
  1624.7500    -52.6014     24.1683     22.3636     41.9961    135.7833
  1625.0000    -52.5581     23.3794     21.3592     32.4168    153.0693
  1625.2500    -52.4974     22.4881     20.5218     25.5230    161.4930
  1625.5000    -52.4015     21.5121     19.8191     21.7248    168.3433
  1625.7500    -52.2572     20.4935     19.2069     20.7930    168.8872
  1626.0000    -52.0576     19.4841     18.6385     22.0023    163.9397
  1626.2500    -51.8037     18.5322     18.0733     24.3117    157.3689
  1626.5000    -51.5036     17.6731     17.4847     26.5878    144.5866
  1626.7500    -51.1708     16.9258     16.8635     27.8933    135.9971
  1627.0000    -50.8223     16.2927     16.2172     27.7537    126.7207
  1627.2500    -50.4738     15.7618     15.5651     26.2492    124.2508
  1627.5000    -50.1350     15.3092     14.9311     23.8637    125.3498
  1627.7500    -49.8047     14.9049     14.3371     21.1972    127.6986
  1628.0000    -49.4661     14.5205     13.7992     18.7202    131.8596
  1628.2500    -49.0837     14.1367     13.3265     16.6775    135.3779
  1628.5000    -48.6057     13.7495     12.9214     15.1255    143.2927
  1628.7500    -47.9750     13.3680     12.5817     14.0224    150.3312
  1629.0000    -47.1505     13.0093     12.3023     13.3044    160.9815
  1629.2500    -46.1346     12.6900     12.0774     12.9196    166.1129
  1629.5000    -44.9948     12.4211     11.9015     12.8237    169.1124
  1629.7500    -43.8660     12.2066     11.7711     12.9589    168.5069
  1630.0000    -42.9234     12.0455     11.6847     13.2397    166.1027
  1630.2500    -42.3316     11.9355     11.6426     13.5623    164.7603
  1630.5000    -42.1902     11.8774     11.6469     13.8342    163.8783
  1630.7500    -42.4997     11.8761     11.7006     14.0079    163.7199
  1631.0000    -43.1662     11.9398     11.8066     14.0970    163.2508
  1631.2500    -44.0391     12.0748     11.9672     14.1689    162.4602
  1631.5000    -44.9642     12.2802     12.1829     14.3250    160.2912
