~Version Information
VERS.                      2.0: CWLS Log ASCII Standard - VERSION 2.0
WRAP.                       NO: One line per depth step
~Well Information Block
STRT.FT               258.0000: 
STOP.FT               998.2000: 
STEP.FT                 0.1000: 
NULL.                -999.2500: 
COMP.          Pioneer Natural Resources: COMPANY
WELL.          Piggyback 33-25: WELL
FLD.           Purgatoire River: FIELD
LOC.           1600' FSL & 1800' FEL: LOCATION
PROV.                 Colorado: PROVINCE
CNTY.               Las Animas: COUNTRY
SRVC.                Patterson: SERVICE COMPANY
DATE.          Fri Apr 29 16:11:48 2005: LOG DATE
UWI.           05 071 08233 00: UNIQUE WELL ID
~Curve Information Block
DEPT.FT            0 000 00 00: Depth
DCAL.in                       : CDL Caliper
RHOB.g/cc                     : CDL Bulk Density
RHOC.g/cc                     : CDL Density Correction
DPOR.pu                       : CDL Density Porosity
GR.GAPI                       : Gamma Ray
NPOR.pu                       : Neutron Porosity
~Parameter Information Block
~A  Depth       DCAL        RHOB        RHOC        DPOR         GR         NPOR    
# ...
   546.0000      7.8639      2.4331      0.0653     13.1440    110.7669     25.4959
   546.1000      7.8639      2.4314      0.0736     13.2496    116.4652     23.5569
   546.2000      7.8639      2.4411      0.0979     12.6602    120.6534     24.2212
   546.3000      7.8618      2.4462      0.1011     12.3518    122.7545     26.8850
   546.4000      7.8618      2.4414      0.0820     12.6396    123.7281     23.7174
   546.5000      7.8658      2.4486      0.0559     12.2062    121.6272     25.8050
   546.6000      7.8658      2.4793      0.1428     10.3464    117.0029     26.0701
   546.7000      7.8658      2.5173      0.1164      8.0452    113.4893     23.8487
   546.8000      7.9004      2.5539      0.1382      5.8233    109.9212     20.9641
   546.9000      7.9004      2.5816      0.1915      4.1429    105.5706     19.6396
   547.0000      7.9562      2.5910      0.1325      3.5784    103.6937     19.8514
   547.1000      7.9562      2.5966      0.0930      3.2352    101.4353     20.0635
   547.2000      7.9562      2.6135      0.1187      2.2095     95.9355     19.8553
   547.3000      7.9608      2.6336      0.1119      0.9941     88.9061     19.7083
   547.4000      7.9608      2.6493      0.0857      0.0435     82.0847     18.8093
   547.5000      7.9174      2.6550      0.1118     -0.3042     77.5733     16.1629
   547.6000      7.9174      2.6370      0.0981      0.7859     74.9055     13.3809
   547.7000      7.9174      2.5979      0.0433      3.1589     72.2209     12.9014
   547.8000      7.8948      2.5630      0.0505      5.2711     70.8500     15.0432
   547.9000      7.8948      2.5452      0.0779      6.3507     71.7322     17.8935
   548.0000      7.8837      2.5327      0.0749      7.1106     74.6084     19.5260
   548.1000      7.8837      2.5185      0.0283      7.9693     78.3142     19.8543
   548.2000      7.8837      2.5055      0.0423      8.7580     80.9069     19.4488
   548.3000      7.8937      2.4907      0.0526      9.6557     84.5692     19.1020
   548.4000      7.8937      2.4790      0.0070     10.3642     90.3730     19.5647
   548.5000      7.8849      2.4825      0.0742     10.1539     94.6054     20.2353
   548.6000      7.8849      2.4992      0.1424      9.1396     99.0446     19.9475
   548.7000      7.8849      2.5231      0.1486      7.6893    107.4281     18.7450
   548.8000      7.8861      2.5449      0.2583      6.3713    119.5241     16.9212
   548.9000      7.8861      2.5482      0.2403      6.1680    131.2719     15.2151
   549.0000      7.8234      2.5345      0.1983      7.0018    136.6079     15.2573
   549.1000      7.8234      2.5160      0.1769      8.1219    136.2366     17.2972
   549.2000      7.8234      2.4936      0.1176      9.4797    134.6436     19.3616
   549.3000      7.8540      2.4655      0.1467     11.1805    133.1001     19.0509
   549.4000      7.8540      2.4371      0.1172     12.9012    132.4570     15.3290
   549.5000      7.8837      2.4163      0.0779     14.1656    133.2924     11.2651
   549.6000      7.8837      2.4066      0.0681     14.7493    133.4506     11.1697
   549.7000      7.8837      2.4042      0.0898     14.8953    132.3158     16.3895
   549.8000      7.9390      2.4051      0.0719     14.8442    133.3216     23.4755
   549.9000      7.9390      2.4111      0.1116     14.4765    137.4536     26.6624
   550.0000      7.9599      2.4268      0.1587     13.5250    140.4092     26.5717
   550.1000      7.9599      2.4553      0.1140     11.7991    140.7967     26.0201
   550.2000      7.9599      2.4816      0.2351     10.2076    139.4870     26.5092
   550.3000      7.9507      2.4744      0.2084     10.6423    134.6046     27.2440
   550.4000      7.9507      2.4436      0.0882     12.5086    128.6661     26.8683
   550.5000      7.9685      2.4323      0.1207     13.1955    126.2586     25.3972
   550.6000      7.9685      2.4471      0.1385     12.2957    126.5719     24.1995
   550.7000      7.9685      2.4617      0.1152     11.4101    129.6420     24.1323
   550.8000      8.0011      2.4581      0.1379     11.6319    135.6277     24.4324
   550.9000      8.0011      2.4402      0.0837     12.7127    140.2305     24.5519
   551.0000      8.0238      2.4288      0.0795     13.4081    139.5638     24.8325
   551.1000      8.0238      2.4317      0.1067     13.2315    135.5975     25.5129
   551.2000      8.0238      2.4260      0.1132     13.5739    132.0596     26.4361
   551.3000      8.0217      2.4010      0.0553     15.0923    130.3867     27.1572
   551.4000      8.0217      2.3885      0.0108     15.8481    130.5181     26.8909
   551.5000      8.0554      2.4059      0.0861     14.7917    131.6987     25.9831
   551.6000      8.0554      2.4330      0.0776     13.1531    135.1775     25.8246
   551.7000      8.0554      2.4572      0.0935     11.6844    140.0231     26.0443
   551.8000      8.0945      2.4783      0.0914     10.4056    141.3179     25.2249
   551.9000      8.0945      2.4855      0.1442      9.9694    137.3123     24.0793
   552.0000      8.0641      2.4713      0.0838     10.8326    130.9150     24.4448
   552.1000      8.0641      2.4532      0.0858     11.9249    126.4055     26.1369
   552.2000      8.0641      2.4464      0.1200     12.3412    125.2422     27.4046
   552.3000      8.0562      2.4483      0.0748     12.2219    126.8165     27.3633
   552.4000      8.0562      2.4553      0.1364     11.8024    129.6614     26.8347
   552.5000      8.0335      2.4575      0.0855     11.6679    130.5186     26.5609
   552.6000      8.0335      2.4541      0.0209     11.8711    129.8658     25.9390
   552.7000      8.0335      2.4572      0.0914     11.6836    129.2966     24.3710
   552.8000      8.0041      2.4675      0.1243     11.0579    125.8527     22.1607
   552.9000      8.0041      2.4788      0.1357     10.3772    120.7637     20.1079
   553.0000      7.9556      2.4877      0.1236      9.8389    118.2700     18.7565
   553.1000      7.9556      2.4925      0.1093      9.5439    115.9990     18.0778
   553.2000      7.9556      2.4934      0.0814      9.4909    110.9962     18.0795
   553.3000      7.9211      2.4899      0.0879      9.7056    107.2871     18.7213
   553.4000      7.9211      2.4812      0.1037     10.2283    108.9622     19.4477
   553.5000      7.9159      2.4674      0.0995     11.0653    114.0856     19.8899
   553.6000      7.9159      2.4486      0.0710     12.2039    117.2265     20.0513
   553.7000      7.9159      2.4266      0.0601     13.5381    114.2069     20.0382
   553.8000      7.9184      2.4065      0.0340     14.7584    105.6692     20.0267
   553.9000      7.9184      2.4002      0.0311     15.1410     96.9456     19.6291
   554.0000      7.9079      2.4076      0.1033     14.6906     93.8592     18.8473
   554.1000      7.9079      2.4077      0.0991     14.6819     97.7748     19.0186
   554.2000      7.9079      2.3931      0.0470     15.5704    103.6304     20.6192
   554.3000      7.9312      2.3751      0.0647     16.6616    106.0445     22.3979
   554.4000      7.9312      2.3534      0.0600     17.9731    108.3618     23.3003
   554.5000      7.9384      2.3209      0.0267     19.9458    113.9491     23.7426
   554.6000      7.9384      2.2877     -0.0110     21.9592    118.0627     24.4311
   554.7000      7.9384      2.2636      0.0365     23.4152    118.9325     25.2275
   554.8000      7.9419      2.2456      0.0199     24.5077    118.8359     25.0255
   554.9000      7.9419      2.2341      0.0106     25.2043    116.7939     22.4789
   555.0000      7.9364      2.2265      0.0505     25.6680    114.1321     18.6983
   555.1000      7.9364      2.2187      0.0108     26.1416    115.3559     16.7946
   555.2000      7.9364      2.2226     -0.0005     25.9026    118.1011     17.9067
   555.3000      7.9590      2.2503      0.0575     24.2219    117.0005     20.7353
   555.4000      7.9590      2.2927      0.1238     21.6529    111.8817     23.1190
   555.5000      7.9831      2.3382      0.0731     18.8947    105.4112     24.1252
