~Version Information
VERS.                      2.0: CWLS Log ASCII Standard - VERSION 2.0
WRAP.                       NO: One line per depth step
~Well Information Block
STRT.FT               -16.5000: 
STOP.FT              1244.7500: 
STEP.FT                 0.2500: 
NULL.                -999.2500: 
COMP.          Pioneer Natural Resources: COMPANY
WELL.          Bouncer41-27 Tr: WELL
FLD.           Purgatorie River: FIELD
LOC.           292' FNL & 222' FEL--------: LOCATION
PROV.                       CO: PROVINCE
CNTY.               Las Animas: COUNTRY
SRVC.                         : SERVICE COMPANY
DATE.          Fri Feb 11 15:34:51 2005: LOG DATE
UWI.                071-08291 : UNIQUE WELL ID
~Curve Information Block
DEPT.FT            0 000 00 00: Depth
CCL.                          : Casing Collar Locator
TT3.usec                      : CBL 3' Travel Time
AMP3.mV                       : CBL 3' Amplitude
GR.GAPI                       : Gamma Ray
~Parameter Information Block
~A  Depth       CCL         TT3         AMP3         GR     
# ...
   218.0000      0.0000    794.3891      4.2493     84.8660
   218.2500      0.0000    791.2500      4.2275     84.7576
   218.5000      0.0000    788.1591      4.2035     85.0009
   218.7500      0.0000    786.7487      4.1899     84.4843
   219.0000      0.0000    787.6747      4.1935     83.2997
   219.2500      0.0000    789.6823      4.2176     82.4401
   219.5000      0.0000    790.6086      4.2601     82.3536
   219.7500      0.0000    789.3867      4.3114     82.3016
   220.0000      0.0000    786.9862      4.3590     81.3293
   220.2500      0.0000    785.3391      4.3906     79.6186
   220.5000      0.0000    785.2430      4.3934     78.5968
   220.7500      0.0000    785.5454      4.3586     79.5885
   221.0000      0.0000    784.7267      4.2895     82.5668
   221.2500      0.0000    783.0213      4.2035     86.3172
   221.5000      0.0000    782.3856      4.1222     89.4358
   221.7500      0.0000    784.3246      4.0624     90.8508
   222.0000      0.0000    788.2769      4.0314     89.8382
   222.2500      0.0000    792.3023      4.0241     86.2097
   222.5000      0.0000    794.8580      4.0241     80.6903
   222.7500      0.0000    795.6516      4.0181     74.9502
   223.0000      0.0000    795.2672      4.0060     70.8059
   223.2500      0.0000    794.3766      3.9964     68.9390
   223.5000      0.0000    793.0363      3.9935     68.5782
   223.7500      0.0000    790.4014      3.9942     68.7515
   224.0000      0.0000    785.3939      3.9915     69.5850
   224.2500      0.0000    778.2404      3.9828     71.9947
   224.5000      0.0000    771.3969      3.9751     76.3065
   224.7500      0.0000    768.3340      3.9820     81.5805
   225.0000      0.0000    770.8538      4.0132     86.2138
   225.2500      0.0000    777.6138      4.0689     88.8952
   225.5000      0.0000    785.3837      4.1375     89.1502
   225.7500      0.0000    791.5165      4.1934     87.4407
   226.0000      0.0000    795.1902      4.2074     84.8086
   226.2500      0.0000    796.8781      4.1739     82.0191
   226.5000      0.0000    797.2617      4.1225     78.8984
   226.7500      0.0000    796.6089      4.0912     74.7937
   227.0000      0.0000    794.8348      4.0930     69.7500
   227.2500      0.0000    792.0891      4.1183     64.7876
   227.5000      0.0000    789.2642      4.1590     60.8258
   227.7500      0.0000    787.5466      4.2112     57.8557
   228.0000      0.0000    787.0428      4.2621     55.5634
   228.2500      0.0000    786.2043      4.2924     54.2234
   228.5000      0.0000    783.3009      4.2981     54.3468
   228.7500      0.0000    778.3905      4.2992     55.7568
   229.0000      0.0000    773.1318      4.3199     57.6057
   229.2500      0.0000    768.6836      4.3642     59.2024
   229.5000      0.0000    764.7838      4.4165     60.3871
   229.7500      0.0000    761.2288      4.4615     61.1091
   230.0000      0.0000    759.1772      4.4955     61.1356
   230.2500      0.0000    760.0425      4.5218     60.5488
   230.5000      0.0000    763.3716      4.5436     60.3129
   230.7500      0.0000    766.5540      4.5600     61.9758
   231.0000      0.0000    767.1721      4.5632     66.7095
   231.2500      0.0000    765.5756      4.5462     74.5340
   231.5000      0.0000    764.5498      4.5156     84.2622
   231.7500      0.0000    766.3045      4.4869     94.1899
   232.0000      0.0000    770.3564      4.4639    102.9198
   232.2500      0.0000    774.5521      4.4314    109.6374
   232.5000      0.0000    777.3917      4.3728    113.9695
   232.7500      0.0000    778.8365      4.2901    115.8441
   233.0000      0.0000    779.4493      4.2039    115.3433
   233.2500      0.0000    779.5782      4.1378    112.8038
   233.5000      0.0000    779.3895      4.1024    109.2406
   233.7500      0.0000    779.1920      4.0914    106.1171
   234.0000      0.0000    779.4228      4.0944    104.2163
   234.2500      0.0000    780.3018      4.1111    103.1412
   234.5000      0.0000    781.4722      4.1491    102.2387
   234.7500      0.0000    782.0176      4.2098    101.6130
   235.0000      0.0000    781.0818      4.2852    101.9507
   235.2500      0.0000    778.6898      4.3671    103.6488
   235.5000      0.0000    775.7996      4.4526    106.4262
   235.7500      0.0000    773.3470      4.5412    109.5575
   236.0000      0.0000    771.3776      4.6299    112.0358
   236.2500      0.0000    769.1592      4.7078    112.6218
   236.5000      0.0000    766.0042      4.7597    110.3619
   236.7500      0.0000    762.0483      4.7830    105.4664
   237.0000      0.0000    758.3420      4.7986     99.5947
   237.2500      0.0000    755.9127      4.8334     94.9800
   237.5000      0.0000    754.6323      4.8912     93.0297
   237.7500      0.0000    753.4480      4.9504     93.7607
   238.0000      0.0000    751.7479      4.9918     96.4256
   238.2500      0.0000    749.9198      5.0216    100.1901
   238.5000      0.0000    748.6166      5.0631    104.0583
   238.7500      0.0000    748.1964      5.1305    106.7935
   239.0000      0.0000    749.0527      5.2160    107.5403
   239.2500      0.0000    752.0400      5.2974    106.4426
   239.5000      0.0000    758.0739      5.3537    104.3429
   239.7500      0.0000    767.0672      5.3762    101.8751
   240.0000      0.0000    777.3394      5.3700     99.0244
   240.2500      0.0000    786.4208      5.3455     95.7668
   240.5000      0.0000    792.6429      5.3049     93.1352
   240.7500      0.0000    795.8723      5.2429     93.1166
   241.0000      0.0000    796.8360      5.1652     96.9546
   241.2500      0.0000    796.0148      5.0962    103.7065
   241.5000      0.0000    793.1953      5.0569    110.9742
   241.7500      0.0000    788.0116      5.0392    117.0605
   242.0000      0.0000    780.9778      5.0145    121.7299
   242.2500      0.0000    773.8129      4.9639    124.8321
   242.5000      0.0000    768.3795      4.8872    125.2685
   242.7500      0.0000    765.2935      4.7902    122.0236
   243.0000      0.0000    763.7444      4.6791    115.7116
   243.2500      0.0000    762.2643      4.5684    108.5540
   243.5000      0.0000    759.5508      4.4790    102.9163
   243.7500      0.0000    755.4534      4.4188     99.9539
   244.0000      0.0000    751.7473      4.3725     99.3909
   244.2500      0.0000    751.1864      4.3211    100.2415
   244.5000      0.0000    754.9395      4.2688    101.4571
   244.7500      0.0000    760.9532      4.2403    102.0004
   245.0000      0.0000    765.3279      4.2487    101.0342
   245.2500      0.0000    765.7274      4.2750     98.7508
   245.5000      0.0000    763.3708      4.2827     96.8316
   245.7500      2.0000    761.1159      4.2441     97.2971
   246.0000      0.0000    759.8494      4.1510    100.5724
   246.2500      0.0000    758.1674      4.0135    105.2453
   246.5000      0.0000    755.6022      3.8599    109.8734
   246.7500      0.0000    753.9814      3.7377    114.2638
   247.0000      0.0000    754.6984      3.6967    118.4946
   247.2500      0.0000    756.4467      3.7612    121.5057
   247.5000      0.0000    756.8910      3.9130    121.7646
   247.7500      0.0000    755.3884      4.0995    119.2409
   248.0000      0.0000    753.0975      4.2633    115.8018
   248.2500      0.0000    751.2704      4.3736    113.5137
   248.5000      0.0000    750.3329      4.4308    113.1352
   248.7500      0.0000    750.2736      4.4464    114.2827
   249.0000      0.0000    751.3055      4.4272    116.3526
   249.2500      0.0000    753.9764      4.3767    118.8270
   249.5000      0.0000    758.5665      4.3003    120.7679
   249.7500      0.0000    764.2634      4.2068    120.7322
   250.0000      0.0000    769.2952      4.1102    118.0219
   250.2500      0.0000    772.5196      4.0288    113.9851
   250.5000      0.0000    774.7961      3.9780    111.2501
   250.7500      0.0000    778.0778      3.9646    111.5991
   251.0000      0.0000    783.1138      3.9872    114.9637
   251.2500      0.0000    788.6859      4.0345    119.9450
