~Version Information
VERS.                      2.0: CWLS Log ASCII Standard - VERSION 2.0
WRAP.                       NO: One line per depth step
~Well Information Block
STRT.FT               -12.2500: 
STOP.FT              2183.0000: 
STEP.FT                 0.2500: 
NULL.                -999.2500: 
COMP.          Petrogulf Corporation: COMPANY
WELL.            Montoya 6-14R: WELL
FLD.           Purgatorie River: FIELD
LOC.           867' FSL & 751' FWL: LOCATION
CNTY.               Las Animas: COUNTY
SRVC.                         : SERVICE COMPANY
DATE.          Mon Nov 22 13:07:31 2004: LOG DATE
UWI.           05-071-08242-00: UNIQUE WELL ID
STAT.                 Colorado: STATE
~Curve Information Block
DEPT.FT            0 000 00 00: Depth
TT3.usec                      : CBL 3' Travel Time
AMP3.mV                       : CBL 3' Amplitude
GR.GAPI                       : Gamma Ray
CCL.                          : Casing Collar Locator
~Parameter Information Block
~A  Depth       TT3         AMP3         GR         CCL     
# ...
   992.7500    284.6511     75.4313    161.7773      0.0000
   993.0000    284.6582     75.4835    163.7886      0.0000
   993.2500    284.6580     75.6849    166.3531      0.0000
   993.5000    284.6479     75.9535    168.6640      0.0000
   993.7500    284.6308     76.1813    168.2294      0.0000
   994.0000    284.6131     76.3068    162.8173      0.0000
   994.2500    284.6022     76.3327    152.6721      0.0000
   994.5000    284.6027     76.2897    140.8202      0.0000
   994.7500    284.6142     76.1959    131.0555      0.0000
   995.0000    284.6336     76.0479    125.5395      0.0000
   995.2500    284.6572     75.8480    124.1530      0.0000
   995.5000    284.6814     75.6367    125.6511      0.0000
   995.7500    284.7010     75.4892    128.8893      0.0000
   996.0000    284.7095     75.4680    132.9357      0.0000
   996.2500    284.7029     75.5740    136.7259      0.0000
   996.5000    284.6826     75.7477    139.3590      0.0000
   996.7500    284.6547     75.9184    140.7767      0.0000
   997.0000    284.6271     76.0480    141.8036      0.0000
   997.2500    284.6069     76.1320    143.3895      0.0000
   997.5000    284.5977     76.1702    145.7571      0.0000
   997.7500    284.6060     76.1291    148.1479      0.0000
   998.0000    284.6582     75.8978    149.4011      0.0000
   998.2500    284.8283     75.2428    148.8697      0.0000
   998.5000    285.2541     73.7984    146.8170      0.0000
   998.7500    286.0970     71.2233    143.9870      0.0000
   999.0000    287.4306     67.5280    140.8300      0.0000
   999.2500    289.1306     63.2616    137.2839      0.0000
   999.5000    290.8838     59.2381    133.4530      0.0000
   999.7500    292.3306     56.0531    130.3002      0.0000
  1000.0000    293.2391     53.9123    129.2329      0.0000
  1000.2500    293.6070     52.7546    130.7788      0.0000
  1000.5000    293.6313     52.3298    133.7729      0.0000
  1000.7500    293.6018     52.2324    136.2439     -3.7048
  1001.0000    293.8351     52.0501    137.2602     -2.8748
  1001.2500    294.7021     51.5390    137.5575      0.0000
  1001.5000    296.5257     50.7701    138.3054      0.0000
  1001.7500    299.1158     50.2335    139.8647      0.0000
  1002.0000    301.3240     50.6696    141.9493      0.0000
  1002.2500    301.5236     52.5256    144.3840      0.0000
  1002.5000    299.0117     55.5918    147.2320      0.0000
  1002.7500    294.7816     59.3458    150.4119      0.0000
  1003.0000    290.6261     63.4278    153.5652      0.0000
  1003.2500    287.7010     67.5171    156.2822      0.0000
  1003.5000    286.0988     71.0666    158.1971      0.0000
  1003.7500    285.3750     73.5653    158.9001      0.0000
  1004.0000    285.0946     74.9427    158.1517      0.0000
  1004.2500    285.0020     75.5245    156.4056      0.0000
  1004.5000    284.9790     75.7032    154.8004      0.0000
  1004.7500    284.9801     75.7356    154.1503      0.0000
  1005.0000    284.9880     75.7395    153.9249      0.0000
  1005.2500    284.9966     75.7456    152.6694      0.0000
  1005.5000    285.0009     75.7454    149.6846      0.0000
  1005.7500    284.9973     75.7210    146.0309      0.0000
  1006.0000    284.9855     75.6621    143.6642      0.0000
  1006.2500    284.9685     75.5709    143.7624      0.0000
  1006.5000    284.9504     75.4574    145.8856      0.0000
  1006.7500    284.9334     75.3329    148.4057      0.0000
  1007.0000    284.9176     75.2050    149.6055      0.0000
  1007.2500    284.9027     75.0785    148.6043      0.0000
  1007.5000    284.8904     74.9638    145.4830      0.0000
  1007.7500    284.8836     74.8807    140.7959      0.0000
  1008.0000    284.8850     74.8442    135.1636      0.0000
  1008.2500    284.8942     74.8464    129.1167      0.0000
  1008.5000    284.9070     74.8563    123.0337      0.0000
  1008.7500    284.9190     74.8423    117.3174      0.0000
  1009.0000    284.9283     74.7979    112.8147      0.0000
  1009.2500    284.9363     74.7463    110.8114      0.0000
  1009.5000    284.9457     74.7194    112.1927      0.0000
  1009.7500    284.9572     74.7260    116.4166      0.0000
  1010.0000    284.9677     74.7393    121.4929      0.0000
  1010.2500    284.9716     74.7194    125.3722      0.0000
  1010.5000    284.9645     74.6495    127.5640      0.0000
  1010.7500    284.9470     74.5497    129.3120      0.0000
  1011.0000    284.9242     74.4548    132.2809      0.0000
  1011.2500    284.9025     74.3860    137.2194      0.0000
  1011.5000    284.8864     74.3493    143.5104      0.0000
  1011.7500    284.8787     74.3455    149.5054      0.0000
  1012.0000    284.8794     74.3699    153.3980      0.0000
  1012.2500    284.8874     74.4063    154.2554      0.0000
  1012.5000    284.9016     74.4338    152.4958      0.0000
  1012.7500    284.9207     74.4398    149.2694      0.0000
  1013.0000    284.9412     74.4221    145.2405      0.0000
  1013.2500    284.9567     74.3828    140.1716      0.0000
  1013.5000    284.9615     74.3254    133.8080      0.0000
  1013.7500    284.9548     74.2533    126.7112      0.0000
  1014.0000    284.9406     74.1705    119.9327      0.0000
  1014.2500    284.9242     74.0900    114.4393      0.0000
  1014.5000    284.9090     74.0412    111.3503      0.0000
  1014.7500    284.8968     74.0587    112.0302      0.0000
  1015.0000    284.8890     74.1560    116.9974      0.0000
  1015.2500    284.8878     74.3116    124.7810      0.0000
  1015.5000    284.8949     74.4836    132.3761      0.0000
  1015.7500    284.9100     74.6391    137.0303      0.0000
  1016.0000    284.9299     74.7716    137.8466      0.0000
  1016.2500    284.9493     74.8945    136.1252      0.0000
  1016.5000    284.9637     75.0181    134.2605      0.0000
  1016.7500    284.9712     75.1343    133.9576      0.0000
  1017.0000    284.9719     75.2178    135.1118      0.0000
  1017.2500    284.9662     75.2437    136.0967      0.0000
  1017.5000    284.9553     75.2107    134.9748      0.0000
  1017.7500    284.9417     75.1538    130.6645      0.0000
  1018.0000    284.9294     75.1295    123.3287      0.0000
  1018.2500    284.9226     75.1828    113.9525      0.0000
  1018.5000    284.9235     75.3219    103.8376      0.0000
  1018.7500    284.9329     75.5203     94.5308      0.0000
  1019.0000    284.9498     75.7375     87.7290      0.0000
  1019.2500    284.9714     75.9385     84.7272      0.0000
  1019.5000    284.9941     76.1034     85.9344      0.0000
  1019.7500    285.0148     76.2271     91.0143      0.0000
  1020.0000    285.0315     76.3080     99.3601      0.0000
  1020.2500    285.0433     76.3382    110.1075      0.0000
  1020.5000    285.0508     76.3133    121.5324      0.0000
  1020.7500    285.0561     76.2519    130.7971      0.0000
  1021.0000    285.0619     76.1944    135.1580      0.0000
  1021.2500    285.0703     76.1773    133.9727      0.0000
  1021.5000    285.0826     76.2088    129.3640      0.0000
  1021.7500    285.0994     76.2714    124.7308      0.0000
  1022.0000    285.1192     76.3420    122.6118      0.0000
  1022.2500    285.1389     76.4073    123.6540      0.0000
  1022.5000    285.1572     76.4663    127.2430      0.0000
  1022.7500    285.1760     76.5256    132.9542      0.0000
  1023.0000    285.1987     76.5897    140.9554      0.0000
  1023.2500    285.2255     76.6543    150.7295      0.0000
  1023.5000    285.2529     76.7085    160.1911      0.0000
  1023.7500    285.2764     76.7421    166.9816      0.0000
  1024.0000    285.2938     76.7477    170.3252      0.0000
  1024.2500    285.3055     76.7169    170.9705      0.0000
  1024.5000    285.3132     76.6399    169.7419      0.0000
  1024.7500    285.3183     76.5149    166.7494      0.0000
  1025.0000    285.3217     76.3576    161.7145      0.0000
  1025.2500    285.3241     76.2009    154.5542      0.0000
  1025.5000    285.3268     76.0830    145.5937      0.0000
  1025.7500    285.3313     76.0328    135.1742      0.0000
  1026.0000    285.3384     76.0616    123.1741      0.0000
