~Version Information
VERS.                      2.0: CWLS Log ASCII Standard - VERSION 2.0
WRAP.                       NO: One line per depth step
~Well Information Block
STRT.FT               811.0000: 
STOP.FT              2507.0000: 
STEP.FT                 0.1000: 
NULL.                -999.2500: 
COMP.          Petrogulf Corporation: COMPANY
WELL.               YWAM 7-32V: WELL
FLD.           Purgatoire River: FIELD
LOC.           2423' FNL & 2412' FEL: LOCATION
PROV.                 Colorado: PROVINCE
CNTY.               Las Animas: COUNTRY
SRVC.                Patterson: SERVICE COMPANY
DATE.          Mon Dec 15 07:18:47 2003: LOG DATE
UWI.                          : UNIQUE WELL ID
~Curve Information Block
DEPT.FT            0 000 00 00: Depth
DCAL.in                       : CDL Caliper
RHOB.g/cc                     : CDL Bulk Density
RHOC.g/cc                     : CDL Density Correction
DPOR.pu                       : CDL Density Porosity
NPOR.pu                       : Neutron Porosity
GR.GAPI                       : Gamma Ray
~Parameter Information Block
~A  Depth       DCAL        RHOB        RHOC        DPOR        NPOR         GR     
# ...
  1492.6000      8.2911      2.5208      0.1432      7.8332     25.4512    147.0509
  1492.7000      8.2911      2.5129      0.1048      8.3063     24.2563    150.2847
  1492.8000      8.2978      2.5106      0.0868      8.4489     22.8832    150.6677
  1492.9000      8.2978      2.5269      0.1290      7.4611     21.8810    146.7024
  1493.0000      8.2674      2.5455      0.1430      6.3363     21.5051    142.2500
  1493.1000      8.2674      2.5492      0.1036      6.1096     21.4004    137.4308
  1493.2000      8.2674      2.5437      0.0706      6.4430     21.2358    128.8787
  1493.3000      8.2607      2.5424      0.0465      6.5195     20.9205    119.0219
  1493.4000      8.2607      2.5487      0.0792      6.1367     20.2452    112.2127
  1493.5000      8.2479      2.5629      0.0476      5.2760     19.4848    105.6615
  1493.6000      8.2479      2.5817      0.0969      4.1384     18.9951     98.6690
  1493.7000      8.2479      2.5860      0.1031      3.8784     18.3594     94.4956
  1493.8000      8.2454      2.5719      0.0713      4.7362     17.7219     93.2628
  1493.9000      8.2454      2.5635      0.0460      5.2415     17.7422     91.5429
  1494.0000      8.2391      2.5717      0.0551      4.7475     18.1534     86.1528
  1494.1000      8.2391      2.5779      0.0725      4.3723     18.3335     78.6760
  1494.2000      8.2391      2.5695      0.0166      4.8805     18.2345     73.9365
  1494.3000      8.2335      2.5625     -0.0094      5.3011     18.2652     74.0953
  1494.4000      8.2335      2.5703      0.0106      4.8331     18.5409     77.2676
  1494.5000      8.2335      2.5860      0.0331      3.8792     18.4430     77.5448
  1494.6000      8.2335      2.6005      0.0609      3.0017     17.7463     70.3438
  1494.7000      8.2335      2.6065      0.0856      2.6386     17.0590     61.3751
  1494.8000      8.2350      2.5972      0.0895      3.1971     16.6659     59.8991
  1494.9000      8.2350      2.5732      0.0854      4.6526     16.4164     66.1523
  1495.0000      8.2450      2.5477      0.0250      6.2014     16.1739     72.5842
  1495.1000      8.2450      2.5349      0.0548      6.9783     15.6539     72.2216
  1495.2000      8.2450      2.5364      0.0064      6.8870     14.7444     66.5239
  1495.3000      8.2421      2.5435      0.0262      6.4562     13.9635     61.7527
  1495.4000      8.2421      2.5443      0.0016      6.4082     13.6201     60.1468
  1495.5000      8.2405      2.5390      0.0118      6.7300     13.6905     61.5763
  1495.6000      8.2405      2.5359      0.0306      6.9130     14.4423     63.3595
  1495.7000      8.2405      2.5358      0.0281      6.9207     15.2369     59.8045
  1495.8000      8.2424      2.5380     -0.0130      6.7868     14.8942     53.3105
  1495.9000      8.2424      2.5415      0.0652      6.5773     13.8114     51.1024
  1496.0000      8.2399      2.5429     -0.0058      6.4926     12.8794     52.4732
  1496.1000      8.2399      2.5455      0.0210      6.3313     12.4208     55.4611
  1496.2000      8.2399      2.5518      0.0050      5.9507     12.5345     60.4019
  1496.3000      8.2521      2.5670      0.0251      5.0302     13.0038     64.2327
  1496.4000      8.2521      2.5894      0.0754      3.6722     13.3964     65.6158
  1496.5000      8.2395      2.6018      0.0582      2.9204     13.6670     67.6128
  1496.6000      8.2395      2.5982      0.0123      3.1387     13.9952     72.4422
  1496.7000      8.2395      2.5915      0.0202      3.5467     14.4971     78.1326
  1496.8000      8.2343      2.5887      0.0481      3.7151     15.4116     80.4348
  1496.9000      8.2343      2.5817      0.0518      4.1385     16.4926     82.4179
  1497.0000      8.2359      2.5631      0.0207      5.2680     17.2525     89.7394
  1497.1000      8.2359      2.5368      0.0035      6.8576     17.6863     99.0469
  1497.2000      8.2359      2.5142     -0.0111      8.2324     18.3395    105.5994
  1497.3000      8.2403      2.4998      0.0113      9.1008     19.6271    109.3991
  1497.4000      8.2403      2.4865      0.0005      9.9100     20.8891    113.7527
  1497.5000      8.2363      2.4713     -0.0130     10.8302     21.3595    122.4656
  1497.6000      8.2363      2.4611     -0.0077     11.4468     21.3732    133.6386
  1497.7000      8.2363      2.4570      0.0026     11.6981     21.5154    139.7677
  1497.8000      8.2373      2.4586      0.0073     11.5983     21.7451    137.2931
  1497.9000      8.2373      2.4741      0.0165     10.6585     21.8127    133.0629
  1498.0000      8.2394      2.4977      0.0781      9.2298     21.7783    133.8574
  1498.1000      8.2394      2.5014      0.0997      9.0089     21.7867    138.9757
  1498.2000      8.2394      2.4744      0.0495     10.6394     22.0155    144.3784
  1498.3000      8.2377      2.4388      0.0485     12.7985     22.4496    146.1313
  1498.4000      8.2377      2.4147      0.0478     14.2589     22.6778    140.1983
  1498.5000      8.2349      2.4040      0.0622     14.9078     22.5341    129.1777
  1498.6000      8.2349      2.4086      0.0393     14.6323     22.2135    125.4694
  1498.7000      8.2349      2.4391      0.0488     12.7793     21.9490    135.1771
  1498.8000      8.2462      2.4939      0.1005      9.4589     22.0643    150.2054
  1498.9000      8.2462      2.5494      0.1584      6.0992     22.7536    160.3158
  1499.0000      8.2467      2.5830      0.1740      4.0626     23.4866    161.3256
  1499.1000      8.2467      2.5940      0.1743      3.3914     23.7425    154.7463
  1499.2000      8.2467      2.5950      0.1522      3.3348     24.1489    148.2922
  1499.3000      8.2447      2.5903      0.1435      3.6181     25.1287    145.9876
  1499.4000      8.2447      2.5809      0.0902      4.1898     25.7466    145.5946
  1499.5000      8.2686      2.5759      0.0708      4.4934     25.2876    146.7412
  1499.6000      8.2686      2.5819      0.0414      4.1253     24.3432    149.0848
  1499.7000      8.2686      2.5998      0.0069      3.0433     23.4394    146.6364
  1499.8000      8.3621      2.6240      0.0386      1.5757     22.3292    138.4445
  1499.9000      8.3621      2.6445     -0.0148      0.3309     21.2857    132.4902
  1500.0000      8.3750      2.6551      0.0290     -0.3062     20.9849    134.4705
  1500.1000      8.3750      2.6465      0.0299      0.2144     21.3321    141.0611
  1500.2000      8.3750      2.6105      0.0563      2.3922     21.7030    143.9581
  1500.3000      8.3745      2.5529      0.0347      5.8875     21.9799    140.6937
  1500.4000      8.3745      2.5039     -0.0582      8.8539     22.3139    136.7072
  1500.5000      8.3803      2.4907     -0.0453      9.6571     22.4829    137.3573
  1500.6000      8.3803      2.5030     -0.0351      8.9074     22.2092    142.1374
  1500.7000      8.3803      2.5238     -0.0267      7.6488     21.6302    149.4632
  1500.8000      8.3816      2.5492      0.0041      6.1070     21.1197    157.6806
  1500.9000      8.3816      2.5714      0.0785      4.7606     20.9399    163.2641
  1501.0000      8.3709      2.5771      0.0749      4.4197     20.8600    165.0886
  1501.1000      8.3709      2.5684      0.0351      4.9483     20.5183    165.8602
  1501.2000      8.3709      2.5591      0.0512      5.5077     20.0229    165.2809
  1501.3000      8.3713      2.5514      0.0652      5.9756     19.5782    158.7551
  1501.4000      8.3713      2.5434      0.0243      6.4612     19.1558    148.3968
  1501.5000      8.3709      2.5348      0.0756      6.9847     18.4521    143.3903
  1501.6000      8.3709      2.5247      0.0245      7.5932     17.8813    146.5620
  1501.7000      8.3709      2.5222      0.0441      7.7465     18.4003    151.3439
  1501.8000      8.3768      2.5287      0.0492      7.3525     19.5429    150.5031
  1501.9000      8.3768      2.5310      0.0559      7.2101     20.3575    145.7181
  1502.0000      8.3809      2.5199      0.0260      7.8865     21.1729    144.5195
  1502.1000      8.3809      2.5070     -0.0120      8.6678     22.2117    147.4101
