~Version Information
VERS.                      2.0: CWLS Log ASCII Standard - VERSION 2.0
WRAP.                       NO: One line per depth step
~Well Information Block
STRT.FT               920.0000: 
STOP.FT              3300.2000: 
STEP.FT                 0.1000: 
NULL.                -999.2500: 
COMP.          Pioneer Natural Resources: COMPANY
WELL.              Vespar 43-7: WELL
FLD.           Purgatoire River: FIELD
LOC.           2338' FSL & 1141' FEL: LOCATION
PROV.                 Colorado: PROVINCE
CNTY.               Las Animas: COUNTRY
SRVC.                Patterson: SERVICE COMPANY
DATE.          Wed Jan 26 13:38:02 2005: LOG DATE
UWI.           05 071 07955 00: UNIQUE WELL ID
~Curve Information Block
DEPT.FT            0 000 00 00: Depth
DCAL.in                       : CDL Caliper
RHOB.g/cc                     : CDL Bulk Density
RHOC.g/cc                     : CDL Density Correction
DPOR.pu                       : CDL Density Porosity
NPOR.pu                       : Neutron Porosity
GR.GAPI                       : Gamma Ray
~Parameter Information Block
~A  Depth       DCAL        RHOB        RHOC        DPOR        NPOR         GR     
# ...
  1390.4000      8.0742      2.5207      0.0514      7.8354     22.8722     55.9485
  1390.5000      8.0744      2.5136      0.0088      8.2669     22.2837     56.8834
  1390.6000      8.0744      2.5115      0.0338      8.3943     21.8414     58.6701
  1390.7000      8.0744      2.5177      0.0380      8.0159     21.9245     59.3743
  1390.8000      8.0731      2.5217      0.0639      7.7770     22.0933     60.2179
  1390.9000      8.0731      2.5154      0.0266      8.1567     21.8394     64.8226
  1391.0000      8.0727      2.5050      0.0536      8.7854     21.2285     71.6388
  1391.1000      8.0727      2.4984      0.0304      9.1901     20.5518     78.4693
  1391.2000      8.0727      2.4982      0.0664      9.1973     20.1444     85.0214
  1391.3000      8.0751      2.5033      0.0475      8.8881     20.0112     85.9207
  1391.4000      8.0751      2.5129      0.0410      8.3073     19.7106     79.5366
  1391.5000      8.0778      2.5214      0.0460      7.7952     19.1874     73.6154
  1391.6000      8.0778      2.5155      0.0572      8.1541     18.9671     71.7800
  1391.7000      8.0778      2.4944      0.0353      9.4277     19.1811     72.3522
  1391.8000      8.0763      2.4750      0.0308     10.6054     19.5499     74.3860
  1391.9000      8.0763      2.4713     -0.0103     10.8318     19.8400     75.3363
  1392.0000      8.0752      2.4803      0.0718     10.2832     19.8073     74.5308
  1392.1000      8.0752      2.4835      0.0896     10.0938     19.6333     74.8855
  1392.2000      8.0752      2.4733      0.0539     10.7100     19.5918     74.8530
  1392.3000      8.0762      2.4612      0.0504     11.4454     19.5864     70.3939
  1392.4000      8.0762      2.4519      0.0512     12.0089     19.6238     64.0547
  1392.5000      8.0760      2.4474      0.0398     12.2801     19.9808     61.5651
  1392.6000      8.0760      2.4583      0.0436     11.6152     20.4310     63.4321
  1392.7000      8.0760      2.4771      0.0905     10.4771     20.2234     67.7761
  1392.8000      8.0754      2.4819      0.0553     10.1905     19.5122     71.9758
  1392.9000      8.0754      2.4760      0.0285     10.5453     19.2893     73.9740
  1393.0000      8.0758      2.4741      0.0683     10.6581     19.9070     76.1064
  1393.1000      8.0758      2.4679      0.0875     11.0335     20.7742     79.5621
  1393.2000      8.0758      2.4519      0.0130     12.0033     20.9499     81.1450
  1393.3000      8.0762      2.4411      0.0638     12.6608     20.1385     80.1278
  1393.4000      8.0762      2.4372      0.0649     12.8956     19.0019     78.5825
  1393.5000      8.0763      2.4332      0.0181     13.1388     18.3269     75.7711
  1393.6000      8.0763      2.4362      0.0332     12.9569     18.4092     71.1304
  1393.7000      8.0763      2.4560      0.0071     11.7558     18.9517     68.3809
  1393.8000      8.0768      2.4856      0.0870      9.9661     19.5616     69.9997
  1393.9000      8.0768      2.5030      0.0851      8.9086     19.9027     73.2898
  1394.0000      8.0765      2.5013      0.0890      9.0102     19.8563     75.0944
  1394.1000      8.0765      2.4968      0.0705      9.2838     19.6523     76.3007
  1394.2000      8.0765      2.5032      0.0576      8.8945     19.5547     77.9896
  1394.3000      8.0777      2.5147      0.0915      8.2014     19.4779     78.9212
  1394.4000      8.0777      2.5188      0.0567      7.9541     19.2637     78.3316
  1394.5000      8.0824      2.5133      0.0809      8.2829     19.1209     74.9894
  1394.6000      8.0824      2.5003      0.0973      9.0713     19.1896     69.5788
  1394.7000      8.0824      2.4786      0.0333     10.3878     19.3161     66.0835
  1394.8000      8.0874      2.4488      0.0556     12.1935     19.2861     66.5008
  1394.9000      8.0874      2.4227     -0.0017     13.7762     19.0949     67.6807
  1395.0000      8.0867      2.4221      0.0138     13.8151     18.8516     67.2882
  1395.1000      8.0867      2.4482      0.0376     12.2329     18.3892     67.4908
  1395.2000      8.0867      2.4706      0.1230     10.8749     17.8296     69.1576
  1395.3000      8.0817      2.4657      0.0747     11.1701     17.5917     71.5637
  1395.4000      8.0817      2.4485      0.0038     12.2138     17.7315     73.4042
  1395.5000      8.0787      2.4414      0.0321     12.6411     18.1053     74.4403
  1395.6000      8.0787      2.4446      0.0351     12.4514     18.6714     77.4918
  1395.7000      8.0787      2.4484      0.0712     12.2211     19.2182     81.2960
  1395.8000      8.0778      2.4449      0.0689     12.4331     19.5048     82.3736
  1395.9000      8.0778      2.4399      0.0253     12.7306     19.8216     81.9450
  1396.0000      8.0751      2.4392      0.0745     12.7742     20.4800     81.0783
  1396.1000      8.0751      2.4302      0.0610     13.3216     20.9100     79.2012
  1396.2000      8.0751      2.4176     -0.0061     14.0879     20.6654     77.2998
  1396.3000      8.0656      2.4244      0.0172     13.6741     20.4985     76.3223
  1396.4000      8.0656      2.4484      0.0395     12.2197     21.0128     76.5067
  1396.5000      8.0575      2.4729      0.0514     10.7312     21.5283     78.0237
  1396.6000      8.0575      2.4934      0.0481      9.4904     21.3647     79.1418
  1396.7000      8.0575      2.5075      0.0504      8.6364     20.9900     76.1103
  1396.8000      8.0642      2.5109      0.0402      8.4328     20.9741     70.3269
  1396.9000      8.0642      2.5075      0.0411      8.6349     21.1878     67.1276
  1397.0000      8.0735      2.5017      0.0445      8.9906     21.3865     67.1961
  1397.1000      8.0735      2.4940      0.0084      9.4536     21.5525     68.2271
  1397.2000      8.0735      2.4936      0.0510      9.4817     21.7086     68.9133
  1397.3000      8.0762      2.5028      0.0547      8.9239     22.0937     69.9858
  1397.4000      8.0762      2.5079      0.0935      8.6110     22.8363     71.2399
  1397.5000      8.0752      2.5009      0.0397      9.0371     23.2032     69.9970
  1397.6000      8.0752      2.4938      0.0417      9.4643     22.8122     67.8808
  1397.7000      8.0752      2.5018      0.0370      8.9845     22.4661     68.8897
  1397.8000      8.0736      2.5206      0.0865      7.8427     22.7960     71.8014
  1397.9000      8.0736      2.5318      0.0585      7.1607     23.6971     74.4045
  1398.0000      8.0733      2.5303      0.0934      7.2552     24.8359     77.1662
  1398.1000      8.0733      2.5279      0.0289      7.4021     25.8727     80.3975
  1398.2000      8.0733      2.5389      0.0395      6.7321     26.5180     83.5537
  1398.3000      8.0685      2.5659      0.0391      5.0961     26.8308     87.0055
  1398.4000      8.0685      2.5914      0.1060      3.5493     27.1761     90.9027
  1398.5000      8.0625      2.5918      0.0411      3.5255     27.6608     94.9723
  1398.6000      8.0625      2.5669      0.0332      5.0374     28.0645    102.1638
  1398.7000      8.0625      2.5410     -0.0270      6.6073     28.3010    112.4556
  1398.8000      8.0658      2.5331      0.0118      7.0835     28.5007    117.9897
  1398.9000      8.0658      2.5454     -0.0539      6.3396     28.8321    115.1987
  1399.0000      8.0696      2.5772      0.0309      4.4110     29.1438    113.0766
  1399.1000      8.0696      2.6147      0.0419      2.1369     28.9345    118.5997
  1399.2000      8.0696      2.6282      0.0851      1.3206     28.2670    126.2524
  1399.3000      8.0690      2.6084      0.0506      2.5240     27.9511    129.3623
  1399.4000      8.0690      2.5858      0.0549      3.8907     28.3025    128.7379
  1399.5000      8.0694      2.5836      0.0534      4.0253     29.0465    125.5998
  1399.6000      8.0694      2.5912      0.0596      3.5636     29.8022    121.6069
  1399.7000      8.0694      2.5915      0.0621      3.5457     29.9914    120.0234
  1399.8000      8.0713      2.5793      0.0554      4.2858     29.3989    119.1271
  1399.9000      8.0713      2.5622      0.0200      5.3210     28.5813    114.1879
