~Version Information
VERS.                      2.0: CWLS Log ASCII Standard - VERSION 2.0
WRAP.                       NO: One line per depth step
~Well Information Block
STRT.FT               582.2500: 
STOP.FT              2642.5000: 
STEP.FT                 0.2500: 
NULL.                -999.2500: 
COMP.          Petrogulf Corporation: COMPANY
WELL.           Montoya 12-41V: WELL
FLD.           Purgatorie River: FIELD
LOC.           1081' FNL & 605' FEL: LOCATION
CNTY.               Las Animas: COUNTY
SRVC.                         : SERVICE COMPANY
DATE.          Tue Aug 10 10:59:28 2004: LOG DATE
UWI.           05 071 08094 00: UNIQUE WELL ID
STAT.                 Colorado: STATE
~Curve Information Block
DEPT.FT            0 000 00 00: Depth
SP.mV                         : DIL Spontaneous Potential
RILD.Ohm-m                    : DIL Deep Resistivity
RILM.Ohm-m                    : DIL Medium Resistivity
RLL3.Ohm-m                    : DIL Shallow Resistivity
GR.GAPI                       : Gamma Ray
~Parameter Information Block
~A  Depth        SP         RILD        RILM        RLL3         GR     
# ...
   610.2500   2000.0000    251.1445     66.8924   1998.0000     33.9133
   610.5000   2000.0000    253.3925     65.6210   1998.0000     34.1227
   610.7500   2000.0000    241.8338     64.6769   1998.0000     34.0363
   611.0000   2000.0000    219.5111     64.1687   1998.0000     34.3160
   611.2500   2000.0000    194.5159     64.0876   1998.0000     34.8751
   611.5000   2000.0000    173.3852     64.3063   1998.0000     35.8057
   611.7500   2000.0000    158.6752     64.5907   1998.0000     36.1661
   612.0000   2000.0000    150.4047     64.6439   1998.0000     36.1742
   612.2500   2000.0000    147.7474     64.1920   1998.0000     35.9387
   612.5000   2000.0000    149.8422     63.0899   1998.0000     35.3929
   612.7500   2000.0000    155.8186     61.3846   1998.0000     34.8841
   613.0000   2000.0000    164.4919     59.2955   1998.0000     33.8530
   613.2500   2000.0000    173.8890     57.1217   1998.0000     33.1102
   613.5000   2000.0000    181.2995     55.1437   1998.0000     32.3552
   613.7500   2000.0000    184.2842     53.5641   1998.0000     32.2763
   614.0000   2000.0000    182.0234     52.4923   1998.0000     32.7291
   614.2500   2000.0000    175.6238     51.9626   1998.0000     33.2299
   614.5000   2000.0000    167.2094     51.9527   1998.0000     33.9265
   614.7500   2000.0000    159.0546     52.4047   1998.0000     34.1440
   615.0000   2000.0000    153.1734     53.2387   1998.0000     33.8789
   615.2500   2000.0000    151.2215     54.3625   1998.0000     33.4689
   615.5000   2000.0000    154.2561     55.6862   1998.0000     33.4245
   615.7500   2000.0000    162.3108     57.1337   1998.0000     34.4402
   616.0000   2000.0000    173.4667     58.6569   1998.0000     38.2330
   616.2500   2000.0000    183.0322     60.2402   1998.0000     42.2606
   616.5000   2000.0000    185.3091     61.8851   1998.0000     49.8683
   616.7500   2000.0000    178.5081     63.5883   1998.0000     55.3190
   617.0000   2000.0000    166.6633     65.3073   1998.0000     62.8047
   617.2500   2000.0000    155.2355     66.9424   1998.0000     66.8112
   617.5000   2000.0000    147.2015     68.3278   1998.0000     71.2418
   617.7500   2000.0000    142.8289     69.2667   1998.0000     73.4833
   618.0000   2000.0000    140.7243     69.5877   1998.0000     76.4409
   618.2500   2000.0000    138.8277     69.2101   1998.0000     78.4297
   618.5000   2000.0000    135.4735     68.1883   1998.0000     82.1824
   618.7500   2000.0000    130.3238     66.6997   1998.0000     85.8629
   619.0000   2000.0000    124.5552     64.9963   1998.0000     93.6823
   619.2500   2000.0000    120.1256     63.3484   1998.0000     99.7738
   619.5000   2000.0000    119.0484     61.9918   1998.0000    107.9422
   619.7500   2000.0000    123.2173     61.1061   1998.0000    111.7090
   620.0000   2000.0000    134.6805     60.8100   1998.0000    114.6560
   620.2500   2000.0000    155.9671     61.1665   1998.0000    115.3322
   620.5000   2000.0000    189.6070     62.1914   1998.0000    115.2112
   620.7500   2000.0000    235.0292     63.8534   1998.0000    114.4868
   621.0000   2000.0000    281.5356     66.0736   1998.0000    112.2242
   621.2500   2000.0000    307.1044     68.7254   1998.0000    109.8304
   621.5000   2000.0000    299.3742     71.6237   1998.0000    105.0277
   621.7500   2000.0000    271.2943     74.5209   1998.0000    101.1401
   622.0000   2000.0000    242.0115     77.1115   1998.0000     94.3473
   622.2500   2000.0000    221.2160     79.0548   1998.0000     89.2814
   622.5000   2000.0000    211.1090     80.0333   1998.0000     81.7075
   622.7500   2000.0000    211.0909     79.8457   1998.0000     77.5408
   623.0000   2000.0000    219.4798     78.4909   1998.0000     73.9518
   623.2500   2000.0000    232.8304     76.1941   1998.0000     73.5240
   623.5000   2000.0000    245.0657     73.3447   1998.0000     74.9527
   623.7500   2000.0000    248.9841     70.3850   1998.0000     76.4683
   624.0000   2000.0000    241.6673     67.7041   1998.0000     78.7413
   624.2500   2000.0000    227.2900     65.5803   1998.0000     80.3421
   624.5000   2000.0000    212.5219     64.1673   1998.0000     83.3283
   624.7500   2000.0000    201.1404     63.5145   1998.0000     85.6013
   625.0000   2000.0000    192.6214     63.5816   1998.0000     88.4193
   625.2500   2000.0000    183.3927     64.2461   1998.0000     89.2318
   625.5000   2000.0000    169.6711     65.3006   1998.0000     88.2536
   625.7500   2000.0000    151.1699     66.4609   1998.0000     86.2402
   626.0000   2000.0000    131.5268     67.4029   1998.0000     82.1658
   626.2500   2000.0000    114.8111     67.8384   1998.0000     79.6529
   626.5000   2000.0000    102.9585     67.6217   1998.0000     77.5237
   626.7500   2000.0000     96.0102     66.8130   1998.0000     77.4224
   627.0000   2000.0000     93.0781     65.6575   1998.0000     78.6451
   627.2500   2000.0000     92.7915     64.4874   1998.0000     79.7711
   627.5000   2000.0000     93.3042     63.5988   1998.0000     81.0764
   627.7500   2000.0000     92.4645     63.1805   1998.0000     81.5181
   628.0000   2000.0000     88.6002     63.2718   1998.0000     81.9617
   628.2500   2000.0000     81.5575     63.7807   1998.0000     82.6342
   628.5000   2000.0000     72.6913     64.5120   1998.0000     84.9305
   628.7500   2000.0000     63.7541     65.2248   1998.0000     87.3180
   629.0000   2000.0000     55.9064     65.7092   1998.0000     91.4321
   629.2500   2000.0000     49.5843     65.8470   1998.0000     93.9668
   629.5000   2000.0000     44.7952     65.6279   1998.0000     96.9837
   629.7500   2000.0000     41.4428     65.1216   1998.0000     98.5902
   630.0000   2000.0000     39.5441     64.4324   1998.0000    100.8677
   630.2500   2000.0000     39.3612     63.6660   1998.0000    102.4356
   630.5000   2000.0000     41.5623     62.9234   1998.0000    104.5826
   630.7500   2000.0000     47.6382     62.3020   1998.0000    105.5113
   631.0000   2000.0000     61.2133     61.8900   1998.0000    105.8517
   631.2500   2000.0000     93.0949     61.7541   1998.0000    105.7156
   631.5000   2000.0000    191.0487     61.9124   1998.0000    106.0898
   631.7500   2000.0000   1156.9526     62.3166   1998.0000    107.0477
   632.0000   2000.0000 100000.0000     62.8378   1998.0000    108.6661
   632.2500   2000.0000 100000.0000     63.2900   1998.0000    108.8230
   632.5000   2000.0000 100000.0000     63.4727   1998.0000    106.6288
   632.7500   2000.0000   2646.4526     63.2363   1998.0000    103.9025
   633.0000   2000.0000    412.5438     62.5263   1998.0000     99.3456
   633.2500   2000.0000    234.1304     61.3928   1998.0000     96.4606
   633.5000   2000.0000    174.8911     59.9677   1998.0000     92.2227
   633.7500   2000.0000    147.2798     58.4098   1998.0000     89.3485
   634.0000   2000.0000    129.9801     56.8671   1998.0000     85.3957
   634.2500   2000.0000    114.3555     55.4559   1998.0000     83.3984
   634.5000   2000.0000     97.8448     54.2574   1998.0000     81.5493
   634.7500   2000.0000     82.5848     53.3117   1998.0000     80.8572
   635.0000   2000.0000     72.2437     52.6232   1998.0000     80.2356
   635.2500   2000.0000     70.4071     52.1952   1998.0000     80.0720
   635.5000   2000.0000     86.3197     51.9886   1998.0000     80.2686
   635.7500   2000.0000    215.6974     51.9066   1998.0000     80.6445
   636.0000   2000.0000 100000.0000     51.7695   1998.0000     81.4832
   636.2500   2000.0000 100000.0000     51.2651   1998.0000     82.2844
   636.5000   2000.0000 100000.0000     49.9312   1998.0000     84.0946
   636.7500   2000.0000 100000.0000     47.2886   1998.0000     85.9340
   637.0000   2000.0000 100000.0000     43.1319   1998.0000     90.3005
   637.2500   2000.0000 100000.0000     37.8086   1998.0000     94.6493
   637.5000   2000.0000 100000.0000     32.1211   1998.0000    103.0838
   637.7500   2000.0000     57.0153     26.8825   1998.0000    109.0964
   638.0000   2000.0000     14.7921     22.5758   1998.0000    116.5909
