~Version Information
VERS.                      2.0: CWLS Log ASCII Standard - VERSION 2.0
WRAP.                       NO: One line per depth step
~Well Information Block
STRT.FT               819.0000: 
STOP.FT              2497.0000: 
STEP.FT                 0.2500: 
NULL.                -999.2500: 
COMP.          Petrogulf Corporation: COMPANY
WELL.             State 16-21V: WELL
FLD.           Purgatorie River: FIELD
LOC.           1738' FWL & 332' FNL: LOCATION
PROV.                 Colorado: PROVINCE
CNTY.               Las Animas: COUNTRY
SRVC.          Patterson Wireline: SERVICE COMPANY
DATE.          Sun Jul 13 13:45:48 2003: LOG DATE
UWI.              05-071-07884: UNIQUE WELL ID 05 071 08829 00
~Curve Information Block
DEPT.FT            0 000 00 00: Depth
DCAL.in                       : CDL Caliper
RHOB.g/cc                     : CDL Bulk Density
RHOC.g/cc                     : CDL Density Correction
DPOR.pu                       : CDL Density Porosity
GR.GAPI                       : Gamma Ray
NPOR.pu                       : Neutron Porosity
~Parameter Information Block
~A  Depth       DCAL        RHOB        RHOC        DPOR         GR         NPOR    
# ...
  2379.0000      7.9093      2.4744      0.0580     10.6440    107.4135     23.9960
  2379.2500      7.9102      2.4779      0.0589     10.4329    108.3027     23.7812
  2379.5000      7.9111      2.4845      0.0590     10.0287    110.4760     23.1928
  2379.7500      7.9118      2.4895      0.0585      9.7297    112.0760     22.7530
  2380.0000      7.9096      2.4972      0.0582      9.2587    114.0207     22.1892
  2380.2500      7.9028      2.5026      0.0584      8.9319    114.9231     21.9099
  2380.5000      7.8966      2.5111      0.0587      8.4178    116.4990     21.6275
  2380.7500      7.8968      2.5171      0.0584      8.0567    118.5565     21.5087
  2381.0000      7.8983      2.5264      0.0569      7.4907    124.4651     21.3976
  2381.2500      7.8963      2.5328      0.0556      7.1060    130.5592     21.3866
  2381.5000      7.8920      2.5420      0.0535      6.5447    142.0686     21.5982
  2381.7500      7.8893      2.5477      0.0523      6.1995    150.0831     21.9630
  2382.0000      7.8884      2.5551      0.0516      5.7537    160.2294     22.7943
  2382.2500      7.8868      2.5590      0.0521      5.5174    164.9550     23.4107
  2382.5000      7.8864      2.5630      0.0544      5.2710    169.2771     24.2386
  2382.7500      7.8869      2.5644      0.0567      5.1885    171.1164     24.7147
  2383.0000      7.8858      2.5639      0.0611      5.2169    173.4732     25.4202
  2383.2500      7.8854      2.5613      0.0642      5.3786    174.8522     25.9259
  2383.5000      7.8879      2.5510      0.0682      5.9986    176.0028     26.6820
  2383.7500      7.8912      2.5371      0.0693      6.8440    175.8310     27.1190
  2384.0000      7.8917      2.4976      0.0674      9.2341    174.0041     27.6273
  2384.2500      7.8900      2.4536      0.0627     11.9031    171.7255     27.8956
  2384.5000      7.8889      2.3540      0.0473     17.9402    166.4988     28.2937
  2384.7500      7.8895      2.2654      0.0297     23.3076    161.4016     28.6341
  2385.0000      7.8907      2.1112     -0.0037     32.6567    150.2946     29.3794
  2385.2500      7.8937      2.0074     -0.0221     38.9431    140.3663     30.0526
  2385.5000      7.9020      1.8788     -0.0272     46.7414    123.3036     31.2361
  2385.7500      7.9323      1.8256     -0.0122     49.9623    112.4642     32.0403
  2386.0000      8.0414      1.8092      0.0280     50.9550    100.0622     33.0569
  2386.2500      8.3156      1.8408      0.0555     49.0419     94.8470     33.4638
  2386.5000      8.8281      1.9398      0.0808     43.0453     90.4625     33.4318
  2386.7500      9.3295      2.0281      0.0835     37.6939     89.1109     32.9228
  2387.0000      9.1845      2.1704      0.0722     29.0680     89.1349     31.5901
  2387.2500      8.4894      2.2593      0.0619     23.6776     90.3235     30.5610
  2387.5000      8.0340      2.3689      0.0514     17.0340     92.4561     29.2557
  2387.7500      7.9395      2.4225      0.0491     13.7894     93.1055     28.7009
  2388.0000      7.9438      2.4747      0.0503     10.6227     92.6422     28.3487
  2388.2500      7.9481      2.4941      0.0517      9.4477     92.2711     28.3337
  2388.5000      7.9385      2.5057      0.0510      8.7477     93.4322     28.4408
  2388.7500      7.9178      2.5032      0.0488      8.8950     95.6133     28.5262
  2389.0000      7.9011      2.4826      0.0446     10.1429     99.9449     28.6529
  2389.2500      7.8995      2.4544      0.0417     11.8550    102.7789     28.7537
  2389.5000      7.9134      2.3841      0.0330     16.1173    106.3129     28.9551
  2389.7500      7.9343      2.3174      0.0202     20.1576    107.8925     29.1315
  2390.0000      7.9460      2.1949     -0.0086     27.5797    107.8925     29.5015
  2390.2500      7.9492      2.1085     -0.0235     32.8169    105.6186     29.8717
  2390.5000      7.9603      1.9951     -0.0148     39.6892     99.4547     30.7081
  2390.7500      8.0041      1.9431      0.0152     42.8395     95.2498     31.4343
  2391.0000      8.1126      1.9143      0.0765     44.5849     92.4774     32.4793
  2391.2500      8.3526      1.9299      0.1122     43.6440     94.3620     32.8407
  2391.5000      8.7277      1.9996      0.1422     39.4202    102.5196     32.4059
  2391.7500      8.9637      2.0698      0.1471     35.1610    109.7305     31.3833
  2392.0000      8.7736      2.1946      0.1425     27.6006    118.4922     29.0125
  2392.2500      8.2962      2.2800      0.1365     22.4256    120.5614     27.1475
  2392.5000      7.9772      2.3947      0.1250     15.4712    116.7279     24.3425
  2392.7500      7.8807      2.4557      0.1149     11.7769    110.6244     22.6358
  2393.0000      7.8622      2.5200      0.0978      7.8801     99.5632     20.5063
  2393.2500      7.8529      2.5466      0.0869      6.2671     92.7764     19.4148
  2393.5000      7.8376      2.5691      0.0745      4.9023     85.2441     18.2107
  2393.7500      7.8356      2.5769      0.0700      4.4325     82.1239     17.6432
  2394.0000      7.8459      2.5832      0.0690      4.0499     79.8992     17.1562
  2394.2500      7.8497      2.5858      0.0704      3.8919     80.1643     17.1380
  2394.5000      7.8405      2.5892      0.0718      3.6873     84.4219     17.6378
  2394.7500      7.8240      2.5918      0.0713      3.5277     90.7427     18.2759
  2395.0000      7.8119      2.5972      0.0710      3.2021    106.0596     19.4814
  2395.2500      7.8058      2.6016      0.0737      2.9338    119.5026     20.3146
  2395.5000      7.8043      2.6075      0.0837      2.5760    141.5854     21.4369
  2395.7500      7.8066      2.6087      0.0916      2.5040    155.2907     22.0393
  2396.0000      7.8095      2.6019      0.0971      2.9157    170.6015     22.6774
  2396.2500      7.8144      2.5900      0.0932      3.6393    175.7287     22.9321
  2396.5000      7.8244      2.5617      0.0780      5.3534    174.7000     23.1072
  2396.7500      7.8359      2.5388      0.0667      6.7385    168.8283     23.1277
  2397.0000      7.8424      2.5063      0.0575      8.7069    155.1301     23.0933
  2397.2500      7.8408      2.4905      0.0584      9.6695    144.4765     23.0426
  2397.5000      7.8394      2.4801      0.0658     10.2965    127.7973     22.8270
  2397.7500      7.8453      2.4824      0.0706     10.1572    116.6532     22.4972
  2398.0000      7.8513      2.4960      0.0731      9.3311    101.1172     21.7185
  2398.2500      7.8564      2.5086      0.0714      8.5679     92.4026     21.1470
  2398.5000      7.8613      2.5275      0.0666      7.4227     82.3890     20.4924
  2398.7500      7.8635      2.5382      0.0637      6.7786     77.4940     20.2419
  2399.0000      7.8620      2.5499      0.0611      6.0643     72.1899     20.0240
  2399.2500      7.8594      2.5553      0.0608      5.7409     69.8089     19.8973
  2399.5000      7.8572      2.5607      0.0622      5.4148     67.7116     19.7091
  2399.7500      7.8562      2.5632      0.0640      5.2588     67.0362     19.6361
  2400.0000      7.8552      2.5666      0.0678      5.0558     66.6592     19.7114
  2400.2500      7.8514      2.5688      0.0706      4.9186     66.7862     19.9026
  2400.5000      7.8489      2.5726      0.0740      4.6935     67.9304     20.3260
  2400.7500      7.8526      2.5752      0.0756      4.5319     69.5672     20.6269
  2401.0000      7.8570      2.5792      0.0773      4.2906     73.0993     21.0219
  2401.2500      7.8587      2.5815      0.0782      4.1491     75.5669     21.2280
  2401.5000      7.8588      2.5839      0.0789      4.0041     78.3179     21.4287
  2401.7500      7.8591      2.5845      0.0776      3.9702     79.4825     21.4907
  2402.0000      7.8587      2.5837      0.0714      4.0188     81.7586     21.5638
  2402.2500      7.8569      2.5823      0.0647      4.1005     85.0110     21.6840
  2402.5000      7.8554      2.5800      0.0531      4.2428     94.1105     22.0005
  2402.7500      7.8585      2.5788      0.0463      4.3164    102.8207     22.1994
