~Version Information
VERS.                      2.0: CWLS Log ASCII Standard - VERSION 2.0
WRAP.                       NO: One line per depth step
~Well Information Block
STRT.FT               554.1000: 
STOP.FT              2173.5000: 
STEP.FT                 0.1000: 
NULL.                -999.2500: 
COMP.          Petrogulf Corporation: COMPANY
WELL.            Montoya 6-14R: WELL
FLD.           Purgatorie River: FIELD
LOC.           867' FSL & 751' FWL: LOCATION
CNTY.               Las Animas: COUNTY
SRVC.                         : SERVICE COMPANY
DATE.          Mon Nov 15 06:14:10 2004: LOG DATE
UWI.           05 071 08242 00: UNIQUE WELL ID
STAT.                 Colorado: STATE
~Curve Information Block
DEPT.FT            0 000 00 00: Depth
DCAL.in                       : CDL Caliper
RHOB.g/cc                     : CDL Bulk Density
RHOC.g/cc                     : CDL Density Correction
DPOR.pu                       : CDL Density Porosity
GR.GAPI                       : Gamma Ray
NPOR.pu                       : Neutron Porosity
~Parameter Information Block
~A  Depth       DCAL        RHOB        RHOC        DPOR         GR         NPOR    
# ...
  1734.9000      7.9031      2.5770      0.0557      4.4242    123.6394     22.9224
  1735.0000      7.8928      2.5825      0.0827      4.0937    126.2448     23.3733
  1735.1000      7.8928      2.5843      0.0464      3.9811    128.5705     23.7136
  1735.2000      7.8928      2.5913      0.0825      3.5558    124.4041     23.7289
  1735.3000      7.8860      2.6019      0.0910      2.9138    115.7497     23.3987
  1735.4000      7.8860      2.6082      0.0665      2.5334    111.5009     23.0750
  1735.5000      7.8841      2.6101      0.0443      2.4196    115.1633     22.5745
  1735.6000      7.8841      2.6107      0.0842      2.3791    118.3852     21.4776
  1735.7000      7.8841      2.6172      0.0499      1.9877    114.4535     20.2295
  1735.8000      7.8840      2.6384      0.0898      0.7029    107.0943     19.6296
  1735.9000      7.8840      2.6633      0.1003     -0.8085    100.1342     19.6487
  1736.0000      7.8858      2.6706      0.0664     -1.2480     96.1531     19.7262
  1736.1000      7.8858      2.6575      0.0552     -0.4559     97.8194     19.6676
  1736.2000      7.8858      2.6349      0.0534      0.9135    103.0519     19.6000
  1736.3000      7.8907      2.6116      0.0580      2.3275    106.5125     19.6339
  1736.4000      7.8907      2.5956      0.0052      3.2968    105.4573     20.0726
  1736.5000      7.9079      2.5915      0.0396      3.5469    101.6732     20.8838
  1736.6000      7.9079      2.5913      0.0446      3.5555     99.7795     21.4014
  1736.7000      7.9079      2.5870      0.0434      3.8165    100.9393     21.1964
  1736.8000      7.9416      2.5788      0.0507      4.3136    102.7243     20.6048
  1736.9000      7.9416      2.5635      0.0486      5.2445    104.3076     20.2043
  1737.0000      7.9530      2.5344      0.0199      7.0089    104.4951     20.4118
  1737.1000      7.9530      2.5083      0.0035      8.5899    103.3291     21.5089
  1737.2000      7.9530      2.5167      0.0086      8.0775    103.1235     22.8735
  1737.3000      7.9177      2.5547      0.0627      5.7781    106.2223     23.4074
  1737.4000      7.9177      2.5849      0.0662      3.9480    112.4960     22.9678
  1737.5000      7.8778      2.5919      0.0800      3.5198    116.1700     22.2461
  1737.6000      7.8778      2.5916      0.0868      3.5382    113.3813     21.8160
  1737.7000      7.8778      2.6016      0.0596      2.9362    109.3961     21.7473
  1737.8000      7.8561      2.6177      0.1572      1.9588    108.0406     22.1983
  1737.9000      7.8561      2.6252      0.1061      1.5047    106.8400     23.0455
  1738.0000      7.8720      2.6232      0.1408      1.6264    104.1778     23.4343
  1738.1000      7.8720      2.6169      0.0544      2.0040    103.1171     22.4878
  1738.2000      7.8720      2.6117      0.0941      2.3199    105.9556     20.8091
  1738.3000      7.9249      2.6048      0.0750      2.7423    107.2405     19.9684
  1738.4000      7.9249      2.5933      0.0231      3.4339    101.4132     19.9926
  1738.5000      7.9409      2.5900      0.0327      3.6386     92.2179     19.8751
  1738.6000      7.9409      2.5979      0.0703      3.1604     86.8847     19.3575
  1738.7000      7.9409      2.6012      0.0844      2.9546     85.8216     18.7874
  1738.8000      7.8865      2.5961      0.0352      3.2669     85.4720     18.3853
  1738.9000      7.8865      2.5931      0.0434      3.4490     85.3853     18.2248
  1739.0000      7.8415      2.5950      0.0436      3.3350     85.8415     18.5055
  1739.1000      7.8415      2.6028      0.0238      2.8580     84.3179     18.9763
  1739.2000      7.8415      2.6174      0.0686      1.9733     81.1344     19.0444
  1739.3000      7.8421      2.6327      0.0514      1.0463     77.4012     18.8024
  1739.4000      7.8421      2.6430      0.0675      0.4247     74.4868     18.7067
  1739.5000      7.8646      2.6375      0.0795      0.7546     75.4296     18.6890
  1739.6000      7.8646      2.6140      0.0308      2.1824     78.2125     18.5639
  1739.7000      7.8646      2.5915      0.0313      3.5441     78.8815     18.6280
  1739.8000      7.8742      2.5857      0.0125      3.8963     76.8127     19.2495
  1739.9000      7.8742      2.5982      0.0108      3.1401     74.7186     20.1506
  1740.0000      7.8693      2.6173      0.0621      1.9818     75.2354     20.3650
  1740.1000      7.8693      2.6226      0.0701      1.6616     77.4510     19.6536
  1740.2000      7.8693      2.6072      0.0605      2.5921     80.0685     18.9882
  1740.3000      7.8621      2.5808      0.0520      4.1964     82.0526     18.8833
  1740.4000      7.8621      2.5567      0.0122      5.6550     82.8432     19.0052
  1740.5000      7.8427      2.5471      0.0106      6.2366     83.3913     19.2792
  1740.6000      7.8427      2.5507      0.0345      6.0160     83.6789     19.7605
  1740.7000      7.8427      2.5555      0.0176      5.7273     82.5041     20.2652
  1740.8000      7.8253      2.5599      0.0169      5.4592     80.4094     20.6482
  1740.9000      7.8253      2.5734      0.0187      4.6412     78.7053     20.5588
  1741.0000      7.8136      2.5996      0.0438      3.0552     79.9025     19.9399
  1741.1000      7.8136      2.6309      0.0769      1.1604     84.0469     19.3240
  1741.2000      7.8136      2.6549      0.1174     -0.2969     85.6438     19.1505
  1741.3000      7.7993      2.6626      0.1168     -0.7627     82.7546     19.5338
  1741.4000      7.7993      2.6519      0.1058     -0.1136     78.5593     20.2067
  1741.5000      7.7980      2.6294      0.0890      1.2460     74.5564     20.7744
  1741.6000      7.7980      2.6073      0.0683      2.5886     71.0742     21.2521
  1741.7000      7.7980      2.5913      0.0587      3.5579     70.9696     21.8406
  1741.8000      7.8140      2.5813      0.0208      4.1655     75.0002     22.3251
  1741.9000      7.8140      2.5828      0.0241      4.0700     78.1270     22.2265
  1742.0000      7.8303      2.5946      0.0375      3.3579     78.4272     21.0447
  1742.1000      7.8303      2.5970      0.0475      3.2113     80.0520     19.0310
  1742.2000      7.8303      2.5815      0.0305      4.1505     82.9808     17.5536
  1742.3000      7.8419      2.5703     -0.0278      4.8291     82.8470     17.6273
  1742.4000      7.8419      2.5792      0.0046      4.2936     80.5620     18.7811
  1742.5000      7.8506      2.5895      0.0478      3.6645     79.2193     19.6137
  1742.6000      7.8506      2.5830      0.0578      4.0591     77.4116     19.5227
  1742.7000      7.8506      2.5654      0.0323      5.1248     74.9229     19.3724
  1742.8000      7.8499      2.5484      0.0430      6.1600     75.7827     19.6294
  1742.9000      7.8499      2.5368      0.0233      6.8624     80.8395     19.8821
  1743.0000      7.8424      2.5364      0.0130      6.8875     85.9725     20.1036
  1743.1000      7.8424      2.5464      0.0484      6.2763     88.0485     20.5106
  1743.2000      7.8424      2.5555      0.0573      5.7280     86.7456     20.9163
  1743.3000      7.8319      2.5645      0.0162      5.1835     85.1594     20.8280
  1743.4000      7.8319      2.5843      0.0564      3.9815     87.3031     20.4884
  1743.5000      7.8262      2.6107      0.0817      2.3840     91.8035     20.5191
  1743.6000      7.8262      2.6316      0.1036      1.1176     94.6048     20.7514
  1743.7000      7.8262      2.6381      0.1223      0.7241     94.9258     20.8565
  1743.8000      7.8278      2.6338      0.0681      0.9807     95.3287     20.7143
  1743.9000      7.8278      2.6293      0.0880      1.2559     94.5774     20.1465
  1744.0000      7.8309      2.6212      0.1047      1.7479     92.1674     19.5141
  1744.1000      7.8309      2.6091      0.0820      2.4762     91.7236     19.4259
  1744.2000      7.8309      2.6064      0.0726      2.6437     91.2519     19.4672
  1744.3000      7.8366      2.6152      0.1026      2.1062     85.9511     18.7956
  1744.4000      7.8366      2.6232      0.0734      1.6254     77.3323     17.7396
