~Version Information
VERS.                      2.0: CWLS Log ASCII Standard - VERSION 2.0
WRAP.                       NO: One line per depth step
~Well Information Block
STRT.FT               528.0000: 
STOP.FT              2250.0000: 
STEP.FT                 0.1000: 
NULL.                -999.2500: 
COMP.          Pioneer Natural Resources: COMPANY
WELL.           Parklane 43-34: WELL
FLD.           Purgatorie River: FIELD
LOC.           1704' FSL & 1119' FEL: LOCATION
PROV.                 Colorado: PROVINCE
CNTY.               Las Animas: COUNTRY
SRVC.                         : SERVICE COMPANY
DATE.          Thu Oct 07 08:21:17 2004: LOG DATE
UWI.           05 071 08162 00: UNIQUE WELL ID
~Curve Information Block
DEPT.FT            0 000 00 00: Depth
LTEN.lb                       : Surface Line Tension
DCAL.in                       : CDL Caliper
RHOB.g/cc                     : CDL Bulk Density
RHOC.g/cc                     : CDL Density Correction
DPOR.pu                       : CDL Density Porosity
GR.GAPI                       : Gamma Ray
NPOR.pu                       : Neutron Porosity
~Parameter Information Block
~A  Depth       LTEN        DCAL        RHOB        RHOC        DPOR         GR         NPOR    
# ...
  1216.8000    905.1472      8.6643      1.6601      0.0412     59.9919     90.2729     31.9129
  1216.9000    905.1472      8.6643      1.7354      0.1280     55.4301     93.8331     32.1140
  1217.0000    947.3311      8.6892      1.8086      0.1621     50.9941    101.1968     32.8559
  1217.1000    947.3311      8.6892      1.8849      0.1419     46.3673    107.9839     33.5302
  1217.2000    947.3311      8.6892      1.9788      0.1610     40.6810    112.3670     33.5128
  1217.3000    954.3109      8.7043      2.0800      0.1649     34.5455    111.6589     32.8710
  1217.4000    954.3109      8.7043      2.1586      0.1473     29.7843    106.3738     32.1644
  1217.5000    913.4311      8.7429      2.1973      0.1541     27.4359    101.4802     31.2813
  1217.6000    913.4311      8.7429      2.2128      0.0915     26.4982    100.4926     29.7870
  1217.7000    913.4311      8.7429      2.2386      0.1681     24.9356    102.3533     28.0598
  1217.8000    944.5735      8.8301      2.2795      0.2788     22.4558    103.2536     26.9658
  1217.9000    944.5735      8.8301      2.3084      0.3277     20.7039    102.8833     26.8460
  1218.0000    940.7604      8.8819      2.3056      0.2643     20.8709    104.1930     27.6099
  1218.1000    940.7604      8.8819      2.2765      0.2220     22.6376    106.5940     29.0403
  1218.2000    940.7604      8.8819      2.2382      0.1895     24.9604    105.7696     30.3017
  1218.3000    927.9958      8.8497      2.2020      0.2250     27.1520    102.3600     30.8424
  1218.4000    927.9958      8.8497      2.1535      0.2779     30.0930    100.6831     31.0159
  1218.5000    975.3323      8.7994      2.0663      0.2509     35.3750     97.7461     31.1132
  1218.6000    975.3323      8.7994      1.9421      0.1756     42.9007     91.6960     31.5851
  1218.7000    975.3323      8.7994      1.8082      0.1278     51.0197     87.5509     32.2069
  1218.8000    916.1622      8.7541      1.6849      0.0480     58.4920     87.4970     31.8514
  1218.9000    916.1622      8.7541      1.5798      0.0248     64.8599     86.6576     30.8035
  1219.0000    954.2811      8.7298      1.5027      0.0133     69.5313     80.7254     30.4733
  1219.1000    954.2811      8.7298      1.4645      0.0349     71.8486     75.1915     30.9083
  1219.2000    954.2811      8.7298      1.4663      0.0295     71.7401     74.9655     31.7107
  1219.3000    928.4991      8.7273      1.5058      0.0126     69.3444     77.8721     32.9064
  1219.4000    928.4991      8.7273      1.5834      0.0383     64.6446     83.0514     33.8456
  1219.5000    928.7056      8.7269      1.6870      0.1107     58.3632     89.1743     33.7586
  1219.6000    928.7056      8.7269      1.7871      0.1745     52.2986     92.7076     33.0646
  1219.7000    928.7056      8.7269      1.8633      0.1909     47.6761     95.7773     32.4264
  1219.8000    943.0256      8.7228      1.9229      0.1597     44.0675    103.2079     32.0658
  1219.9000    943.0256      8.7228      1.9762      0.1575     40.8340    111.0315     32.2125
  1220.0000    915.9684      8.7184      2.0161      0.1462     38.4167    114.6065     32.5276
  1220.1000    915.9684      8.7184      2.0418      0.0686     36.8591    119.3506     32.2848
  1220.2000    915.9684      8.7184      2.0761     -0.0135     34.7836    127.6053     31.5416
  1220.3000    909.5864      8.7153      2.1356      0.0240     31.1779    132.8837     31.0596
  1220.4000    909.5864      8.7153      2.2141      0.1015     26.4161    131.4991     31.0702
  1220.5000    987.2353      8.7122      2.2971      0.2262     21.3907    127.3613     30.9226
  1220.6000    987.2353      8.7122      2.3645      0.3073     17.3034    124.8164     29.6939
  1220.7000    987.2353      8.7122      2.3965      0.3878     15.3662    122.9631     27.7057
  1220.8000    919.6862      8.7105      2.3828      0.3857     16.1918    121.4471     26.6528
  1220.9000    919.6862      8.7105      2.3339      0.3196     19.1574    121.8045     26.9559
  1221.0000    912.6490      8.7113      2.2828      0.2679     22.2525    122.1363     27.4961
  1221.1000    912.6490      8.7113      2.2611      0.2398     23.5677    122.4577     28.0017
  1221.2000    912.6490      8.7113      2.2729      0.2302     22.8527    126.8540     28.7842
  1221.3000    950.4512      8.7112      2.2964      0.2625     21.4295    133.6514     29.4656
  1221.4000    950.4512      8.7112      2.3129      0.2622     20.4300    134.7770     29.8104
  1221.5000    943.6861      8.7131      2.3278      0.2865     19.5289    127.2831     29.7883
  1221.6000    943.6861      8.7131      2.3511      0.3664     18.1162    119.3744     29.5656
  1221.7000    943.6861      8.7131      2.3794      0.3551     16.3989    120.0983     29.4277
  1221.8000    955.2844      8.7175      2.4009      0.3185     15.1000    129.0491     29.0772
  1221.9000    955.2844      8.7175      2.4000      0.2480     15.1521    136.8113     28.3896
  1222.0000    908.2622      8.7183      2.3663      0.1688     17.1944    137.5292     27.5970
  1222.1000    908.2622      8.7183      2.3006      0.1164     21.1775    137.8855     27.2975
  1222.2000    908.2622      8.7183      2.2190      0.0702     26.1211    142.5435     28.0878
  1222.3000    896.5184      8.7314      2.1437      0.0867     30.6871    144.8280     29.4499
  1222.4000    896.5184      8.7314      2.0718      0.1170     35.0427    142.8368     30.4718
  1222.5000    965.3022      8.7705      1.9881      0.0392     40.1147    140.1157     31.2473
  1222.6000    965.3022      8.7705      1.9053      0.0143     45.1307    135.8536     32.1520
  1222.7000    965.3022      8.7705      1.8590     -0.0321     47.9390    130.5699     32.9446
  1222.8000    893.6329      8.8504      1.8759      0.0169     46.9135    127.4795     33.1183
  1222.9000    893.6329      8.8504      1.9528      0.0862     42.2563    126.6242     32.7621
  1223.0000    951.4424      9.0617      2.0633      0.1881     35.5577    126.4244     32.6294
  1223.1000    951.4424      9.0617      2.1715      0.3706     28.9988    126.7237     32.9318
  1223.2000    951.4424      9.0617      2.2398      0.4270     24.8590    126.9466     33.1747
  1223.3000    943.6847      9.3813      2.2464      0.4701     24.4583    125.3346     32.9409
  1223.4000    943.6847      9.3813      2.2022      0.3133     27.1413    122.3325     32.2828
  1223.5000    916.3716      9.4910      2.1386      0.2643     30.9950    118.9213     31.3989
  1223.6000    916.3716      9.4910      2.0670      0.1739     35.3317    115.5907     30.4424
  1223.7000    916.3716      9.4910      1.9909      0.0038     39.9425    114.6659     30.3634
  1223.8000    956.9222      9.3381      1.9318     -0.0011     43.5283    115.7900     31.4460
  1223.9000    956.9222      9.3381      1.9137      0.0170     44.6237    115.0270     32.3435
  1224.0000    934.7075      9.4258      1.9524      0.0825     42.2802    110.6907     32.3472
  1224.1000    934.7075      9.4258      2.0278      0.3153     37.7074    107.8673     32.0804
  1224.2000    934.7075      9.4258      2.0830      0.3769     34.3664    108.8965     31.9336
  1224.3000    902.8383      9.9198      2.0844      0.3505     34.2781    109.1239     32.0611
  1224.4000    902.8383      9.9198      2.0419      0.3459     36.8572    107.9827     32.2814
  1224.5000    968.7136     10.4185      1.9810      0.3134     40.5475    107.9346     31.7348
  1224.6000    968.7136     10.4185      1.9341      0.2819     43.3899    108.5190     30.6078
  1224.7000    968.7136     10.4185      1.9271      0.2634     43.8130    106.0651     30.0717
  1224.8000    949.6995     10.5346      1.9584      0.2633     41.9145    101.3147     30.2941
  1224.9000    949.6995     10.5346      2.0040      0.2697     39.1524    101.4124     30.9908
  1225.0000    967.3063     10.2870      2.0410      0.2893     36.9111    107.0587     32.0299
  1225.1000    967.3063     10.2870      2.0646      0.3068     35.4761    110.8020     32.7943
