~Version Information
VERS.                      2.0: CWLS Log ASCII Standard - VERSION 2.0
WRAP.                       NO: One line per depth step
~Well Information Block
STRT.FT               550.0000: 
STOP.FT              2042.5000: 
STEP.FT                 0.2500: 
NULL.                -999.2500: 
COMP.          Petrogulf Corporation: COMPANY
WELL.          Robinson 15-12V: WELL
FLD.           Purgatorie River: FIELD
LOC.           1788' FNL & 466' FWL: LOCATION
PROV.                 Colorado: PROVINCE
CNTY.               Las Animas: COUNTRY
SRVC.                Patterson: SERVICE COMPANY
DATE.          Mon Sep 12 10:04:59 2005: LOG DATE
UWI.                          : UNIQUE WELL ID
~Curve Information Block
DEPT.FT            0 000 00 00: Depth
SP.mV                         : DIL Spontaneous Potential
RILD.Ohm-m                    : DIL Deep Resistivity
RILM.Ohm-m                    : DIL Medium Resistivity
RLL3.Ohm-m                    : DIL Shallow Resistivity
GR.GAPI                       : Gamma Ray
~Parameter Information Block
~A  Depth        SP         RILD        RILM        RLL3         GR     
# ...
  1222.0000    176.1312     10.8475     12.4577     16.6472    160.7822
  1222.2500    175.8905     10.0509     11.9225     19.2015    159.0592
  1222.5000    176.1917      9.7514     11.0531     14.5856    164.6893
  1222.7500    176.6095      9.2096     10.2678     11.0196    168.6977
  1223.0000    176.4916      8.8709      9.4697      9.0780    171.9436
  1223.2500    177.2629      8.5478      8.9595      8.4991    169.7780
  1223.5000    176.7973      8.5540      8.7245      8.0836    178.9181
  1223.7500    176.8905      8.5821      8.3535      8.2438    181.0745
  1224.0000    177.1713      8.2061      8.0940      8.1791    175.1143
  1224.2500    177.0969      8.0747      7.9058      8.2998    168.2008
  1224.5000    177.2654      7.9144      7.7495      8.2264    168.8836
  1224.7500    177.3764      7.6654      7.5114      7.9282    172.2097
  1225.0000    177.7354      7.4500      7.2425      7.6392    185.8052
  1225.2500    178.3711      7.4102      7.0280      7.4000    186.2805
  1225.5000    178.2217      7.3066      6.9671      7.1251    187.4761
  1225.7500    178.3960      7.1516      6.9533      7.1594    184.8151
  1226.0000    179.0610      7.2559      7.1324      7.3201    184.0285
  1226.2500    179.3027      7.2375      7.2149      7.9150    183.7017
  1226.5000    179.7310      7.1962      7.3395      8.6648    177.4949
  1226.7500    180.3023      7.2634      7.3885      8.6658    178.4024
  1227.0000    180.9354      7.3147      7.4952      8.4108    193.9221
  1227.2500    180.9408      7.2815      7.5404      8.4894    190.8015
  1227.5000    180.1485      7.2243      7.5007      8.7104    167.4283
  1227.7500    179.6146      7.2744      7.6791      8.7836    171.2793
  1228.0000    179.3229      7.3000      7.6455      8.6855    179.7041
  1228.2500    179.1936      7.3263      7.6622      8.5063    182.4696
  1228.5000    179.1651      7.2761      7.6423      8.2751    191.8483
  1228.7500    178.9753      7.2020      7.6748      8.0064    185.0214
  1229.0000    179.1183      7.2171      7.5583      8.2647    196.1100
  1229.2500    179.0536      7.2560      7.5467      8.1517    196.0513
  1229.5000    178.7678      7.3840      7.4996      8.0263    196.8016
  1229.7500    178.4120      7.4200      7.2755      7.8392    188.9066
  1230.0000    178.5906      7.4808      7.1407      7.5269    194.9156
  1230.2500    178.7719      7.5159      7.1497      7.0348    203.4891
  1230.5000    178.9857      7.4890      7.1891      6.9685    191.5581
  1230.7500    179.2015      7.5454      7.2584      6.9672    182.7602
  1231.0000    179.3770      7.5021      7.5567      7.3251    188.9094
  1231.2500    179.5301      7.4809      7.9524      8.6778    179.7383
  1231.5000    180.0734      7.4770      8.1067      9.9658    176.3080
  1231.7500    179.9786      7.4486      8.2623     10.5518    169.0255
  1232.0000    180.2109      7.5007      8.2771     10.4587    158.3505
  1232.2500    180.8072      7.3491      8.1629     10.2826    166.6854
  1232.5000    180.3357      7.5028      8.1330      9.6898    178.2213
  1232.7500    179.5574      7.6127      7.9614      9.0806    178.5564
  1233.0000    180.0265      7.7316      7.9386      8.3836    175.0559
  1233.2500    178.8476      7.8072      7.9561      7.9086    169.4668
  1233.5000    179.1479      7.8209      8.0247      8.1911    166.2490
  1233.7500    178.8660      7.7650      8.0653      8.8310    170.1545
  1234.0000    178.9268      7.8218      8.0812      8.9479    175.0151
  1234.2500    178.9248      7.6824      8.0873      9.1488    171.6557
  1234.5000    178.3624      7.7054      7.9097      8.7010    166.4562
  1234.7500    178.8194      7.6958      7.8927      8.2331    171.4541
  1235.0000    178.5965      7.7376      7.8309      7.9153    182.1857
  1235.2500    177.3207      7.7561      7.7295      7.8615    167.1165
  1235.5000    177.5034      7.8253      7.7305      8.1494    163.7128
  1235.7500    177.8300      7.8065      7.7650      8.2499    169.1970
  1236.0000    177.8788      7.7791      7.9429      8.2827    164.6072
  1236.2500    176.7341      7.8189      7.9232      8.2617    170.4201
  1236.5000    176.9779      7.9538      8.0005      8.2867    180.8429
  1236.7500    176.7528      7.9577      8.1205      8.3024    168.2976
  1237.0000    177.2405      7.9721      8.3372      8.4672    166.8382
  1237.2500    176.6090      8.0998      8.4826      9.1994    165.4778
  1237.5000    177.2275      8.0521      8.7228     10.4250    160.7282
  1237.7500    177.4261      8.0365      8.7614     11.1389    156.2142
  1238.0000    176.5957      8.1899      8.7520     10.8330    158.1691
  1238.2500    176.6579      8.2227      8.4909      9.7265    159.8781
  1238.5000    176.9729      8.3350      8.4118      8.6463    162.3821
  1238.7500    176.3527      8.4647      8.3238      8.0893    166.2207
  1239.0000    175.8959      8.5367      8.4311      8.0252    174.9241
  1239.2500    176.0096      8.8229      8.5030      8.2564    179.2280
  1239.5000    176.2625      9.1216      8.7221      8.7640    171.7370
  1239.7500    175.2867      9.4045      9.1999      8.9562    162.6744
  1240.0000    175.5110      9.4727      9.6397      8.6125    152.6149
  1240.2500    176.1451      9.5779      9.8849      8.2859    143.4135
  1240.5000    175.8249      9.6992     10.7043      9.3138    112.3501
  1240.7500    175.5970      9.4560     11.4385     13.6466     97.7353
  1241.0000    175.8510      9.4700     12.0198     24.7841     95.6162
  1241.2500    176.8961      9.4757     12.3578     39.9496     96.1220
  1241.5000    176.4495      9.4095     12.4347     36.9626     94.5916
  1241.7500    176.8231      9.2957     11.7322     29.7776    100.9023
  1242.0000    177.1736      9.3391     11.1168     21.7954    123.4346
  1242.2500    177.3799      9.7141     10.3857     14.3772    133.3635
  1242.5000    177.4816     10.0087      9.9011     10.4068    169.4014
  1242.7500    176.7917     10.4930      9.5655      8.1114    174.6801
  1243.0000    177.1910     11.1793      9.4229      7.6227    189.0650
  1243.2500    177.4468     11.7239      9.6202      7.5621    185.4811
  1243.5000    176.6331     11.8420     10.0684      7.5474    170.1911
  1243.7500    177.3154     12.1488     10.8473      7.8536    147.0992
  1244.0000    177.6232     12.0794     12.0524     11.8487    110.7923
  1244.2500    178.0327     11.8410     12.7251     22.0047     99.6520
  1244.5000    178.2438     12.2191     14.2590     34.2532     80.2678
  1244.7500    178.2830     12.3710     15.1518     37.7467     76.2779
  1245.0000    178.2531     12.5705     16.0159     38.4372     83.8243
  1245.2500    178.1573     13.1333     16.7843     38.1561     80.8410
  1245.5000    177.7720     13.7479     17.5405     37.1203     86.7275
  1245.7500    178.3113     15.0213     18.8450     32.1987     94.6905
  1246.0000    178.0186     16.3310     19.1475     27.5138    101.1375
  1246.2500    177.2896     18.0396     20.6028     23.2549    110.2784
  1246.5000    177.4491     19.0681     22.6241     21.5852    121.7972
  1246.7500    177.5563     20.0728     23.4756     20.3999    115.9548
  1247.0000    178.4876     20.6464     24.7076     20.6281    130.4514
  1247.2500    178.1124     21.6408     27.3177     24.4037    121.3520
  1247.5000    178.1026     21.9607     27.0692     29.8745    129.6418
  1247.7500    178.8454     23.4479     29.2326     32.9761    126.5810
  1248.0000    178.1777     23.8477     32.5847     35.7170    106.1828
  1248.2500    178.2269     22.3220     32.2073     38.0867    107.0493
  1248.5000    179.2432     24.2082     31.7437     39.6275     92.2342
  1248.7500    178.7635     24.1067     32.2246     39.8091     86.5526
  1249.0000    178.4734     24.6258     32.9688     38.8600     92.1628
  1249.2500    179.2540     25.7459     34.3988     37.2354     86.6076
  1249.5000    179.0625     25.3532     32.7198     35.9148     93.5767
  1249.7500    179.8923     24.9384     32.2687     34.7544     98.4820
