~Version Information
VERS.                      2.0: CWLS Log ASCII Standard - VERSION 2.0
WRAP.                       NO: One line per depth step
~Well Information Block
STRT.FT                -7.5000: 
STOP.FT               978.5000: 
STEP.FT                 0.2500: 
NULL.                -999.2500: 
COMP.          Pioneer Natural Resources: COMPANY
WELL.          Piggyback 33-25: WELL
FLD.           Purgatoire River: FIELD
LOC.           1600' FSL & 1800' FEL: LOCATION
PROV.                 Colorado: PROVINCE
CNTY.               Las Animas: COUNTRY
SRVC.                Patterson: SERVICE COMPANY
DATE.          Mon May 09 09:22:28 2005: LOG DATE
UWI.           05 071 08233 00: UNIQUE WELL ID
~Curve Information Block
DEPT.FT            0 000 00 00: Depth
CCL.                          : Casing Collar Locator
TT3.usec                      : CBL 3' Travel Time
AMP3.mV                       : CBL 3' Amplitude
GR.GAPI                       : Gamma Ray
~Parameter Information Block
~A  Depth       CCL         TT3         AMP3         GR     
# ...
   863.5000      0.0000    687.3846      8.2490     64.2651
   863.7500      0.0000    691.1672      7.9481     62.6215
   864.0000      0.0000    693.8475      7.7100     61.3374
   864.2500      0.0000    693.9152      7.5779     61.5107
   864.5000      0.0000    690.7715      7.5533     63.1234
   864.7500      0.0000    684.3002      7.6024     65.1510
   865.0000      0.0000    675.4138      7.6800     66.3123
   865.2500      0.0000    666.1852      7.7489     65.9010
   865.5000      0.0000    659.8032      7.7844     64.2477
   865.7500      0.0000    660.4275      7.7737     62.5414
   866.0000      0.0000    670.6228      7.7171     61.9387
   866.2500      0.0000    687.0804      7.6263     62.4772
   866.5000      0.0000    700.9041      7.5187     62.8748
   866.7500      0.0000    704.7838      7.4131     61.7081
   867.0000      0.0000    699.5079      7.3239     58.8865
   867.2500      0.0000    692.1976      7.2529     55.8148
   867.5000      0.0000    688.6940      7.1851     54.0711
   867.7500      0.0000    688.2938      7.1027     54.1321
   868.0000      0.0000    685.3923      7.0075     55.3829
   868.2500      0.0000    675.5269      6.9271     56.9747
   868.5000      0.0000    659.5562      6.8974     58.4548
   868.7500      0.0000    642.4193      6.9336     59.8401
   869.0000      0.0000    628.8228      7.0163     61.3766
   869.2500      0.0000    620.4892      7.1066     63.1927
   869.5000      0.0000    616.5210      7.1768     65.0217
   869.7500      0.0000    615.3001      7.2279     66.2292
   870.0000      0.0000    615.9479      7.2765     66.2336
   870.2500      0.0000    618.5574      7.3285     65.0546
   870.5000      0.0000    623.2894      7.3702     63.3324
   870.7500      0.0000    629.0605      7.3833     61.6460
   871.0000      0.0000    633.2970      7.3677     59.9877
   871.2500      0.0000    633.5966      7.3478     58.1539
   871.5000      0.0000    629.8533      7.3552     56.4456
   871.7500      0.0000    624.3307      7.4010     55.5616
   872.0000      0.0000    619.6160      7.4607     55.8026
   872.2500      0.0000    616.8643      7.4909     56.7080
   872.5000      0.0000    615.7816      7.4630     57.4974
   872.7500      0.0000    615.5551      7.3869     57.7747
   873.0000      0.0000    615.5402      7.3046     57.8883
   873.2500      0.0000    615.4395      7.2565     58.6223
   873.5000      0.0000    615.2257      7.2511     60.4793
   873.7500      0.0000    614.9957      7.2684     63.2656
   874.0000      0.0000    614.8516      7.2956     66.3054
   874.2500      0.0000    614.8521      7.3444     68.9233
   874.5000      0.0000    615.0172      7.4281     70.8399
   874.7500      0.0000    615.3425      7.5377     72.3018
   875.0000      0.0000    615.7934      7.6517     73.7383
   875.2500      0.0000    616.2911      7.7573     75.1614
   875.5000      0.0000    616.7241      7.8501     76.0853
   875.7500      0.0000    616.9988      7.9245     76.1305
   876.0000      0.0000    617.0947      7.9760     75.4966
   876.2500      0.0000    617.0690      8.0090     74.7782
   876.5000      0.0000    617.0034      8.0350     74.5350
   876.7500      0.0000    616.9473      8.0602     74.9545
   877.0000      0.0000    616.9176      8.0809     75.5739
   877.2500      0.0000    616.9728      8.0904     75.4278
   877.5000      0.0000    617.3098      8.0880     73.8316
   877.7500      0.0000    618.3005      8.0803     70.9883
   878.0000      0.0000    620.3153      8.0728     67.8133
   878.2500      0.0000    623.2330      8.0610     65.3488
   878.5000      0.0000    626.0178      8.0305     64.2805
   878.7500      0.0000    627.1541      7.9690     64.7579
   879.0000      0.0000    625.8897      7.8788     66.5198
   879.2500      0.0000    622.8698      7.7768     69.0454
   879.5000      0.0000    619.2401      7.6855     71.5182
   879.7500      0.0000    615.3785      7.6269     72.9211
   880.0000      0.0000    610.7310      7.6208     72.6374
   880.2500      0.0000    604.4092      7.6776     71.1866
   880.5000      0.0000    594.8851      7.7846     70.0876
   880.7500      0.0000    578.7505      7.9060     70.6120
   881.0000      0.0000    551.4206      8.0024     72.6424
   881.2500      0.0000    511.6093      8.0556     74.7954
   881.5000      0.0000    465.3640      8.0744     75.5025
   881.7500      0.0000    423.5152      8.0849     73.9885
   882.0000      0.0000    394.1089      8.1143     70.5788
   882.2500      0.0000    377.9879      8.1728     66.3513
   882.5000      0.0000    370.9990      8.2435     62.5041
   882.7500      0.0000    368.5212      8.2952     59.9668
   883.0000      0.0000    367.7618      8.3108     59.3278
   883.2500      0.0000    367.5838      8.3005     60.6208
   883.5000      0.0000    367.6299      8.2867     62.9659
   883.7500      0.0000    367.7715      8.2828     64.7976
   884.0000      0.0000    367.9653      8.2861     64.9187
   884.2500      0.0000    368.3312      8.2774     63.5024
   884.5000      0.0000    369.2106      8.2277     61.9978
   884.7500      0.0000    371.0227      8.1168     62.0197
   885.0000      0.0000    373.8332      7.9490     64.1997
   885.2500      0.0000    377.1531      7.7515     67.7701
   885.5000      0.0000    380.9158      7.5604     70.9826
   885.7500      0.0000    387.4949      7.4121     72.0978
   886.0000      0.0000    402.4018      7.3340     70.3838
   886.2500      0.0000    431.0692      7.3281     66.4890
   886.5000      0.0000    473.0627      7.3602     62.0082
   886.7500      0.0000    519.6660      7.3687     58.5201
   887.0000      0.0000    559.2169      7.3021     56.6628
   887.2500      0.0000    586.0063      7.1662     55.9876
   887.5000      0.0000    603.3725      7.0196     55.6857
   887.7500      0.0000    618.6074      6.8933     55.2534
   888.0000      0.0000    637.0330      6.7499     54.5281
   888.2500      0.0000    660.5459      6.5808     53.5814
   888.5000      0.0000    687.6041      6.4952     52.8119
   888.7500      0.0000    711.9791      6.6260     52.9179
   889.0000     -2.0000    725.0045      6.9839     54.4879
   889.2500     -2.0000    723.5199      7.4672     57.3911
   889.5000      2.0000    714.8464      7.9817     60.4598
   889.7500      0.0000    709.8892      8.5068     62.0559
   890.0000      0.0000    710.9283      9.0657     61.3938
   890.2500      0.0000    709.1142      9.6522     59.2473
   890.5000      0.0000    694.7254     10.1774     57.0765
   890.7500      0.0000    667.1326     10.5107     55.7005
   891.0000      0.0000    634.6866     10.6027     55.1388
   891.2500      0.0000    608.4171     10.5357     55.3132
   891.5000      0.0000    596.9483     10.4195     56.2638
   891.7500      0.0000    604.1439     10.2788     57.7304
   892.0000      0.0000    627.6309     10.0726     59.0632
   892.2500      0.0000    658.5079      9.7783     59.7846
   892.5000      0.0000    684.4467      9.4236     60.1208
   892.7500      0.0000    695.6554      9.0583     60.8029
   893.0000      0.0000    690.1595      8.7244     62.2725
   893.2500      0.0000    674.6375      8.4487     64.3489
   893.5000      0.0000    659.6523      8.2449     66.8228
   893.7500      0.0000    652.4650      8.1148     69.8722
   894.0000      0.0000    653.4982      8.0459     73.4531
   894.2500      0.0000    658.5980      8.0129     76.7727
   894.5000      0.0000    663.6234      7.9830     79.0606
   894.7500      0.0000    666.8409      7.9252     80.7179
   895.0000      0.0000    668.5945      7.8271     83.0752
   895.2500      0.0000    670.1010      7.7058     86.9241
   895.5000      0.0000    672.5920      7.5990     91.7448
   895.7500      0.0000    676.6953      7.5373     96.4397
   896.0000      0.0000    681.9525      7.5209    100.3571
   896.2500      0.0000    686.9558      7.5235    103.3736
   896.5000      0.0000    690.4126      7.5190    105.4149
   896.7500      0.0000    692.3562      7.5072    106.3822
