~Version Information
VERS.                      2.0: CWLS Log ASCII Standard - VERSION 2.0
WRAP.                       NO: One line per depth step
~Well Information Block
STRT.FT                -3.0000: 
STOP.FT              1679.2500: 
STEP.FT                 0.2500: 
NULL.                -999.2500: 
COMP.          Evergreen Operating Corp.: COMPANY
WELL.            Rimrock 14-29: WELL
FLD.           Purgatorie River: FIELD
LOC.           945' FSL & 604' FWL--: LOCATION
PROV.                       CO: PROVINCE
CNTY.               Las Animas: COUNTRY
SRVC.                         : SERVICE COMPANY
DATE.          Mon Oct 04 13:02:21 2004: LOG DATE
UWI.           05 071 08136 00: UNIQUE WELL ID
~Curve Information Block
DEPT.FT            0 000 00 00: Depth
GR.GAPI                       : Gamma Ray
CCL.                          : Casing Collar Locator
TT3.usec                      : CBL 3' Travel Time
AMP3.mV                       : CBL 3' Amplitude
~Parameter Information Block
~A  Depth        GR         CCL         TT3         AMP3    
# ...
   968.5000    169.7053      0.0000    709.2592      5.2689
   968.7500    174.9031      0.0000    674.4655      5.2692
   969.0000    177.3454      0.0000    647.6211      5.2746
   969.2500    178.0541      0.0000    635.7738      5.2824
   969.5000    177.1757      0.0000    641.0283      5.3047
   969.7500    174.7835      0.0000    656.3811      5.3447
   970.0000    171.3274      0.0000    667.7545      5.3784
   970.2500    167.0766      0.0000    662.2987      5.3698
   970.5000    162.1661      0.0000    636.7852      5.3069
   970.7500    157.6667      0.0000    600.7099      5.2211
   971.0000    155.6273      0.0000    572.1463      5.1663
   971.2500    157.1886      0.0000    568.4811      5.1760
   971.5000    160.9077      0.0000    597.1799      5.2368
   971.7500    163.4190      0.0000    650.6239      5.3036
   972.0000    161.7737      0.0000    707.2994      5.3410
   972.2500    155.2227      0.0000    741.5964      5.3488
   972.5000    145.3041      0.0000    739.3689      5.3514
   972.7500    134.7004      0.0000    708.0668      5.3698
   973.0000    125.8630      0.0000    671.9181      5.4066
   973.2500    119.8829      0.0000    655.6437      5.4529
   973.5000    115.8851      0.0000    669.3647      5.4981
   973.7500    111.6931      0.0000    704.8004      5.5295
   974.0000    105.8770      0.0000    743.9961      5.5310
   974.2500     99.3365      0.0000    772.1335      5.4923
   974.5000     94.5216      0.0000    783.8749      5.4240
   974.7500     93.2314      0.0000    781.1353      5.3592
   975.0000     95.4273      0.0000    768.8286      5.3318
   975.2500     99.7453      0.0000    753.3947      5.3465
   975.5000    104.4020      0.0000    742.5071      5.3712
   975.7500    107.7729      0.0000    742.4689      5.3660
   976.0000    108.9332      0.0000    754.0008      5.3232
   976.2500    107.9592      0.0000    771.2958      5.2795
   976.5000    105.4293      0.0000    786.4921      5.2843
   976.7500    101.7129      0.0000    794.7316      5.3520
   977.0000     97.0619      0.0000    794.5805      5.4412
   977.2500     92.2389      0.0000    785.2672      5.4831
   977.5000     88.5567      0.0000    765.4966      5.4369
   977.7500     87.0308      0.0000    735.5673      5.3202
   978.0000     87.4367      0.0000    700.0997      5.1878
   978.2500     88.2660      0.0000    667.0894      5.0843
   978.5000     87.7929      0.0000    642.6478      5.0193
   978.7500     85.3903      0.0000    626.6616      4.9801
   979.0000     81.8682      0.0000    614.7388      4.9560
   979.2500     78.5928      0.0000    603.8777      4.9494
   979.5000     76.3272      0.0000    595.0878      4.9685
   979.7500     74.8643      0.0000    591.3908      5.0154
   980.0000     73.5526      0.0000    595.0410      5.0807
   980.2500     71.9957      0.0000    606.3483      5.1453
   980.5000     70.2897      0.0000    623.4339      5.1897
   980.7500     68.8218      0.0000    642.4301      5.2053
   981.0000     67.9173      0.0000    658.7930      5.1949
   981.2500     67.5373      0.0000    669.5363      5.1613
   981.5000     67.2094      0.0000    674.6136      5.1036
   981.7500     66.4382      0.0000    676.1517      5.0327
   982.0000     65.3310      0.0000    676.6033      4.9805
   982.2500     64.6983      0.0000    677.8382      4.9801
   982.5000     65.2615      0.0000    681.6744      5.0328
   982.7500     66.7834      0.0000    690.5182      5.0996
   983.0000     68.1747      0.0000    706.4682      5.1317
   983.2500     68.6348      0.0000    728.8608      5.1129
   983.5000     68.7200      0.0000    752.5897      5.0708
   983.7500     70.1747      0.0000    769.5991      5.0429
   984.0000     74.5315      0.0000    772.4749      5.0355
   984.2500     81.9969      0.0000    757.1665      5.0201
   984.5000     91.6412      0.0000    724.6130      4.9696
   984.7500    101.9348      0.0000    682.8179      4.8918
   985.0000    110.7557      0.0000    647.2087      4.8252
   985.2500    116.0120      0.0000    634.6407      4.8013
   985.5000    117.3624      0.0000    652.6825      4.8140
   985.7500    116.7928      0.0000    693.8161      4.8292
   986.0000    116.7013      0.0000    740.9457      4.8235
   986.2500    117.9076      0.0000    778.8125      4.8089
   986.5000    119.9633      0.0000    800.8257      4.8151
   986.7500    122.5902      0.0000    807.8790      4.8531
   987.0000    125.7229      0.0000    803.7513      4.9025
   987.2500    128.3072      0.0000    792.3511      4.9366
   987.5000    128.3783      0.0000    777.6185      4.9513
   987.7500    125.2900      0.0000    763.8748      4.9661
   988.0000    121.3037      0.0000    755.0292      4.9994
   988.2500    119.9934      0.0000    753.2639      5.0473
   988.5000    123.3007      0.0000    758.0642      5.0853
   988.7500    130.6205      0.0000    766.0206      5.0894
   989.0000    139.9578      0.0000    772.1477      5.0571
   989.2500    149.1151      0.0000    772.8153      5.0086
   989.5000    156.2834      0.0000    768.0084      4.9641
   989.7500    160.5429      0.0000    760.6453      4.9235
   990.0000    162.2871      0.0000    754.1248      4.8770
   990.2500    163.0215      0.0000    750.7471      4.8326
   990.5000    164.4745      0.0000    751.2411      4.8171
   990.7500    167.6954      0.0000    754.4471      4.8434
   991.0000    172.6206      0.0000    757.7159      4.8892
   991.2500    178.0872      0.0000    758.8085      4.9176
   991.5000    182.2328      0.0000    757.5406      4.9097
   991.7500    183.3327      0.0000    755.3344      4.8703
   992.0000    180.7404      0.0000    753.5637      4.8157
   992.2500    175.1444      0.0000    752.6768      4.7666
   992.5000    167.8945      0.0000    752.4347      4.7436
   992.7500    160.1795      0.0000    752.4065      4.7524
   993.0000    152.8156      0.0000    752.1604      4.7754
   993.2500    146.5027      0.0000    751.2015      4.7866
   993.5000    142.0083      0.0000    748.9295      4.7769
   993.7500    140.0615      0.0000    744.9451      4.7603
   994.0000    140.9534      0.0000    739.6687      4.7568
   994.2500    143.9346      0.0000    734.5682      4.7782
   994.5000    146.9854      0.0000    731.3950      4.8298
   994.7500    147.8484      0.0000    730.9684      4.9121
   995.0000    145.9861      0.0000    732.0989      5.0111
   995.2500    143.2926      0.0000    731.0066      5.0939
   995.5000    142.2636      0.0000    722.8931      5.1261
   995.7500    143.4727      0.0000    706.5306      5.0982
   996.0000    145.0867      0.0000    687.2325      5.0320
   996.2500    144.7338      0.0000    672.9277      4.9632
   996.5000    141.6540      0.0000    667.2294      4.9235
   996.7500    137.0159      0.0000    667.9397      4.9276
   997.0000    132.4756      0.0000    671.3726      4.9620
   997.2500    128.8497      0.0000    676.0358      4.9857
   997.5000    126.0732      0.0000    682.4675      4.9584
   997.7500    123.9541      0.0000    691.2467      4.8760
   998.0000    122.5295      0.0000    701.7625      4.7755
   998.2500    121.6144      0.0000    712.5180      4.7051
   998.5000    120.3435      0.0000    722.2170      4.6908
   998.7500    117.6567      0.0000    730.4594      4.7269
   999.0000    113.6250      0.0000    737.4649      4.7883
   999.2500    110.4077      0.0000    743.3138      4.8531
   999.5000    111.5405      0.0000    747.5615      4.9150
   999.7500    119.5792      0.0000    749.5941      4.9706
  1000.0000    133.9689      0.0000    749.2482      5.0017
  1000.2500    151.0960      0.0000    747.1125      4.9893
  1000.5000    166.4235      0.0000    744.3766      4.9439
  1000.7500    176.8409      0.0000    742.1372      4.9047
  1001.0000    181.8249      0.0000    740.4901      4.9011
  1001.2500    183.2319      0.0000    738.5994      4.9294
  1001.5000    183.9766      0.0000    736.1571      4.9708
  1001.7500    186.0173      0.0000    734.4462      5.0128
