~Version Information
VERS.                      2.0: CWLS Log ASCII Standard - VERSION 2.0
WRAP.                       NO: One line per depth step
~Well Information Block
STRT.FT               546.0000: 
STOP.FT              1771.5000: 
STEP.FT                 0.2500: 
NULL.                -999.2500: 
COMP.          Petrogulf Corporation: COMPANY
WELL.             McLeod 9-42R: WELL
FLD.           Purgatorie River: FIELD
LOC.           1748' FNL & 372' FEL: LOCATION
PROV.                 Colorado: PROVINCE
CNTY.               Las Animas: COUNTRY
SRVC.                Patterson: SERVICE COMPANY
DATE.          Tue Aug 16 11:11:38 2005: LOG DATE
UWI.           071 08092  : UNIQUE WELL ID
~Curve Information Block
DEPT.FT            0 000 00 00: Depth
SP.mV                         : DIL Spontaneous Potential
RILD.Ohm-m                    : DIL Deep Resistivity
RILM.Ohm-m                    : DIL Medium Resistivity
RLL3.Ohm-m                    : DIL Shallow Resistivity
GR.GAPI                       : Gamma Ray
~Parameter Information Block
~A  Depth        SP         RILD        RILM        RLL3         GR     
# ...
  1106.0000     36.8004      6.6875      7.3814      9.0949    140.1344
  1106.2500     36.3892      6.5148      7.3575      8.8962    128.5906
  1106.5000     37.4619      6.3977      7.0952      9.0618    142.9386
  1106.7500     38.7023      6.4911      7.1477      8.6040    144.0359
  1107.0000     39.3423      6.3782      7.0764      8.3984    153.7495
  1107.2500     37.1121      6.1695      6.9486      8.2884    162.7801
  1107.5000     36.4944      6.1872      6.8717      8.2393    148.6308
  1107.7500     34.3197      6.1281      6.9405      8.2708    152.4530
  1108.0000     30.8560      6.2261      6.9321      8.2451    164.4949
  1108.2500     26.3809      6.3686      6.8632      8.3140    166.0865
  1108.5000     23.8226      6.1551      6.8930      8.2451    159.0857
  1108.7500     20.5451      6.3653      6.9150      8.2709    152.3559
  1109.0000     19.3651      6.3959      7.1122      8.2686    148.9886
  1109.2500     17.3478      6.4634      7.1379      8.5222    149.0961
  1109.5000     15.2951      6.5688      7.2601      8.6218    141.1874
  1109.7500     15.8561      6.7352      7.4271      9.2026    139.6964
  1110.0000     17.7994      6.6893      7.6578     10.0856    128.3376
  1110.2500     17.7675      6.8302      7.7278     10.5053    137.2835
  1110.5000     17.5103      7.0059      7.8390     10.6914    134.4127
  1110.7500     18.0169      7.0914      8.1825     11.1587    133.6846
  1111.0000     15.9970      7.2490      8.5843     11.3900    133.0509
  1111.2500     12.8221      7.4834      8.6337     11.3902    128.6825
  1111.5000     10.0177      7.6628      8.9304     11.2350    129.2706
  1111.7500      8.8740      7.5944      9.2737     11.3824    130.9736
  1112.0000      9.5766      7.5471      9.4378     11.7786    117.5357
  1112.2500      8.1168      7.9203      9.6419     12.4926    124.2085
  1112.5000      5.5429      8.2561      9.6631     13.4655    128.0191
  1112.7500      4.5767      8.2211      9.8948     14.0796    125.7414
  1113.0000      4.0410      8.3841     10.1199     13.5541    127.0521
  1113.2500      3.1080      8.6459     10.2019     12.1905    116.9036
  1113.5000      2.1843      8.7782     10.1460     11.7552    116.2692
  1113.7500      1.0689      8.5565     10.6719     12.8205    119.3641
  1114.0000      0.0361      9.0162     10.9447     14.6733    129.8537
  1114.2500     -1.2594      9.1817     10.9223     15.8761    134.5265
  1114.5000     -0.6921      9.2785     11.1846     13.7411    137.4465
  1114.7500      0.2087      9.2791     11.2852     13.0147    145.8565
  1115.0000      0.4771      9.7088     11.7340     13.3093    139.3281
  1115.2500      0.3661     10.1976     11.8311     13.1458    129.5127
  1115.5000      0.1701     10.4455     12.3055     13.1578    128.2318
  1115.7500      1.5227      9.8922     12.7660     13.5540    127.8539
  1116.0000      2.4335     10.4153     13.1765     14.3917    124.7306
  1116.2500      2.4778     10.4880     13.7328     15.3160    122.3479
  1116.5000      4.3730     10.4111     14.4393     15.9393    127.6303
  1116.7500      5.1613     10.3006     14.2895     17.0657    125.4881
  1117.0000      6.6972     10.8944     13.8727     18.1487    125.0991
  1117.2500      9.2813     10.8377     13.7438     18.6406    125.9504
  1117.5000     10.3905     10.2754     13.8928     18.7668    134.7966
  1117.7500     12.3108     10.1976     13.8757     18.0345    134.1325
  1118.0000     14.4130      9.9947     13.6471     17.3954    125.5086
  1118.2500     14.5975     10.4207     13.4200     16.7597    125.0368
  1118.5000     14.8799     10.5025     13.3620     16.2887    116.0706
  1118.7500     15.6898     10.2193     12.6639     16.0962    106.2888
  1119.0000     16.3143     10.4171     12.0379     15.4495    103.9670
  1119.2500     15.4142     10.0428     11.7670     13.4183    105.6566
  1119.5000     16.0982      9.3776     12.4310     11.8927     99.4952
  1119.7500     17.7537      9.4701     11.9715     11.2743     94.0611
  1120.0000     19.9111      9.4489     11.8616     11.7323     92.7023
  1120.2500     22.4289      9.1066     12.3355     12.4374     90.3440
  1120.5000     24.1823      9.0004     11.7980     14.6169     92.9176
  1120.7500     27.2840      8.7144     11.0274     16.7796    102.4062
  1121.0000     26.9804      8.3555     10.9178     16.2999    111.8138
  1121.2500     25.9602      8.7577     10.9000     14.6547    117.3375
  1121.5000     25.6717      8.7423     10.4542     13.0437    128.5072
  1121.7500     25.5056      8.2754     10.2031     12.5068    129.2843
  1122.0000     25.3252      8.3288      9.6661     12.1079    125.1452
  1122.2500     24.1256      8.4271      9.5944     11.9220    129.9949
  1122.5000     22.9298      8.3502      9.6868     11.5215    128.6361
  1122.7500     21.3389      8.4546      9.2873     11.5212    127.2512
  1123.0000     20.3499      8.8995      9.2564     11.8102    145.4514
  1123.2500     19.8753      8.7931      9.5304     10.9937    144.6062
  1123.5000     18.3654      9.3382      9.3811      9.8773    137.4073
  1123.7500     16.8644      9.9155      9.8658      9.5698    123.1927
  1124.0000     14.6514      9.7556     10.7355      9.5699    118.4391
  1124.2500     12.5004     10.1422     11.8572      9.9188    105.9914
  1124.5000      8.5713     10.5715     13.3506     11.5155     89.1976
  1124.7500      5.1116     10.8547     15.7772     14.6477     85.6038
  1125.0000      2.1067     11.0076     16.5328     22.5706     75.2549
  1125.2500     -0.4247     11.5005     17.6862     30.4102     72.2142
  1125.5000     -3.7195     12.3502     19.3473     37.8600     65.4344
  1125.7500     -7.2161     13.3148     21.2306     40.5215     64.7509
  1126.0000    -11.4880     15.0701     22.7956     41.7949     75.8200
  1126.2500    -17.3372     16.1685     25.6445     46.2938     74.8806
  1126.5000    -22.2733     18.1528     30.5147     48.8086     76.8519
  1126.7500    -27.6753     19.8583     32.3884     47.7941     76.8771
  1127.0000    -32.3245     20.1559     35.4334     47.3568     73.7912
  1127.2500    -36.3309     20.4113     42.7325     51.0871     68.7212
  1127.5000    -41.6575     23.5661     49.5288     57.9636     65.1741
  1127.7500    -45.6200     24.8683     68.1747     67.1686     62.8696
  1128.0000    -49.4768     23.8065     65.5825     82.8430     52.7815
  1128.2500    -52.7549     24.6861     84.0795     89.4956     48.3781
  1128.5000    -56.5828     25.0124     92.0397     94.1312     43.0923
  1128.7500    -61.8813     25.2299     88.1233     98.3712     47.5405
  1129.0000    -65.9098     28.1204    101.0467    104.2165     50.0826
  1129.2500    -71.0795     29.0704    107.9392    112.8653     47.9508
  1129.5000    -75.7380     26.3150    122.5775    115.6235     49.1295
  1129.7500    -78.5014     34.0497     89.9305    112.6049     47.9797
  1130.0000    -82.7294     34.4717    103.2826    107.5963     48.8542
  1130.2500    -84.8665     31.7161     95.6554    104.0083     44.5309
  1130.5000    -86.1294     33.0723    104.6930    100.5043     43.1723
  1130.7500    -88.0486     35.9296    102.6034     94.3876     38.2526
  1131.0000    -89.0010     34.8167    105.6530     90.1205     38.2545
  1131.2500    -91.3291     43.7541    117.1498     89.0875     42.4431
  1131.5000    -95.3711     41.1694    104.9062     86.9454     48.6232
  1131.7500    -97.5928     39.2391    149.9041     82.4613     47.7363
  1132.0000   -101.3995     45.1041     99.6188     79.6669     44.9138
  1132.2500   -103.6241     36.6752    107.1290     79.0902     49.4347
  1132.5000   -104.9254     38.0419    201.1387     80.1341     52.9304
  1132.7500   -105.8288     43.9955    195.0989     82.8635     53.9009
  1133.0000   -106.9727     45.1407    173.4935     88.6454     55.6348
  1133.2500   -107.4826     52.4944    414.5573     99.9108     56.6322
  1133.5000   -106.5195     43.9918    140.1122    117.4182     52.2591
  1133.7500   -103.9251     42.2248    122.3490    134.1243     53.7740
