~Version Information
VERS.                      2.0: CWLS Log ASCII Standard - VERSION 2.0
WRAP.                       NO: One line per depth step
~Well Information Block
STRT.FT               475.0000: 
STOP.FT              2336.7500: 
STEP.FT                 0.2500: 
NULL.                -999.2500: 
COMP.          Pioneer Natural Resources: COMPANY
WELL.              Bobsy 34-11: WELL
FLD.           Purgatoire River: FIELD
LOC.           1937' FEL & 451' FSL----: LOCATION
PROV.                 Colorado: PROVINCE
CNTY.               Las Animas: COUNTRY
SRVC.                Patterson: SERVICE COMPANY
DATE.          Fri Apr 08 05:21:25 2005: LOG DATE
UWI.           05 071 08330 00: UNIQUE WELL ID
~Curve Information Block
DEPT.FT            0 000 00 00: Depth
SN.Ohm-m                      : IEL Short Normal
SP.mV                         : IEL Spontaneous Potential
DIR.Ohm-m                     : IEL Induction Resistivity
GR.GAPI                       : Gamma Ray
~Parameter Information Block
~A  Depth        SN          SP         DIR          GR     
# ...
  2183.5000     20.3914   -109.8897     19.3215     84.9592
  2183.7500     19.8759   -109.2310     18.7428     88.8617
  2184.0000     19.2927   -108.4742     18.1295     94.2319
  2184.2500     18.6515   -107.6441     17.5170     97.0414
  2184.5000     17.9705   -106.7658     16.9419    100.2607
  2184.7500     17.2710   -105.8625     16.4312    102.0121
  2185.0000     16.5786   -104.9533     15.9979    104.0593
  2185.2500     15.9281   -104.0505     15.6428    104.8784
  2185.5000     15.3624   -103.1589     15.3587    105.4260
  2185.7500     14.9214   -102.2766     15.1291    105.7201
  2186.0000     14.6253   -101.3970     14.9245    106.4916
  2186.2500     14.4630   -100.5142     14.7027    107.0061
  2186.5000     14.3948    -99.6265     14.4193    107.1226
  2186.7500     14.3688    -98.7419     14.0470    106.8092
  2187.0000     14.3420    -97.8814     13.5910    106.5477
  2187.2500     14.2948    -97.0793     13.0905    106.8521
  2187.5000     14.2326    -96.3806     12.6048    108.0625
  2187.7500     14.1763    -95.8349     12.1941    109.3119
  2188.0000     14.1478    -95.4862     11.9059    111.3156
  2188.2500     14.1641    -95.3620     11.7706    111.7266
  2188.5000     14.2392    -95.4618     11.8027    108.6022
  2188.7500     14.3928    -95.7495     12.0035    103.3581
  2189.0000     14.6618    -96.1523     12.3644     91.9551
  2189.2500     15.1148    -96.5663     12.8715     83.6367
  2189.5000     15.8535    -96.8708     13.5111     72.9717
  2189.7500     16.9777    -96.9477     14.2763     68.2455
  2190.0000     18.5147    -96.7013     15.1663     65.4319
  2190.2500     20.3607    -96.0756     16.1786     65.9567
  2190.5000     22.3115    -95.0619     17.2933     68.2988
  2190.7500     24.1874    -93.6974     18.4645     69.3925
  2191.0000     25.9467    -92.0540     19.6287     68.5070
  2191.2500     27.6639    -90.2213     20.7294     66.1762
  2191.5000     29.3877    -88.2893     21.7325     61.5793
  2191.7500     31.0276    -86.3341     22.6136     58.8945
  2192.0000     32.3827    -84.4098     23.3290     56.3925
  2192.2500     33.2792    -82.5472     23.8136     55.5679
  2192.5000     33.7058    -80.7573     24.0278     54.7958
  2192.7500     33.8674    -79.0381     24.0203     54.4222
  2193.0000     34.1259    -77.3808     23.9419     54.7653
  2193.2500     34.8313    -75.7756     23.9911     56.3381
  2193.5000     36.1109    -74.2138     24.3381     61.7181
  2193.7500     37.7534    -72.6874     25.0682     67.4142
  2194.0000     39.2949    -71.1868     26.1487     78.2648
  2194.2500     40.2538    -69.6983     27.4096     86.0287
  2194.5000     40.3499    -68.2022     28.5539     96.3843
  2194.7500     39.5861    -66.6747     29.2330    101.5007
  2195.0000     38.1866    -65.0914     29.1860    106.4732
  2195.2500     36.4568    -63.4338     28.3609    109.1015
  2195.5000     34.6481    -61.6956     26.9223    114.8092
  2195.7500     32.8974    -59.8858     25.1483    120.7826
  2196.0000     31.2483    -58.0289     23.3095    132.0822
  2196.2500     29.7049    -56.1594     21.5983    139.4355
  2196.5000     28.2587    -54.3138     20.1138    147.5154
  2196.7500     26.8802    -52.5198     18.8787    150.5645
  2197.0000     25.5061    -50.7892     17.8645    152.4427
  2197.2500     24.0458    -49.1131     17.0160    152.0492
  2197.5000     22.4087    -47.4645     16.2716    147.8477
  2197.7500     20.5533    -45.8051     15.5781    141.8977
  2198.0000     18.5406    -44.0960     14.9010    128.4233
  2198.2500     16.5522    -42.3086     14.2304    117.4117
  2198.5000     14.8308    -40.4329     13.5800    100.5280
  2198.7500     13.5643    -38.4810     12.9788     90.9236
  2199.0000     12.7927    -36.4853     12.4554     81.9968
  2199.2500     12.4032    -34.4933     12.0245     80.5236
  2199.5000     12.2104    -32.5591     11.6803     84.0567
  2199.7500     12.0573    -30.7363     11.3999     88.7504
  2200.0000     11.8717    -29.0722     11.1544     96.7746
  2200.2500     11.6565    -27.6045     10.9211    101.7950
  2200.5000     11.4430    -26.3601     10.6914    107.7968
  2200.7500     11.2533    -25.3546     10.4725    110.3522
  2201.0000     11.0930    -24.5921     10.2820    111.7149
  2201.2500     10.9641    -24.0640     10.1413    111.2411
  2201.5000     10.8764    -23.7470     10.0680    109.5623
  2201.7500     10.8435    -23.6019     10.0713    108.4303
  2202.0000     10.8714    -23.5747     10.1496    107.0633
  2202.2500     10.9480    -23.6007     10.2891    106.1110
  2202.5000     11.0459    -23.6127     10.4655    103.8097
  2202.7500     11.1331    -23.5512     10.6468    101.3012
  2203.0000     11.1883    -23.3754     10.8017     96.0286
  2203.2500     11.2083    -23.0703     10.9089     91.9776
  2203.5000     11.2057    -22.6492     10.9647     86.4421
  2203.7500     11.1975    -22.1504     10.9821     83.7523
  2204.0000     11.1940    -21.6288     10.9828     81.2495
  2204.2500     11.1937    -21.1451     10.9871     79.9644
  2204.5000     11.1868    -20.7555     11.0067     77.3114
  2204.7500     11.1625    -20.5024     11.0408     74.8146
  2205.0000     11.1147    -20.4064     11.0779     70.8446
  2205.2500     11.0429    -20.4626     11.1003     68.9527
  2205.5000     10.9490    -20.6404     11.0900     68.4186
  2205.7500     10.8348    -20.8908     11.0337     69.6488
  2206.0000     10.7001    -21.1595     10.9273     72.9357
  2206.2500     10.5432    -21.4063     10.7772     75.3955
  2206.5000     10.3653    -21.6227     10.5988     78.9980
  2206.7500     10.1745    -21.8424     10.4119     81.5735
  2207.0000      9.9843    -22.1380     10.2365     86.3029
  2207.2500      9.8051    -22.6049     10.0897     90.0669
  2207.5000      9.6373    -23.3343      9.9816     95.8274
  2207.7500      9.4737    -24.3867      9.9127     98.8716
  2208.0000      9.3094    -25.7729      9.8722    100.5792
  2208.2500      9.1483    -27.4498      9.8411     99.2275
  2208.5000      9.0022    -29.3303      9.7989     94.0103
  2208.7500      8.8821    -31.3044      9.7312     89.6415
  2209.0000      8.7877    -33.2624      9.6337     84.3088
  2209.2500      8.7052    -35.1138      9.5116     82.5321
  2209.5000      8.6155    -36.7981      9.3750     82.6168
  2209.7500      8.5061    -38.2857      9.2348     83.9463
  2210.0000      8.3746    -39.5724      9.1001     87.1393
  2210.2500      8.2248    -40.6679      8.9755     90.1213
  2210.5000      8.0602    -41.5854      8.8612     95.8252
  2210.7500      7.8811    -42.3320      8.7529     99.7173
  2211.0000      7.6873    -42.9058      8.6441    103.9234
  2211.2500      7.4835    -43.2965      8.5299    105.2795
  2211.5000      7.2814    -43.4937      8.4094    105.9748
  2211.7500      7.0973    -43.4964      8.2877    106.0728
  2212.0000      6.9452    -43.3239      8.1736    105.6594
  2212.2500      6.8323    -43.0198      8.0767    104.7876
  2212.5000      6.7579    -42.6496      8.0036    102.5575
  2212.7500      6.7153    -42.2889      7.9555    100.5718
  2213.0000      6.6941    -42.0083      7.9276     97.1517
  2213.2500      6.6834    -41.8576      7.9100     94.9734
  2213.5000      6.6738    -41.8573      7.8897     92.6330
  2213.7500      6.6609    -41.9982      7.8553     91.6958
  2214.0000      6.6473    -42.2492      7.8017     90.2943
  2214.2500      6.6396    -42.5696      7.7322     88.8281
  2214.5000      6.6435    -42.9207      7.6568     85.8855
  2214.7500      6.6586    -43.2745      7.5862     83.8489
  2215.0000      6.6795    -43.6159      7.5276     81.1469
  2215.2500      6.6994    -43.9410      7.4828     79.6307
  2215.5000      6.7125    -44.2535      7.4504     77.9864
  2215.7500      6.7149    -44.5598      7.4281     77.4567
  2216.0000      6.7062    -44.8659      7.4143     77.3771
  2216.2500      6.6906    -45.1754      7.4088     77.6756
  2216.5000      6.6769    -45.4888      7.4120     78.9570
  2216.7500      6.6736    -45.8046      7.4244     80.6113
