~Version Information
VERS.                      2.0: CWLS Log ASCII Standard - VERSION 2.0
WRAP.                       NO: One line per depth step
~Well Information Block
STRT.FT               510.0000: 
STOP.FT              1848.7500: 
STEP.FT                 0.2500: 
NULL.                -999.2500: 
COMP.          Pioneer Natural Resources: COMPANY
WELL.           Stampede 42-18: WELL
FLD.           Purgatoire River: FIELD
LOC.           2479' FNL & 160' FEL--: LOCATION
CNTY.               Las Animas: COUNTY
SRVC.          Superior Well Services: SERVICE COMPANY
DATE.          Sat Jun 09 02:07:27 2007: LOG DATE
UWI.           05 071 08237 00: UNIQUE WELL ID
STAT.                 Colorado: STATE
~Curve Information Block
DEPT.FT            0 000 00 00: Depth
SN.Ohm-m                      : IEL Short Normal
SP.mV                         : IEL Spontaneous Potential
DIR.Ohm-m                     : IEL Induction Resistivity
GR.GAPI                       : Gamma Ray
~Parameter Information Block
~A  Depth        SN          SP         DIR          GR     
# ...
  1381.0000      9.2244     93.8603      8.0719    162.5496
  1381.2500      9.2022     93.8087      8.0635    156.4411
  1381.5000      9.2156     93.8358      8.0956    145.3795
  1381.7500      9.2559     93.9373      8.1605    138.6042
  1382.0000      9.3240     94.0897      8.2471    131.7542
  1382.2500      9.4160     94.2554      8.3440    129.7016
  1382.5000      9.5143     94.3939      8.4410    129.3426
  1382.7500      9.6027     94.4819      8.5312    130.0878
  1383.0000      9.6625     94.5354      8.6110    131.8649
  1383.2500      9.6730     94.6080      8.6817    133.3143
  1383.5000      9.6454     94.7592      8.7508    135.6354
  1383.7500      9.6297     95.0193      8.8312    137.1380
  1384.0000      9.6772     95.3793      8.9375    139.2165
  1384.2500      9.8207     95.8027      9.0791    140.4629
  1384.5000     10.0657     96.2354      9.2559    142.0430
  1384.7500     10.3684     96.6079      9.4574    142.7920
  1385.0000     10.6446     96.8450      9.6662    143.0450
  1385.2500     10.8238     96.8934      9.8635    142.3751
  1385.5000     10.8971     96.7522     10.0359    140.3728
  1385.7500     10.9162     96.4742     10.1770    139.1015
  1386.0000     10.9487     96.1341     10.2873    138.5658
  1386.2500     11.0378     95.7919     10.3721    139.1962
  1386.5000     11.1921     95.4767     10.4414    140.6444
  1386.7500     11.3999     95.1902     10.5105    141.3052
  1387.0000     11.6413     94.9158     10.5980    141.2128
  1387.2500     11.8861     94.6309     10.7201    140.2966
  1387.5000     12.1063     94.3195     10.8847    137.8777
  1387.7500     12.2988     93.9814     11.0889    136.0134
  1388.0000     12.4764     93.6277     11.3239    133.7833
  1388.2500     12.6473     93.2648     11.5833    133.0598
  1388.5000     12.8177     92.8816     11.8696    133.3315
  1388.7500     12.9978     92.4569     12.1917    134.2930
  1389.0000     13.1989     91.9832     12.5564    136.3042
  1389.2500     13.4289     91.4842     12.9616    137.4563
  1389.5000     13.6908     91.0088     13.3975    137.7204
  1389.7500     13.9977     90.6077     13.8538    136.4345
  1390.0000     14.3827     90.3128     14.3244    132.5708
  1390.2500     14.8696     90.1293     14.8075    129.4510
  1390.5000     15.4355     90.0407     15.3023    125.1928
  1390.7500     16.0235     90.0186     15.8079    122.8887
  1391.0000     16.5919     90.0327     16.3261    120.2405
  1391.2500     17.1464     90.0575     16.8659    119.2301
  1391.5000     17.7331     90.0754     17.4445    119.5641
  1391.7500     18.4079     90.0778     18.0795    121.0489
  1392.0000     19.2068     90.0623     18.7770    123.8163
  1392.2500     20.1204     90.0226     19.5221    124.8482
  1392.5000     21.0670     89.9419     20.2825    123.8620
  1392.7500     21.9239     89.8006     21.0215    121.3231
  1393.0000     22.6355     89.5917     21.7127    114.8832
  1393.2500     23.2751     89.3291     22.3443    109.2058
  1393.5000     23.9718     89.0419     22.9179     99.8021
  1393.7500     24.7866     88.7609     23.4505     93.7653
  1394.0000     25.6723     88.5032     23.9770     86.2431
  1394.2500     26.5289     88.2634     24.5373     82.7384
  1394.5000     27.2769     88.0163     25.1478     80.1481
  1394.7500     27.8961     87.7312     25.7795     80.0844
  1395.0000     28.4276     87.3876     26.3725     81.6616
  1395.2500     28.9390     86.9861     26.8827     83.0815
  1395.5000     29.4700     86.5502     27.3193     84.3712
  1395.7500     30.0077     86.1207     27.7421     84.0706
  1396.0000     30.5063     85.7423     28.2220     81.6664
  1396.2500     30.9251     85.4487     28.8008     79.1954
  1396.5000     31.2665     85.2588     29.4719     75.5960
  1396.7500     31.5750     85.1837     30.1872     74.0449
  1397.0000     31.9096     85.2292     30.8776     73.2535
  1397.2500     32.3295     85.3818     31.4780     73.1757
  1397.5000     32.8620     85.5916     31.9484     72.5469
  1397.7500     33.4571     85.7790     32.2903     71.6213
  1398.0000     34.0141     85.8755     32.5468     70.2127
  1398.2500     34.4655     85.8674     32.7799     69.8543
  1398.5000     34.8098     85.8004     33.0331     70.6272
  1398.7500     35.0763     85.7376     33.3130     71.7436
  1399.0000     35.2937     85.7190     33.5988     73.1847
  1399.2500     35.4859     85.7551     33.8714     73.2866
  1399.5000     35.6674     85.8408     34.1369     71.5208
  1399.7500     35.8467     85.9668     34.4257     69.2770
  1400.0000     36.0467     86.1224     34.7678     65.5944
  1400.2500     36.2951     86.2986     35.1592     63.7446
  1400.5000     36.5933     86.4895     35.5498     62.3479
  1400.7500     36.9125     86.6937     35.8698     62.0115
  1401.0000     37.2043     86.9148     36.0818     61.7910
  1401.2500     37.4097     87.1587     36.2141     61.9461
  1401.5000     37.4873     87.4245     36.3426     63.4076
  1401.7500     37.4518     87.6973     36.5405     65.4245
  1402.0000     37.3733     87.9560     36.8302     69.4502
  1402.2500     37.3362     88.1909     37.1702     72.2289
  1402.5000     37.4057     88.4107     37.4820     75.9088
  1402.7500     37.6183     88.6299     37.7051     77.8572
  1403.0000     37.9607     88.8567     37.8398     79.6158
  1403.2500     38.3570     89.0901     37.9466     79.7797
  1403.5000     38.7104     89.3228     38.1008     78.6830
  1403.7500     38.9600     89.5470     38.3381     77.5165
  1404.0000     39.1014     89.7658     38.6280     75.7892
  1404.2500     39.1816     89.9990     38.8874     74.6841
  1404.5000     39.2839     90.2737     39.0227     72.9378
  1404.7500     39.4823     90.6044     38.9800     71.8512
  1405.0000     39.7762     90.9785     38.7808     70.6914
  1405.2500     40.0702     91.3572     38.5239     70.0888
  1405.5000     40.2398     91.6924     38.3451     68.7385
  1405.7500     40.2279     91.9483     38.3469     67.4414
  1406.0000     40.0749     92.1159     38.5433     65.7191
  1406.2500     39.8717     92.2222     38.8499     65.2983
  1406.5000     39.7032     92.3288     39.1344     65.8941
  1406.7500     39.6214     92.5127     39.2998     66.6772
  1407.0000     39.6278     92.8308     39.3385     67.6254
  1407.2500     39.6760     93.2873     39.3142     68.0241
  1407.5000     39.7103     93.8301     39.2930     68.8475
  1407.7500     39.6887     94.3794     39.2833     69.8540
  1408.0000     39.5638     94.8687     39.2261     71.7180
  1408.2500     39.2843     95.2689     39.0353     72.6301
  1408.5000     38.8155     95.5857     38.6519     72.9576
  1408.7500     38.1400     95.8456     38.0713     72.6946
  1409.0000     37.2785     96.0818     37.3351     72.2778
  1409.2500     36.3233     96.3280     36.5067     72.1633
  1409.5000     35.4067     96.6160     35.6571     72.2019
  1409.7500     34.6269     96.9753     34.8578     72.5278
  1410.0000     34.0098     97.4282     34.1737     74.2645
  1410.2500     33.5221     97.9818     33.6503     76.5175
  1410.5000     33.1046     98.6159     33.2976     80.5777
  1410.7500     32.6999     99.2710     33.0764     82.5860
  1411.0000     32.2648     99.8389     32.9035     83.4371
  1411.2500     31.7928    100.1742     32.6829     83.0879
  1411.5000     31.3332    100.1499     32.3473     83.1397
  1411.7500     30.9691     99.7441     31.8860     84.1727
  1412.0000     30.7728     99.0879     31.3410     86.4748
  1412.2500     30.7728     98.4073     30.7870     87.6448
  1412.5000     30.9509     97.8868     30.3100     88.3715
  1412.7500     31.2675     97.5764     29.9922     88.7224
  1413.0000     31.6845     97.4122     29.8987     90.3250
  1413.2500     32.1757     97.3043     30.0620     92.3354
  1413.5000     32.7382     97.1994     30.4666     95.8733
  1413.7500     33.3889     97.0872     31.0447     97.5997
  1414.0000     34.1433     96.9765     31.6939     97.8010
  1414.2500     35.0027     96.8716     32.3170     96.2388
