~Version Information
VERS.                      2.0: CWLS Log ASCII Standard - VERSION 2.0
WRAP.                       NO: One line per depth step
~Well Information Block
STRT.FT               898.0000: 
STOP.FT              2359.2000: 
STEP.FT                 0.1000: 
NULL.                -999.2500: 
COMP.          Pioneer Natural Resources: COMPANY
WELL.             Trimax 44-23: WELL
FLD.           Purgatoire River: FIELD
LOC.           527' FSL & 1064' FEL: LOCATION
PROV.                 Colorado: PROVINCE
CNTY.               Las Animas: COUNTRY
SRVC.                Patterson: SERVICE COMPANY
DATE.          Mon Mar 14 07:28:19 2005: LOG DATE
UWI.           05 071 08326 00: UNIQUE WELL ID
~Curve Information Block
DEPT.FT            0 000 00 00: Depth
DCAL.in                       : CDL Caliper
RHOB.g/cc                     : CDL Bulk Density
RHOC.g/cc                     : CDL Density Correction
DPOR.pu                       : CDL Density Porosity
GR.GAPI                       : Gamma Ray
NPOR.pu                       : Neutron Porosity
~Parameter Information Block
~A  Depth       DCAL        RHOB        RHOC        DPOR         GR         NPOR    
# ...
  1186.0000      7.8927      2.6179      0.1215      1.9479     70.3194     23.1469
  1186.1000      7.8927      2.6139      0.1087      2.1867     73.3026     23.0640
  1186.2000      7.8927      2.6130      0.1029      2.2432     73.1199     22.8932
  1186.3000      7.8773      2.6235      0.1036      1.6067     69.4270     22.7722
  1186.4000      7.8773      2.6355      0.1320      0.8817     67.8474     22.9628
  1186.5000      7.8698      2.6303      0.1383      1.1913     70.9926     23.4433
  1186.6000      7.8698      2.6112      0.0722      2.3517     73.3667     23.6810
  1186.7000      7.8698      2.5941      0.1055      3.3900     70.5000     23.3478
  1186.8000      7.8823      2.5755      0.1045      4.5146     64.4822     22.7789
  1186.9000      7.8823      2.5526      0.0325      5.9039     60.2064     22.3782
  1187.0000      7.9002      2.5372      0.0374      6.8389     59.3692     22.1517
  1187.1000      7.9002      2.5302      0.0234      7.2603     60.4711     21.9249
  1187.2000      7.9002      2.5233      0.0574      7.6774     60.9600     21.7312
  1187.3000      7.9087      2.5167      0.0306      8.0766     58.8346     21.6286
  1187.4000      7.9087      2.5152      0.0584      8.1720     57.2900     21.5487
  1187.5000      7.9101      2.5166      0.0266      8.0820     59.4698     21.2783
  1187.6000      7.9101      2.5221      0.0186      7.7516     62.3490     20.4879
  1187.7000      7.9101      2.5312      0.0616      7.2005     64.6327     19.8423
  1187.8000      7.9099      2.5303      0.0648      7.2554     68.0049     20.2877
  1187.9000      7.9099      2.5132      0.0612      8.2896     69.9473     21.2567
  1188.0000      7.9105      2.4959      0.0153      9.3368     67.1441     21.6848
  1188.1000      7.9105      2.4947      0.0387      9.4108     61.4496     21.3886
  1188.2000      7.9105      2.5063      0.0331      8.7073     57.6432     20.9467
  1188.3000      7.9114      2.5145      0.0536      8.2139     58.0805     20.9938
  1188.4000      7.9114      2.5082      0.0305      8.5969     61.2748     21.4226
  1188.5000      7.9113      2.4969      0.0048      9.2787     66.0648     21.8104
  1188.6000      7.9113      2.4970      0.0425      9.2752     69.8824     21.9653
  1188.7000      7.9113      2.5079      0.0462      8.6116     68.8542     21.9712
  1188.8000      7.9104      2.5199      0.0500      7.8840     66.1579     21.7433
  1188.9000      7.9104      2.5279      0.0247      7.4016     66.1058     21.0282
  1189.0000      7.9097      2.5273      0.0770      7.4390     66.3633     20.2400
  1189.1000      7.9097      2.5158      0.0365      8.1313     65.8202     20.0163
  1189.2000      7.9097      2.5072      0.0188      8.6535     64.9490     20.3140
  1189.3000      7.9091      2.5112      0.0461      8.4129     63.3763     20.8468
  1189.4000      7.9091      2.5217      0.0202      7.7763     63.4358     21.3672
  1189.5000      7.9086      2.5299      0.0677      7.2802     66.1153     21.5887
  1189.6000      7.9086      2.5304      0.0504      7.2514     69.5795     21.4728
  1189.7000      7.9086      2.5284      0.0427      7.3684     73.2004     21.2682
  1189.8000      7.9080      2.5262      0.0701      7.5060     76.5678     21.3036
  1189.9000      7.9080      2.5173      0.0643      8.0449     79.1111     21.6937
  1190.0000      7.9063      2.5031      0.0796      8.9034     81.1731     21.9665
  1190.1000      7.9063      2.4929      0.0604      9.5185     79.5817     21.6101
  1190.2000      7.9063      2.4920      0.0651      9.5752     72.1022     20.9324
  1190.3000      7.9053      2.4916      0.0891      9.6020     64.9638     20.5784
  1190.4000      7.9053      2.4878      0.0272      9.8285     64.3936     20.6562
  1190.5000      7.9075      2.4994      0.0150      9.1279     68.6767     20.9465
  1190.6000      7.9075      2.5286      0.0782      7.3598     73.3126     21.4972
  1190.7000      7.9075      2.5456      0.0987      6.3278     76.7086     22.2390
  1190.8000      7.9095      2.5440      0.0410      6.4221     78.0819     22.9300
  1190.9000      7.9095      2.5421      0.0852      6.5377     78.4053     23.2833
  1191.0000      7.9105      2.5399      0.0929      6.6706     80.7063     22.9587
  1191.1000      7.9105      2.5299      0.0550      7.2767     86.0593     22.0044
  1191.2000      7.9105      2.5129      0.0539      8.3111     93.1590     21.2656
  1191.3000      7.9118      2.4935      0.0284      9.4857     97.0116     21.2134
  1191.4000      7.9118      2.4846      0.0294     10.0250     94.7409     21.6209
  1191.5000      7.9126      2.4953      0.0302      9.3784     90.2821     22.5234
  1191.6000      7.9126      2.5185      0.0450      7.9698     88.7493     23.6140
  1191.7000      7.9126      2.5435      0.0460      6.4528     90.4861     24.2340
  1191.8000      7.9134      2.5613      0.0815      5.3772     94.1519     24.4382
  1191.9000      7.9134      2.5679      0.0678      4.9747     99.9857     24.6634
  1192.0000      7.9134      2.5702      0.0760      4.8354    104.2542     25.1527
  1192.1000      7.9134      2.5695      0.0647      4.8808    102.6977     25.8163
  1192.2000      7.9134      2.5592      0.0709      5.5056     98.5357     26.2849
  1192.3000      7.9111      2.5435     -0.0087      6.4518     97.8754     26.6089
  1192.4000      7.9111      2.5374     -0.0105      6.8266    100.6520     27.0478
  1192.5000      7.9098      2.5454      0.0388      6.3402    102.8779     27.3261
  1192.6000      7.9098      2.5623      0.0534      5.3156    102.9983     27.0917
  1192.7000      7.9098      2.5814      0.0488      4.1584    100.4840     26.6339
  1192.8000      7.9077      2.5949      0.0663      3.3379     97.3850     26.3628
  1192.9000      7.9077      2.6020      0.0241      2.9113     95.8915     26.2137
  1193.0000      7.9024      2.6047      0.0659      2.7462     94.6337     25.9165
  1193.1000      7.9024      2.6032      0.0634      2.8370     92.0219     25.5484
  1193.2000      7.9024      2.6029      0.0579      2.8560     90.9235     25.3414
  1193.3000      7.8992      2.6049      0.1111      2.7316     92.6769     25.1995
  1193.4000      7.8992      2.6050      0.0939      2.7288     92.8548     24.9871
  1193.5000      7.9003      2.5986      0.1318      3.1137     87.9910     24.4591
  1193.6000      7.9003      2.5759      0.1136      4.4895     79.0124     23.6818
  1193.7000      7.9003      2.5422      0.0838      6.5353     70.8827     23.5438
  1193.8000      7.9065      2.5177      0.0729      8.0173     66.8067     24.1647
  1193.9000      7.9065      2.5047      0.0562      8.8040     64.8105     24.4755
  1194.0000      7.9131      2.4948      0.0318      9.4086     63.3791     24.2553
  1194.1000      7.9131      2.4923     -0.0093      9.5587     62.3071     23.9703
  1194.2000      7.9131      2.5039      0.0539      8.8560     61.6384     23.6938
  1194.3000      7.9142      2.5247      0.0248      7.5930     61.7208     23.4536
  1194.4000      7.9142      2.5425      0.0845      6.5175     61.2937     23.2844
  1194.5000      7.9125      2.5471      0.0254      6.2361     58.4092     23.0804
  1194.6000      7.9125      2.5488      0.0527      6.1359     54.5121     22.7281
  1194.7000      7.9125      2.5574      0.0623      5.6093     54.6706     22.1675
  1194.8000      7.9110      2.5597      0.0516      5.4698     59.6395     21.5434
  1194.9000      7.9110      2.5450      0.0179      6.3624     64.3376     20.9778
  1195.0000      7.9102      2.5237      0.0338      7.6570     65.4967     20.4724
  1195.1000      7.9102      2.5097      0.0195      8.5005     63.8157     20.3153
  1195.2000      7.9102      2.5016      0.0429      8.9942     63.4562     20.5748
  1195.3000      7.9099      2.4937     -0.0108      9.4704     68.9055     20.2902
  1195.4000      7.9099      2.4920      0.0052      9.5744     76.8523     18.9266
  1195.5000      7.9096      2.4918      0.0309      9.5898     81.2423     17.2859
