~Version Information
VERS.                      2.0: CWLS Log ASCII Standard - VERSION 2.0
WRAP.                       NO: One line per depth step
~Well Information Block
STRT.FT                -9.0000: 
STOP.FT              2518.0000: 
STEP.FT                 0.2500: 
NULL.                -999.2500: 
COMP.          Petrogulf Corporation: COMPANY
WELL.            Montoya 7-12V: WELL
FLD.           Purgatorie River: FIELD
LOC.           1764' FNL & 728' FWL: LOCATION
CNTY.               Las Animas: COUNTY
SRVC.                         : SERVICE COMPANY
DATE.          Mon Mar 08 16:11:04 2004: LOG DATE
UWI.           05-071-07887-00: UNIQUE WELL ID
STAT.                 Colorado: STATE
~Curve Information Block
DEPT.FT            0 000 00 00: Depth
GR.GAPI                       : Gamma Ray
CCL.                          : Casing Collar Locator
TT3.usec                      : CBL 3' Travel Time
AMP3.mV                       : CBL 3' Amplitude
~Parameter Information Block
~A  Depth        GR         CCL         TT3         AMP3    
# ...
  1967.5000     49.6384      0.0000    635.5649      1.4130
  1967.7500     50.2763      0.0000    639.0772      1.3742
  1968.0000     51.5076      0.0000    645.9686      1.3481
  1968.2500     53.2681      0.0000    654.9410      1.3513
  1968.5000     55.7106      0.0000    658.5947      1.3997
  1968.7500     58.9329      0.0000    650.8624      1.4863
  1969.0000     62.4894      0.0000    631.4684      1.5633
  1969.2500     65.2620      0.0000    606.0650      1.5769
  1969.5000     66.0834      0.0000    584.8314      1.5273
  1969.7500     64.7635      0.0000    576.8491      1.4714
  1970.0000     62.5659      0.0000    584.9905      1.4494
  1970.2500     61.4117      0.0000    605.6450      1.4508
  1970.5000     62.3542      0.0000    628.1501      1.4594
  1970.7500     64.8856      0.0000    641.5045      1.4847
  1971.0000     67.7006      0.0000    643.4500      1.5272
  1971.2500     69.9007      0.0000    640.1626      1.5424
  1971.5000     71.5590      0.0000    635.6946      1.4902
  1971.7500     73.6324      0.0000    624.0859      1.3961
  1972.0000     77.3983      0.0000    601.0999      1.3213
  1972.2500     83.4033      0.0000    581.8126      1.2939
  1972.5000     90.6506      0.0000    590.3873      1.2953
  1972.7500     97.0117      0.0000    627.5322      1.2961
  1973.0000    100.5321      0.0000    665.0270      1.2923
  1973.2500    100.3585      0.0000    677.0227      1.3230
  1973.5000     96.8753      0.0000    662.1778      1.4263
  1973.7500     91.5608      0.0000    633.7778      1.5698
  1974.0000     86.5471      0.0000    599.7136      1.6731
  1974.2500     83.5694      0.0000    563.2108      1.7028
  1974.5000     83.1697      0.0000    538.6956      1.7020
  1974.7500     85.3031      0.0000    543.2040      1.7206
  1975.0000     90.4873      0.0000    573.0793      1.7607
  1975.2500     99.5919      0.0000    609.6962      1.7935
  1975.5000    112.4159      0.0000    640.4672      1.8140
  1975.7500    127.1175      0.0000    662.3470      1.8605
  1976.0000    141.2863      0.0000    675.4255      1.9625
  1976.2500    153.3478      0.0000    679.5742      2.1070
  1976.5000    162.9940      0.0000    673.8131      2.2683
  1976.7500    170.6815      0.0000    660.3088      2.4376
  1977.0000    176.9450      0.0000    646.8737      2.6503
  1977.2500    181.9234      0.0000    639.4604      2.9841
  1977.5000    185.0509      0.0000    636.2637      3.4644
  1977.7500    185.2082      0.0000    629.6571      4.0193
  1978.0000    181.8168      0.0000    609.9184      4.5802
  1978.2500    176.1055      0.0000    577.4124      5.1151
  1978.5000    170.8848      0.0000    554.0391      5.5383
  1978.7500    168.5235      0.0000    559.2403      5.7323
  1979.0000    168.9915      0.0000    579.9282      5.6638
  1979.2500    170.0952      0.0000    592.3011      5.3745
  1979.5000    169.8313      0.0000    592.7964      4.9251
  1979.7500    168.3111      0.0000    590.1232      4.4122
  1980.0000    167.0996      0.0000    589.8063      3.9560
  1980.2500    167.0710      0.0000    593.8798      3.6199
  1980.5000    167.4292      0.0000    603.4693      3.3641
  1980.7500    166.5915      0.0000    618.5675      3.1236
  1981.0000    163.6429      0.0000    640.8448      2.8953
  1981.2500    159.1387      0.0000    674.0272      2.7063
  1981.5000    154.8668      0.0000    710.4736      2.5892
  1981.7500    152.6414      0.0000    726.2183      2.5959
  1982.0000    152.7928      0.0000    710.5522      2.7332
  1982.2500    153.8708      0.0000    686.0147      2.9279
  1982.5000    154.1703      0.0000    676.6205      3.1054
  1982.7500    153.1569      0.0000    678.5732      3.2144
  1983.0000    150.8800      0.0000    675.2034      3.1991
  1983.2500    146.5506      0.0000    658.8905      3.0594
  1983.5000    138.6323      0.0000    635.0718      2.8874
  1983.7500    126.4225      0.0000    614.8532      2.7620
  1984.0000    111.2804      0.0000    604.2103      2.6561
  1984.2500     96.4109      0.0000    601.5062      2.5102
  1984.5000     85.3039      0.0000    602.8182      2.3317
  1984.7500     79.6914      0.0000    605.0373      2.1714
  1985.0000     78.5200      0.0000    607.0862      2.0521
  1985.2500     78.8424      0.0000    610.2906      1.9425
  1985.5000     77.8666      0.0000    615.7582      1.8061
  1985.7500     74.5495      0.0000    623.0215      1.6900
  1986.0000     69.7016      0.0000    633.1370      1.7009
  1986.2500     64.7510      0.0000    646.7383      1.8460
  1986.5000     60.3495      0.0000    657.7067      1.9978
  1986.7500     56.1292      0.0000    659.6481      2.0522
  1987.0000     51.6222      0.0000    655.2049      2.0267
  1987.2500     47.1209      5.0000    651.0471      2.0027
  1987.5000     43.6260      0.0000    651.1006      2.0173
  1987.7500     42.1715      0.0000    655.6229      2.0431
  1988.0000     43.1633      0.0000    661.6260      2.0659
  1988.2500     46.0984      0.0000    664.3990      2.1027
  1988.5000     49.7677      0.0000    661.8825      2.1418
  1988.7500     52.8437      0.0000    657.1271      2.1143
  1989.0000     54.5587      0.0000    653.7421      1.9642
  1989.2500     55.1464      0.0000    652.1050      1.7533
  1989.5000     55.8014      0.0000    651.2480      1.6052
  1989.7500     58.0384      0.0000    650.8061      1.5466
  1990.0000     62.6701      0.0000    650.6763      1.5270
  1990.2500     69.0289      0.0000    650.5618      1.5233
  1990.5000     75.0188      0.0000    650.2094      1.5269
  1990.7500     78.2264      0.0000    649.6526      1.5188
  1991.0000     77.5508      0.0000    649.0806      1.5113
  1991.2500     74.0044      0.0000    648.6265      1.5342
  1991.5000     69.7817      0.0000    648.3705      1.5757
  1991.7500     66.5584      0.0000    648.3414      1.5950
  1992.0000     64.6768      0.0000    648.4695      1.5794
  1992.2500     63.5887      0.0000    648.6771      1.5612
  1992.5000     62.7247      0.0000    648.8892      1.5707
  1992.7500     62.0864      0.0000    648.9521      1.5949
  1993.0000     62.2581      0.0000    648.8029      1.6048
  1993.2500     63.9398      0.0000    648.6414      1.5985
  1993.5000     67.6284      0.0000    648.7094      1.5879
  1993.7500     73.9011      0.0000    649.1064      1.5637
  1994.0000     83.5576      0.0000    649.8608      1.5301
  1994.2500     96.8536      0.0000    650.9436      1.5306
  1994.5000    112.6681      0.0000    652.2720      1.5880
  1994.7500    128.8445      0.0000    653.8426      1.6844
  1995.0000    143.0809      0.0000    655.7306      1.7944
  1995.2500    153.3452      0.0000    657.5219      1.8852
  1995.5000    158.3074      0.0000    657.6187      1.9287
  1995.7500    158.0608      0.0000    653.9071      1.9421
  1996.0000    153.9107      0.0000    646.0579      1.9496
  1996.2500    146.9991      0.0000    635.7099      1.9335
  1996.5000    137.4529      0.0000    623.0292      1.8949
  1996.7500    125.0568      0.0000    607.7413      1.8619
  1997.0000    110.4164      0.0000    593.0532      1.8233
  1997.2500     95.3142      0.0000    580.9543      1.7623
  1997.5000     82.1363      0.0000    571.6036      1.7037
  1997.7500     72.9597      0.0000    571.1605      1.6683
  1998.0000     68.7545      0.0000    583.6413      1.6428
  1998.2500     69.0597      0.0000    601.4693      1.6227
  1998.5000     72.3519      0.0000    617.6503      1.6195
  1998.7500     77.0247      0.0000    631.5916      1.6214
  1999.0000     82.1570      0.0000    641.8857      1.6051
  1999.2500     87.1902      0.0000    646.3007      1.5671
  1999.5000     91.0082      0.0000    644.5170      1.5259
  1999.7500     92.0433      0.0000    637.7111      1.5062
  2000.0000     89.6345      0.0000    628.8958      1.5100
  2000.2500     84.8118      0.0000    621.9223      1.5245
  2000.5000     79.3032      0.0000    618.3499      1.5403
  2000.7500     73.9985      0.0000    617.0590      1.5462
