~Version Information
VERS.                      2.0: CWLS Log ASCII Standard - VERSION 2.0
WRAP.                       NO: One line per depth step
~Well Information Block
STRT.FT               965.2500: 
STOP.FT              2602.5000: 
STEP.FT                 0.2500: 
NULL.                -999.2500: 
COMP.          Petrogulf Corporation: COMPANY
WELL.             Valejo 8-12V: WELL
FLD.           Purgatorie River: FIELD
LOC.           1510' FNL & 1460' FWL: LOCATION
CNTY.               Las Animas: COUNTY
SRVC.                         : SERVICE COMPANY
DATE.          Fri Nov 14 05:32:33 2003: LOG DATE
UWI.                          : UNIQUE WELL ID
STAT.                 Colorado: STATE
~Curve Information Block
DEPT.FT            0 000 00 00: Depth
RILD.Ohm-m                    : DIL Deep Resistivity
RILM.Ohm-m                    : DIL Medium Resistivity
RLL3.Ohm-m                    : DIL Shallow Resistivity
SP.mV                         : DIL Spontaneous Potential
GR.GAPI                       : Gamma Ray
~Parameter Information Block
~A  Depth       RILD        RILM        RLL3         SP          GR     
# ...
  1189.2500     12.2801     14.3096     16.3779    -74.7663     95.8162
  1189.5000     11.8968     13.2356     14.5213    -74.4412    100.9185
  1189.7500     11.5549     12.3605     12.9031    -74.1228    103.9694
  1190.0000     11.2459     11.6896     11.8805    -73.8124    107.9979
  1190.2500     10.9624     11.2079     11.5499    -73.5221    110.4556
  1190.5000     10.7019     10.8861     11.7205    -73.2557    113.9695
  1190.7500     10.4699     10.6852     12.1066    -72.9996    115.8914
  1191.0000     10.2786     10.5644     12.5231    -72.7390    117.0443
  1191.2500     10.1437     10.4905     12.9065    -72.4780    116.3491
  1191.5000     10.0796     10.4473     13.2143    -72.2374    113.9440
  1191.7500     10.0957     10.4376     13.3684    -72.0339    112.3332
  1192.0000     10.1954     10.4777     13.3021    -71.8604    110.9591
  1192.2500     10.3771     10.5908     13.0471    -71.6839    110.8630
  1192.5000     10.6365     10.8020     12.7793    -71.4600    111.5123
  1192.7500     10.9673     11.1349     12.7777    -71.1567    111.9349
  1193.0000     11.3622     11.6088     13.3021    -70.7732    111.6474
  1193.2500     11.8140     12.2363     14.4567    -70.3436    110.7647
  1193.5000     12.3201     13.0214     16.1347    -69.9205    109.0146
  1193.7500     12.8884     13.9619     18.0795    -69.5476    107.5985
  1194.0000     13.5388     15.0543     20.0199    -69.2358    103.8849
  1194.2500     14.2959     16.3059     21.7917    -68.9625     99.6730
  1194.5000     15.1725     17.7528     23.3795    -68.6969     91.4660
  1194.7500     16.1532     19.4743     24.8778    -68.4221     86.0750
  1195.0000     17.1950     21.5801     26.4219    -68.1333     80.0971
  1195.2500     18.2483     24.1424     28.1179    -67.8271     77.8420
  1195.5000     19.2783     27.0744     29.9688    -67.5009     76.3402
  1195.7500     20.2543     30.0346     31.8425    -67.1609     75.8340
  1196.0000     21.1175     32.5286     33.5590    -66.8251     74.7079
  1196.2500     21.7776     34.2274     35.0614    -66.5154     73.3905
  1196.5000     22.1653     35.1498     36.4831    -66.2485     70.3989
  1196.7500     22.2960     35.4725     37.9841    -66.0305     67.7514
  1197.0000     22.2712     35.2744     39.5023    -65.8591     63.2701
  1197.2500     22.2181     34.5128     40.7166    -65.7255     60.5125
  1197.5000     22.2228     33.1697     41.2731    -65.6164     57.5649
  1197.7500     22.2981     31.3589     40.9657    -65.5154     56.4743
  1198.0000     22.3925     29.3091     39.6699    -65.4108     55.8755
  1198.2500     22.4359     27.2845     37.2495    -65.3031     56.2057
  1198.5000     22.4006     25.5196     33.7019    -65.2028     58.5037
  1198.7500     22.3256     24.1934     29.4279    -65.1185     61.7432
  1199.0000     22.2780     23.4276     25.3517    -65.0510     69.3643
  1199.2500     22.2914     23.3020     22.9120    -65.0003     75.6945
  1199.5000     22.3371     23.8654     24.0930    -64.9785     84.7376
  1199.7500     22.3464     25.1287     31.2576    -65.0145     88.6543
  1200.0000     21.8708     24.4055     41.9532    -56.6562     88.7727
  1200.2500     21.6402     26.3257     61.7941    -56.7962     84.5990
  1200.5000     21.2949     28.2093     85.0003    -57.0533     73.6659
  1200.7500     20.9088     29.5943    103.5733    -57.4126     65.2222
  1201.0000     20.5676     30.1463    109.5132    -57.8439     54.4690
  1201.2500     20.3502     29.8202    100.2819    -58.3037     50.3068
  1201.5000     20.3112     28.8175     80.7036    -58.7433     50.2834
  1201.7500     20.4611     27.4315     59.2850    -59.1161     54.4793
  1202.0000     20.7497     25.9315     42.5748    -59.3851     65.5162
  1202.2500     21.0672     24.5164     32.4862    -59.5311     74.3509
  1202.5000     21.2808     23.3100     27.5531    -59.5583     86.5772
  1202.7500     21.2962     22.3751     25.4901    -59.4918     92.6314
  1203.0000     21.1002     21.7355     24.6937    -59.3675     97.9504
  1203.2500     20.7498     21.3949     24.4090    -59.2198     99.6595
  1203.5000     20.3295     21.3439     24.3763    -59.0740    101.1870
  1203.7500     19.9171     21.5518     24.5543    -58.9434    102.0691
  1204.0000     19.5679     21.9507     25.0064    -58.8289    102.8475
  1204.2500     19.3088     22.4317     25.8347    -58.7186    102.3618
  1204.5000     19.1384     22.8701     27.1012    -58.5907     99.3528
  1204.7500     19.0336     23.1737     28.7616    -58.4240     96.0609
  1205.0000     18.9603     23.3164     30.6393    -58.2120     90.7726
  1205.2500     18.8838     23.3244     32.4375    -57.9708     88.0389
  1205.5000     18.7764     23.2318     33.7792    -57.7359     85.9251
  1205.7500     18.6205     23.0478     34.2929    -57.5476     85.7262
  1206.0000     18.4063     22.7545     33.7409    -57.4367     86.8888
  1206.2500     18.1231     22.3284     32.1319    -57.4167     88.6252
  1206.5000     17.7583     21.7671     29.7285    -57.4797     92.6073
  1206.7500     17.3113     21.1007     26.9539    -57.5944     95.8291
  1207.0000     16.8114     20.3782     24.2794    -57.7160    100.6326
  1207.2500     16.3114     19.6434     22.1180    -57.8103    103.5358
  1207.5000     15.8571     18.9241     20.7120    -57.8758    107.4521
  1207.7500     15.4571     18.2372     20.0701    -57.9428    109.7166
  1208.0000     15.0849     17.5965     20.0237    -58.0544    112.1054
  1208.2500     14.7071     17.0118     20.3604    -58.2440    112.7565
  1208.5000     14.3121     16.4826     20.9096    -58.5195    112.4500
  1208.7500     13.9149     15.9940     21.5265    -58.8576    111.8679
  1209.0000     13.5437     15.5202     22.0436    -59.2166    111.6123
  1209.2500     13.2285     15.0328     22.2733    -59.5615    112.4551
  1209.5000     12.9985     14.5148     22.0697    -59.8826    115.4833
  1209.7500     12.8788     13.9722     21.4035    -60.1918    118.1506
  1210.0000     12.8776     13.4343     20.3918    -60.5031    121.4713
  1210.2500     12.9703     12.9424     19.2456    -60.8162    122.5274
  1210.5000     13.0949     12.5360     18.1611    -61.1120    122.5269
  1210.7500     13.1775     12.2448     17.2514    -61.3600    122.0340
  1211.0000     13.1767     12.0888     16.5708    -61.5318    121.0027
  1211.2500     13.1088     12.0800     16.1807    -61.6110    119.9959
  1211.5000     13.0274     12.2234     16.1775    -61.5994    118.1596
  1211.7500     12.9814     12.5139     16.6717    -61.5178    117.2288
  1212.0000     12.9919     12.9319     17.7406    -61.4021    116.8853
  1212.2500     13.0561     13.4392     19.3601    -61.2936    117.0887
  1212.5000     13.1639     13.9825     21.3379    -61.2245    116.9327
  1212.7500     13.3102     14.5034     23.3113    -61.2022    115.9765
  1213.0000     13.4998     14.9549     24.8692    -61.2035    112.7935
  1213.2500     13.7444     15.3133     25.7589    -61.1870    109.4293
  1213.5000     14.0589     15.5806     26.0130    -61.1183    102.9080
  1213.7500     14.4569     15.7790     25.8406    -60.9853     98.3656
  1214.0000     14.9484     15.9470     25.3704    -60.7961     93.5133
  1214.2500     15.5396     16.1371     24.5531    -60.5680     92.8075
  1214.5000     16.2317     16.4145     23.3614    -60.3222     95.9643
  1214.7500     17.0204     16.8530     22.0504    -60.0827     99.8401
  1215.0000     17.8924     17.5295     21.1767    -59.8704    105.3198
  1215.2500     18.8228     18.5178     21.3822    -59.6907    107.2787
  1215.5000     19.7786     19.8851     23.1705    -59.5235    106.9091
  1215.7500     20.7293     21.6859     26.8238    -59.3352    104.9731
  1216.0000     21.6609     23.9520     32.4384    -59.1090    101.0304
  1216.2500     22.5844     26.6704     39.9768    -58.8626     98.4175
  1216.5000     23.5320     29.7504     49.1957    -58.6349     94.8659
  1216.7500     24.5490     33.0019     59.4180    -58.4594     92.3079
  1217.0000     25.6808     36.1801     69.4526    -58.3522     86.8551
