~Version Information
VERS.                      2.0: CWLS Log ASCII Standard - VERSION 2.0
WRAP.                       NO: One line per depth step
~Well Information Block
STRT.FT               964.0000: 
STOP.FT              2440.0000: 
STEP.FT                 0.2500: 
NULL.                -999.2500: 
COMP.          Petrogulf Corporation: COMPANY
WELL.              Hand 8-44 V: WELL
FLD.           Purgatorie River: FIELD
LOC.           1076' FEL & 820' FSL: LOCATION
CNTY.               Las Animas: COUNTY
SRVC.                         : SERVICE COMPANY
DATE.          Fri Nov 21 11:54:17 2003: LOG DATE
UWI.                          : UNIQUE WELL ID
STAT.                 Colorado: STATE
~Curve Information Block
DEPT.FT            0 000 00 00: Depth
SP.mV                         : IEL Spontaneous Potential
DIR.Ohm-m                     : IEL Induction Resistivity
GR.GAPI                       : Gamma Ray
~Parameter Information Block
~A  Depth        SP         DIR          GR     
# ...
  2383.5000    -20.5024      9.2818     89.2270
  2383.7500    -18.1238      9.7916     94.4696
  2384.0000    -16.4256     10.3693    102.1047
  2384.2500    -15.3686     10.9842    104.8077
  2384.5000    -14.8575     11.6089    103.3022
  2384.7500    -14.7850     12.2321     98.9911
  2385.0000    -15.0280     12.8625     90.0867
  2385.2500    -15.4384     13.5183     84.0739
  2385.5000    -15.8611     14.2095     76.4494
  2385.7500    -16.1774     14.9242     72.4848
  2386.0000    -16.3421     15.6336     67.9115
  2386.2500    -16.3868     16.3156     65.5482
  2386.5000    -16.3883     16.9758     63.0114
  2386.7500    -16.4223     17.6375     62.2401
  2387.0000    -16.5278     18.3065     62.7753
  2387.2500    -16.6925     18.9505     64.0472
  2387.5000    -16.8608     19.5344     66.5482
  2387.7500    -16.9597     20.0769     68.4248
  2388.0000    -16.9328     20.6526     72.0675
  2388.2500    -16.7663     21.3093     75.3357
  2388.5000    -16.4915     21.9788     80.7220
  2388.7500    -16.1663     22.4798     83.4107
  2389.0000    -15.8535     22.6486     84.0381
  2389.2500    -15.6110     22.4855     81.8385
  2389.5000    -15.4869     22.1554     75.8152
  2389.7500    -15.5081     21.8629     71.2205
  2390.0000    -15.6669     21.7472     65.2139
  2390.2500    -15.9236     21.8552     62.2346
  2390.5000    -16.2237     22.1576     59.2033
  2390.7500    -16.5154     22.5723     57.8984
  2391.0000    -16.7625     22.9877     56.7459
  2391.2500    -16.9541     23.2890     56.5024
  2391.5000    -17.1058     23.3828     56.9676
  2391.7500    -17.2517     23.2131     57.8226
  2392.0000    -17.4346     22.7630     59.9454
  2392.2500    -17.6946     22.0502     61.9946
  2392.5000    -18.0558     21.1222     65.9941
  2392.7500    -18.5179     20.0553     69.0347
  2393.0000    -19.0666     18.9499     73.4742
  2393.2500    -19.6945     17.9147     75.9765
  2393.5000    -20.4099     17.0441     78.5977
  2393.7500    -21.2196     16.3988     79.5087
  2394.0000    -22.1064     15.9998     80.1777
  2394.2500    -23.0288     15.8319     81.1383
  2394.5000    -23.9470     15.8532     86.0078
  2394.7500    -24.8406     16.0069     93.1461
  2395.0000    -25.6966     16.2335    110.9366
  2395.2500    -26.4876     16.4803    126.3785
  2395.5000    -27.1745     16.7099    148.9371
  2395.7500    -27.7319     16.9067    158.7704
  2396.0000    -28.1660     17.0847    159.6070
  2396.2500    -28.5020     17.2901    150.5714
  2396.5000    -28.7615     17.5944    127.7066
  2396.7500    -28.9550     18.0759    110.7873
  2397.0000    -29.0854     18.7942     89.6186
  2397.2500    -29.1415     19.7634     80.3382
  2397.5000    -29.0811     20.9279     73.4542
  2397.7500    -28.8292     22.1557     71.9929
  2398.0000    -28.3079     23.2702     71.5258
  2398.2500    -27.4830     24.1154     71.4265
  2398.5000    -26.4032     24.6040     71.8336
  2398.7500    -25.2072     24.7121     73.1756
  2399.0000    -24.0822     24.4562     77.4076
  2399.2500    -23.1882     23.8979     81.3187
  2399.5000    -22.6056     23.1520     87.6421
  2399.7500    -22.3371     22.3562     91.7645
  2400.0000    -22.3210     21.6193     97.4884
  2400.2500    -22.4303     20.9941    100.4963
  2400.5000    -22.4954     20.4880    102.4306
  2400.7500    -22.3833     20.0901    101.7224
  2401.0000    -22.0740     19.7915     99.2229
  2401.2500    -21.6650     19.5918     98.2520
  2401.5000    -21.3084     19.4979    100.0742
  2401.7500    -21.1345     19.5202    103.8625
  2402.0000    -21.1908     19.6723    112.5766
  2402.2500    -21.4119     19.9727    119.2262
  2402.5000    -21.6408     20.4461    127.7074
  2402.7500    -21.7037     21.1194    130.9809
  2403.0000    -21.4990     22.0128    131.7647
  2403.2500    -21.0444     23.1311    130.4460
  2403.5000    -20.4575     24.4630    128.2478
  2403.7500    -19.8881     25.9905    127.8427
  2404.0000    -19.4480     27.6986    129.3705
  2404.2500    -19.1727     29.5803    131.0970
  2404.5000    -19.0154     31.6342    132.7439
  2404.7500    -18.8518     33.8662    132.7861
  2405.0000    -18.5107     36.2984    133.3441
  2405.2500    -17.8662     38.9736    136.1906
  2405.5000    -16.9463     41.9347    145.8692
  2405.7500    -15.9306     45.1759    154.4617
  2406.0000    -15.0218     48.5998    165.5271
  2406.2500    -14.3380     52.0206    169.7397
  2406.5000    -13.9086     55.2234    172.8558
  2406.7500    -13.7063     58.0198    176.1338
  2407.0000    -13.6591     60.2406    189.1346
  2407.2500    -13.6691     61.6911    205.1467
  2407.5000    -13.6593     62.1530    238.5564
  2407.7500    -13.6118     61.4531    263.3855
  2408.0000    -13.5596     59.5442    295.5731
  2408.2500    -13.5441     56.5534    308.7436
  2408.5000    -13.5771     52.7785    311.0683
  2408.7500    -13.6387     48.6224    300.7327
  2409.0000    -13.6992     44.4807    270.2551
  2409.2500    -13.7365     40.6444    242.4950
  2409.5000    -13.7391     37.2633    195.0998
  2409.7500    -13.7113     34.3663    163.5174
  2410.0000    -13.6817     31.9071    122.4825
  2410.2500    -13.7014     29.8098    101.6142
  2410.5000    -13.8217     27.9982     80.8263
  2410.7500    -14.0629     26.4099     73.1882
  2411.0000    -14.3964     25.0000     68.4967
  2411.2500    -14.7566     23.7413     68.0034
  2411.5000    -15.0793     22.6241     68.3125
  2411.7500    -15.3372     21.6520     68.1153
  2412.0000    -15.5418     20.8309     66.2350
  2412.2500    -15.7216     20.1569     63.7004
  2412.5000    -15.9022     19.6121     58.3622
  2412.7500    -16.0978     19.1687     54.5807
  2413.0000    -16.3013     18.8005     50.3757
  2413.2500    -16.4747     18.4914     49.2327
  2413.5000    -16.5519     18.2363     49.8533
  2413.7500    -16.4613     18.0335     51.1243
  2414.0000    -16.1639     17.8755     52.9436
  2414.2500    -15.6897     17.7485     53.5624
  2414.5000    -15.1398     17.6395     53.2802
  2414.7500    -14.6428     17.5461     52.3444
  2415.0000    -14.2930     17.4766     50.2681
  2415.2500    -14.1138     17.4420     48.8771
  2415.5000    -14.0604     17.4461     47.5452
  2415.7500    -14.0522     17.4810     47.3755
  2416.0000    -14.0202     17.5304     48.0677
  2416.2500    -13.9480     17.5769     48.9562
  2416.5000    -13.8816     17.6068     50.5775
  2416.7500    -13.8983     17.6116     51.5718
  2417.0000    -14.0524     17.5867     52.2619
  2417.2500    -14.3369     17.5313     51.9344
  2417.5000    -14.6936     17.4499     50.5495
  2417.7500    -15.0587     17.3502     49.4845
  2418.0000    -15.3974     17.2350     48.3052
  2418.2500    -15.6995     17.0979     47.9928
  2418.5000    -15.9574     16.9328     48.4302
  2418.7500    -16.1530     16.7526     49.2917
  2419.0000    -16.2650     16.5956     50.9514
  2419.2500    -16.2853     16.5046     51.9567
  2419.5000    -16.2296     16.4937     53.1686
  2419.7500    -16.1272     16.5327     53.9305
  2420.0000    -16.0028     16.5627     54.8437
  2420.2500    -15.8757     16.5352     54.6017
  2420.5000    -15.7782     16.4402     51.1072
  2420.7500    -15.7671     16.3028     45.9077
  2421.0000    -15.9055     16.1591     34.1945
  2421.2500    -16.2167     16.0363     25.1687
  2421.5000    -16.6480     15.9494     13.0499
  2421.7500    -17.0775     15.9060      7.2708
  2422.0000    -17.3639     15.9083      2.3744
  2422.2500    -17.4069     15.9485      0.9495
  2422.5000    -17.1875     16.0065      0.1828
  2422.7500    -16.7747     16.0537      0.0502
  2423.0000    -16.3049     16.0640      0.0046
  2423.2500    -15.9418     16.0229      0.0000
  2423.5000    -15.8213     15.9295   -999.2500
  2423.7500    -15.9961     15.7915   -999.2500
  2424.0000    -16.4151     15.6218   -999.2500
  2424.2500    -16.9606     15.4386   -999.2500
  2424.5000    -17.5144     15.2646   -999.2500
  2424.7500    -18.0009     15.1215   -999.2500
  2425.0000    -18.3893     15.0228   -999.2500
