~Version Information
VERS.                      2.0: CWLS Log ASCII Standard - VERSION 2.0
WRAP.                       NO: One line per depth step
~Well Information Block
STRT.FT               400.0000: 
STOP.FT              2201.0000: 
STEP.FT                 0.2500: 
NULL.                -999.2500: 
COMP.          Evergreen Operating Corporation: COMPANY
WELL.            Triumph 13-10: WELL
FLD.           Purgatorie River: FIELD
LOC.           1551' FSL & 522' FWL: LOCATION
PROV.                 Colorado: PROVINCE
CNTY.               Las Animas: COUNTRY
SRVC.                Patterson: SERVICE COMPANY
DATE.          Fri Jul 23 20:28:37 2004: LOG DATE
UWI.           05 071 08108 00: UNIQUE WELL ID
~Curve Information Block
DEPT.FT            0 000 00 00: Depth
SN.Ohm-m                      : IEL Short Normal
SP.mV                         : IEL Spontaneous Potential
DIR.Ohm-m                     : IEL Induction Resistivity
GR.GAPI                       : Gamma Ray
~Parameter Information Block
~A  Depth        SN          SP         DIR          GR     
# ...
   869.0000     14.1235    -17.3619      9.4478    131.2757
   869.2500     13.2684    -17.2642      9.2613    133.5296
   869.5000     12.3206    -17.1813      9.1227    137.9544
   869.7500     11.5555    -17.1292      9.0432    141.2711
   870.0000     11.1288    -17.1186      9.0253    145.5152
   870.2500     10.9979    -17.1513      9.0622    146.9305
   870.5000     11.0536    -17.2165      9.1407    146.3938
   870.7500     11.2695    -17.2885      9.2474    144.8661
   871.0000     11.7320    -17.3337      9.3741    142.2460
   871.2500     12.4747    -17.3293      9.5212    140.5396
   871.5000     13.3603    -17.2838      9.6969    137.4073
   871.7500     14.2560    -17.2362      9.9144    134.4785
   872.0000     15.1637    -17.2267     10.1873    128.6801
   872.2500     16.1192    -17.2665     10.5255    124.3860
   872.5000     17.0538    -17.3373     10.9322    119.4154
   872.7500     17.7554    -17.4111     11.4040    118.6161
   873.0000     18.0756    -17.4657     11.9302    122.2633
   873.2500     18.1476    -17.4875     12.4901    126.9432
   873.5000     18.2262    -17.4685     13.0497    134.1464
   873.7500     18.3335    -17.4055     13.5613    137.6268
   874.0000     18.2294    -17.2995     13.9740    140.0459
   874.2500     17.8086    -17.1524     14.2559    139.8993
   874.5000     17.3381    -16.9674     14.4189    137.3841
   874.7500     17.1872    -16.7531     14.5227    134.4089
   875.0000     17.5642    -16.5271     14.6509    128.9259
   875.2500     18.5180    -16.3096     14.8736    125.6475
   875.5000     19.9492    -16.1119     15.2208    123.4013
   875.7500     21.6720    -15.9312     15.6765    124.2458
   876.0000     23.4288    -15.7563     16.1884    127.7582
   876.2500     24.8690    -15.5826     16.6850    129.8331
   876.5000     25.7371    -15.4192     17.0938    129.6748
   876.7500     26.0586    -15.2806     17.3610    126.9247
   877.0000     26.1194    -15.1753     17.4691    120.7579
   877.2500     26.1759    -15.1069     17.4406    117.2168
   877.5000     26.1853    -15.0786     17.3241    115.1492
   877.7500     26.0523    -15.0936     17.1714    116.0848
   878.0000     25.8890    -15.1526     17.0220    119.4666
   878.2500     25.7815    -15.2524     16.8983    121.8568
   878.5000     25.5863    -15.3824     16.8082    124.2629
   878.7500     25.1708    -15.5197     16.7504    124.9630
   879.0000     24.6827    -15.6312     16.7208    125.5726
   879.2500     24.3332    -15.6852     16.7167    126.4871
   879.5000     24.0517    -15.6684     16.7376    129.3235
   879.7500     23.5492    -15.5944     16.7829    131.9153
   880.0000     22.5963    -15.4973     16.8498    135.9095
   880.2500     21.2057    -15.4127     16.9332    138.3804
   880.5000     19.6932    -15.3594     17.0279    141.8617
   880.7500     18.6342    -15.3327     17.1326    143.8543
   881.0000     18.6302    -15.3139     17.2493    145.0759
   881.2500     19.8209    -15.2847     17.3806    143.7527
   881.5000     21.7051    -15.2325     17.5279    138.0043
   881.7500     23.6196    -15.1483     17.6954    132.3864
   882.0000     25.1544    -15.0274     17.8950    123.5013
   882.2500     26.1848    -14.8782     18.1467    118.3167
   882.5000     26.8216    -14.7260     18.4746    112.3608
   882.7500     27.2104    -14.6064     18.9014    109.6408
   883.0000     27.3774    -14.5489     19.4450    107.6068
   883.2500     27.3654    -14.5599     20.1127    107.8181
   883.5000     27.3367    -14.6173     20.8910    110.1658
   883.7500     27.4920    -14.6844     21.7375    112.0861
   884.0000     28.0066    -14.7319     22.5877    113.0655
   884.2500     29.0517    -14.7527     23.3779    111.5790
   884.5000     30.6489    -14.7605     24.0712    106.6368
   884.7500     32.5505    -14.7754     24.6654    102.5812
   885.0000     34.5601    -14.8083     25.1792     96.7916
   885.2500     36.7296    -14.8528     25.6301     93.2528
   885.5000     39.1273    -14.8880     26.0224     87.9918
   885.7500     41.6865    -14.8930     26.3538     84.5114
   886.0000     44.2473    -14.8658     26.6294     80.0532
   886.2500     46.6175    -14.8297     26.8676     78.1030
   886.5000     48.5357    -14.8163     27.0861     77.0372
   886.7500     49.5353    -14.8413     27.2803     77.3210
   887.0000     49.1131    -14.8957     27.4138     78.5507
   887.2500     47.2597    -14.9572     27.4286     79.8606
   887.5000     44.6002    -15.0044     27.2643     83.5434
   887.7500     41.9594    -15.0217     26.8752     87.9488
   888.0000     39.6102    -14.9963     26.2466     98.0129
   888.2500     37.0698    -14.9192     25.4071    106.4412
   888.5000     33.9747    -14.7966     24.4248    119.2698
   888.7500     30.7438    -14.6635     23.3837    126.2549
   889.0000     28.2610    -14.5756     22.3573    132.1746
   889.2500     27.0237    -14.5757     21.3991    132.5812
   889.5000     26.6595    -14.6625     20.5452    128.2690
   889.7500     26.5404    -14.7930     19.8181    122.8034
   890.0000     26.4523    -14.9100     19.2279    112.3061
   890.2500     26.4823    -14.9714     18.7746    104.8489
   890.5000     26.6926    -14.9647     18.4568     95.0456
   890.7500     26.9387    -14.9042     18.2785     90.6581
   891.0000     27.0261    -14.8147     18.2442     88.7266
   891.2500     27.0117    -14.7125     18.3414     90.5033
   891.5000     27.1233    -14.5938     18.5282     95.9672
   891.7500     27.4080    -14.4319     18.7375     99.8168
   892.0000     27.5312    -14.1894     18.9006    103.4146
   892.2500     26.9589    -13.8513     18.9709    103.8256
   892.5000     25.5049    -13.4604     18.9374    102.4893
   892.7500     23.6853    -13.1107     18.8214    101.5701
   893.0000     22.4467    -12.8904     18.6643    102.1479
   893.2500     22.4347    -12.8259     18.5092    104.4154
   893.5000     23.4968    -12.8768     18.3807    110.3838
   893.7500     24.9961    -12.9769     18.2734    115.3445
   894.0000     26.3585    -13.0778     18.1582    122.7721
   894.2500     27.1932    -13.1668     18.0050    127.1348
   894.5000     27.2778    -13.2569     17.8044    132.3707
   894.7500     26.6871    -13.3636     17.5732    134.8358
   895.0000     25.7681    -13.4887     17.3439    136.8311
   895.2500     24.8518    -13.6181     17.1493    137.2232
   895.5000     24.0352    -13.7309     17.0110    137.2572
   895.7500     23.2318    -13.8101     16.9345    137.2248
   896.0000     22.3874    -13.8470     16.9105    136.5367
   896.2500     21.6090    -13.8403     16.9258    134.9921
   896.5000     21.1562    -13.7945     16.9760    130.6129
   896.7500     21.2682    -13.7209     17.0705    126.6267
   897.0000     21.9242    -13.6345     17.2222    119.7339
   897.2500     22.9137    -13.5466     17.4300    114.7440
   897.5000     24.1709    -13.4591     17.6702    106.9178
   897.7500     25.8877    -13.3630     17.9065    101.5529
   898.0000     28.1936    -13.2430     18.1150     92.9996
   898.2500     30.7854    -13.0862     18.3037     86.7273
   898.5000     33.0314    -12.8916     18.5094     77.0425
   898.7500     34.4569    -12.6751     18.7755     71.6392
   899.0000     34.8310    -12.4639     19.1260     67.9352
   899.2500     33.9279    -12.2840     19.5513     69.5560
   899.5000     31.8086    -12.1496     20.0082     78.0697
   899.7500     29.1631    -12.0604     20.4307     86.5278
   900.0000     26.9226    -12.0050     20.7463     99.9614
   900.2500     25.5849    -11.9621     20.8953    107.4868
   900.5000     25.0043    -11.9070     20.8535    114.7495
   900.7500     24.7162    -11.8227     20.6486    116.8197
   901.0000     24.4277    -11.7089     20.3599    116.7177
   901.2500     24.1580    -11.5778     20.0896    115.2885
   901.5000     24.0006    -11.4443     19.9204    112.4510
   901.7500     23.9706    -11.3231     19.8825    110.7873
   902.0000     24.0235    -11.2293     19.9476    109.4258
   902.2500     24.1121    -11.1714     20.0532    109.4687
