~Version Information
VERS.                      2.0: CWLS Log ASCII Standard - VERSION 2.0
WRAP.                       NO: One line per depth step
~Well Information Block
STRT.FT                -2.7500: 
STOP.FT              2139.2500: 
STEP.FT                 0.2500: 
NULL.                -999.2500: 
COMP.          Petrogulf Corporation: COMPANY
WELL.             State 16-34V: WELL
FLD.           Purgatorie River: FIELD
LOC.           1146' FSL & 1393' FEL: LOCATION
PROV.                 Colorado: PROVINCE
CNTY.               Las Animas: COUNTRY
SRVC.          Patterson Wireline: SERVICE COMPANY
DATE.          Wed Jun 25 13:16:42 2003: LOG DATE
UWI.           05 071 07724 00: UNIQUE WELL ID
~Curve Information Block
DEPT.FT            0 000 00 00: Depth
CCL.                          : Casing Collar Locator
TT3.usec                      : CBL 3' Travel Time
AMP3.mV                       : CBL 3' Amplitude
GR.GAPI                       : Gamma Ray
~Parameter Information Block
~A  Depth       CCL         TT3         AMP3         GR     
    -2.7500   -999.2500   -999.2500   -999.2500   -999.2500
    -2.5000   -999.2500   -999.2500   -999.2500     80.6501
    -2.2500   -999.2500   -999.2500   -999.2500     79.8225
    -2.0000   -999.2500   -999.2500   -999.2500     80.5818
    -1.7500   -999.2500   -999.2500   -999.2500     80.2486
    -1.5000   -999.2500   -999.2500   -999.2500     76.7754
    -1.2500   -999.2500   -999.2500   -999.2500     70.1792
    -1.0000   -999.2500   -999.2500   -999.2500     61.8723
    -0.7500   -999.2500   -999.2500   -999.2500     53.2332
    -0.5000   -999.2500   -999.2500   -999.2500     44.9716
    -0.2500   -999.2500   -999.2500   -999.2500     37.4981
     0.0000   -999.2500   -999.2500   -999.2500     27.9923
     0.2500   -999.2500   -999.2500   -999.2500     27.5468
     0.5000   -999.2500   -999.2500   -999.2500     29.8648
     0.7500   -999.2500   -999.2500   -999.2500     33.7100
     1.0000   -999.2500   -999.2500   -999.2500     37.4223
     1.2500   -999.2500   -999.2500   -999.2500     39.7702
     1.5000   -999.2500   -999.2500   -999.2500     40.8463
     1.7500   -999.2500   -999.2500   -999.2500     42.2920
     2.0000   -999.2500   -999.2500   -999.2500     46.3045
     2.2500   -999.2500   1402.3385      0.2871     53.9965
     2.5000   -999.2500   1402.2701      0.2851     64.5518
     2.7500   -999.2500   1402.2134      0.3368     75.9284
     3.0000   -999.2500   1402.1946      0.4689     86.2449
     3.2500   -999.2500   1402.2054      0.6872     94.4840
     3.5000   -999.2500   1402.2091      0.9630    100.2091
     3.7500   -999.2500   1402.1807      1.2410    103.1305
     4.0000   -999.2500   1402.1304      1.4620    103.2051
     4.2500   -999.2500   1402.0919      1.5840    100.9235
     4.5000      0.0000   1402.0924      1.5961     97.1020
     4.7500      0.0000   1402.1322      1.5124     92.4744
     5.0000      0.0000   1402.1876      1.3463     87.7546
     5.2500      0.0000   1402.2292      1.1050     83.8703
     5.5000      0.0000   1402.2498      0.8183     81.5774
     5.7500      0.0000   1402.2693      0.5475     80.6806
     6.0000      0.0000   1402.3057      0.3501     80.0542
     6.2500      0.0000   1402.3477      0.2446     78.9312
     6.5000      0.0000   1402.3615      0.2244     78.0500
     6.7500      0.0000   1402.3256      0.2930     78.9099
     7.0000      0.0000   1402.2523      0.4631     81.6930
     7.2500      0.0000   1402.1841      0.7149     84.4169
     7.5000      0.0000   1402.1658      0.9781     84.4888
     7.7500      0.0000   1402.2174      1.1860     80.8591
     8.0000      0.0000   1402.3151      1.3387     74.5146
     8.2500      0.0000   1402.4049      1.4864     67.2996
     8.5000      0.0000   1402.4408      1.6578     60.6060
     8.7500      0.0000   1402.4183      1.8293     54.9388
     9.0000      0.0000   1402.3621      1.9553     50.2767
     9.2500      0.0000   1402.2914      2.0046     46.6537
     9.5000      0.0000   1402.2123      1.9723     44.3382
     9.7500      0.0000   1402.0714      1.8735     43.4416
    10.0000      0.0000   1401.5889      1.7281     43.4731
    10.2500      0.0000   1399.3921      1.5485     43.4725
    10.5000      0.0000   1390.7075      1.3906     42.6965
    10.7500      0.0000   1363.5491      1.5013     41.1157
    11.0000      0.0000   1297.1042      2.5002     39.1611
    11.2500      0.0000   1169.9463      5.3799     37.1507
    11.5000      0.0000    979.3765     11.0297     35.1691
    11.7500      0.0000    755.4172     19.3459     33.3909
    12.0000      0.0000    548.7405     28.7572     32.2373
    12.2500      0.0000    398.7662     37.0001     32.1389
    12.5000      0.0000    313.0846     42.6129     33.2001
    12.7500      0.0000    274.5085     45.6484     35.0969
    13.0000      0.0000    260.8128     47.0901     37.3346
    13.2500      0.0000    256.9682     47.8764     39.6950
    13.5000      0.0000    256.0899     48.4374     42.5259
    13.7500      0.0000    255.8878     48.8119     46.6598
    14.0000      0.0000    255.8147     48.9563     52.9900
    14.2500      0.0000    255.7735     48.9097     61.7923
    14.5000      0.0000    255.7592     48.7345     72.1256
    14.7500      0.0000    255.7575     48.4045     82.0615
    15.0000      0.0000    255.7566     47.8477     89.8814
    15.2500      0.0000    255.7626     47.0894     95.0661
    15.5000      0.0000    255.7794     46.2917     98.1644
    15.7500      0.0000    255.7850     45.6387    100.1251
    16.0000      0.0000    255.7490     45.2150    101.7278
    16.2500      0.0000    255.6756     45.0014    102.9962
    16.5000      0.0000    255.6139     44.9403    103.0570
    16.7500      0.0000    255.6157     44.9724    101.1636
    17.0000      0.0000    255.6843     45.0378     97.9590
    17.2500      0.0000    255.7765     45.0877     95.2338
    17.5000      0.0000    255.8525     45.1064     94.2168
    17.7500      0.0000    255.9114     45.1051     94.4037
    18.0000      0.0000    255.9743     45.0969     94.2931
    18.2500      0.0000    256.0473     45.0904     92.9194
    18.5000      0.0000    256.1172     45.0982     90.2702
    18.7500      0.0000    256.1688     45.1319     86.6436
    19.0000      0.0000    256.1890     45.1832     82.3571
    19.2500      0.0000    256.1617     45.2237     78.1127
    19.5000      0.0000    256.0890     45.2273     75.0499
    19.7500      0.0000    256.0137     45.1819     74.0407
    20.0000      0.0000    255.9954     45.0904     74.8850
    20.2500      0.0000    256.0541     44.9948     76.2642
    20.5000      0.0000    256.1520     44.9999     76.7441
    20.7500      0.0000    256.2345     45.2323     76.0399
    21.0000      0.0000    256.2705     45.7384     75.1293
    21.2500      0.0000    256.2560     46.4152     75.0480
    21.5000      0.0000    256.2030     47.0524     75.9113
    21.7500      0.0000    256.1381     47.4688     77.2706
    22.0000      0.0000    256.0943     47.6316     78.9945
    22.2500      0.0000    256.0944     47.6468     81.3198
    22.5000      0.0000    256.1386     47.6333     84.1011
    22.7500      0.0000    256.2052     47.6228     86.5819
    23.0000      0.0000    256.2647     47.5868     88.2776
    23.2500      0.0000    256.2971     47.5178     89.6553
    23.5000      0.0000    256.2970     47.4426     91.3062
    23.7500      0.0000    256.2642     47.3771     92.6542
    24.0000      0.0000    256.2030     47.3138     92.3242
    24.2500      0.0000    256.1297     47.2541     89.9211
    24.5000      0.0000    256.0670     47.2188     86.6889
    24.7500      0.0000    256.0279     47.2174     84.2534
    25.0000      0.0000    256.0110     47.2357     83.4457
    25.2500      0.0000    256.0110     47.2694     84.3329
    25.5000      0.0000    256.0274     47.3447     86.4445
    25.7500      0.0000    256.0648     47.4817     88.7432
    26.0000      0.0000    256.1210     47.6489     90.0604
    26.2500      0.0000    256.1765     47.7823     90.0279
    26.5000      0.0000    256.2017     47.8587     89.5592
    26.7500      0.0000    256.1848     47.9330     90.1257
    27.0000      0.0000    256.1480     48.0838     92.3046
    27.2500      0.0000    256.1295     48.3358     95.1363
    27.5000      0.0000    256.1479     48.6511     97.0814
    27.7500      0.0000    256.1848     48.9762     97.2953
    28.0000      0.0000    256.2017     49.2764     95.7690
    28.2500      0.0000    256.1826     49.5410     92.7645
    28.5000      0.0000    256.1603     49.7634     88.9105
    28.7500      0.0000    256.2655     49.8711     85.7663
    29.0000      0.0000    256.8276     49.6118     85.2702
    29.2500      0.0000    258.5242     48.4932     87.9742
    29.5000      0.0000    262.2757     45.9853     92.3499
    29.7500      0.0000    268.5723     42.0242     96.2738
    30.0000      0.0000    276.6565     37.3550     98.6706
    30.2500      0.0000    284.7125     33.1362     99.4465
    30.5000      0.0000    291.2142     30.0940     98.6130
