~Version Information
VERS.                      2.0: CWLS Log ASCII Standard - VERSION 2.0
WRAP.                       NO: One line per depth step
~Well Information Block
STRT.FT               679.2000: 
STOP.FT              2289.5000: 
STEP.FT                 0.1000: 
NULL.                -999.2500: 
COMP.          Petrogulf Corporation: COMPANY
WELL.          Anderson 18-43V: WELL
FLD.           Purgatorie River: FIELD
LOC.           1782' FSL & 887' FEL: LOCATION
CNTY.               Las Animas: COUNTY
SRVC.                         : SERVICE COMPANY
DATE.          Thu Sep 02 08:33:50 2004: LOG DATE
UWI.           05 071 08156 00: UNIQUE WELL ID
STAT.                 Colorado: STATE
~Curve Information Block
DEPT.FT            0 000 00 00: Depth
GR.GAPI                       : Gamma Ray
DCAL.in                       : CDL Caliper
DPOR.pu                       : CDL Density Porosity
NPOR.pu                       : Neutron Porosity
RHOB.g/cc                     : CDL Bulk Density
RHOC.g/cc                     : CDL Density Correction
~Parameter Information Block
~A  Depth        GR         DCAL        DPOR        NPOR        RHOB        RHOC    
# ...
  1437.6000    157.7008      8.1982      7.4118     27.9348      2.5277      0.0132
  1437.7000    157.8432      8.1982      8.4028     27.5242      2.5114      0.0285
  1437.8000    158.0586      8.1988      9.0942     27.0433      2.4999     -0.0288
  1437.9000    158.3442      8.1988      8.8397     26.5582      2.5041     -0.0209
  1438.0000    158.6885      8.1990      8.1220     26.1102      2.5160      0.0211
  1438.1000    159.0698      8.1990      8.1935     26.0835      2.5148      0.0309
  1438.2000    159.4571      8.1990      9.0427     26.2435      2.5008     -0.0210
  1438.3000    159.8072      8.1992      9.6938     26.3035      2.4901     -0.0266
  1438.4000    160.0699      8.1992      9.6980     26.4776      2.4900     -0.0063
  1438.5000    160.1919      8.1982      9.5113     26.6821      2.4931      0.0182
  1438.6000    160.1283      8.1982      9.5371     26.6505      2.4926      0.0244
  1438.7000    159.8521      8.1982      9.6253     26.6457      2.4912     -0.0094
  1438.8000    159.3624      8.1982      9.8531     27.0743      2.4874      0.0031
  1438.9000    158.6878      8.1982     10.4637     27.7045      2.4773      0.0054
  1439.0000    157.8836      8.1994     11.1533     28.0574      2.4660      0.0247
  1439.1000    157.0291      8.1994     11.2325     28.0646      2.4647     -0.0028
  1439.2000    156.2149      8.1994     10.4439     28.0070      2.4777      0.0617
  1439.3000    155.5320      8.2005      9.1943     28.0940      2.4983      0.0491
  1439.4000    155.0608      8.2005      7.5905     28.2345      2.5248      0.0629
  1439.5000    154.8626      8.2025      5.5856     28.4348      2.5578      0.1132
  1439.6000    154.9724      8.2025      3.9367     28.6988      2.5850      0.1106
  1439.7000    155.3953      8.2025      3.6456     28.8340      2.5898      0.1532
  1439.8000    156.1092      8.2040      4.5413     28.7278      2.5751      0.0987
  1439.9000    157.0651      8.2040      5.4389     28.4593      2.5603      0.1210
  1440.0000    158.1959      8.2084      6.2310     28.1471      2.5472      0.1877
  1440.1000    159.4260      8.2084      7.3861     27.9780      2.5281      0.0368
  1440.2000    160.6774      8.2084      8.1692     28.0817      2.5152      0.0264
  1440.3000    161.8845      8.2135      8.0938     28.2089      2.5165      0.0136
  1440.4000    162.9968      8.2135      7.6893     28.0784      2.5231      0.0307
  1440.5000    163.9857      8.2186      7.3853     27.8191      2.5281      0.0203
  1440.6000    164.8441      8.2186      7.5431     27.7466      2.5255      0.0760
  1440.7000    165.5806      8.2186      8.3589     27.8308      2.5121      0.0477
  1440.8000    166.2126      8.2200      8.9228     27.8969      2.5028      0.0402
  1440.9000    166.7551      8.2200      8.2514     27.9500      2.5139      0.0444
  1441.0000    167.2165      8.2200      6.7863     28.0460      2.5380      0.0503
  1441.1000    167.5914      8.2200      5.6732     28.2095      2.5564      0.0682
  1441.2000    167.8652      8.2200      5.0875     28.5063      2.5661      0.0414
  1441.3000    168.0153      8.2191      4.5418     28.8213      2.5751      0.1083
  1441.4000    168.0237      8.2191      4.6868     28.7888      2.5727      0.1333
  1441.5000    167.8791      8.2182      6.2866     28.4232      2.5463      0.0760
  1441.6000    167.5804      8.2182      8.6635     27.9861      2.5071      0.0452
  1441.7000    167.1384      8.2182     11.2271     27.3716      2.4648      0.0582
  1441.8000    166.5713      8.2178     14.1997     26.1469      2.4157      0.0086
  1441.9000    165.8988      8.2178     17.7495     24.2527      2.3571      0.0086
  1442.0000    165.1395      8.2184     21.6531     22.4492      2.2927     -0.0477
  1442.1000    164.3039      8.2184     24.9671     21.2330      2.2380     -0.0505
  1442.2000    163.3972      8.2184     26.2327     20.3324      2.2172     -0.0596
  1442.3000    162.4132      8.2207     24.7515     19.4077      2.2416      0.0142
  1442.4000    161.3474      8.2207     21.1436     18.3990      2.3011      0.0840
  1442.5000    160.1941      8.2208     16.8318     17.3803      2.3723      0.2008
  1442.6000    158.9545      8.2208     13.7869     16.5873      2.4225      0.3084
  1442.7000    157.6411      8.2208     13.4385     16.6317      2.4283      0.3457
  1442.8000    156.2782      8.2225     15.5112     17.7172      2.3941      0.3366
  1442.9000    154.9055      8.2225     18.7300     19.0833      2.3410      0.3390
  1443.0000    153.5756      8.2223     21.9816     20.2376      2.2873      0.2376
  1443.1000    152.3517      8.2223     24.1241     21.5277      2.2520      0.1100
  1443.2000    151.2959      8.2223     24.3989     22.9348      2.2474      0.1351
  1443.3000    150.4637      8.2240     23.2785     24.0620      2.2659      0.1871
  1443.4000    149.8886      8.2240     21.7190     25.0895      2.2916      0.2028
  1443.5000    149.5812      8.2187     20.0597     26.2331      2.3190      0.2061
  1443.6000    149.5187      8.2187     17.9917     27.1131      2.3531      0.2222
  1443.7000    149.6509      8.2187     15.2868     27.3056      2.3978      0.2091
  1443.8000    149.9071      8.1986     12.4334     27.0997      2.4448      0.1948
  1443.9000    150.2036      8.1986     10.2263     26.8802      2.4813      0.1002
  1444.0000    150.4581      8.1946      9.0308     26.4101      2.5010      0.0918
  1444.1000    150.6004      8.1946      8.8564     25.7452      2.5039      0.0640
  1444.2000    150.5768      8.1946      9.1626     25.5083      2.4988      0.0208
  1444.3000    150.3576      8.1920      8.8686     25.8597      2.5037      0.0133
  1444.4000    149.9317      8.1920      7.4980     26.3441      2.5263      0.0359
  1444.5000    149.3096      8.1894      6.0824     26.6043      2.5496      0.0860
  1444.6000    148.5126      8.1894      5.7682     26.4994      2.5548      0.0628
  1444.7000    147.5691      8.1894      5.8928     26.0624      2.5528     -0.0214
  1444.8000    146.5090      8.1861      5.6825     25.7686      2.5562      0.0685
  1444.9000    145.3564      8.1861      5.8335     26.0373      2.5537      0.0630
  1445.0000    144.1304      8.1821      6.1831     26.6347      2.5480      0.0304
  1445.1000    142.8402      8.1821      5.8313     27.2544      2.5538      0.0643
  1445.2000    141.4901      8.1821      5.0642     27.7651      2.5664      0.0485
  1445.3000    140.0796      8.1602      4.8105     27.9994      2.5706      0.0846
  1445.4000    138.6092      8.1602      5.6868     28.0336      2.5562      0.0797
  1445.5000    137.0808      8.1547      7.4500     28.1190      2.5271      0.0680
  1445.6000    135.5015      8.1547      8.3890     28.2960      2.5116     -0.0476
  1445.7000    133.8847      8.1547      7.1505     28.2007      2.5320      0.0124
  1445.8000    132.2462      8.1540      4.9187     27.6371      2.5688      0.0302
  1445.9000    130.6057      8.1540      3.4320     27.2630      2.5934      0.0391
  1446.0000    128.9829      8.1545      3.0557     27.3419      2.5996      0.0393
  1446.1000    127.4009      8.1545      3.4306     27.0665      2.5934      0.0085
  1446.2000    125.8869      8.1545      4.0447     26.1819      2.5833      0.0632
  1446.3000    124.4727      8.1534      4.3017     25.3402      2.5790      0.0125
  1446.4000    123.2027      8.1534      3.9636     25.0667      2.5846      0.0384
  1446.5000    122.1261      8.1547      3.8414     25.3227      2.5866      0.0537
  1446.6000    121.3014      8.1547      4.6495     25.4560      2.5733      0.0181
  1446.7000    120.7838      8.1547      5.5811     24.8236      2.5579     -0.0057
  1446.8000    120.6204      8.1555      5.5857     23.8585      2.5578      0.0225
  1446.9000    120.8411      8.1555      4.5173     23.4213      2.5755      0.0128
  1447.0000    121.4543      8.1574      2.9897     23.5517      2.6007      0.0380
  1447.1000    122.4462      8.1574      2.3405     23.8328      2.6114      0.0614
