~Version Information
 VERS.                                  2.0 : CWLS LAS VERSION
 WRAP.                                   NO : WRAPING MODE
 SWARE .                 MController 2.5.0N : SOFTWARE VERSION
~Well Information
 WELL.                           King 22-13 : WELL
 COMP.    Pioneer Natural Resources USA Inc : COMPANY
 FLD.                      Purgatoire River : FIELD
 LOC.                SE/NW Sec 13 T32S R66W : LOCATION
 DATE.                           3/30-31/05 : DATE(S) LOGGED
 SRVC.       Blanco Geological Services LLC : SERVICE COMPANY
 STAT.                                   CO : STATE
 CNTY.                           Las Animas : COUNTY
 CTRY.                                  USA : COUNTRY
 API.                       05-071-08318-00 : API NUMBER
 STRT.FT                             603.00 : START DEPTH
 STOP.FT                            2185.00 : STOP DEPTH
 STEP.FT                               1.00 : DEPTH INCREMENT
 NULL.                                -9999 : NULL VALUE
~Curve information
 DEPTH.FT                                   :
 ROP.MIN/FT                                 :
 GAS.UNITS                                  :
~ASCII Log data
# ...
       803.0         0.17          7.7 
       804.0         0.17          6.6 
       805.0         0.27          6.8 
       806.0         1.73          6.5 
       807.0         0.33          5.8 
       808.0         0.25          6.1 
       809.0         0.30          5.7 
       810.0         0.23          6.0 
       811.0         0.23          5.7 
       812.0         0.23          5.8 
       813.0         0.23          5.8 
       814.0         0.20          5.4 
       815.0         0.23          4.9 
       816.0         0.20          5.6 
       817.0         0.20          5.2 
       818.0         0.20          5.3 
       819.0         0.20          5.3 
       820.0         0.20          5.5 
       821.0         0.20          5.1 
       822.0         0.20          5.8 
       823.0         0.25          6.5 
       824.0         0.20          6.5 
       825.0         0.23          6.5 
       826.0         0.20          6.7 
       827.0         0.20          6.4 
       828.0         0.20          6.2 
       829.0         0.17          6.5 
       830.0         0.20          5.7 
       831.0         0.20          6.0 
       832.0         0.20          7.0 
       833.0         0.17          7.1 
       834.0         0.17          7.1 
       835.0         0.23          8.3 
       836.0         1.88          7.4 
       837.0         0.20          5.9 
       838.0         0.23          5.7 
       839.0         0.27          5.4 
       840.0         0.20          5.5 
       841.0         0.20          5.7 
       842.0         0.17          5.1 
       843.0         0.17          5.1 
       844.0         0.17          5.7 
       845.0         0.17          4.9 
       846.0         0.17          4.9 
       847.0         0.17          6.1 
       848.0         0.20          6.1 
       849.0         0.35          6.2 
       850.0         0.17          6.2 
       851.0         0.17          7.1 
       852.0         0.17          7.0 
       853.0         0.17          7.0 
       854.0         0.13          6.7 
       855.0         0.13          6.7 
       856.0         0.17          6.7 
       857.0         0.17          6.7 
       858.0         0.20          6.7 
       859.0         0.13          6.2 
       860.0         0.13          6.2 
       861.0         0.27          6.1 
       862.0         0.13          6.5 
       863.0         0.13          6.1 
       864.0         0.30          7.1 
       865.0         0.55          8.0 
       866.0         1.40          6.7 
       867.0         0.43          6.2 
       868.0         0.37          5.5 
       869.0         0.20          5.9 
       870.0         0.27          6.0 
       871.0         0.20          5.8 
       872.0         0.17          6.0 
       873.0         0.13          5.5 
       874.0         0.15          6.1 
       875.0         0.20          5.8 
       876.0         0.17          7.7 
       877.0         0.13         12.9 
       878.0         0.20         52.0 
       879.0         0.23        218.7 
       880.0         0.17        367.7 
       881.0         0.17       1341.5 
       882.0         0.17       1341.5 
       883.0         0.20       1486.4 
       884.0         0.13       1566.9 
       885.0         0.17       1659.5 
       886.0         0.20       1980.4 
       887.0         0.17       1980.4 
       888.0         0.17       2850.6 
       889.0         0.13       2850.6 
       890.0         0.17       4306.4 
       891.0         0.17       5261.7 
       892.0         0.17       5677.2 
       893.0         0.22       6151.9 
       894.0         0.17       6166.3 
       895.0         0.27       5768.8 
       896.0         2.53       5120.4 
       897.0         0.33       3076.7 
       898.0         0.28       2911.5 
       899.0         0.20       2867.3 
       900.0         0.20       2759.3 
       901.0         0.20       2762.9 
       902.0         0.20       2807.1 
       903.0         0.20       2899.3 
       904.0         0.20       2928.8 
       905.0         0.27       2949.7 
       906.0         0.27       2941.5 
       907.0         0.13       2939.3 
       908.0         0.10       2939.3 
       909.0         0.27       2893.1 
       910.0         0.13       2842.8 
       911.0         0.13       2842.8 
       912.0         0.17       2805.5 
       913.0         0.20       2774.7 
       914.0         0.17       2748.9 
       915.0         0.22       2748.9 
       916.0         0.13       3083.2 
       917.0         0.13       3083.2 
       918.0         0.13       3527.8 
       919.0         0.17       4287.1 
       920.0         0.20       5635.0 
       921.0         0.13       6727.3 
       922.0         0.23       6727.3 
       923.0         0.17       7273.3 
       924.0         0.17       7276.6 
       925.0         0.20       7276.6 
       926.0         3.58       6493.7 
       927.0         0.30       3305.3 
       928.0         0.20       3217.0 
       929.0         0.17       3154.8 
       930.0         0.10       3105.8 
       931.0         0.13       3105.8 
       932.0         0.17       3057.0 
       933.0         0.18       3030.2 
       934.0         0.17       2957.9 
       935.0         0.23       3024.6 
       936.0         0.23       3031.2 
       937.0         0.23       3086.8 
       938.0         0.20       3141.8 
       939.0         0.20       3205.6 
       940.0         0.17       3223.6 
       941.0         0.20       3367.5 
       942.0         0.17       3367.5 
       943.0         0.20       3385.5 
       944.0         0.17       3380.6 
       945.0         0.17       3380.6 
       946.0         0.20       3380.9 
       947.0         0.17       3382.2 
       948.0         0.17       3382.2 
       949.0         0.20       3665.9 
       950.0         0.20       4510.9 
       951.0         0.22       5613.0 
       952.0         0.23       6529.7 
       953.0         0.17       6529.7 
       954.0         0.20       7277.9 
       955.0         0.20       7489.6 
       956.0         4.62       8873.4 
       957.0         0.27       4813.2 
       958.0         0.27       4775.5 
       959.0         0.13       4728.4 
       960.0         0.20       4669.5 
       961.0         0.23       4552.4 
       962.0         0.15       4552.4 
       963.0         0.20       4503.7 
       964.0         0.27       4446.8 
       965.0         0.23       4410.8 
       966.0         0.23       4341.7 
       967.0         0.23       4329.3 
       968.0         0.23       4303.5 
       969.0         0.20       4303.5 
       970.0         0.23       4287.1 
       971.0         0.20       4267.5 
       972.0         0.20       4313.9 
       973.0         0.20       4299.5 
       974.0         0.20       4299.5 
       975.0         0.17       4257.3 
       976.0         0.20       4188.3 
       977.0         0.25       4128.8 
       978.0         0.20       4037.8 
       979.0         0.23       3927.6 
       980.0         0.20       3927.6 
       981.0         0.23       4379.7 
       982.0         0.23       5153.7 
       983.0         0.23       5740.6 
       984.0         0.23       5925.8 
       985.0         0.23       6251.0 
       986.0         2.32       6314.8 
       987.0         0.33       4631.6 
       988.0         0.33       4580.6 
       989.0         0.30       4561.9 
       990.0         0.23       4468.7 
       991.0         0.23       4404.9 
       992.0         0.20       4394.7 
       993.0         0.23       4356.5 
       994.0         0.17       4332.9 
       995.0         0.23       4306.1 
       996.0         0.23       4224.6 
       997.0         0.22       4179.2 
       998.0         0.20       4131.1 
       999.0         0.27       4136.6 
      1000.0         0.27       4141.9 
      1001.0         0.27       4214.2 
      1002.0         0.17       4214.2 
