~Version Information
VERS.                      2.0: CWLS Log ASCII Standard - VERSION 2.0
WRAP.                       NO: One line per depth step
~Well Information Block
STRT.FT               519.6000: 
STOP.FT              2727.5000: 
STEP.FT                 0.1000: 
NULL.                -999.2500: 
COMP.          Petrogulf Corporation: COMPANY
WELL.              Silva 6-22V: WELL
FLD.           Purgatorie River: FIELD
LOC.           1936' FNL & 1798' FWL: LOCATION
CNTY.               Las Animas: COUNTY
SRVC.                         : SERVICE COMPANY
DATE.          Tue Nov 09 12:21:27 2004: LOG DATE
UWI.           05 071 08143 00: UNIQUE WELL ID
STAT.                 Colorado: STATE
~Curve Information Block
DEPT.FT            0 000 00 00: Depth
DCAL.in                       : CDL Caliper
RHOB.g/cc                     : CDL Bulk Density
RHOC.g/cc                     : CDL Density Correction
DPOR.pu                       : CDL Density Porosity
GR.GAPI                       : Gamma Ray
NPOR.pu                       : Neutron Porosity
~Parameter Information Block
~A  Depth       DCAL        RHOB        RHOC        DPOR         GR         NPOR    
# ...
   826.8000      8.2447      2.5812      0.0026      4.1688    139.8499     26.8650
   826.9000      8.2447      2.5657     -0.0366      5.1099    137.9842     26.8877
   827.0000      8.2380      2.5602     -0.0196      5.4441    136.9924     26.8134
   827.1000      8.2380      2.5650     -0.0068      5.1528    139.2526     26.6325
   827.2000      8.2380      2.5784     -0.0133      4.3371    142.7210     26.4846
   827.3000      8.2347      2.6016     -0.0083      2.9360    140.9203     26.4057
   827.4000      8.2347      2.6290      0.0545      1.2749    137.3986     26.3740
   827.5000      8.2393      2.6551      0.0429     -0.3097    138.6113     26.3359
   827.6000      8.2393      2.6816      0.0865     -1.9128    140.2238     26.2874
   827.7000      8.2393      2.7004      0.0824     -3.0564    137.2441     26.1707
   827.8000      8.2478      2.7039      0.0576     -3.2652    131.2286     25.9336
   827.9000      8.2478      2.6980      0.0206     -2.9121    124.7149     25.7326
   828.0000      8.2520      2.6864      0.0053     -2.2033    121.4257     25.4636
   828.1000      8.2520      2.6627      0.0032     -0.7684    124.5204     24.9291
   828.2000      8.2520      2.6248     -0.0116      1.5260    130.7038     24.4029
   828.3000      8.2526      2.5813     -0.0253      4.1654    135.1167     24.3714
   828.4000      8.2526      2.5425     -0.0270      6.5158    140.5002     24.7744
   828.5000      8.2476      2.5087     -0.0290      8.5648    149.3109     24.8795
   828.6000      8.2476      2.4813     -0.0672     10.2250    154.1774     24.5862
   828.7000      8.2476      2.4655      0.0121     11.1793    152.8916     24.5397
   828.8000      8.2424      2.4584      0.0125     11.6093    154.2803     24.8585
   828.9000      8.2424      2.4594      0.0409     11.5542    158.8058     25.2375
   829.0000      8.2405      2.4731      0.0270     10.7199    158.7341     25.3967
   829.1000      8.2405      2.4928      0.0621      9.5264    156.3141     25.0889
   829.2000      8.2405      2.4991      0.0667      9.1475    158.0166     24.3690
   829.3000      8.2415      2.4879      0.0568      9.8242    162.0575     23.8198
   829.4000      8.2415      2.4725      0.0583     10.7556    163.0711     23.8929
   829.5000      8.2385      2.4598      0.0439     11.5257    157.8399     24.2737
   829.6000      8.2385      2.4502      0.0446     12.1083    146.5430     24.4289
   829.7000      8.2385      2.4482      0.0103     12.2319    135.8665     24.2523
   829.8000      8.2190      2.4549      0.0571     11.8226    135.2616     23.8950
   829.9000      8.2190      2.4639      0.0135     11.2796    143.3636     23.6004
   830.0000      8.1847      2.4763     -0.0004     10.5255    152.3033     23.6257
   830.1000      8.1847      2.4937      0.0795      9.4725    161.1350     23.8466
   830.2000      8.1847      2.5100      0.0787      8.4841    167.9874     23.9486
   830.3000      8.1606      2.5307      0.0650      7.2320    167.5164     23.9985
   830.4000      8.1606      2.5634      0.1799      5.2479    161.7532     24.1123
   830.5000      8.1533      2.5921      0.2096      3.5088    155.5853     24.0402
   830.6000      8.1533      2.5980      0.1370      3.1542    148.4841     23.8439
   830.7000      8.1533      2.5941      0.0462      3.3867    140.4942     24.1210
   830.8000      8.1518      2.5969      0.1384      3.2198    133.7434     25.1928
   830.9000      8.1518      2.5949      0.0736      3.3372    129.5571     26.4061
   831.0000      8.1506      2.5837      0.0674      4.0195    127.2637     27.0232
   831.1000      8.1506      2.5773      0.0747      4.4067    125.9268     27.1960
   831.2000      8.1506      2.5869      0.0844      3.8269    127.7845     27.1308
   831.3000      8.1525      2.6057      0.0898      2.6873    132.3789     26.8257
   831.4000      8.1525      2.6160      0.0787      2.0596    136.1482     26.3684
   831.5000      8.1525      2.6152      0.0606      2.1086    137.4716     26.0422
   831.6000      8.1525      2.6202      0.0372      1.8076    138.2000     26.2232
   831.7000      8.1525      2.6359      0.1096      0.8537    141.4601     26.8633
   831.8000      8.1528      2.6421      0.1177      0.4771    143.8041     27.5687
   831.9000      8.1528      2.6320      0.0585      1.0894    143.7184     28.0034
   832.0000      8.1557      2.6234      0.0155      1.6114    146.8481     28.0258
   832.1000      8.1557      2.6236      0.0149      1.5999    153.8006     27.5003
   832.2000      8.1557      2.6220      0.0579      1.6953    155.8963     26.6787
   832.3000      8.1553      2.6146      0.0054      2.1430    150.3822     26.1518
   832.4000      8.1553      2.6076      0.0371      2.5669    146.8656     26.0845
   832.5000      8.1489      2.6061      0.0188      2.6617    149.0961     26.0251
   832.6000      8.1489      2.6162      0.0473      2.0469    152.8350     25.8045
   832.7000      8.1489      2.6330      0.0462      1.0299    155.1053     25.9183
   832.8000      8.1461      2.6393      0.0542      0.6474    154.0547     26.3908
   832.9000      8.1461      2.6291      0.0358      1.2692    151.4567     26.5179
   833.0000      8.1464      2.6092      0.0194      2.4752    152.4766     26.0793
   833.1000      8.1464      2.5859      0.0051      3.8827    153.4195     25.6078
   833.2000      8.1464      2.5633      0.0302      5.2570    146.1205     25.5526
   833.3000      8.1461      2.5507      0.0137      6.0212    134.4528     25.7504
   833.4000      8.1461      2.5562      0.0310      5.6873    129.5888     25.7992
   833.5000      8.1515      2.5739      0.0123      4.6095    136.2522     25.6519
   833.6000      8.1515      2.5907      0.0284      3.5945    148.6396     25.4981
   833.7000      8.1515      2.5954      0.0329      3.3115    157.2249     25.4689
   833.8000      8.1565      2.5938      0.0258      3.4076    157.5198     25.6490
   833.9000      8.1565      2.5995      0.0449      3.0632    152.8598     25.9205
   834.0000      8.1626      2.5999      0.0672      3.0337    151.0506     26.0183
   834.1000      8.1626      2.5734      0.0832      4.6451    152.1855     25.9485
   834.2000      8.1626      2.5341     -0.0048      7.0260    149.7562     25.9970
   834.3000      8.1628      2.5117      0.0269      8.3801    146.2685     26.2271
   834.4000      8.1628      2.5073      0.0063      8.6484    152.7553     26.4540
   834.5000      8.1517      2.5109      0.0251      8.4284    169.9453     26.6463
   834.6000      8.1517      2.5233      0.0294      7.6792    180.4938     27.0760
   834.7000      8.1517      2.5501     -0.0080      6.0523    176.6543     27.7443
   834.8000      8.1472      2.5850      0.0872      3.9423    170.9518     28.1074
   834.9000      8.1472      2.6042      0.0748      2.7765    169.4189     27.9908
   835.0000      8.1501      2.6024      0.0395      2.8849    171.3948     27.5770
   835.1000      8.1501      2.6027      0.0227      2.8657    176.0094     27.0102
   835.2000      8.1501      2.6180      0.0666      1.9370    176.3578     26.5292
   835.3000      8.1502      2.6331      0.0925      1.0256    171.0940     26.3867
   835.4000      8.1502      2.6290      0.0622      1.2740    168.2765     26.6320
   835.5000      8.1447      2.6048      0.0290      2.7387    169.9370     26.9954
   835.6000      8.1447      2.5777     -0.0324      4.3814    171.4559     27.1294
   835.7000      8.1447      2.5608      0.0029      5.4040    171.5413     27.0712
   835.8000      8.1401      2.5543      0.0011      5.8022    170.0746     26.9414
   835.9000      8.1401      2.5602     -0.0303      5.4399    167.4996     26.6294
   836.0000      8.1386      2.5764      0.0398      4.4604    167.5876     26.1750
   836.1000      8.1386      2.5849      0.0398      3.9433    173.7545     25.7502
   836.2000      8.1386      2.5721      0.0333      4.7203    183.4053     25.5236
   836.3000      8.1379      2.5367      0.0165      6.8668    188.5832     25.6442
