~Version Information
VERS.                      2.0: CWLS Log ASCII Standard - VERSION 2.0
WRAP.                       NO: One line per depth step
~Well Information Block
STRT.FT               630.0000: 
STOP.FT              1155.5000: 
STEP.FT                 0.1000: 
NULL.                -999.2500: 
COMP.          Pioneer Natural Resources: COMPANY
WELL.          Drewmeister 34-34: WELL
FLD.           Purgatoire River: FIELD
LOC.           958' FSL & 1857' FEL: LOCATION
STAT.                 Colorado: State
CNTY.               Las Animas: COUNTY
CTRY. USA : Country
SECT. 34 : Section
TOWN. 32S : Township
RANG. 65W : Range
SRVC.                Patterson: SERVICE COMPANY
DATE.          Tue Oct 04 08:23:16 2005: LOG DATE
API.           05 071 08131 00: UNIQUE WELL ID
~Curve Information Block
DEPT.FT            0 000 00 00: Depth
DCAL.in                       : CDL Caliper
RHOB.g/cc                     : CDL Bulk Density
RHOC.g/cc                     : CDL Density Correction
DPOR.pu                       : CDL Density Porosity
GR.GAPI                       : Gamma Ray
NPOR.pu                       : Neutron Porosity
~Parameter Information Block
~A  Depth       DCAL        RHOB        RHOC        DPOR         GR         NPOR    
# ...
   966.0000      7.9117      2.3115      0.0125     20.5126     70.7088     16.6100
   966.1000      7.9117      2.3221      0.0507     19.8739     73.9163     16.2043
   966.2000      7.9117      2.3385      0.0724     18.8809     75.0453     16.1633
   966.3000      7.9121      2.3510      0.0484     18.1208     70.4209     16.5275
   966.4000      7.9121      2.3606      0.0584     17.5421     65.8296     16.5303
   966.5000      7.9119      2.3708      0.0855     16.9213     68.3686     16.1044
   966.6000      7.9119      2.3790      0.0640     16.4264     75.0998     16.1199
   966.7000      7.9119      2.3825      0.0779     16.2148     78.2192     16.7724
   966.8000      7.9112      2.3855      0.0784     16.0315     74.2984     17.4280
   966.9000      7.9112      2.3942      0.0494     15.5000     68.0752     17.6721
   967.0000      7.9103      2.4062      0.0781     14.7773     66.2204     17.6077
   967.1000      7.9103      2.4114      0.0539     14.4619     69.0087     17.3858
   967.2000      7.9103      2.4021      0.0710     15.0267     73.4806     17.3321
   967.3000      7.9098      2.3812      0.0036     16.2919     79.0452     17.8120
   967.4000      7.9098      2.3636      0.0130     17.3588     83.8403     18.6041
   967.5000      7.9104      2.3540      0.0057     17.9377     84.9165     18.9537
   967.6000      7.9104      2.3471     -0.0119     18.3557     81.2316     18.5913
   967.7000      7.9104      2.3418     -0.0071     18.6802     75.2787     17.9944
   967.8000      7.9112      2.3364     -0.0048     19.0075     73.7644     17.4540
   967.9000      7.9112      2.3309     -0.0086     19.3408     76.7421     17.0706
   968.0000      7.9118      2.3341     -0.0038     19.1434     78.0091     17.1401
   968.1000      7.9118      2.3512      0.0147     18.1108     77.8297     17.5410
   968.2000      7.9118      2.3740      0.0372     16.7258     79.9625     17.6678
   968.3000      7.9116      2.3936      0.0445     15.5377     82.5261     17.5093
   968.4000      7.9116      2.4031      0.0463     14.9615     81.8207     17.5487
   968.5000      7.9103      2.3994      0.0181     15.1860     79.0869     17.6549
   968.6000      7.9103      2.3892      0.0220     15.8054     75.8971     17.4149
   968.7000      7.9103      2.3814      0.0189     16.2791     73.3709     17.0215
   968.8000      7.9090      2.3770      0.0264     16.5442     72.6055     16.9898
   968.9000      7.9090      2.3722     -0.0181     16.8336     71.7267     17.2993
   969.0000      7.9084      2.3707     -0.0276     16.9257     70.8426     17.5708
   969.1000      7.9084      2.3773     -0.0030     16.5247     71.6127     17.5458
   969.2000      7.9084      2.3844     -0.0141     16.0982     74.5752     17.4033
   969.3000      7.9098      2.3852      0.0059     16.0463     77.8354     17.6073
   969.4000      7.9098      2.3908     -0.0258     15.7104     77.9741     18.1054
   969.5000      7.9140      2.4083      0.0198     14.6478     77.5611     18.3010
   969.6000      7.9140      2.4235      0.0082     13.7250     80.2491     18.0025
   969.7000      7.9140      2.4215      0.0387     13.8507     80.7030     17.6918
   969.8000      7.9174      2.4073     -0.0087     14.7117     72.5474     17.4651
   969.9000      7.9174      2.4039     -0.0520     14.9154     60.9516     16.8896
   970.0000      7.9151      2.4188      0.0407     14.0119     56.1059     16.1422
   970.1000      7.9151      2.4359     -0.0055     12.9763     60.1379     15.8564
   970.2000      7.9151      2.4431      0.0351     12.5379     65.4880     16.0769
   970.3000      7.9114      2.4364      0.0179     12.9465     67.2367     16.4083
   970.4000      7.9114      2.4213      0.0120     13.8635     67.2208     16.8746
   970.5000      7.9079      2.4124      0.0020     14.3999     66.7610     17.5235
   970.6000      7.9079      2.4188      0.0165     14.0101     65.3313     17.8690
   970.7000      7.9079      2.4366      0.0125     12.9342     62.2637     17.5987
   970.8000      7.9071      2.4521      0.0486     11.9925     58.1054     17.2412
   970.9000      7.9071      2.4545      0.0122     11.8478     54.0538     17.4369
   971.0000      7.9101      2.4435      0.0598     12.5162     51.8067     18.0309
   971.1000      7.9101      2.4252      0.0115     13.6214     55.4821     18.3882
   971.2000      7.9101      2.4135     -0.0139     14.3340     64.6144     18.3023
   971.3000      7.9098      2.4147      0.0023     14.2594     73.7505     17.9185
   971.4000      7.9098      2.4231      0.0315     13.7516     81.7346     17.7910
   971.5000      7.9079      2.4411     -0.0152     12.6580     87.2663     18.3067
   971.6000      7.9079      2.4719      0.0247     10.7921     87.6946     18.7795
   971.7000      7.9079      2.4978      0.0451      9.2231     86.9229     18.6589
   971.8000      7.9080      2.5032      0.0643      8.8951     87.3601     18.5697
   971.9000      7.9080      2.4985      0.0003      9.1817     86.2019     18.6252
   972.0000      7.9086      2.4992      0.0423      9.1410     84.0467     17.9848
   972.1000      7.9086      2.4961      0.0653      9.3291     83.7898     16.7403
   972.2000      7.9086      2.4767      0.0287     10.5024     83.6066     16.0183
   972.3000      7.9089      2.4502      0.0355     12.1096     81.3680     16.5089
   972.4000      7.9089      2.4307      0.0085     13.2900     78.1119     17.8940
   972.5000      7.9093      2.4220     -0.0122     13.8159     75.5167     18.7183
   972.6000      7.9093      2.4175      0.0377     14.0934     74.7294     18.1429
   972.7000      7.9093      2.4144     -0.0003     14.2781     73.4300     17.3344
   972.8000      7.9100      2.4231      0.0235     13.7513     67.9015     17.1177
   972.9000      7.9100      2.4422      0.0467     12.5930     62.3695     17.1588
   973.0000      7.9112      2.4512      0.0520     12.0500     65.5466     17.2934
   973.1000      7.9112      2.4439     -0.0040     12.4920     74.0961     17.5400
   973.2000      7.9112      2.4399      0.0174     12.7322     78.7118     17.4095
   973.3000      7.9132      2.4490      0.0839     12.1841     78.0209     16.7525
   973.4000      7.9132      2.4625      0.0593     11.3639     75.7564     16.0221
   973.5000      7.9132      2.4743      0.0770     10.6507     74.2769     15.4907
   973.6000      7.9132      2.4768      0.0718     10.4992     72.0063     15.3155
   973.7000      7.9132      2.4616      0.0402     11.4209     69.3919     15.9167
   973.8000      7.9101      2.4414      0.0077     12.6442     69.0059     17.1505
   973.9000      7.9101      2.4444     -0.0376     12.4635     69.7991     18.0067
   974.0000      7.9079      2.4682      0.0411     11.0156     69.5756     17.9591
   974.1000      7.9079      2.4818      0.0517     10.1932     68.0524     17.4757
   974.2000      7.9079      2.4761      0.0449     10.5374     67.4837     17.2279
   974.3000      7.9073      2.4645      0.0480     11.2405     70.5289     17.3065
   974.4000      7.9073      2.4522      0.0059     11.9901     76.2106     17.1027
   974.5000      7.9073      2.4393      0.0017     12.7670     79.3310     16.6837
   974.6000      7.9073      2.4290      0.0147     13.3920     77.3774     16.6754
   974.7000      7.9073      2.4234     -0.0092     13.7307     75.2274     16.7287
   974.8000      7.9081      2.4241      0.0014     13.6898     76.1741     16.2900
   974.9000      7.9081      2.4307      0.0000     13.2894     76.9361     16.0594
   975.0000      7.9088      2.4434     -0.0277     12.5232     74.6251     16.4880
   975.1000      7.9088      2.4560      0.0537     11.7571     70.8075     16.7760
   975.2000      7.9088      2.4614      0.0076     11.4278     68.8503     16.6755
   975.3000      7.9088      2.4686      0.0362     10.9924     70.5070     16.7338
   975.4000      7.9088      2.4787      0.0596     10.3820     73.7640     16.8985
   975.5000      7.9087      2.4798      0.0591     10.3151     75.2023     16.9734
