~Version Information
VERS.                      2.0: CWLS Log ASCII Standard - VERSION 2.0
WRAP.                       NO: One line per depth step
~Well Information Block
STRT.FT              2246.0000: 
STOP.FT              2472.6000: 
STEP.FT                 0.1000: 
NULL.                -999.2500: 
COMP.          Petrogulf Corporation: COMPANY
WELL.           Schedler 9-23V: WELL
FLD.           Purgatorie River: FIELD
LOC.           2185' FSL & 2328' FWL: LOCATION
CNTY.               Las Animas: COUNTY
SRVC.                         : SERVICE COMPANY
DATE.          Thu Jul 10 10:29:30 2003: LOG DATE
UWI.           05 071 07876 00: UNIQUE WELL ID
STAT.                 Colorado: STATE
~Curve Information Block
DEPT.FT            0 000 00 00: Depth
DCAL.in                       : CDL Caliper
RHOB.g/cc                     : CDL Bulk Density
RHOC.g/cc                     : CDL Density Correction
DPOR.pu                       : CDL Density Porosity
GR.GAPI                       : Gamma Ray
NPOR.pu                       : Neutron Porosity
~Parameter Information Block
~A  Depth       DCAL        RHOB        RHOC        DPOR         GR         NPOR    
# ...
  2294.0000      7.8578      2.4091      0.0862     14.5971     97.9046     26.3672
  2294.1000      7.8578      2.4253      0.0914     13.6182     97.0981     26.1526
  2294.2000      7.8578      2.4400      0.0975     12.7290     95.9947     25.9559
  2294.3000      7.7933      2.4535      0.1042     11.9092     94.6402     25.7681
  2294.4000      7.7933      2.4661      0.1112     11.1427     93.0888     25.5815
  2294.5000      7.7623      2.4781      0.1184     10.4185     91.4010     25.3908
  2294.6000      7.7623      2.4894      0.1254      9.7304     89.6371     25.1937
  2294.7000      7.7623      2.5002      0.1320      9.0769     87.8531     24.9909
  2294.8000      7.7563      2.5104      0.1380      8.4606     86.1012     24.7853
  2294.9000      7.7563      2.5199      0.1431      7.8869     84.4240     24.5810
  2295.0000      7.7608      2.5285      0.1470      7.3630     82.8526     24.3827
  2295.1000      7.7608      2.5362      0.1497      6.8963     81.4061     24.1946
  2295.2000      7.7608      2.5429      0.1507      6.4935     80.0876     24.0195
  2295.3000      7.7736      2.5484      0.1502      6.1596     78.8894     23.8592
  2295.4000      7.7736      2.5527      0.1480      5.8965     77.7892     23.7144
  2295.5000      7.7907      2.5559      0.1443      5.7038     76.7579     23.5848
  2295.6000      7.7907      2.5580      0.1394      5.5773     75.7647     23.4692
  2295.7000      7.7907      2.5591      0.1336      5.5102     74.7813     23.3659
  2295.8000      7.8006      2.5594      0.1272      5.4932     73.7911     23.2720
  2295.9000      7.8006      2.5590      0.1207      5.5155     72.7914     23.1833
  2296.0000      7.8051      2.5582      0.1145      5.5651     71.7946     23.0939
  2296.1000      7.8051      2.5571      0.1088      5.6306     70.8285     22.9965
  2296.2000      7.8051      2.5559      0.1038      5.7011     69.9334     22.8825
  2296.3000      7.8118      2.5548      0.0997      5.7674     69.1512     22.7432
  2296.4000      7.8118      2.5539      0.0965      5.8223     68.5247     22.5715
  2296.5000      7.8187      2.5533      0.0941      5.8608     68.0860     22.3631
  2296.6000      7.8187      2.5530      0.0923      5.8803     67.8497     22.1177
  2296.7000      7.8187      2.5530      0.0909      5.8802     67.8099     21.8391
  2296.8000      7.8102      2.5533      0.0898      5.8618     67.9412     21.5358
  2296.9000      7.8102      2.5538      0.0888      5.8277     68.2017     21.2190
  2297.0000      7.7853      2.5546      0.0877      5.7814     68.5380     20.9013
  2297.1000      7.7853      2.5555      0.0865      5.7267     68.8958     20.5952
  2297.2000      7.7853      2.5565      0.0853      5.6674     69.2261     20.3111
  2297.3000      7.7694      2.5575      0.0839      5.6069     69.4893     20.0566
  2297.4000      7.7694      2.5585      0.0826      5.5479     69.6596     19.8359
  2297.5000      7.7663      2.5594      0.0814      5.4925     69.7220     19.6499
  2297.6000      7.7663      2.5602      0.0805      5.4419     69.6690     19.4970
  2297.7000      7.7663      2.5610      0.0800      5.3967     69.4948     19.3742
  2297.8000      7.7656      2.5616      0.0801      5.3571     69.1912     19.2781
  2297.9000      7.7656      2.5622      0.0807      5.3227     68.7461     19.2049
  2298.0000      7.7648      2.5627      0.0819      5.2927     68.1443     19.1522
  2298.1000      7.7648      2.5631      0.0838      5.2664     67.3722     19.1188
  2298.2000      7.7648      2.5635      0.0862      5.2425     66.4262     19.1041
  2298.3000      7.7642      2.5639      0.0890      5.2199     65.3153     19.1083
  2298.4000      7.7642      2.5643      0.0921      5.1968     64.0697     19.1319
  2298.5000      7.7631      2.5647      0.0953      5.1712     62.7408     19.1748
  2298.6000      7.7631      2.5652      0.0985      5.1409     61.3947     19.2366
  2298.7000      7.7631      2.5658      0.1017      5.1032     60.1071     19.3157
  2298.8000      7.7621      2.5666      0.1047      5.0554     58.9509     19.4097
  2298.9000      7.7621      2.5676      0.1078      4.9947     57.9849     19.5147
  2299.0000      7.7617      2.5689      0.1108      4.9181     57.2447     19.6252
  2299.1000      7.7617      2.5704      0.1139      4.8235     56.7372     19.7340
  2299.2000      7.7617      2.5723      0.1171      4.7092     56.4392     19.8324
  2299.3000      7.7609      2.5745      0.1204      4.5738     56.3040     19.9101
  2299.4000      7.7609      2.5771      0.1237      4.4173     56.2663     19.9565
  2299.5000      7.7606      2.5800      0.1269      4.2402     56.2587     19.9622
  2299.6000      7.7606      2.5833      0.1297      4.0435     56.2196     19.9202
  2299.7000      7.7606      2.5868      0.1321      3.8293     56.1024     19.8287
  2299.8000      7.7627      2.5906      0.1340      3.5999     55.8835     19.6911
  2299.9000      7.7627      2.5946      0.1352      3.3581     55.5595     19.5177
  2300.0000      7.7693      2.5987      0.1358      3.1072     55.1486     19.3237
  2300.1000      7.7693      2.6030      0.1360      2.8506     54.6818     19.1278
  2300.2000      7.7693      2.6072      0.1358      2.5926     54.1955     18.9493
  2300.3000      7.7797      2.6114      0.1353      2.3374     53.7254     18.8049
  2300.4000      7.7797      2.6155      0.1346      2.0898     53.3018     18.7064
  2300.5000      7.7938      2.6194      0.1338      1.8553     52.9453     18.6585
  2300.6000      7.7938      2.6230      0.1327      1.6390     52.6690     18.6594
  2300.7000      7.7938      2.6261      0.1312      1.4466     52.4815     18.7012
  2300.8000      7.8221      2.6288      0.1292      1.2831     52.3891     18.7715
  2300.9000      7.8221      2.6310      0.1264      1.1530     52.3987     18.8561
  2301.0000      7.8863      2.6325      0.1227      1.0598     52.5176     18.9408
  2301.1000      7.8863      2.6334      0.1181      1.0057     52.7554     19.0133
  2301.2000      7.8863      2.6336      0.1127      0.9913     53.1174     19.0645
  2301.3000      7.9729      2.6332      0.1066      1.0156     53.6035     19.0887
  2301.4000      7.9729      2.6322      0.1000      1.0763     54.2016     19.0837
  2301.5000      8.0240      2.6307      0.0932      1.1695     54.8893     19.0496
  2301.6000      8.0240      2.6287      0.0864      1.2905     55.6336     18.9882
  2301.7000      8.0240      2.6263      0.0799      1.4341     56.3935     18.9031
  2301.8000      8.0352      2.6237      0.0738      1.5951     57.1282     18.7977
  2301.9000      8.0352      2.6208      0.0683      1.7687     57.8002     18.6761
  2302.0000      8.0356      2.6178      0.0634      1.9511     58.3830     18.5431
  2302.1000      8.0356      2.6147      0.0591      2.1396     58.8644     18.4035
  2302.2000      8.0356      2.6115      0.0553      2.3331     59.2459     18.2637
  2302.3000      8.0358      2.6082      0.0521      2.5319     59.5411     18.1312
  2302.4000      8.0358      2.6048      0.0494      2.7380     59.7726     18.0153
  2302.5000      8.0359      2.6013      0.0470      2.9542     59.9664     17.9270
  2302.6000      8.0359      2.5975      0.0449      3.1845     60.1532     17.8784
  2302.7000      8.0359      2.5934      0.0430      3.4332     60.3650     17.8818
  2302.8000      8.0358      2.5889      0.0412      3.7045     60.6349     17.9491
  2302.9000      8.0358      2.5840      0.0395      4.0021     61.0009     18.0902
  2303.0000      8.0351      2.5786      0.0377      4.3286     61.5082     18.3132
  2303.1000      8.0351      2.5727      0.0359      4.6853     62.2081     18.6228
  2303.2000      8.0351      2.5663      0.0342      5.0718     63.1586     19.0202
  2303.3000      8.0347      2.5595      0.0327      5.4860     64.4198     19.5028
  2303.4000      8.0347      2.5522      0.0316      5.9248     66.0474     20.0642
  2303.5000      8.0352      2.5447      0.0313      6.3840     68.0848     20.6936
