~Version Information
 VERS.                      2.0: CWLS Log ASCII Standard - VERSION 2.0
 WRAP.                       NO: One line per depth step
 ~Well Information Block
 STRT.FT                -8.0000: 
 STOP.FT              2581.0000: 
 STEP.FT                 0.2500: 
 NULL.                -999.2500: 
 COMP.          Petrogulf Corporation: COMPANY
 WELL.               YWAM 7-23V: WELL
 FLD.           Purgatorie River: FIELD
 LOC.           230' FSL & 225' FWL: LOCATION
 CNTY.               Las Animas: COUNTY
 SRVC.                         : SERVICE COMPANY
 DATE.          Mon Nov 22 10:51:24 2004: LOG DATE
 UWI.           05-071-08227-00: UNIQUE WELL ID
 STAT.                 Colorado: STATE
 PROV.                         :Province
 ~Curve Information Block
 DEPT.FT            0 000 00 00: Depth
 TT3.usec                      : CBL 3' Travel Time
 AMP3.mV                       : CBL 3' Amplitude
 GR.GAPI                       : Gamma Ray
 CCL.                          : Casing Collar Locator
 ~Parameter Information Block
 ~A  Depth       TT3         AMP3         GR         CCL     
# ...
  1365.5000    675.4705      3.9846    145.7680      0.0000
  1365.7500    693.9644      4.0994    133.2751      0.0000
  1366.0000    690.5121      4.2394    121.3826      0.0000
  1366.2500    658.8214      4.3902    111.8462      0.0000
  1366.5000    601.7203      4.5338    104.8232      0.0000
  1366.7500    533.8901      4.6396     99.5573      0.0000
  1367.0000    475.6294      4.6669     95.4899      0.0000
  1367.2500    440.7667      4.5836     92.2801      0.0000
  1367.5000    430.3522      4.3898     89.5006      0.0000
  1367.7500    436.5251      4.1194     86.9777      0.0000
  1368.0000    449.6125      3.8174     85.1195      0.0000
  1368.2500    461.8790      3.5151     84.5384      0.0000
  1368.5000    468.3906      3.2267     85.4323      0.0000
  1368.7500    467.7720      2.9630     87.2091      0.0000
  1369.0000    462.7401      2.7431     88.3979      0.0000
  1369.2500    459.2646      2.5944     87.2427      0.0000
  1369.5000    464.9010      2.5381     83.1669      0.0000
  1369.7500    486.1818      2.5635     77.9365      0.0000
  1370.0000    523.5198      2.6190     75.0579      0.0000
  1370.2500    566.6293      2.6422     77.5366      0.0000
  1370.5000    599.2111      2.6130     85.9369      0.0000
  1370.7500    613.7010      2.5774     98.4895      0.0000
  1371.0000    620.5387      2.6179    112.9550      0.0000
  1371.2500    637.6576      2.7970    127.9544      0.0000
  1371.5000    670.2568      3.1231    142.3003      0.0000
  1371.7500    704.3995      3.5556    153.9234      0.0000
  1372.0000    719.9407      4.0379    160.8421      0.0000
  1372.2500    707.4855      4.5226    163.4677      0.0000
  1372.5000    676.0684      4.9780    164.8712      0.0000
  1372.7500    648.1495      5.3839    167.9269      0.0000
  1373.0000    643.9243      5.7297    172.6396      0.0000
  1373.2500    665.9672      6.0145    176.7905      0.0000
  1373.5000    698.9020      6.2419    178.6079      0.0000
  1373.7500    723.4459      6.4060    178.2535      0.0000
  1374.0000    729.1073      6.4794    177.2965      0.0000
  1374.2500    716.9617      6.4272    177.3734      0.0000
  1374.5000    696.9089      6.2471    179.0771      0.0000
  1374.7500    682.8821      5.9918    181.6164      0.0000
  1375.0000    685.2261      5.7420    183.4682      0.0000
  1375.2500    704.0073      5.5559    183.3640      0.0000
  1375.5000    730.2678      5.4435    180.7450      0.0000
  1375.7500    754.0626      5.3829    175.7729      0.0000
  1376.0000    770.5170      5.3482    169.4121      0.0000
  1376.2500    779.2865      5.3241    163.3280      0.0000
  1376.5000    780.9562      5.3007    159.1204      0.0000
  1376.7500    775.5482      5.2660    157.4039      0.0000
  1377.0000    764.2538      5.2093    157.6351      0.0000
  1377.2500    751.2150      5.1311    158.6298      0.0000
  1377.5000    742.0273      5.0455    159.0955      0.0000
  1377.7500    739.8941      4.9707    158.0880      0.0000
  1378.0000    743.4786      4.9161    155.7115      0.0000
  1378.2500    748.2484      4.8747    153.5796      0.0000
  1378.5000    749.4551      4.8260    153.9607      0.0000
  1378.7500    744.8964      4.7490    157.8912      0.0000
  1379.0000    736.5804      4.6370    164.1748      0.0000
  1379.2500    729.9127      4.5018    170.4650      0.0000
  1379.5000    730.2698      4.3693    175.1527      0.0000
  1379.7500    739.5179      4.2688    178.0780      0.0000
  1380.0000    755.0638      4.2200    179.8458      0.0000
  1380.2500    771.6792      4.2238    180.9334      0.0000
  1380.5000    784.4915      4.2630    181.4428      0.0000
  1380.7500    791.0723      4.3148    181.4263      0.0000
  1381.0000    791.5937      4.3666    181.2032      0.0000
  1381.2500    787.6542      4.4218    181.0857      0.0000
  1381.5000    780.9447      4.4933    180.7673      0.0000
  1381.7500    772.5307      4.5935    179.4174      0.0000
  1382.0000    763.0495      4.7281    176.6068      0.0000
  1382.2500    753.2913      4.8929    173.0048      0.0000
  1382.5000    744.1664      5.0727    170.2442      0.0000
  1382.7500    736.0176      5.2458    169.9911      0.0000
  1383.0000    728.1061      5.3933    172.5572      0.0000
  1383.2500    718.3132      5.5055    176.2355      0.0000
  1383.5000    703.0159      5.5822    178.3599      0.0000
  1383.7500    678.4750      5.6274    177.1261      0.0000
  1384.0000    644.3533      5.6441    172.3679      0.0000
  1384.2500    606.2283      5.6334    165.0174      0.0000
  1384.5000    573.3487      5.5997    156.3795      0.0000
  1384.7500    553.2900      5.5541    147.9167      0.0000
  1385.0000    548.9912      5.5101    141.1900      0.0000
  1385.2500    559.7852      5.4722    137.4298      0.0000
  1385.5000    582.8472      5.4264    136.9184      0.0000
  1385.7500    612.9133      5.3465    138.9042      0.0000
  1386.0000    642.2535      5.2214    142.0982      0.0000
  1386.2500    663.3914      5.0884    145.1325      0.0000
  1386.5000    673.2360      5.0304    146.8532      0.0000
  1386.7500    674.3344      5.1143    146.8537      0.0000
  1387.0000    671.3428      5.3186    145.8535      0.0000
  1387.2500    667.0111      5.5356    145.1188      3.1677
  1387.5000    663.0157      5.6530    145.2378      4.8203
  1387.7500    662.1413      5.6323    145.4883     -2.0905
  1388.0000    664.8632      5.5178    144.3689      0.0000
  1388.2500    664.9584      5.3932    140.7084      0.0000
  1388.5000    654.6685      5.3367    134.5457      0.0000
  1388.7500    635.6667      5.3843    127.2764      0.0000
  1389.0000    620.6119      5.4979    120.9570      0.0000
  1389.2500    621.3932      5.5714    117.2679      0.0000
  1389.5000    638.1451      5.5035    116.7700      0.0000
  1389.7500    662.1313      5.2701    118.8600      0.0000
  1390.0000    686.2657      4.9204    122.5295      0.0000
  1390.2500    707.9418      4.5250    127.2999      0.0000
  1390.5000    723.7847      4.1455    133.1926      0.0000
  1390.7500    728.0507      3.8285    139.7107      0.0000
  1391.0000    717.0568      3.5981    145.2253      0.0000
  1391.2500    692.5999      3.4484    147.6844      0.0000
  1391.5000    661.9011      3.3489    145.9630      0.0000
  1391.7500    634.6653      3.2660    140.7443      0.0000
  1392.0000    616.8563      3.1837    134.2343      0.0000
  1392.2500    606.3627      3.1069    128.7619      0.0000
  1392.5000    598.2181      3.0478    125.3989      0.0000
  1392.7500    594.0568      3.0118    123.8558      0.0000
  1393.0000    601.9692      2.9970    123.4840      0.0000
  1393.2500    626.1006      3.0006    124.2487      0.0000
  1393.5000    659.6025      3.0190    126.8774      0.0000
  1393.7500    689.6337      3.0386    132.1275      0.0000
  1394.0000    708.3936      3.0360    139.7687      0.0000
  1394.2500    718.3103      2.9922    148.3223      0.0000
  1394.5000    727.3024      2.9076    155.8437      0.0000
  1394.7500    740.6072      2.7969    160.8646      0.0000
  1395.0000    757.3032      2.6763    162.8335      0.0000
  1395.2500    772.8112      2.5562    162.2088      0.0000
  1395.5000    783.0963      2.4445    160.3235      0.0000
  1395.7500    786.4169      2.3494    158.8897      0.0000
  1396.0000    782.4714      2.2788    159.2173      0.0000
  1396.2500    771.4839      2.2373    161.5264      0.0000
  1396.5000    754.9630      2.2255    164.8961      0.0000
  1396.7500    736.8584      2.2367    168.1710      0.0000
  1397.0000    722.8800      2.2563    171.0810      0.0000
  1397.2500    718.0498      2.2670    174.2227      0.0000
  1397.5000    724.3109      2.2574    177.8471      0.0000
  1397.7500    739.0217      2.2260    180.9638      0.0000
  1398.0000    754.9518      2.1794    181.8556      0.0000
  1398.2500    763.4990      2.1275    179.4062      0.0000
  1398.5000    760.7366      2.0810    173.7954      0.0000
  1398.7500    751.0444      2.0469    166.1110      0.0000
