~Version Information
VERS.                      2.0: CWLS Log ASCII Standard - VERSION 2.0
WRAP.                       NO: One line per depth step
~Well Information Block
STRT.FT                -3.0000: 
STOP.FT              2043.2500: 
STEP.FT                 0.2500: 
NULL.                -999.2500: 
COMP.          Pioneer Natural Resources: COMPANY
WELL.           Galloway 32-13: WELL
FLD.           Purgatorie River: FIELD
LOC.           1809' FNL & 2004' FEL--: LOCATION
PROV.                       CO: PROVINCE
CNTY.               Las Animas: COUNTRY
SRVC.          Patterson Wireline: SERVICE COMPANY
DATE.          Thu Jul 14 13:02:15 2005: LOG DATE
UWI.           05 071 08423 00: UNIQUE WELL ID
~Curve Information Block
DEPT.FT            0 000 00 00: Depth
CCL.                          : Casing Collar Locator
TT3.usec                      : CBL 3' Travel Time
AMP3.mV                       : CBL 3' Amplitude
GR.GAPI                       : Gamma Ray
~Parameter Information Block
~A  Depth       CCL         TT3         AMP3         GR     
# ...
  1739.0000      0.0000    649.3991      4.2222     60.4831
  1739.2500      0.0000    636.8506      4.0674     60.3003
  1739.5000      0.0000    610.8525      3.9978     59.5420
  1739.7500      0.0000    574.8528      4.0679     57.4988
  1740.0000      0.0000    542.4177      4.2505     54.0832
  1740.2500      0.0000    531.2558      4.4320     50.5082
  1740.5000      0.0000    549.9022      4.4908     48.8247
  1740.7500      1.9586    590.2062      4.3942     50.5857
  1741.0000      0.0000    633.8839      4.2173     55.7632
  1741.2500      0.0000    665.9047      4.0717     62.5504
  1741.5000      0.0000    680.3066      4.0211     68.1486
  1741.7500      0.0000    675.0785      4.0456     70.2835
  1742.0000      0.0000    647.2610      4.0748     68.5479
  1742.2500      0.0000    597.1984      4.0595     64.3287
  1742.5000      0.0000    535.0275      4.0199     59.3662
  1742.7500      0.0000    477.4337      4.0189     54.5408
  1743.0000      0.0000    436.6141      4.0837     50.0887
  1743.2500      0.0000    414.1249      4.1678     46.4838
  1743.5000      0.0000    404.3082      4.1980     44.4878
  1743.7500      0.0000    400.7081      4.1426     44.3367
  1744.0000      0.0000    399.1793      4.0252     45.3824
  1744.2500      0.0000    397.7888      3.8860     46.7091
  1744.5000      0.0000    396.0855      3.7543     47.8837
  1744.7500      0.0000    394.7088      3.6579     49.0809
  1745.0000      0.0000    394.7358      3.6274     50.7740
  1745.2500      0.0000    396.5904      3.6727     53.4538
  1745.5000      0.0000    399.5179      3.7690     57.3837
  1745.7500      0.0000    402.2682      3.8663     62.2036
  1746.0000      0.0000    403.9908      3.9125     66.6862
  1746.2500      0.0000    404.2475      3.8728     69.2051
  1746.5000      0.0000    402.5274      3.7510     68.7583
  1746.7500      0.0000    398.3550      3.6019     65.6539
  1747.0000      0.0000    392.1942      3.5160     61.3474
  1747.2500      0.0000    386.0532      3.5682     57.6134
  1747.5000      0.0000    382.5984      3.7570     55.4854
  1747.7500      0.0000    383.2043      3.9824     54.6812
  1748.0000      0.0000    386.8759      4.1043     54.0380
  1748.2500      0.0000    391.2389      4.0488     52.5659
  1748.5000      0.0000    394.4648      3.8650     50.2027
  1748.7500      0.0000    396.4214      3.6728     47.6986
  1749.0000      0.0000    398.6880      3.5569     45.8399
  1749.2500      0.0000    404.3358      3.5150     44.8890
  1749.5000      0.0000    417.2417      3.5020     44.7874
  1749.7500      0.0000    439.8367      3.4967     45.5903
  1750.0000      0.0000    470.6204      3.5125     47.4477
  1750.2500      0.0000    505.2823      3.5585     50.3305
  1750.5000      0.0000    541.1010      3.6124     54.0967
  1750.7500      0.0000    578.2028      3.6396     58.9622
  1751.0000      0.0000    615.6233      3.6250     65.7454
  1751.2500      0.0000    648.8999      3.5807     75.2137
  1751.5000      0.0000    673.2345      3.5317     86.6926
  1751.7500      0.0000    687.5029      3.4907     97.3733
  1752.0000      0.0000    694.3033      3.4469    103.6291
  1752.2500      0.0000    697.2723      3.3811    103.5165
  1752.5000      0.0000    699.1114      3.2941     97.9396
  1752.7500      0.0000    701.2727      3.2096     89.3800
  1753.0000      0.0000    703.9316      3.1438     79.9012
  1753.2500      0.0000    705.9210      3.0866     70.4063
  1753.5000      0.0000    705.8264      3.0233     61.1295
  1753.7500      0.0000    704.5073      2.9645     52.3514
  1754.0000      0.0000    706.8452      2.9400     44.7617
  1754.2500      0.0000    719.9716      2.9678     39.2227
  1754.5000      0.0000    748.1587      3.0392     36.1765
  1754.7500      0.0000    788.7101      3.1272     35.3718
  1755.0000      0.0000    833.5697      3.1988     36.1614
  1755.2500      0.0000    875.4188      3.2248     37.8916
  1755.5000     -2.0000    910.6658      3.1904     40.0015
  1755.7500      0.0000    936.0167      3.1040     42.0776
  1756.0000      0.0000    945.7519      3.0074     43.9630
  1756.2500      0.0000    935.9159      2.9705     45.6822
  1756.5000      0.0000    910.0328      3.0531     47.3204
  1756.7500      0.0000    877.9899      3.2633     49.2291
  1757.0000      0.0000    849.0776      3.5566     52.1378
  1757.2500      0.0000    826.9006      3.8803     56.5046
  1757.5000      0.0000    810.0557      4.2033     61.7248
  1757.7500      0.0000    795.5994      4.5117     66.4698
  1758.0000      0.0000    781.1890      4.7968     69.9630
  1758.2500      0.0000    765.4468      5.0500     72.5856
  1758.5000      0.0000    748.6265      5.2596     75.1083
  1758.7500      0.0000    733.7939      5.4204     77.7370
  1759.0000      0.0000    726.2852      5.5529     80.2183
  1759.2500      0.0000    730.4110      5.6998     82.4756
  1759.5000      0.0000    745.5998      5.8816     84.7364
  1759.7500      0.0000    765.6989      6.0566     87.3407
  1760.0000      0.0000    782.6718      6.1400     90.6470
  1760.2500      0.0000    791.2711      6.0725     94.7472
  1760.5000      0.0000    790.2469      5.8692     99.0237
  1760.7500      0.0000    780.3853      5.6023    102.2267
  1761.0000      0.0000    763.2927      5.3506    103.2001
  1761.2500      0.0000    742.0261      5.1660    101.5327
  1761.5000      0.0000    721.1042      5.0622     97.6302
  1761.7500      0.0000    705.2858      5.0189     92.4549
  1762.0000      0.0000    698.8162      5.0021     87.2448
  1762.2500      0.0000    704.3955      4.9850     83.0770
  1762.5000      0.0000    720.5171      4.9543     80.3901
  1762.7500      0.0000    740.4641      4.9052     78.9040
  1763.0000      0.0000    756.3426      4.8390     77.9808
  1763.2500      0.0000    764.4616      4.7706     77.1795
  1763.5000      0.0000    766.2044      4.7271     76.7288
  1763.7500      0.0000    765.0702      4.7276     77.4490
  1764.0000      0.0000    764.0645      4.7609     79.8950
  1764.2500      0.0000    764.4042      4.7930     83.6040
  1764.5000      0.0000    764.8287      4.8012     87.4749
  1764.7500      0.0000    762.2228      4.7944     90.7188
  1765.0000      0.0000    754.3718      4.7971     93.1034
  1765.2500      0.0000    742.7707      4.8153     94.5084
  1765.5000      0.0000    731.8517      4.8239     94.7598
  1765.7500      0.0000    724.7945      4.7924     93.9993
  1766.0000      0.0000    721.3901      4.7177     92.9378
  1766.2500      0.0000    720.9155      4.6288     92.4386
  1766.5000      0.0000    725.0401      4.5632     92.7039
  1766.7500      0.0000    735.2171      4.5396     92.8875
  1767.0000      0.0000    748.0073      4.5453     91.6862
  1767.2500      0.0000    755.9781      4.5520     88.4476
  1767.5000      0.0000    754.0594      4.5528     83.6826
  1767.7500      0.0000    743.7945      4.5805     78.5458
  1768.0000      0.0000    731.1324      4.6698     74.0619
  1768.2500      0.0000    721.2605      4.8050     70.9053
  1768.5000      0.0000    715.8805      4.9302     69.4418
  1768.7500      0.0000    714.0632      5.0024     69.4855
  1769.0000      0.0000    714.3043      5.0205     70.1706
  1769.2500      0.0000    715.7247      5.0072     70.7213
  1769.5000      0.0000    717.9806      4.9841     71.5537
  1769.7500      0.0000    720.1918      4.9604     73.8767
  1770.0000      0.0000    720.0815      4.9269     77.7856
  1770.2500      0.0000    715.0870      4.8637     81.6984
  1770.5000      0.0000    705.2075      4.7668     84.3790
  1770.7500      0.0000    694.0837      4.6648     86.5338
  1771.0000      0.0000    686.2534      4.5970     89.2836
  1771.2500      0.0000    683.5366      4.5787     91.7538
  1771.5000      0.0000    684.5287      4.6002     91.5705
  1771.7500      0.0000    687.0754      4.6488     87.7210
  1772.0000      0.0000    690.7747      4.7070     81.9730
  1772.2500      0.0000    697.2585      4.7402     77.3117
