~Version Information
VERS.                      2.0: CWLS Log ASCII Standard - VERSION 2.0
WRAP.                       NO: One line per depth step
~Well Information Block
STRT.FT                -8.0000: 
STOP.FT              1357.5000: 
STEP.FT                 0.2500: 
NULL.                -999.2500: 
COMP.          Pioneer Natural Resources: COMPANY
WELL.          Lorencito 6-3-34-66: WELL
FLD.           Purgatorie River: FIELD
LOC.           2545' FNL & 1914' FWL: LOCATION
STAT.                       CO: State
CNTY.               Las Animas: COUNTY
CTRY. USA : Country
SECT. 3 : Section
TOWN. 34S : Township
RANG. 66W : Range
SRVC.          Patterson Wireline: SERVICE COMPANY
DATE.          Tue Sep 27 11:36:13 2005: LOG DATE
API.           05 071 08369 00: UNIQUE WELL ID
~Curve Information Block
DEPT.FT            0 000 00 00: Depth
CCL.                          : Casing Collar Locator
TT3.usec                      : CBL 3' Travel Time
AMP3.mV                       : CBL 3' Amplitude
GR.GAPI                       : Gamma Ray
~Parameter Information Block
~A  Depth       CCL         TT3         AMP3         GR     
# ...
   796.0000      0.0000    343.9416     21.1328    121.4194
   796.2500      0.0000    334.9036     21.3080    118.9400
   796.5000      0.0000    327.5825     21.4707    114.6734
   796.7500      0.0000    320.9044     21.6120    108.4997
   797.0000      0.0000    314.6708     21.7170    102.1092
   797.2500      0.0000    309.7509     21.7736     98.4292
   797.5000      0.0000    306.7640     21.7810     99.7515
   797.7500      0.0000    305.4196     21.7493    106.1565
   798.0000      0.0000    304.9844     21.6966    115.3670
   798.2500      0.0000    304.8717     21.6465    123.9568
   798.5000      0.0000    304.8008     21.6197    129.2692
   798.7500      0.0000    304.6962     21.6257    130.8197
   799.0000      0.0000    304.5595     21.6621    130.0797
   799.2500      0.0000    304.4016     21.7185    129.0091
   799.5000      0.0000    304.2427     21.7789    128.6990
   799.7500      0.0000    304.1184     21.8249    129.0213
   800.0000      0.0000    304.0738     21.8380    129.1967
   800.2500      0.0000    304.1425     21.8009    128.6219
   800.5000      0.0000    304.3225     21.6991    127.1773
   800.7500      0.0000    304.5649     21.5313    124.8197
   801.0000      0.0000    304.7909     21.3194    121.3391
   801.2500      0.0000    304.9304     21.1057    116.9442
   801.5000      0.0000    304.9526     20.9327    112.9144
   801.7500      0.0000    304.8975     20.8205    111.3602
   802.0000      0.0000    304.9297     20.7615    114.0925
   802.2500      0.0000    305.6828     20.7345    121.0593
   802.5000      0.0000    309.1792     20.7179    129.4498
   802.7500      0.0000    320.2891     20.6901    135.0788
   803.0000      0.0000    347.1047     20.6227    135.5489
   803.2500      0.0000    397.2449     20.4848    132.0305
   803.5000      0.0000    470.1777     20.2608    127.8456
   803.7500      0.0000    552.7811     19.9633    125.8375
   804.0000      0.0000    625.6384     19.6233    126.9989
   804.2500      0.0000    675.6653     19.2666    130.2231
   804.5000      0.0000    702.3553     18.9034    132.5375
   804.7500      0.0000    713.3165     18.5409    130.5961
   805.0000      0.0000    716.6284     18.1942    123.2227
   805.2500      0.0000    717.1595     17.8783    112.6055
   805.5000      0.0000    716.8901     17.5933    102.7517
   805.7500      0.0000    716.0874     17.3271     96.8000
   806.0000      0.0000    713.7497     17.0781     95.5545
   806.2500      0.0000    707.5408     16.8696     97.7613
   806.5000      0.0000    694.7525     16.7389    101.0920
   806.7500      0.0000    675.4016     16.7088    103.1256
   807.0000      0.0000    654.9582     16.7673    102.3149
   807.2500      0.0000    641.2569     16.8742     98.6769
   807.5000      0.0000    636.6917     16.9858     93.5933
   807.7500      0.0000    636.4290     17.0741     88.7643
   808.0000      0.0000    636.8620     17.1259     85.2067
   808.2500      0.0000    641.6958     17.1349     83.0082
   808.5000      0.0000    655.7490     17.1006     81.6149
   808.7500      0.0000    676.4104     17.0334     80.2587
   809.0000      0.0000    695.2287     16.9521     78.5439
   809.2500      0.0000    705.1465     16.8713     76.8431
   809.5000      0.0000    702.7019     16.7926     75.9546
   809.7500      0.0000    685.5934     16.7104     76.3202
   810.0000      0.0000    653.6384     16.6196     77.7066
   810.2500      0.0000    614.5459     16.5157     79.6128
   810.5000      0.0000    585.4869     16.3930     81.8594
   810.7500      0.0000    582.7375     16.2555     84.6033
   811.0000      0.0000    607.7300     16.1260     87.5726
   811.2500      0.0000    645.8969     16.0362     89.3742
   811.5000      0.0000    679.8100     16.0019     88.1686
   811.7500      0.0000    701.1215     16.0082     83.6139
   812.0000      0.0000    711.0486     16.0181     78.0902
   812.2500      0.0000    714.1509     16.0010     75.4547
   812.5000      0.0000    713.8328     15.9565     78.1091
   812.7500      0.0000    711.8812     15.9103     85.0528
   813.0000      0.0000    709.6892     15.8846     92.6179
   813.2500      0.0000    708.6745     15.8738     97.0906
   813.5000      0.0000    709.3541     15.8505     96.9439
   813.7500      0.0000    710.5497     15.7907     92.9340
   814.0000      0.0000    710.0688     15.6918     86.5054
   814.2500      0.0000    706.3398     15.5693     78.7074
   814.5000      0.0000    699.6631     15.4436     70.8517
   814.7500      0.0000    692.2933     15.3318     65.3107
   815.0000      0.0000    687.2510     15.2492     64.4902
   815.2500      0.0000    686.4317     15.2107     68.7124
   815.5000      0.0000    689.3340     15.2181     75.3812
   815.7500      0.0000    693.4921     15.2484     80.2921
   816.0000      0.0000    696.3545     15.2629     80.0050
   816.2500      0.0000    696.8825     15.2344     73.7489
   816.5000      0.0000    695.4397     15.1606     63.7180
   816.7500      0.0000    692.5959     15.0562     53.5438
   817.0000      0.0000    688.5828     14.9417     46.0837
   817.2500      0.0000    683.7845     14.8370     42.1485
   817.5000      0.0000    679.1125     14.7572     40.8243
   817.7500      0.0000    675.5320     14.7063     40.7121
   818.0000      0.0000    673.3962     14.6765     40.8652
   818.2500      0.0000    672.4495     14.6518     40.8630
   818.5000      0.0000    672.3611     14.6163     40.5249
   818.7500      0.0000    673.1313     14.5642     39.8874
   819.0000      0.0000    674.9799     14.5033     39.4302
   819.2500      0.0000    677.7726     14.4417     39.9184
   819.5000      0.0000    680.5794     14.3689     41.5951
   819.7500      0.0000    682.1202     14.2594     43.6216
   820.0000      0.0000    681.9958     14.0947     44.7757
   820.2500      0.0000    681.2178     13.8814     44.6962
   820.5000      0.0000    681.0560     13.6460     44.1026
   820.7500      0.0000    681.4471     13.4094     43.9159
   821.0000      0.0000    680.7113     13.1576     44.5237
   821.2500      0.0000    676.6891     12.8295     45.6806
   821.5000      0.0000    667.8029     12.3574     46.6729
   821.7500      0.0000    653.9987     11.7505     46.6522
   822.0000      0.0000    638.7971     11.1259     45.1621
   822.2500      0.0000    630.7010     10.6185     42.4554
   822.5000      0.0000    638.8393     10.2661     39.3255
   822.7500      0.0000    663.5800     10.0285     36.6927
   823.0000      0.0000    693.0826      9.8835     35.1922
   823.2500      0.0000    712.7641      9.8359     34.9174
   823.5000      0.0000    718.0436      9.8612     35.5446
   823.7500     -2.0000    715.6689      9.9099     36.9020
   824.0000      0.0000    713.3300      9.9636     39.3760
   824.2500      0.0000    710.3162     10.0665     43.3524
   824.5000      0.0000    699.1179     10.3066     48.1324
   824.7500      0.0000    675.6586     10.7460     51.9444
   825.0000      0.0000    647.2615     11.3312     53.4220
   825.2500      0.0000    629.1019     11.8988     52.8360
   825.5000      0.0000    631.3489     12.3231     51.8476
   825.7500      0.0000    650.7484     12.6196     52.5794
   826.0000      0.0000    675.4129     12.8632     56.8094
   826.2500      0.0000    695.4873     13.0637     64.9665
   826.5000      0.0000    707.9357     13.1752     75.2873
   826.7500      0.0000    714.2576     13.1742     84.5827
   827.0000      0.0000    716.9550     13.0830     90.5192
   827.2500      0.0000    717.8994     12.9410     92.8934
   827.5000      0.0000    718.1437     12.7772     92.5782
   827.7500      0.0000    718.1518     12.6021     90.2737
   828.0000      0.0000    718.0964     12.4136     86.8906
   828.2500      0.0000    718.0204     12.2140     84.1084
   828.5000      0.0000    717.9178     12.0175     83.5057
   828.7500      0.0000    717.7612     11.8400     85.3918
   829.0000      0.0000    717.4857     11.6829     89.0052
   829.2500      0.0000    716.9508     11.5330     93.6226
