~Version Information
VERS.                      2.0: CWLS Log ASCII Standard - VERSION 2.0
WRAP.                       NO: One line per depth step
~Well Information Block
STRT.FT                15.0000: 
STOP.FT              2556.5000: 
STEP.FT                 0.2500: 
NULL.                -999.2500: 
COMP.          Pioneer Natural Resources: COMPANY
WELL.              Quack 22-24: WELL
FLD.           Purgatoire River: FIELD
LOC.           2492' FNL & 2459' FWL: LOCATION
PROV.                 Colorado: PROVINCE
CNTY.               Las Animas: COUNTRY
SRVC.                Patterson: SERVICE COMPANY
DATE.          Tue Jul 26 07:02:30 2005: LOG DATE
UWI.           05 071 08402 00: UNIQUE WELL ID
~Curve Information Block
DEPT.FT            0 000 00 00: Depth
GR.GAPI                       : Gamma Ray
CCL.                          : Casing Collar Locator
TT3.usec                      : CBL 3' Travel Time
AMP3.mV                       : CBL 3' Amplitude
~Parameter Information Block
~A  Depth        GR         CCL         TT3         AMP3    
# ...
   350.0000    130.1165      0.0000    637.9946     11.9662
   350.2500    133.1438      0.0000    638.0474     11.8103
   350.5000    134.3214      0.0000    638.1835     11.6489
   350.7500    133.9151      0.0000    638.5765     11.5037
   351.0000    132.7578      0.0000    639.8095     11.3866
   351.2500    132.0888      0.0000    643.3387     11.3019
   351.5000    132.9988      0.0000    651.5273     11.2575
   351.7500    135.8564      0.0000    666.2975     11.2681
   352.0000    140.0585      0.0000    686.4451     11.3439
   352.2500    144.3303      0.0000    706.2744     11.4753
   352.5000    147.6068      0.0000    718.3486     11.6308
   352.7500    149.8784      0.0000    718.5592     11.7729
   353.0000    152.0370      0.0000    708.2663     11.8761
   353.2500    154.6888      0.0000    691.9893     11.9400
   353.5000    157.2409      0.0000    674.4944     11.9946
   353.7500    158.4501      0.0000    659.8245     12.0873
   354.0000    157.7767      0.0000    651.0581     12.2505
   354.2500    155.7018      0.0000    649.7687     12.4757
   354.5000    152.7041      0.0000    655.6840     12.7183
   354.7500    148.6347      0.0000    666.8047     12.9320
   355.0000    143.3338      0.0000    679.9805     13.1073
   355.2500    137.1660      0.0000    692.0873     13.2832
   355.5000    130.6859      0.0000    701.3354     13.5212
   355.7500    124.3209      0.0000    708.0557     13.8573
   356.0000    118.6176      0.0000    714.2012     14.2785
   356.2500    114.2822      0.0000    721.3463     14.7442
   356.5000    111.5226      0.0000    728.9690     15.2262
   356.7500    109.5375      0.0000    735.1962     15.7280
   357.0000    107.1505      0.0000    738.9242     16.2759
   357.2500    104.1044      0.0000    740.6734     16.8965
   357.5000    101.4676      0.0000    741.8641     17.5938
   357.7500    100.5532      0.0000    743.8772     18.3381
   358.0000    101.5230      0.0000    747.5465     19.0741
   358.2500    103.2668      0.0000    752.7920     19.7378
   358.5000    104.6437      0.0000    758.4856     20.2734
   358.7500    105.5721      0.0000    762.6525     20.6539
   359.0000    106.8484      0.0000    762.4164     20.9043
   359.2500    109.1635      0.0000    753.1390     21.1017
   359.5000    112.3641      0.0000    728.3884     21.3372
   359.7500    115.3646      0.0000    684.4604     21.6559
   360.0000    116.7903      0.0000    628.6866     22.0141
   360.2500    116.0213      0.0000    581.7001     22.2874
   360.5000    113.5944      0.0000    565.3632     22.3348
   360.7500    110.3449      0.0000    585.6170     22.0828
   361.0000    106.4027      0.0000    628.8956     21.5633
   361.2500    101.5177      0.0000    674.7509     20.8764
   361.5000     96.1462      0.0000    709.4608     20.1196
   361.7500     91.4902      0.0000    729.5181     19.3441
   362.0000     88.4454      0.0000    737.3559     18.5508
   362.2500     87.0354      0.0000    736.4344     17.7100
   362.5000     86.7294      0.0000    729.4284     16.7922
   362.7500     86.7330      0.0000    718.9918     15.8046
   363.0000     86.1294      0.0000    708.3464     14.8115
   363.2500     84.4010      0.0000    700.2493     13.9160
   363.5000     81.9580      0.0000    695.7870     13.2142
   363.7500     79.7885      0.0000    694.7916     12.7546
   364.0000     78.3292      0.0000    697.2152     12.5304
   364.2500     76.8158      0.0000    703.6950     12.5003
   364.5000     74.1511      0.0000    714.5723     12.6168
   364.7500     70.4226      0.0000    728.4788     12.8372
   365.0000     67.0137      0.0000    742.3094     13.1131
   365.2500     65.0881      0.0000    752.9612     13.3834
   365.5000     64.5803      0.0000    759.1380     13.5981
   365.7500     64.8651      0.0000    761.6149     13.7473
   366.0000     65.6879      0.0000    762.1073     13.8597
   366.2500     66.9733      0.0000    762.0294     13.9732
   366.5000     68.2769      0.0000    762.0182     14.1143
   366.7500     69.0897      0.0000    762.1345     14.3032
   367.0000     69.5209      0.0000    762.0240     14.5594
   367.2500     70.1237      0.0000    761.0960     14.8875
   367.5000     71.0939      0.0000    759.1131     15.2559
   367.7500     72.2058      0.0000    756.7342     15.6059
   368.0000     73.6681      0.0000    755.0754     15.8986
   368.2500     76.4836      0.0000    754.3174     16.1607
   368.5000     81.6174      0.0000    752.2359     16.4873
   368.7500     89.1529      0.0000    743.0369     17.0002
   369.0000     98.4894      0.0000    717.4628     17.7979
   369.2500    108.9905      0.0000    666.8627     18.9218
   369.5000    120.0787      0.0000    591.3823     20.3342
   369.7500    130.9678      0.0000    504.7908     21.9197
   370.0000    140.8109      0.0000    427.8359     23.5315
   370.2500    149.2112      0.0000    374.6913     25.0681
   370.5000    156.2278      0.0000    346.1241     26.5011
   370.7500    161.6049      0.0000    334.1466     27.8060
   371.0000    164.3487      0.0000    330.2036     28.8823
   371.2500    163.5984      0.0000    329.1550     29.5974
   371.5000    159.8694      0.0000    328.9058     29.9293
   371.7500    155.0388      0.0000    328.8388     30.0314
   372.0000    150.9946      0.0000    328.8045     30.1290
   372.2500    148.2714      0.0000    328.7224     30.3731
   372.5000    145.9330      0.0000    328.4969     30.8052
   372.7500    142.8175      0.0000    327.9474     31.4259
   373.0000    138.8442      0.0000    326.6863     32.2496
   373.2500    134.9284      0.0000    324.0476     33.2846
   373.5000    131.9109      0.0000    319.3658     34.4829
   373.7500    130.0765      0.0000    312.6418     35.7378
   374.0000    129.4673      0.0000    304.9667     36.9498
   374.2500    130.0790      0.0000    297.9967     38.1013
   374.5000    131.6343      0.0000    292.8214     39.2606
   374.7500    133.4167      0.0000    289.3396     40.5029
   375.0000    134.6290      0.0000    286.6491     41.8170
   375.2500    135.1401      0.0000    283.9376     43.0775
   375.5000    135.9252      0.0000    281.0530     44.1073
   375.7500    138.3643      0.0000    278.3393     44.7763
   376.0000    142.6189      0.0000    276.1364     45.0463
   376.2500    146.8268      0.0000    274.9241     44.9067
   376.5000    148.4879      0.0000    275.9151     44.2930
   376.7500    146.7728      0.0000    280.7700     43.1086
   377.0000    143.1131      0.0000    290.2342     41.3111
   377.2500    139.4426      0.0000    303.1161     38.9466
   377.5000    136.4554      0.0000    316.3313     36.1940
   377.7500    133.9825      0.0000    325.8660     33.4712
   378.0000    132.4103      0.0000    328.8525     31.3552
   378.2500    132.7689      0.0000    325.6851     30.2085
   378.5000    135.4495      0.0000    319.8307     29.9304
   378.7500    139.5066      0.9558    315.2641     30.1516
   379.0000    143.4508      3.0000    314.5888     30.5690
   379.2500    146.5208      0.8871    318.9555     31.0821
   379.5000    149.0888      0.0000    327.3987     31.7851
   379.7500    151.9983      0.0000    335.2101     32.9242
   380.0000    155.7148      0.0000    335.4551     34.7452
   380.2500    159.9266      0.0000    324.7065     37.2939
   380.5000    163.6159      0.0000    306.4118     40.3986
   380.7500    165.4955      0.0000    287.4164     43.7597
   381.0000    164.6889      0.0000    272.4814     46.9532
   381.2500    161.1939      0.0000    262.7322     49.4988
   381.5000    155.8237      0.0000    257.2597     51.1128
   381.7500    149.7290      0.0000    254.6556     51.8605
   382.0000    143.7774      0.0000    253.6603     52.0154
   382.2500    138.2709      0.0000    253.3975     51.8379
   382.5000    133.2667      0.0000    253.4083     51.4953
   382.7500    128.9469      0.0000    253.4958     51.0999
   383.0000    125.4612      0.0000    253.5921     50.7444
   383.2500    122.6278      0.0000    253.6672     50.4995
