~Version Information
VERS.                      2.0: CWLS Log ASCII Standard - VERSION 2.0
WRAP.                       NO: One line per depth step
~Well Information Block
STRT.FT               250.0000: 
STOP.FT               894.7500: 
STEP.FT                 0.2500: 
NULL.                -999.2500: 
COMP.          Pioneer Natural Resources: COMPANY
WELL.          Santisteven 13-22: WELL
FLD.           Purgatoire River: FIELD
LOC.           1861' FSL & 992' FWL----: LOCATION
PROV.                 Colorado: PROVINCE
CNTY.               Las Animas: COUNTRY
SRVC.                Patterson: SERVICE COMPANY
DATE.          Sat Apr 02 14:49:07 2005: LOG DATE
UWI.           05 071 08337 00: UNIQUE WELL ID
~Curve Information Block
DEPT.FT            0 000 00 00: Depth
SN.Ohm-m                      : IEL Short Normal
SP.mV                         : IEL Spontaneous Potential
DIR.Ohm-m                     : IEL Induction Resistivity
GR.GAPI                       : Gamma Ray
~Parameter Information Block
~A  Depth        SN          SP         DIR          GR     
# ...
   786.0000    652.7505     26.1171     19.2446    126.2789
   786.2500    652.7505     26.1159     19.2955    123.1495
   786.5000    652.7505     26.1138     19.2968    118.0162
   786.7500    652.7505     26.1111     19.2642    114.6692
   787.0000    652.7505     26.1080     19.2306    110.7934
   787.2500    652.7505     26.1050     19.2308    109.3765
   787.5000    652.7505     26.1026     19.2888    108.9721
   787.7500    652.7505     26.1013     19.4135    109.6375
   788.0000    652.7505     26.1013     19.6011    111.7377
   788.2500    652.7505     26.1028     19.8397    113.7204
   788.5000    652.7505     26.1056     20.1133    117.3276
   788.7500    652.7505     26.1093     20.4062    120.1460
   789.0000    652.7505     26.1129     20.7068    125.1583
   789.2500    652.7505     26.1159     21.0121    128.9400
   789.5000    652.7458     26.1174     21.3252    134.2778
   789.7500    652.7200     26.1174     21.6492    136.6272
   790.0000    652.5935     26.1159     21.9813    137.0278
   790.2500    652.1143     26.1134     22.3125    135.2809
   790.5000    650.7280     26.1105     22.6304    131.0995
   790.7500    647.6177     26.1077     22.9198    128.2039
   791.0000    642.1600     26.1054     23.1603    124.5073
   791.2500    634.5165     26.1035     23.3280    122.7102
   791.5000    625.7856     26.1018     23.4063    121.6107
   791.7500    617.8560     26.1001     23.4015    122.1350
   792.0000    613.3782     26.0981     23.3510    124.1099
   792.2500    614.8991     26.0958     23.3128    125.4718
   792.5000    622.6153     26.0933     23.3384    126.9879
   792.7500    633.3286     26.0907     23.4461    127.8680
   793.0000    642.7222     26.0882     23.6104    129.4253
   793.2500    648.4445     26.0857     23.7752    130.4259
   793.5000    650.6324     26.0835     23.8831    130.8710
   793.7500    650.4293     26.0814     23.9048    130.0091
   794.0000    648.9427     26.0796     23.8509    127.4425
   794.2500    647.2627     26.0783     23.7630    125.8904
   794.5000    646.4282     26.0778     23.6904    125.4138
   794.7500    646.8193     26.0783     23.6657    126.3674
   795.0000    647.8302     26.0801     23.6885    128.2517
   795.2500    648.5402     26.0834     23.7262    128.9837
   795.5000    648.7015     26.0882     23.7271    129.4408
   795.7500    648.8366     26.0944     23.6448    130.1115
   796.0000    649.4670     26.1019     23.4586    132.2487
   796.2500    650.5273     26.1104     23.1790    133.6136
   796.5000    651.5657     26.1197     22.8350    133.4769
   796.7500    652.2574     26.1293     22.4555    131.7109
   797.0000    652.5904     26.1388     22.0607    128.5556
   797.2500    652.7100     26.1476     21.6666    127.5285
   797.5000    652.7425     26.1553     21.2892    128.0880
   797.7500    652.7493     26.1614     20.9426    129.0080
   798.0000    652.7505     26.1657     20.6321    129.5362
   798.2500    652.7505     26.1682     20.3527    128.9419
   798.5000    652.7505     26.1687     20.0942    127.0703
   798.7500    652.7505     26.1677     19.8485    125.7474
   799.0000    652.7505     26.1654     19.6132    124.4802
   799.2500    652.7505     26.1622     19.3901    124.1777
   799.5000    652.7505     26.1587     19.1856    123.9166
   799.7500    652.7505     26.1553     19.0110    123.4551
   800.0000    652.7505     26.1522     18.8794    122.1316
   800.2500    652.7505     26.1495     18.7990    120.9591
   800.5000    652.7505     26.1471     18.7665    119.0361
   800.7500    652.7505     26.1445     18.7662    117.8420
   801.0000    652.7505     26.1417     18.7772    116.7906
   801.2500    652.7505     26.1385     18.7838    116.9465
   801.5000    652.7505     26.1352     18.7834    118.6936
   801.7500    652.7505     26.1322     18.7866    120.7856
   802.0000    652.7505     26.1298     18.8085    125.1014
   802.2500    652.7505     26.1284     18.8569    128.5238
   802.5000    652.7505     26.1280     18.9236    133.3526
   802.7500    652.7505     26.1284     18.9884    135.2884
   803.0000    652.7505     26.1290     19.0316    134.7557
   803.2500    652.7505     26.1293     19.0478    132.2093
   803.5000    652.7505     26.1290     19.0471    127.1408
   803.7500    652.7477     26.1278     19.0439    124.2731
   804.0000    652.7324     26.1258     19.0448    121.4385
   804.2500    652.6588     26.1229     19.0440    120.0773
   804.5000    652.3880     26.1194     19.0288    118.3243
   804.7500    651.6339     26.1151     18.9881    117.6652
   805.0000    650.0718     26.1100     18.9172    118.0033
   805.2500    647.7461     26.1041     18.8202    118.8298
   805.5000    645.4692     26.0973     18.7090    119.9307
   805.7500    644.4997     26.0898     18.6001    120.3648
   806.0000    645.4692     26.0818     18.5071    121.3027
   806.2500    647.7461     26.0738     18.4347    122.6590
   806.5000    650.0718     26.0662     18.3783    125.8004
   806.7500    651.6339     26.0594     18.3302    128.0500
   807.0000    652.3880     26.0539     18.2854    130.4076
   807.2500    652.6588     26.0499     18.2434    130.8188
   807.5000    652.7324     26.0474     18.2074    129.6369
   807.7500    652.7461     26.0462     18.1822    128.1552
   808.0000    652.7400     26.0462     18.1739    126.4202
   808.2500    652.6972     26.0473     18.1869    126.3454
   808.5000    652.5396     26.0493     18.2221    127.9488
   808.7500    652.1010     26.0524     18.2759    129.5841
   809.0000    651.1924     26.0565     18.3421    131.8888
   809.2500    649.8397     26.0618     18.4149    133.1439
   809.5000    648.5154     26.0679     18.4903    134.6678
   809.7500    647.9515     26.0748     18.5661    135.3676
   810.0000    648.5154     26.0818     18.6413    135.5652
   810.2500    649.8397     26.0887     18.7154    135.0650
   810.5000    651.1924     26.0949     18.7879    133.9839
   810.7500    652.1010     26.1004     18.8585    133.7168
   811.0000    652.5396     26.1048     18.9267    134.8238
   811.2500    652.6972     26.1082     18.9905    136.3651
   811.5000    652.7400     26.1103     19.0456    138.3825
   811.7500    652.7489     26.1110     19.0878    138.6127
   812.0000    652.7505     26.1102     19.1160    136.9467
   812.2500    652.7505     26.1079     19.1327    135.0983
   812.5000    652.7505     26.1043     19.1412    132.6279
   812.7500    652.7505     26.0997     19.1438    131.6996
   813.0000    652.7505     26.0947     19.1434    131.7083
   813.2500    652.7505     26.0895     19.1457    132.7789
   813.5000    652.7505     26.0846     19.1578    136.1033
   813.7500    652.7505     26.0800     19.1850    139.1055
   814.0000    652.7505     26.0758     19.2301    143.0824
   814.2500    652.7505     26.0723     19.2979    144.2558
   814.5000    652.7505     26.0697     19.4006    143.2838
   814.7500    652.7505     26.0685     19.5553    141.6296
   815.0000    652.7450     26.0692     19.7750    139.3850
   815.2500    652.6974     26.0724     20.0565    138.2709
   815.5000    652.4420     26.0784     20.3784    136.3348
   815.7500    651.3539     26.0871     20.7108    134.5471
   816.0000    647.6978     26.0981     21.0312    131.5211
   816.2500    638.0167     26.1109     21.3357    129.6339
   816.5000    617.7890     26.1243     21.6382    127.1991
   816.7500    584.3798     26.1372     21.9616    125.9307
   817.0000    540.5229     26.1484     22.3243    125.1126
   817.2500    494.0583     26.1571     22.7300    125.6002
   817.5000    452.7296     26.1627     23.1618    127.6004
   817.7500    418.9774     26.1650     23.5835    129.1061
   818.0000    389.8599     26.1643     23.9469    130.4689
   818.2500    361.6902     26.1609     24.2076    130.5815
   818.5000    336.0648     26.1555     24.3425    130.0054
   818.7500    323.2373     26.1487     24.3574    129.4854
   819.0000    337.7336     26.1412     24.2790    129.0813
   819.2500    386.2389     26.1334     24.1382    129.5211
