~Version Information
VERS.                      2.0: CWLS Log ASCII Standard - VERSION 2.0
WRAP.                       NO: One line per depth step
~Well Information Block
STRT.FT                -3.0000: 
STOP.FT              2043.2500: 
STEP.FT                 0.2500: 
NULL.                -999.2500: 
COMP.          Pioneer Natural Resources: COMPANY
WELL.           Galloway 32-13: WELL
FLD.           Purgatorie River: FIELD
LOC.           1809' FNL & 2004' FEL--: LOCATION
PROV.                       CO: PROVINCE
CNTY.               Las Animas: COUNTRY
SRVC.          Patterson Wireline: SERVICE COMPANY
DATE.          Thu Jul 14 13:02:15 2005: LOG DATE
UWI.           05 071 08423 00: UNIQUE WELL ID
~Curve Information Block
DEPT.FT            0 000 00 00: Depth
CCL.                          : Casing Collar Locator
TT3.usec                      : CBL 3' Travel Time
AMP3.mV                       : CBL 3' Amplitude
GR.GAPI                       : Gamma Ray
~Parameter Information Block
~A  Depth       CCL         TT3         AMP3         GR     
# ...
   801.0000      0.0000    836.8919      5.6608    125.5548
   801.2500      0.0000    833.0067      5.5882    126.3782
   801.5000      0.0000    829.4850      5.4074    126.7120
   801.7500      0.0000    824.5937      5.1679    126.6668
   802.0000      0.0000    817.8941      4.9340    125.9710
   802.2500      0.0000    810.0119      4.7613    124.1730
   802.5000      0.0000    800.9298      4.6728    121.5213
   802.7500      0.0000    788.8678      4.6520    119.2164
   803.0000      0.0000    771.7820      4.6619    118.3730
   803.2500      0.0000    750.3199      4.6727    118.8371
   803.5000      0.0000    728.6421      4.6780    119.1778
   803.7500      0.0000    712.1805      4.6851    117.7788
   804.0000      0.0000    704.9410      4.6972    114.0657
   804.2500      0.0000    708.3040      4.7086    109.0339
   804.5000      0.0000    720.7552      4.7154    104.6920
   804.7500      0.0000    737.7059      4.7228    102.9882
   805.0000      0.0000    751.7634      4.7363    105.1871
   805.2500      0.0000    754.6039      4.7495    111.5472
   805.5000      0.0000    741.0593      4.7489    120.6543
   805.7500      0.0000    714.0867      4.7269    129.3834
   806.0000      0.0000    685.7493      4.6882    134.7231
   806.2500      0.0000    670.1270      4.6488    136.0613
   806.5000      0.0000    672.9001      4.6358    135.2463
   806.7500      0.0000    688.0082      4.6735    134.5392
   807.0000      0.0000    703.8231      4.7503    134.9790
   807.2500      0.0000    711.4012      4.8003    136.1745
   807.5000      0.0000    708.5178      4.7527    136.7140
   807.7500      0.0000    699.1359      4.6089    135.0789
   808.0000      0.0000    689.9819      4.4466    131.0936
   808.2500      0.0000    686.2441      4.3448    126.3051
   808.5000      0.0000    689.0814      4.3283    122.4552
   808.7500      0.0000    696.3127      4.3787    120.1539
   809.0000     -2.0000    704.9661      4.4635    119.3056
   809.2500      0.0000    713.3133      4.5534    119.7364
   809.5000      0.0000    720.8709      4.6417    120.8002
   809.7500      0.0000    726.8121      4.7416    121.3459
   810.0000      0.0000    728.5822      4.8404    120.8311
   810.2500      0.0000    722.7897      4.8725    119.9689
   810.5000      0.0000    708.1682      4.7838    119.7373
   810.7500      0.0000    687.9448      4.6129    120.1210
   811.0000      0.0000    668.6276      4.4663    120.2728
   811.2500      0.0000    655.1021      4.4177    119.6548
   811.5000      0.0000    646.0490      4.4643    118.6678
   811.7500      0.0000    634.9088      4.5610    118.2404
   812.0000      0.0000    617.5781      4.6607    119.0274
   812.2500      0.0000    599.9739      4.7322    120.9147
   812.5000      0.0000    595.5266      4.7665    123.0453
   812.7500      0.0000    612.8370      4.7743    124.2930
   813.0000      0.0000    646.8342      4.7695    123.9755
   813.2500      0.0000    683.2799      4.7585    122.3766
   813.5000      0.0000    710.2736      4.7446    120.6833
   813.7500      0.0000    724.1949      4.7396    120.2262
   814.0000      0.0000    726.8936      4.7611    121.5197
   814.2500      0.0000    721.0753      4.8141    123.9556
   814.5000      0.0000    709.6868      4.8813    126.4739
   814.7500      0.0000    697.8119      4.9332    128.4481
   815.0000      0.0000    691.5908      4.9441    129.7885
   815.2500      0.0000    693.0629      4.8994    130.3601
   815.5000      0.0000    697.2733      4.8009    129.7936
   815.7500      0.0000    696.6251      4.6652    128.0837
   816.0000      0.0000    688.4302      4.5160    126.1896
   816.2500      0.0000    677.5139      4.3792    125.6314
   816.5000      0.0000    671.3932      4.2811    127.2038
   816.7500      0.0000    672.8143      4.2354    130.2235
   817.0000      0.0000    676.9662      4.2315    133.2048
   817.2500      0.0000    676.7017      4.2450    134.8589
   817.5000      0.0000    670.7057      4.2609    134.2701
   817.7500      0.0000    665.1330      4.2818    131.0019
   818.0000      0.0000    665.8855      4.3172    125.9683
   818.2500      0.0000    670.8600      4.3697    121.8117
   818.5000      0.0000    672.4570      4.4332    121.2824
   818.7500      0.0000    667.1844      4.4942    124.8491
   819.0000      0.0000    659.8062      4.5389    130.2895
   819.2500      0.0000    657.1528      4.5654    134.5679
   819.5000      0.0000    660.4063      4.5891    135.7297
   819.7500      0.0000    664.8611      4.6290    133.3740
   820.0000      0.0000    665.2291      4.6867    128.4521
   820.2500      0.0000    659.5348      4.7439    123.0117
   820.5000      0.0000    649.3563      4.7819    119.4573
   820.7500      0.0000    638.0364      4.7968    119.3271
   821.0000      0.0000    629.2901      4.7986    122.4036
   821.2500      0.0000    627.9855      4.7998    126.8407
   821.5000      0.0000    640.8130      4.8058    130.3579
   821.7500      0.0000    672.1407      4.8116    131.7625
   822.0000      0.0000    717.7267      4.8053    131.7600
   822.2500      0.0000    765.4808      4.7799    132.3604
   822.5000      0.0000    803.8995      4.7448    135.0978
   822.7500      0.0000    828.3415      4.7205    139.7452
   823.0000      0.0000    840.0710      4.7150    144.9182
   823.2500      0.0000    842.6361      4.7082    149.2646
   823.5000      0.0000    840.2826      4.6697    151.2659
   823.7500      0.0000    837.6530      4.5886    148.7995
   824.0000      0.0000    838.6824      4.4818    140.5980
   824.2500      0.0000    845.1763      4.3794    127.9439
   824.5000      0.0000    856.5971      4.3037    113.9141
   824.7500      0.0000    870.6512      4.2580    101.2976
   825.0000      0.0000    883.5370      4.2273     91.7610
   825.2500      0.0000    891.1004      4.1916     86.0826
   825.5000      0.0000    891.7462      4.1401     84.2769
   825.7500      0.0000    887.4174      4.0741     85.7434
   826.0000      0.0000    880.0345      4.0007     89.6031
   826.2500      0.0000    868.7025      3.9312     94.7708
   826.5000      0.0000    852.9161      3.8827     99.9995
   826.7500      0.0000    836.4019      3.8744    104.3785
   827.0000      0.0000    824.1417      3.9174    107.6434
   827.2500      0.0000    816.5830      4.0095    109.6844
   827.5000      0.0000    809.7990      4.1408    110.0468
   827.7500      0.0000    800.7450      4.2984    108.4823
   828.0000      0.0000    790.1315      4.4610    105.9841
   828.2500      0.0000    780.8076      4.5955    104.6885
   828.5000      0.0000    775.4604      4.6711    106.3076
   828.7500      0.0000    775.7061      4.6794    110.6761
   829.0000      0.0000    781.3734      4.6478    115.8926
   829.2500      0.0000    790.1573      4.6330    119.7650
   829.5000      0.0000    799.1019      4.6917    121.2737
   829.7500      0.0000    807.0607      4.8412    120.9961
   830.0000      0.0000    815.1057      5.0459    120.2691
   830.2500      0.0000    824.1154      5.2440    119.8652
   830.5000      0.0000    832.5990      5.3911    119.3283
   830.7500      0.0000    837.1545      5.4848    117.4110
   831.0000      0.0000    834.4029      5.5509    113.2321
   831.2500      0.0000    822.8502      5.6077    107.2561
   831.5000      0.0000    804.4052      5.6438    101.1419
   831.7500      0.0000    784.4810      5.6274     96.5863
   832.0000      0.0000    769.2637      5.5286     94.4169
   832.2500      0.0000    761.7722      5.3335     94.5637
   832.5000      0.0000    760.2527      5.0494     96.2771
   832.7500      0.0000    759.9983      4.7143     98.2654
   833.0000      0.0000    756.7096      4.3963     99.3321
   833.2500      0.0000    749.1820      4.1649     99.3912
   833.5000      0.0000    740.1948      4.0478     99.5448
   833.7500      0.0000    735.1163      4.0144    100.8701
   834.0000      0.0000    738.2927      4.0055    103.2672
   834.2500      0.0000    749.4239      3.9721    105.5681
