~Version Information
VERS.                      2.0: CWLS Log ASCII Standard - VERSION 2.0
WRAP.                       NO: One line per depth step
~Well Information Block
STRT.FT               860.0000: 
STOP.FT              2733.7500: 
STEP.FT                 0.2500: 
NULL.                -999.2500: 
COMP.          Pioneer Natural Resources: COMPANY
WELL.          Beacon 11-18 Tr: WELL
FLD.           Purgatoire River: FIELD
LOC.           409' FNL & 203' FWL: LOCATION
PROV.                 Colorado: PROVINCE
CNTY.               Las Animas: COUNTRY
SRVC.                Patterson: SERVICE COMPANY
DATE.          Sun Jan 16 19:36:19 2005: LOG DATE
UWI.           05 071 08251 00: UNIQUE WELL ID
~Curve Information Block
DEPT.FT            0 000 00 00: Depth
SN.Ohm-m                      : IEL Short Normal
SP.mV                         : IEL Spontaneous Potential
DIR.Ohm-m                     : IEL Induction Resistivity
GR.GAPI                       : Gamma Ray
~Parameter Information Block
~A  Depth        SN          SP         DIR          GR     
# ...
  2200.0000      9.0448    -33.0309      5.6856    136.5878
  2200.2500      9.0596    -33.0856      6.2449    134.5411
  2200.5000      9.0880    -33.2249      6.8937    131.1535
  2200.7500      9.1347    -33.4528      7.5540    129.2899
  2201.0000      9.1835    -33.7567      8.1135    127.6497
  2201.2500      9.2069    -34.1033      8.4725    127.3290
  2201.5000      9.1802    -34.4378      8.6026    127.6153
  2201.7500      9.0936    -34.6918      8.5594    127.9242
  2202.0000      8.9559    -34.7974      8.4367    127.9876
  2202.2500      8.7874    -34.7078      8.3136    127.8783
  2202.5000      8.6062    -34.4188      8.2307    128.5001
  2202.7500      8.4181    -33.9810      8.1919    129.8367
  2203.0000      8.2175    -33.4934      8.1757    132.3884
  2203.2500      7.9990    -33.0747      8.1479    133.2755
  2203.5000      7.7691    -32.8198      8.0769    131.6776
  2203.7500      7.5488    -32.7590      7.9460    128.5098
  2204.0000      7.3672    -32.8416      7.7596    122.1116
  2204.2500      7.2481    -32.9555      7.5390    118.2518
  2204.5000      7.2015    -32.9767      7.3130    115.1145
  2204.7500      7.2225    -32.8254      7.1095    114.9889
  2205.0000      7.2963    -32.5005      6.9514    116.4751
  2205.2500      7.4034    -32.0763      6.8535    117.3483
  2205.5000      7.5238    -31.6654      6.8214    116.3305
  2205.7500      7.6435    -31.3718      6.8509    113.2861
  2206.0000      7.7540    -31.2554      6.9300    105.2399
  2206.2500      7.8435    -31.3214      7.0433     98.4709
  2206.5000      7.8945    -31.5302      7.1756     88.7113
  2206.7500      7.9036    -31.8177      7.3144     83.9996
  2207.0000      7.9019    -32.1160      7.4516     81.2726
  2207.2500      7.9450    -32.3707      7.5840     82.3506
  2207.5000      8.0762    -32.5527      7.7123     87.0534
  2207.7500      8.2906    -32.6614      7.8375     91.3682
  2208.0000      8.5312    -32.7196      7.9552     98.5945
  2208.2500      8.7178    -32.7595      8.0516    103.6103
  2208.5000      8.7881    -32.8077      8.1042    111.1938
  2208.7500      8.7241    -32.8733      8.0907    116.2733
  2209.0000      8.5518    -32.9480      8.0025    123.8361
  2209.2500      8.3226    -33.0151      7.8545    128.4438
  2209.5000      8.0918    -33.0656      7.6805    133.4845
  2209.7500      7.9027    -33.1083      7.5189    135.2199
  2210.0000      7.7783    -33.1708      7.3990    136.2168
  2210.2500      7.7189    -33.2890      7.3351    136.7301
  2210.5000      7.7061    -33.4914      7.3268    138.0451
  2210.7500      7.7116    -33.7889      7.3628    139.0376
  2211.0000      7.7091    -34.1737      7.4240    139.8804
  2211.2500      7.6839    -34.6257      7.4878    139.7196
  2211.5000      7.6348    -35.1223      7.5326    138.4932
  2211.7500      7.5672    -35.6453      7.5419    137.4141
  2212.0000      7.4877    -36.1830      7.5083    136.2645
  2212.2500      7.4051    -36.7286      7.4343    136.0107
  2212.5000      7.3326    -37.2775      7.3294    135.7382
  2212.7500      7.2847    -37.8247      7.2068    134.8347
  2213.0000      7.2743    -38.3644      7.0803    131.2330
  2213.2500      7.3132    -38.8905      6.9649    127.3344
  2213.5000      7.4131    -39.3962      6.8770    120.7820
  2213.7500      7.5819    -39.8744      6.8347    117.1654
  2214.0000      7.8204    -40.3174      6.8544    113.8506
  2214.2500      8.1265    -40.7180      6.9482    112.7380
  2214.5000      8.5035    -41.0716      7.1233    111.7118
  2214.7500      8.9663    -41.3792      7.3835    110.9893
  2215.0000      9.5467    -41.6486      7.7341    108.7118
  2215.2500     10.3121    -41.8915      8.1854    105.2279
  2215.5000     11.3975    -42.1186      8.7574     95.1340
  2215.7500     13.0228    -42.3316      9.4800     85.1841
  2216.0000     15.4328    -42.5191     10.3909     68.3127
  2216.2500     18.7205    -42.6549     11.5240     58.3070
  2216.5000     22.6043    -42.7038     12.8858     48.3979
  2216.7500     26.3625    -42.6298     14.4177     45.5329
  2217.0000     29.0849    -42.4051     15.9618     45.0321
  2217.2500     30.1290    -42.0164     17.2717     45.7075
  2217.5000     29.4422    -41.4661     18.1024     46.7944
  2217.7500     27.5165    -40.7710     18.3339     47.8683
  2218.0000     25.0493    -39.9593     18.0162     51.6770
  2218.2500     22.5825    -39.0683     17.3041     56.4314
  2218.5000     20.3461    -38.1419     16.3622     66.6537
  2218.7500     18.3347    -37.2283     15.3136     74.5204
  2219.0000     16.4817    -36.3766     14.2363     85.6877
  2219.2500     14.7783    -35.6327     13.1793     91.8069
  2219.5000     13.2834    -35.0329     12.1772     98.7851
  2219.7500     12.0653    -34.5964     11.2559    102.5167
  2220.0000     11.1443    -34.3188     10.4327    107.8965
  2220.2500     10.4773    -34.1710      9.7154    111.6414
  2220.5000      9.9850    -34.1068      9.1029    117.1161
  2220.7500      9.5926    -34.0762      8.5895    120.1833
  2221.0000      9.2609    -34.0389      8.1683    123.4057
  2221.2500      8.9915    -33.9736      7.8337    124.8181
  2221.5000      8.8058    -33.8786      7.5806    126.4842
  2221.7500      8.7160    -33.7665      7.4020    127.1538
  2222.0000      8.7064    -33.6554      7.2869    125.8385
  2222.2500      8.7336    -33.5620      7.2195    122.3235
  2222.5000      8.7402    -33.4966      7.1793    112.6462
  2222.7500      8.6796    -33.4611      7.1435    103.9896
  2223.0000      8.5426    -33.4500      7.0916     89.9027
  2223.2500      8.3704    -33.4534      7.0122     81.2881
  2223.5000      8.2374    -33.4604      6.9074     72.1940
  2223.7500      8.2099    -33.4616      6.7906     69.8914
  2224.0000      8.3109    -33.4513      6.6795     72.5883
  2224.2500      8.5098    -33.4272      6.5883     77.7313
  2224.5000      8.7370    -33.3902      6.5218     88.0394
  2224.7500      8.9119    -33.3436      6.4745     95.1219
  2225.0000      8.9713    -33.2919      6.4334    104.1721
  2225.2500      8.8892    -33.2393      6.3842    108.8173
  2225.5000      8.6829    -33.1889      6.3185    114.3409
  2225.7500      8.4003    -33.1425      6.2391    117.6192
  2226.0000      8.0908    -33.1010      6.1578    122.3198
  2226.2500      7.7786    -33.0651      6.0894    125.1541
  2226.5000      7.4601    -33.0352      6.0436    128.4912
  2226.7500      7.1252    -33.0099      6.0209    129.9278
  2227.0000      6.7771    -32.9856      6.0132    130.8724
  2227.2500      6.4339    -32.9571      6.0070    130.6849
  2227.5000      6.1206    -32.9210      5.9888    128.6922
  2227.7500      5.8663    -32.8803      5.9500    125.8064
  2228.0000      5.7031    -32.8466      5.8899    119.3504
  2228.2500      5.6550    -32.8350      5.8145    114.6368
  2228.5000      5.7221    -32.8525      5.7339    109.2841
  2228.7500      5.8755    -32.8845      5.6588    107.7045
  2229.0000      6.0680    -32.8923      5.5984    108.4510
  2229.2500      6.2538    -32.8247      5.5594    110.7562
  2229.5000      6.4000    -32.6417      5.5453    116.1920
  2229.7500      6.4906    -32.3369      5.5553    120.2255
  2230.0000      6.5268    -31.9451      5.5852    124.6918
  2230.2500      6.5281    -31.5322      5.6295    125.8451
  2230.5000      6.5253    -31.1701      5.6844    125.5186
  2230.7500      6.5449    -30.9126      5.7495    124.9613
  2231.0000      6.5947    -30.7833      5.8270    124.7324
  2231.2500      6.6647    -30.7808      5.9196    124.9247
  2231.5000      6.7397    -30.8936      6.0286    124.9542
  2231.7500      6.8104    -31.1153      6.1517    124.3378
  2232.0000      6.8740    -31.4480      6.2825    122.1506
  2232.2500      6.9285    -31.8943      6.4112    120.1452
  2232.5000      6.9705    -32.4436      6.5262    117.4564
  2232.7500      6.9978    -33.0651      6.6181    116.5162
  2233.0000      7.0113    -33.7119      6.6809    116.8004
  2233.2500      7.0133    -34.3343      6.7133    118.0070
