~Version Information
VERS.                      2.0: CWLS Log ASCII Standard - VERSION 2.0
WRAP.                       NO: One line per depth step
~Well Information Block
STRT.FT                -3.0000: 
STOP.FT              1828.0000: 
STEP.FT                 0.2500: 
NULL.                -999.2500: 
COMP.          Pioneer Natural Resources: COMPANY
WELL.           Guajardo 24-16: WELL
FLD.           Purgatorie River: FIELD
LOC.           883' FSL & 2147' FWL--: LOCATION
PROV.                       CO: PROVINCE
CNTY.               Las Animas: COUNTRY
SRVC.          Patterson Wireline: SERVICE COMPANY
DATE.          Wed Aug 10 11:02:25 2005: LOG DATE
UWI.           05 071 08377 00: UNIQUE WELL ID
~Curve Information Block
DEPT.FT            0 000 00 00: Depth
CCL.                          : Casing Collar Locator
TT3.usec                      : CBL 3' Travel Time
AMP3.mV                       : CBL 3' Amplitude
GR.GAPI                       : Gamma Ray
~Parameter Information Block
~A  Depth       CCL         TT3         AMP3         GR     
# ...
  1069.0000      0.0000    727.7756     12.2553     89.1312
  1069.2500      0.0000    728.8682     12.1981     91.1489
  1069.5000      0.0000    736.1115     12.1525     93.9321
  1069.7500      0.0000    746.8875     12.1117     97.8421
  1070.0000      0.0000    756.2009     12.0593    103.4512
  1070.2500      0.0000    758.8203     11.9813    110.3597
  1070.5000      0.0000    752.0880     11.8747    117.1427
  1070.7500      0.0000    737.5974     11.7482    122.2764
  1071.0000      0.0000    720.5410     11.6172    124.8042
  1071.2500      0.0000    706.8616     11.4962    124.3431
  1071.5000      0.0000    699.9850     11.3923    121.1494
  1071.7500      0.0000    699.8457     11.3046    116.2482
  1072.0000      0.0000    704.6004     11.2303    110.8355
  1072.2500      0.0000    712.2689     11.1684    105.5533
  1072.5000      0.0000    720.4023     11.1184    101.0234
  1072.7500      0.0000    725.8111     11.0790     98.7440
  1073.0000      0.0000    726.4782     11.0483    100.2543
  1073.2500      0.0000    723.3555     11.0229    105.1543
  1073.5000      0.0000    719.2505     10.9962    110.6728
  1073.7500      0.0000    716.2435     10.9640    113.6396
  1074.0000      0.0000    714.7180     10.9359    112.9927
  1074.2500      0.0000    714.1917     10.9354    110.4259
  1074.5000      0.0000    714.2356     10.9824    108.5308
  1074.7500      0.0000    714.7126     11.0756    108.3795
  1075.0000      0.0000    715.7184     11.1940    109.2199
  1075.2500      0.0000    717.6300     11.3138    110.2981
  1075.5000      0.0000    721.0403     11.4177    112.1718
  1075.7500      0.0000    726.1561     11.4916    115.9314
  1076.0000      0.0000    732.0818     11.5200    121.6477
  1076.2500      0.0000    737.2020     11.4931    128.0249
  1076.5000      0.0000    740.5374     11.4208    133.4263
  1076.7500      0.0000    742.2927     11.3314    136.9622
  1077.0000      0.0000    743.1085     11.2541    138.6424
  1077.2500      0.0000    743.4560     11.2004    138.8016
  1077.5000      0.0000    743.7044     11.1653    137.5003
  1077.7500      0.0000    744.2684     11.1386    134.4283
  1078.0000      0.0000    745.8139     11.1105    129.3700
  1078.2500      0.0000    749.1208     11.0726    122.6171
  1078.5000      0.0000    753.9984     11.0227    114.9717
  1078.7500      0.0000    758.3293     10.9702    107.7524
  1079.0000      0.0000    758.8223     10.9344    102.7167
  1079.2500      0.0000    753.4128     10.9329    101.0183
  1079.5000      0.0000    743.3759     10.9721    101.8522
  1079.7500      0.0000    732.9164     11.0466    102.8578
  1080.0000      0.0000    726.5675     11.1448    102.3216
  1080.2500      0.0000    727.1173     11.2547    100.6104
  1080.5000      0.0000    735.1516     11.3668     99.3443
  1080.7500      0.0000    748.9039     11.4745     99.7027
  1081.0000      0.0000    764.1695     11.5749    101.7418
  1081.2500      0.0000    775.8870     11.6689    104.9768
  1081.5000      0.0000    781.3272     11.7574    109.1357
  1081.7500      0.0000    781.9845     11.8321    114.1342
  1082.0000      0.0000    781.9326     11.8698    119.5862
  1082.2500      0.0000    784.0721     11.8436    124.8998
  1082.5000      0.0000    788.0557     11.7480    129.9900
  1082.7500      0.0000    791.5535     11.6162    135.4309
  1083.0000      0.0000    792.7438     11.5015    141.5443
  1083.2500      0.0000    791.5490     11.4395    147.5014
  1083.5000      0.0000    789.3375     11.4295    151.4998
  1083.7500      0.0000    787.6777     11.4499    151.7435
  1084.0000      0.0000    786.7391     11.4818    147.5862
  1084.2500      0.0000    784.7513     11.5179    140.2740
  1084.5000      0.0000    779.7837     11.5580    132.4151
  1084.7500      0.0000    772.5876     11.6025    126.2165
  1085.0000      0.0000    767.1469     11.6484    122.2413
  1085.2500      0.0000    767.4211     11.6898    119.8813
  1085.5000      0.0000    773.3004     11.7205    118.4000
  1085.7500      0.0000    780.1965     11.7400    117.0925
  1086.0000      0.0000    782.4537     11.7558    115.0188
  1086.2500      0.0000    776.9298     11.7773    111.4769
  1086.5000      0.0000    764.3757     11.8054    107.0064
  1086.7500      0.0000    748.6827     11.8302    103.4779
  1087.0000      0.0000    734.5717     11.8400    102.5996
  1087.2500      0.0000    725.0248     11.8317    104.2931
  1087.5000      0.0000    720.5173     11.8121    106.9355
  1087.7500      0.0000    720.4850     11.7914    109.1678
  1088.0000      0.0000    725.0273     11.7762    110.9855
  1088.2500      0.0000    734.7538     11.7676    112.9605
  1088.5000      0.0000    748.8495     11.7653    114.9692
  1088.7500      0.0000    763.5507     11.7693    116.0301
  1089.0000      0.0000    773.2937     11.7760    115.1870
  1089.2500      0.0000    774.2118     11.7760    112.5052
  1089.5000      0.0000    767.1668     11.7578    109.2596
  1089.7500      0.0000    757.5717     11.7168    107.0795
  1090.0000      0.0000    751.5956     11.6588    107.0976
  1090.2500      0.0000    751.5027     11.5963    110.0950
  1090.5000      0.0000    754.5657     11.5412    116.7119
  1090.7500      0.0000    756.8793     11.4988    126.4190
  1091.0000      0.0000    757.4916     11.4653    136.3967
  1091.2500      0.0000    757.8428     11.4298    142.6981
  1091.5000      0.0000    758.5012     11.3819    143.3417
  1091.7500      0.0000    758.9218     11.3195    140.0471
  1092.0000      0.0000    759.9683     11.2501    136.8585
  1092.2500      0.0000    763.6699     11.1861    137.3284
  1092.5000      0.0000    769.6058     11.1330    142.5548
  1092.7500      0.0000    773.3124     11.0809    150.7608
  1093.0000      0.0000    769.7505     10.9991    158.1969
  1093.2500      0.0000    758.6616     10.8335    160.9280
  1093.5000      0.0000    746.6436     10.5202    156.7137
  1093.7500      0.0000    742.9205     10.0471    146.1649
  1094.0000      0.0000    751.5235      9.5242    132.5343
  1094.2500      0.0000    767.5854      9.1389    119.9907
  1094.5000      0.0000    782.2529      9.0036    111.4099
  1094.7500      1.3568    791.0284      9.0745    107.4393
  1095.0000      0.0000    796.8096      9.2311    107.2585
  1095.2500     -1.2515    804.4747      9.3903    109.7412
  1095.5000      0.0000    812.8450      9.5419    113.8533
  1095.7500      0.0000    813.8196      9.7324    118.2984
  1096.0000      0.0000    801.4519     10.0334    121.4031
  1096.2500      0.0000    780.9556     10.4863    121.9740
  1096.5000      0.0000    765.9606     11.0571    120.3744
  1096.7500      0.0000    766.1694     11.6773    118.4227
  1097.0000      0.0000    779.2410     12.3182    118.0104
  1097.2500      0.0000    794.7108     12.9774    119.6903
  1097.5000      0.0000    803.7940     13.6080    122.5222
  1097.7500      0.0000    804.6456     14.1240    125.1682
  1098.0000      0.0000    800.1865     14.4752    126.9561
  1098.2500      0.0000    793.2852     14.6784    128.0843
  1098.5000      0.0000    784.5438     14.7853    129.2530
  1098.7500      0.0000    773.3777     14.8435    130.9466
  1099.0000      0.0000    760.0102     14.8832    132.6099
  1099.2500      0.0000    746.0900     14.9158    132.9319
  1099.5000      0.0000    733.7925     14.9366    131.4669
  1099.7500      0.0000    724.4985     14.9334    129.5269
  1100.0000      0.0000    718.1129     14.8984    128.9750
  1100.2500      0.0000    713.4242     14.8359    130.5059
  1100.5000      0.0000    709.2741     14.7554    133.4863
  1100.7500      0.0000    705.7545     14.6553    137.0244
  1101.0000      0.0000    704.4825     14.5127    140.6225
  1101.2500      0.0000    707.5649     14.2871    144.0752
  1101.5000      0.0000    715.9965     13.9317    147.2713
  1101.7500      0.0000    728.8681     13.4052    149.9245
  1102.0000      0.0000    743.9736     12.6839    151.3309
  1102.2500      0.0000    758.9590     11.7832    150.6054
