~Version Information
VERS.                      2.0: CWLS Log ASCII Standard - VERSION 2.0
WRAP.                       NO: One line per depth step
~Well Information Block
STRT.FT               -13.5000: 
STOP.FT              2092.5000: 
STEP.FT                 0.2500: 
NULL.                -999.2500: 
COMP.          Petrogulf Corporation: COMPANY
WELL.          Robinson 15-11V: WELL
FLD.           Purgatorie River: FIELD
LOC.           226' FNL & 592' FWL--: LOCATION
CNTY.               Las Animas: COUNTY
SRVC.                         : SERVICE COMPANY
DATE.          Tue Aug 17 13:05:46 2004: LOG DATE
UWI.                          : UNIQUE WELL ID
STAT.                       CO: STATE
~Curve Information Block
DEPT.FT            0 000 00 00: Depth
CCL.                          : Casing Collar Locator
TT3.usec                      : CBL 3' Travel Time
AMP3.mV                       : CBL 3' Amplitude
GR.GAPI                       : Gamma Ray
~Parameter Information Block
~A  Depth       CCL         TT3         AMP3         GR     
# ...
  1929.5000      0.0000    557.1687      6.3458     73.1369
  1929.7500      0.0000    555.8270      6.5138     73.2734
  1930.0000      0.0000    544.4606      6.5860     73.6690
  1930.2500      0.0000    523.3181      6.5738     73.6747
  1930.5000      0.0000    498.2793      6.4870     73.3696
  1930.7500      0.0000    477.8493      6.3362     72.8582
  1931.0000      0.0000    467.6122      6.1633     72.4403
  1931.2500      0.0000    467.1165      6.0179     73.1957
  1931.5000      0.0000    472.1814      5.9065     76.2831
  1931.7500      0.0000    479.7100      5.7968     81.3483
  1932.0000      0.0000    489.9448      5.6498     86.2818
  1932.2500      0.0000    505.3106      5.4335     88.9061
  1932.5000      0.0000    528.3526      5.1389     88.7920
  1932.7500      0.0000    559.7925      4.7894     87.4360
  1933.0000      0.0000    596.7276      4.4122     86.8583
  1933.2500      0.0000    632.7686      4.0114     87.7837
  1933.5000      0.0000    661.4044      3.5915     88.7131
  1933.7500      0.0000    679.6751      3.1883     86.9396
  1934.0000      0.0000    688.5635      2.8568     81.0280
  1934.2500      0.0000    690.9514      2.6332     72.3499
  1934.5000      0.0000    690.0050      2.5090     63.9122
  1934.7500      0.0000    688.4605      2.4442     57.8546
  1935.0000      0.0000    687.7087      2.4016     54.3961
  1935.2500      0.0000    687.1183      2.3571     52.7830
  1935.5000      0.0000    685.0406      2.2903     52.3725
  1935.7500      0.0000    681.0468      2.1925     52.7302
  1936.0000      0.0000    677.1259      2.0826     53.4318
  1936.2500      0.0000    676.6021      2.0008     54.3317
  1936.5000      0.0000    681.8524      1.9835     55.9348
  1936.7500      0.0000    692.6660      2.0425     59.2199
  1937.0000      0.0000    706.0919      2.1580     65.0056
  1937.2500      0.0000    717.5717      2.2923     73.4375
  1937.5000      0.0000    723.0325      2.4190     83.9035
  1937.7500      0.0000    721.1331      2.5412     95.1924
  1938.0000      0.0000    713.9741      2.6786    105.6352
  1938.2500      0.0000    705.4472      2.8411    113.3559
  1938.5000      0.0000    698.5823      3.0255    117.0689
  1938.7500      0.0000    693.9496      3.2300    117.0084
  1939.0000      0.0000    689.8375      3.4568    114.6349
  1939.2500      0.0000    683.7711      3.7009    111.1160
  1939.5000      0.0000    674.4398      3.9447    106.5941
  1939.7500      0.0000    662.8013      4.1648    101.1258
  1940.0000      0.0000    651.5037      4.3440     95.7964
  1940.2500      0.0000    643.2568      4.4749     92.5250
  1940.5000      0.0000    639.6644      4.5612     92.8258
  1940.7500      0.0000    640.9469      4.6206     96.7616
  1941.0000      0.0000    646.1260      4.6860    102.9606
  1941.2500      0.0000    653.6373      4.7838    109.6630
  1941.5000      0.0000    662.1594      4.9002    115.9184
  1941.7500      0.0000    670.7827      4.9787    121.8356
  1942.0000      0.0000    678.5250      4.9657    127.5466
  1942.2500      0.0000    684.3061      4.8561    132.1427
  1942.5000      0.0000    687.6213      4.6868    134.1923
  1942.7500      0.0000    688.8737      4.4935    133.3808
  1943.0000      0.0000    688.8518      4.2827    131.1007
  1943.2500      0.0000    688.0216      4.0412    129.2429
  1943.5000      0.0000    686.3704      3.7664    128.8391
  1943.7500      0.0000    683.8943      3.4866    129.9566
  1944.0000      0.0000    681.1094      3.2480    132.5469
  1944.2500      0.0000    678.8408      3.0829    136.8264
  1944.5000      0.0000    677.4185      3.0023    142.3514
  1944.7500      0.0000    676.4250      3.0193    147.0348
  1945.0000      0.0000    675.3975      3.1634    148.3555
  1945.2500      0.0000    674.4316      3.4555    145.9354
  1945.5000      0.0000    673.9647      3.8768    141.8429
  1945.7500      0.0000    674.1478      4.3653    138.1573
  1946.0000      0.0000    674.3506      4.8348    135.3333
  1946.2500      0.0000    673.1665      5.1923    133.0131
  1946.5000      0.0000    669.2717      5.3657    131.1039
  1946.7500      0.0000    662.6135      5.3519    129.4825
  1947.0000      0.0000    654.6441      5.2425    127.3683
  1947.2500      0.0000    647.5912      5.1743    123.8494
  1947.5000      0.0000    644.0280      5.2305    119.2102
  1947.7500      0.0000    646.6421      5.3847    115.2994
  1948.0000      0.0000    656.8776      5.5445    114.1647
  1948.2500      0.0000    673.0901      5.6533    116.2460
  1948.5000      0.0000    690.6288      5.7452    120.0361
  1948.7500      0.0000    704.2804      5.8949    123.4427
  1949.0000      0.0000    710.8672      6.1250    125.4509
  1949.2500      0.0000    710.3254      6.3780    126.6066
  1949.5000      0.0000    705.3839      6.5732    127.9294
  1949.7500      0.0000    700.4348      6.6804    129.2742
  1950.0000      0.0000    699.7111      6.7398    128.8462
  1950.2500      0.0000    705.0001      6.8181    124.8280
  1950.5000      0.0000    714.1882      6.9582    117.7630
  1950.7500      0.0000    722.5198      7.1642    110.8404
  1951.0000      0.0000    726.3087      7.4051    107.2195
  1951.2500      0.0000    725.5145      7.6133    107.3130
  1951.5000      0.0000    722.5203      7.6953    109.1934
  1951.7500      0.0000    719.0687      7.5828    111.1328
  1952.0000      0.0000    714.8812      7.2903    112.6950
  1952.2500      0.0000    708.6769      6.9157    113.5414
  1952.5000      0.0000    700.2325      6.5772    112.7093
  1952.7500      0.0000    691.8303      6.3430    109.8734
  1953.0000      0.0000    687.3705      6.2122    106.4337
  1953.2500      0.0000    688.6432      6.1426    104.2860
  1953.5000      0.0000    692.0673      6.0871    103.6333
  1953.7500      0.0000    691.0440      6.0137    102.7114
  1954.0000      0.0000    683.0983      5.9084     99.8381
  1954.2500      0.0000    673.4832      5.7734     95.4004
  1954.5000      0.0000    669.8484      5.6262     91.5936
  1954.7500      0.0000    674.1575      5.5034     90.4253
  1955.0000      0.0000    681.8168      5.4501     92.3342
  1955.2500      0.0000    688.0007      5.4924     96.6191
  1955.5000      0.0000    691.9701      5.6198    102.5491
  1955.7500      0.0000    694.7069      5.7943    109.6039
  1956.0000      0.0000    695.2982      5.9719    116.8834
  1956.2500      0.0000    691.6927      6.1157    122.8309
  1956.5000      0.0000    683.6204      6.2010    126.1289
  1956.7500      0.0000    672.3898      6.2199    127.0824
  1957.0000      0.0000    657.8058      6.1855    127.4758
  1957.2500      0.0000    637.3267      6.1326    128.4187
  1957.5000      0.0000    609.6337      6.1010    128.8739
  1957.7500      0.0000    578.1674      6.0987    127.1391
  1958.0000      0.0000    549.5530      6.0952    123.3457
  1958.2500      0.0000    528.4862      6.0647    119.6010
  1958.5000      0.0000    514.8727      6.0226    117.6993
  1958.7500      0.0000    505.6177      6.0115    117.3168
  1959.0000      0.0000    498.3037      6.0510    116.6570
  1959.2500      0.0000    493.8229      6.0997    114.4995
  1959.5000      0.0000    496.8362      6.0778    111.3317
  1959.7500      0.0000    513.1115      5.9402    108.7690
  1960.0000      0.0000    543.8588      5.7163    108.1810
  1960.2500      0.0000    581.6249      5.4896    109.6137
  1960.5000      0.0000    613.1409      5.3552    111.7338
  1960.7500      0.0000    627.3299      5.3757    112.9849
  1961.0000      0.0000    621.1584      5.5367    112.9822
  1961.2500      0.0000    599.7278      5.7424    112.6928
  1961.5000      0.0000    572.4222      5.8829    113.1955
  1961.7500      0.0000    548.8179      5.9202    114.4947
  1962.0000     -2.0000    536.7651      5.8971    115.8604
  1962.2500     -2.0000    541.2917      5.8620    117.2406
  1962.5000      0.0000    562.0787      5.8070    119.6467
  1962.7500      0.0000    592.2455      5.6904    123.6958
