~Version Information
 VERS.                                  2.0 : CWLS LAS VERSION
 WRAP.                                   NO : WRAPING MODE
 SWARE .                 MController 2.5.0N : SOFTWARE VERSION
~Well Information
 WELL.                    Corkscrew 33-12Tr : WELL
 COMP.    Pioneer Natural Resources USA Inc : COMPANY
 FLD.                      Purgatoire River : FIELD
 LOC.                   NW/SE Sec T33S R67W : LOCATION
 DATE.                      3/23-25,28/2005 : DATE(S) LOGGED
 SRVC.       Blanco Geological Services LLC : SERVICE COMPANY
 STAT.                                   CO : STATE
 CNTY.                           Las Animas : COUNTY
 CTRY.                                  USA : COUNTRY
 API.                       05-071-08295-00 : API NUMBER
 STRT.FT                             609.00 : START DEPTH
 STOP.FT                            1871.00 : STOP DEPTH
 STEP.FT                               1.00 : DEPTH INCREMENT
 NULL.                                -9999 : NULL VALUE
~Curve information
 DEPTH.FT                                   :
 ROP.MIN/FT                                 :
 GAS.UNITS                                  :
~ASCII Log data
# ...
      1009.0         0.27          8.0 
      1010.0         0.80         14.8 
      1011.0         0.88         13.6 
      1012.0         0.80          5.2 
      1013.0         0.33          4.7 
      1014.0         1.07          6.5 
      1015.0         0.80          5.9 
      1016.0         0.82          6.1 
      1017.0         0.80          6.2 
      1018.0         0.27          6.4 
      1019.0         0.53          6.5 
      1020.0         0.80          7.4 
      1021.0         1.08          7.3 
      1022.0         0.80          6.8 
      1023.0         1.07          7.1 
      1024.0         1.08          8.4 
      1025.0         0.53          8.1 
      1026.0         1.00          7.1 
      1027.0         0.27          6.6 
      1028.0         1.03          9.9 
      1029.0         0.72          9.9 
      1030.0         0.70          8.0 
      1031.0         0.27          6.7 
      1032.0         0.80          7.4 
      1033.0         0.27          7.5 
      1034.0         0.67         11.6 
      1035.0         0.55         13.5 
      1036.0         0.60         15.1 
      1037.0         0.83         11.1 
      1038.0         0.97          7.6 
      1039.0         0.27          7.0 
      1040.0         1.02          7.9 
      1041.0         0.53          8.3 
      1042.0         1.07          7.4 
      1043.0         1.08          9.7 
      1044.0         0.27          5.8 
      1045.0         0.90          7.2 
      1046.0         0.53          6.8 
      1047.0         0.27          6.3 
      1048.0         0.80          6.4 
      1049.0         0.55          6.6 
      1050.0         0.80          7.3 
      1051.0         0.27          7.8 
      1052.0         0.80          8.0 
      1053.0         0.80          7.1 
      1054.0         0.82          8.9 
      1055.0         0.80          8.8 
      1056.0         0.60          9.1 
      1057.0         0.27          8.4 
      1058.0         0.80          7.7 
      1059.0         0.27          8.6 
      1060.0         0.82         11.2 
      1061.0         0.17          5.7 
      1062.0         0.33          6.2 
      1063.0         0.90          6.1 
      1064.0         0.13          5.4 
      1065.0         0.80          6.2 
      1066.0         0.27          5.9 
      1067.0         0.27          5.8 
      1068.0         0.82          8.3 
      1069.0         0.27          9.1 
      1070.0         0.80          8.8 
      1071.0         0.47          8.6 
      1072.0         0.80          8.7 
      1073.0         0.27          8.2 
      1074.0         0.28          8.1 
      1075.0         0.80          8.2 
      1076.0         0.27          7.8 
      1077.0         0.53          8.4 
      1078.0         0.80          8.3 
      1079.0         0.27         10.3 
      1080.0         0.55         13.4 
      1081.0         0.27         11.7 
      1082.0         0.83         10.2 
      1083.0         0.53          8.4 
      1084.0         0.67          8.6 
      1085.0         0.53          7.2 
      1086.0         0.30          7.5 
      1087.0         0.82          8.5 
      1088.0         0.27          7.9 
      1089.0         0.27          8.8 
      1090.0         0.80         11.4 
      1091.0         0.27         12.8 
      1092.0         0.40         15.5 
      1093.0         0.98         15.9 
      1094.0         0.27         15.4 
      1095.0         0.80         14.9 
      1096.0         0.27         13.3 
      1097.0         0.53         12.3 
      1098.0         0.80         11.1 
      1099.0         0.27         11.9 
      1100.0      6570.35       1249.9 
      1101.0         1.08          5.2 
      1102.0         0.50          5.3 
      1103.0         0.58          5.5 
      1104.0         0.50          5.6 
      1105.0         0.83          4.6 
      1106.0         0.83          5.0 
      1107.0         0.50          4.7 
      1108.0         0.50          4.6 
      1109.0         0.83          4.4 
      1110.0         0.83          4.9 
      1111.0         0.50          4.1 
      1112.0         0.58          5.0 
      1113.0         0.50          4.5 
      1114.0         1.08          4.1 
      1115.0         0.50          5.5 
      1116.0         0.58          5.6 
      1117.0         0.50          5.0 
      1118.0         0.83          4.9 
      1119.0         0.50          4.5 
      1120.0         0.58          4.5 
      1121.0         0.50          4.4 
      1122.0         0.83          4.6 
      1123.0         0.50          4.5 
      1124.0         0.58          4.1 
      1125.0         0.50          4.3 
      1126.0         0.50          4.5 
      1127.0         0.58          4.1 
      1128.0         0.50          4.2 
      1129.0         0.83          4.5 
      1130.0         0.50          4.6 
      1131.0         0.58          5.1 
      1132.0         0.50          4.9 
      1133.0         0.58          4.5 
      1134.0         0.25          4.1 
      1135.0         0.25          4.7 
      1136.0         0.25          4.6 
      1137.0         0.33          4.6 
      1138.0         0.25          3.9 
      1139.0         0.25          4.1 
      1140.0         0.50          4.9 
      1141.0         0.33          4.7 
      1142.0         0.33          4.6 
      1143.0         0.42          4.7 
      1144.0         0.25          4.0 
      1145.0         0.25          4.4 
      1146.0         0.33          4.9 
      1147.0         0.25          4.5 
      1148.0         0.50          4.1 
      1149.0         0.58          3.9 
      1150.0         0.25          4.0 
      1151.0         0.25          4.7 
      1152.0         0.50          4.3 
      1153.0         0.33          3.9 
      1154.0         0.25          4.8 
      1155.0         0.50          3.8 
      1156.0         0.58          4.3 
      1157.0         0.25          4.5 
      1158.0         0.50          4.4 
      1159.0         0.33          4.6 
      1160.0         0.50          4.7 
      1161.0         0.25          4.1 
      1162.0         0.33          4.1 
      1163.0         0.50          4.6 
      1164.0         0.25          4.6 
      1165.0         0.25          5.4 
      1166.0         0.58          4.8 
      1167.0         0.50          4.1 
      1168.0         0.25          4.3 
      1169.0         0.58          4.3 
      1170.0         0.25          4.3 
      1171.0         0.58          4.2 
      1172.0         0.50          4.4 
      1173.0         0.50          4.4 
      1174.0         0.33          4.4 
      1175.0         0.50          5.0 
      1176.0         0.25          4.8 
      1177.0         0.25          4.8 
      1178.0         0.33          4.7 
      1179.0         0.50          4.7 
      1180.0         0.58          8.8 
      1181.0         0.25          7.0 
      1182.0         0.50          7.5 
      1183.0         0.67          8.7 
      1184.0         0.58          7.7 
      1185.0         0.17          6.3 
      1186.0         0.58          6.4 
      1187.0         0.50          6.9 
      1188.0         0.25          5.7 
      1189.0         0.33          5.7 
      1190.0         0.25          5.8 
      1191.0         0.50          4.7 
      1192.0         0.33          4.3 
      1193.0         0.50          3.8 
      1194.0         0.25          5.3 
      1195.0         0.58          5.5 
      1196.0         0.25          5.3 
      1197.0         0.17          5.0 
      1198.0         0.33          4.9 
      1199.0         0.33          4.1 
      1200.0         0.25          4.9 
      1201.0         0.50          4.1 
      1202.0         0.25          4.2 
      1203.0         0.58          4.0 
      1204.0         0.25          5.0 
      1205.0         0.25          4.5 
      1206.0         0.58          4.3 
      1207.0         0.50          4.9 
      1208.0         0.25          4.1 
