~Version Information
VERS.                      2.0: CWLS Log ASCII Standard - VERSION 2.0
WRAP.                       NO: One line per depth step
~Well Information Block
STRT.FT               519.6000: 
STOP.FT              2727.5000: 
STEP.FT                 0.1000: 
NULL.                -999.2500: 
COMP.          Petrogulf Corporation: COMPANY
WELL.              Silva 6-22V: WELL
FLD.           Purgatorie River: FIELD
LOC.           1936' FNL & 1798' FWL: LOCATION
CNTY.               Las Animas: COUNTY
SRVC.                         : SERVICE COMPANY
DATE.          Tue Nov 09 12:21:27 2004: LOG DATE
UWI.           05 071 08143 00: UNIQUE WELL ID
STAT.                 Colorado: STATE
~Curve Information Block
DEPT.FT            0 000 00 00: Depth
DCAL.in                       : CDL Caliper
RHOB.g/cc                     : CDL Bulk Density
RHOC.g/cc                     : CDL Density Correction
DPOR.pu                       : CDL Density Porosity
GR.GAPI                       : Gamma Ray
NPOR.pu                       : Neutron Porosity
~Parameter Information Block
~A  Depth       DCAL        RHOB        RHOC        DPOR         GR         NPOR    
# ...
  1124.4000      8.0329      2.5738      0.0958      4.6176    145.9094     25.3376
  1124.5000      8.0444      2.5804      0.0841      4.2196    149.4022     25.3122
  1124.6000      8.0444      2.5944      0.1208      3.3683    154.5861     25.0210
  1124.7000      8.0444      2.6109      0.0903      2.3719    159.9808     24.8465
  1124.8000      8.0516      2.6240      0.1481      1.5782    160.1066     24.9024
  1124.9000      8.0516      2.6288      0.1317      1.2878    151.9101     25.0994
  1125.0000      8.0510      2.6318      0.1208      1.1015    141.7154     25.3835
  1125.1000      8.0510      2.6380      0.1407      0.7288    137.2514     25.6357
  1125.2000      8.0510      2.6352      0.1182      0.8984    139.4274     25.6951
  1125.3000      8.0474      2.6179      0.0868      1.9466    142.4848     25.6493
  1125.4000      8.0474      2.5994      0.0705      3.0681    142.3520     25.6617
  1125.5000      8.0450      2.5924      0.0720      3.4939    141.2158     25.8219
  1125.6000      8.0450      2.6019      0.0362      2.9162    142.7248     26.3078
  1125.7000      8.0450      2.6226      0.0765      1.6615    146.7934     26.9414
  1125.8000      8.0394      2.6344      0.0981      0.9432    149.1280     27.1655
  1125.9000      8.0394      2.6301      0.0388      1.2050    147.9760     26.9195
  1126.0000      8.0276      2.6273      0.0489      1.3776    145.4652     26.7660
  1126.1000      8.0276      2.6352      0.0425      0.8944    141.1840     26.8663
  1126.2000      8.0276      2.6441      0.0539      0.3575    133.8201     26.7548
  1126.3000      8.0222      2.6437      0.0344      0.3802    128.5480     26.3463
  1126.4000      8.0222      2.6319      0.0714      1.0963    128.8800     25.9953
  1126.5000      8.0299      2.6123      0.0092      2.2832    130.0021     25.8796
  1126.6000      8.0299      2.5937      0.0157      3.4136    131.1680     25.8629
  1126.7000      8.0299      2.5804     -0.0084      4.2191    136.2052     25.7983
  1126.8000      8.0375      2.5686      0.0000      4.9307    141.4276     25.6969
  1126.9000      8.0375      2.5592     -0.0255      5.5022    140.8235     25.6810
  1127.0000      8.0383      2.5616      0.0081      5.3560    136.1626     25.6717
  1127.1000      8.0383      2.5753      0.0360      4.5254    134.7030     25.4828
  1127.2000      8.0383      2.5830      0.0484      4.0601    140.9042     25.1923
  1127.3000      8.0389      2.5717      0.0384      4.7457    150.3450     24.9739
  1127.4000      8.0389      2.5477      0.0124      6.2026    154.1431     24.9602
  1127.5000      8.0460      2.5276     -0.0005      7.4184    151.7945     24.9368
  1127.6000      8.0460      2.5212     -0.0052      7.8035    149.3725     24.6868
  1127.7000      8.0460      2.5214      0.0292      7.7935    147.3648     24.5880
  1127.8000      8.0520      2.5164      0.0321      8.0982    143.0188     24.8612
  1127.9000      8.0520      2.5077      0.0142      8.6248    139.7417     25.2969
  1128.0000      8.0465      2.5076     -0.0286      8.6327    142.0604     25.6680
  1128.1000      8.0465      2.5167      0.0333      8.0758    146.3496     25.8431
  1128.2000      8.0465      2.5255      0.0184      7.5463    146.7063     25.9907
  1128.3000      8.0432      2.5363     -0.0345      6.8898    144.1243     26.2516
  1128.4000      8.0432      2.5618     -0.0221      5.3470    144.2116     26.3062
  1128.5000      8.0510      2.6033      0.0353      2.8297    147.6030     26.0126
  1128.6000      8.0510      2.6400      0.0700      0.6032    147.5781     25.7255
  1128.7000      8.0510      2.6532      0.0447     -0.1936    141.3202     25.6511
  1128.8000      8.0556      2.6451      0.0715      0.2983    134.9686     25.6862
  1128.9000      8.0556      2.6218      0.0361      1.7062    133.0514     25.7994
  1129.0000      8.0505      2.5928      0.0207      3.4678    135.3454     25.8860
  1129.1000      8.0505      2.5760     -0.0089      4.4873    140.4962     25.8624
  1129.2000      8.0505      2.5754      0.0189      4.5230    146.4904     25.7138
  1129.3000      8.0451      2.5737      0.0236      4.6218    151.3714     25.3819
  1129.4000      8.0451      2.5689     -0.0148      4.9141    151.8190     25.0622
  1129.5000      8.0389      2.5795      0.0399      4.2755    149.0896     24.9997
  1129.6000      8.0389      2.6083      0.0531      2.5290    148.4049     25.0529
  1129.7000      8.0389      2.6402      0.0442      0.5941    150.8900     24.9797
  1129.8000      8.0408      2.6586      0.0797     -0.5226    152.3799     24.8797
  1129.9000      8.0408      2.6603      0.0369     -0.6241    149.7166     24.9773
  1130.0000      8.0472      2.6548      0.0681     -0.2913    145.4099     25.1761
  1130.1000      8.0472      2.6438      0.0517      0.3768    143.1997     25.2254
  1130.2000      8.0472      2.6228      0.0461      1.6511    144.1821     25.2115
  1130.3000      8.0495      2.6047     -0.0297      2.7427    147.4059     25.4951
  1130.4000      8.0495      2.6079      0.0136      2.5516    148.7287     26.0722
  1130.5000      8.0484      2.6205      0.0305      1.7903    144.4296     26.4739
  1130.6000      8.0484      2.6229      0.0040      1.6443    136.0416     26.4589
  1130.7000      8.0484      2.6171     -0.0134      1.9923    132.6810     26.2730
  1130.8000      8.0394      2.6068     -0.0000      2.6152    139.4367     26.0996
  1130.9000      8.0394      2.5872     -0.0088      3.8069    147.6022     25.9345
  1131.0000      8.0311      2.5654     -0.0442      5.1286    149.1169     25.8086
  1131.1000      8.0311      2.5567     -0.0002      5.6555    146.5780     25.6436
  1131.2000      8.0311      2.5606     -0.0065      5.4152    145.4195     25.4490
  1131.3000      8.0345      2.5623      0.0262      5.3131    148.4026     25.3588
  1131.4000      8.0345      2.5533      0.0213      5.8581    152.8550     25.3032
  1131.5000      8.0456      2.5401      0.0059      6.6609    154.0850     25.1547
  1131.6000      8.0456      2.5280      0.0019      7.3950    152.7894     24.8257
  1131.7000      8.0456      2.5218     -0.0183      7.7727    150.5560     24.3820
  1131.8000      8.0541      2.5317      0.0092      7.1698    148.3919     24.0576
  1131.9000      8.0541      2.5574      0.0280      5.6151    150.1924     24.0599
  1132.0000      8.0556      2.5818      0.0356      4.1314    154.3182     24.5588
  1132.1000      8.0556      2.5963      0.0218      3.2548    154.9062     25.4033
  1132.2000      8.0556      2.6113      0.0108      2.3472    153.4277     26.0034
  1132.3000      8.0590      2.6283      0.0608      1.3163    154.4187     25.9765
  1132.4000      8.0590      2.6293      0.0499      1.2556    153.1058     25.5614
  1132.5000      8.0609      2.6007      0.0258      2.9908    147.0285     25.2952
  1132.6000      8.0609      2.5399      0.0067      6.6708    143.5391     25.2317
  1132.7000      8.0609      2.4644     -0.0387     11.2506    145.6166     25.1270
  1132.8000      8.0531      2.4153     -0.0857     14.2248    149.1427     25.0202
  1132.9000      8.0531      2.4109     -0.0526     14.4917    151.3302     25.1837
  1133.0000      8.0445      2.4282     -0.0303     13.4425    152.4168     25.5868
  1133.1000      8.0445      2.4543     -0.0219     11.8614    152.9572     25.6614
  1133.2000      8.0445      2.4905      0.0560      9.6687    154.4858     25.3266
  1133.3000      8.0466      2.5141      0.1578      8.2347    155.7788     25.1330
  1133.4000      8.0466      2.5039      0.1419      8.8526    154.3170     25.2541
  1133.5000      8.0585      2.4808      0.1267     10.2549    150.5171     25.4354
  1133.6000      8.0585      2.4679      0.2105     11.0337    146.7717     25.5309
  1133.7000      8.0585      2.4555      0.1430     11.7895    146.0727     25.5175
  1133.8000      8.0721      2.4415      0.0348     12.6370    148.3999     25.2680
  1133.9000      8.0721      2.4382      0.0599     12.8362    149.8757     24.7945
