~Version Information
 VERS.                                  2.0 : CWLS LAS VERSION
 WRAP.                                   NO : WRAPING MODE
 SWARE .                 MController 2.5.0J : SOFTWARE VERSION
~Well Information
 WELL.                  Lorencito 6-3-34-66 : WELL
 COMP.    Pioneer Natural Resources USA Inc : COMPANY
 FLD.                      Purgatoire River : FIELD
 LOC.                  SE/NW SEC3 T34S R66W : LOCATION
 DATE.                             09/09/05 : DATE(S) LOGGED
 SRVC.       Blanco Geological Services LLC : SERVICE COMPANY
 STAT.                             Colorado : STATE
 CNTY.                           Las Animas : COUNTY
 CTRY.                                  USA : COUNTRY
 API.                       05-071-08369-00 : API NUMBER
 STRT.FT                             394.00 : START DEPTH
 STOP.FT                            1390.00 : STOP DEPTH
 STEP.FT                               1.00 : DEPTH INCREMENT
 NULL.                                -9999 : NULL VALUE
~Curve information
 DEPTH.FT                                   :
 ROP.MIN/FT                                 :
 GAS.UNITS                                  :
~ASCII Log data
       394.0     -9999.00          2.9 
       395.0        53.87          3.3 
       396.0         0.43          3.5 
       397.0         0.45          3.6 
       398.0         0.10          3.7 
       399.0         1.10          3.6 
       400.0         0.67          3.8 
       401.0         0.90          3.8 
       402.0         0.33          4.1 
       403.0         0.52          3.3 
       404.0         0.13          3.7 
       405.0         1.03          3.6 
       406.0         0.30          3.3 
       407.0         0.57          3.7 
       408.0         0.87          3.4 
       409.0         0.25          3.9 
       410.0         0.57          3.5 
       411.0         6.40          0.7 
       412.0         0.13          1.6 
       413.0         0.10          1.3 
       414.0         0.10          1.7 
       415.0         0.10          1.9 
       416.0         0.13          1.7 
       417.0         0.10          1.7 
       418.0         0.13          1.5 
       419.0         0.10          1.6 
       420.0         0.10          1.4 
       421.0         0.13          1.5 
       422.0         0.10          1.5 
       423.0         0.10          1.2 
       424.0         0.13          1.3 
       425.0         0.10          1.2 
       426.0         0.13          1.2 
       427.0         0.17          1.1 
       428.0         0.13          0.9 
       429.0         0.17          0.5 
       430.0         0.20          0.5 
       431.0         0.17          0.2 
       432.0         0.17          0.1 
       433.0         0.20          0.2 
       434.0         0.18          0.8 
       435.0         0.17          1.1 
       436.0         0.17          1.5 
       437.0         0.17          1.9 
       438.0         2.02          2.0 
       439.0         0.23          2.1 
       440.0         0.20          2.3 
       441.0         0.20          2.3 
       442.0         0.17          2.2 
       443.0         0.17          2.0 
       444.0         0.17          2.2 
       445.0         2.78          3.3 
       446.0         1.27          3.1 
       447.0         0.17          3.4 
       448.0         0.13          3.3 
       449.0         0.17          3.4 
       450.0         0.17          3.6 
       451.0         0.17          3.6 
       452.0         0.13          3.8 
       453.0         0.13          3.9 
       454.0         0.13          3.6 
       455.0         0.13          3.9 
       456.0         0.15          3.5 
       457.0         0.13          3.9 
       458.0         0.13          3.7 
       459.0         0.17          3.6 
       460.0         0.13          3.6 
       461.0         0.13          4.2 
       462.0         0.17          3.6 
       463.0         0.13          3.8 
       464.0         0.17          3.5 
       465.0         0.13          3.8 
       466.0         0.17          3.8 
       467.0         0.13          3.9 
       468.0         0.17          3.9 
       469.0         0.13          3.6 
       470.0         0.17          3.2 
       471.0         0.13          3.7 
       472.0         0.17          3.7 
       473.0         0.13          3.7 
       474.0         0.20          3.6 
       475.0         0.13          3.4 
       476.0         2.85          4.4 
       477.0         0.92          4.4 
       478.0         0.17          5.0 
       479.0         0.20          4.5 
       480.0         0.20          4.7 
       481.0         0.20          4.3 
       482.0         0.20          4.5 
       483.0         0.20          4.6 
       484.0         0.20          4.5 
       485.0         0.17          4.1 
       486.0         0.20          4.6 
       487.0         0.17          4.3 
       488.0         0.17          4.2 
       489.0         0.17          4.0 
       490.0         0.17          4.1 
       491.0         0.17          4.2 
       492.0         0.20          4.3 
       493.0         0.17          3.9 
       494.0         0.20          4.3 
       495.0         0.22          4.0 
       496.0         0.17          4.4 
       497.0         0.20          4.0 
       498.0         0.20          4.5 
       499.0         0.20          4.2 
       500.0         0.17          4.4 
       501.0         0.17          4.7 
       502.0         0.23          4.4 
       503.0         0.20          4.2 
       504.0         0.70          4.1 
       505.0         0.80          4.2 
       506.0         7.62          5.6 
       507.0         0.13          5.6 
       508.0         0.30          5.5 
       509.0         0.23          5.5 
       510.0         0.33          5.8 
       511.0         0.43          5.4 
       512.0         0.33          5.4 
       513.0         0.33          5.2 
       514.0         0.43          4.9 
       515.0         0.55          5.1 
       516.0         0.37          5.3 
       517.0         0.30          5.2 
       518.0         0.27          5.4 
       519.0         0.30          5.7 
       520.0         0.33          5.8 
       521.0         0.33          5.5 
       522.0         0.33          5.2 
       523.0         0.37          5.5 
       524.0         0.33          5.5 
       525.0         0.35          5.6 
       526.0         0.33          5.7 
       527.0         0.37          6.0 
       528.0         0.47          5.7 
       529.0         0.40          5.7 
       530.0         0.33          5.9 
       531.0         0.30          5.9 
       532.0         0.37          5.8 
       533.0         0.33          6.0 
       534.0         0.42          7.8 
       535.0         0.50          9.9 
       536.0         5.55          6.4 
       537.0         0.20          6.7 
       538.0         0.22          7.2 
       539.0         0.43          8.3 
       540.0         0.50          6.9 
       541.0         0.40          7.2 
       542.0         0.47          7.1 
       543.0         0.27          7.2 
       544.0         0.30          6.6 
       545.0         0.27          6.2 
       546.0         0.27          6.5 
       547.0         0.30          6.5 
       548.0         0.28          6.8 
       549.0         0.30          6.8 
       550.0         0.40          6.9 
       551.0         0.37          6.7 
       552.0         0.37          6.4 
       553.0         0.53          6.9 
       554.0         0.73          6.6 
       555.0         0.72          6.9 
       556.0         0.47          6.8 
       557.0         0.27          6.8 
       558.0         0.40          6.6 
       559.0         0.47          7.5 
       560.0         0.37          7.3 
       561.0         0.47          7.2 
       562.0         0.53          7.2 
       563.0         0.28          6.9 
       564.0         0.20          7.4 
       565.0         0.23          7.2 
       566.0         5.82          9.8 
       567.0         0.35          8.8 
       568.0         0.47          8.2 
       569.0         0.43          7.6 
       570.0         0.50          8.1 
       571.0         0.47          8.4 
       572.0         0.57          8.1 
       573.0         0.57          8.1 
       574.0         0.62          7.7 
       575.0         0.47          7.8 
       576.0         0.53          8.1 
       577.0         0.53          7.8 
       578.0         0.57          8.1 
       579.0         0.53          8.0 
       580.0         0.45          8.4 
       581.0         0.40          8.2 
       582.0         0.43          8.1 
       583.0         0.40          9.2 
       584.0         0.43          8.5 
       585.0         0.50          8.4 
       586.0         0.37          9.4 
       587.0         0.30          8.6 
       588.0         0.30          8.4 
       589.0         0.32          8.6 
       590.0         0.33          8.7 
       591.0         0.30          8.7 
       592.0         0.43          8.5 
       593.0         0.40          8.7 
