~Version Information
VERS.                      2.0: CWLS Log ASCII Standard - VERSION 2.0
WRAP.                       NO: One line per depth step
~Well Information Block
STRT.FT               250.0000: 
STOP.FT              1687.7000: 
STEP.FT                 0.1000: 
NULL.                -999.2500: 
COMP.          Pioneer Natural Resources: COMPANY
WELL.          Moneypenny 31-36: WELL
FLD.           Purgatoire River: FIELD
LOC.           280' FNL & 1976' FEL: LOCATION
PROV.                 Colorado: PROVINCE
CNTY.               Las Animas: COUNTRY
SRVC.                Patterson: SERVICE COMPANY
DATE.          Fri Oct 01 13:54:40 2004: LOG DATE
UWI.           05 071 08183 00: UNIQUE WELL ID
~Curve Information Block
DEPT.FT            0 000 00 00: Depth
DCAL.in                       : CDL Caliper
RHOB.g/cc                     : CDL Bulk Density
RHOC.g/cc                     : CDL Density Correction
DPOR.pu                       : CDL Density Porosity
NPOR.pu                       : Neutron Porosity
GR.GAPI                       : Gamma Ray
~Parameter Information Block
~A  Depth       DCAL        RHOB        RHOC        DPOR        NPOR         GR     
# ...
   442.0000      8.3062      2.5174      0.0162      8.0383     24.3976    122.5779
   442.1000      8.3062      2.5204      0.0351      7.8557     24.6277    120.9857
   442.2000      8.3062      2.5255      0.0220      7.5451     25.1774    119.1458
   442.3000      8.3068      2.5312      0.0412      7.2012     25.6858    115.0799
   442.4000      8.3068      2.5364      0.0254      6.8824     25.7282    110.1605
   442.5000      8.3050      2.5352      0.0611      6.9596     25.5198    112.6421
   442.6000      8.3050      2.5262      0.0341      7.5038     25.7374    121.0610
   442.7000      8.3050      2.5296      0.0126      7.2998     26.5406    124.8606
   442.8000      8.3010      2.5560      0.0620      5.6979     27.3228    123.1809
   442.9000      8.3010      2.5812      0.0456      4.1678     27.6499    120.1762
   443.0000      8.2994      2.5831      0.0590      4.0539     27.7850    117.0221
   443.1000      8.2994      2.5653      0.0346      5.1343     28.1780    115.9885
   443.2000      8.2994      2.5453      0.0349      6.3443     28.6605    117.7086
   443.3000      8.3026      2.5341      0.0060      7.0239     28.4836    121.9179
   443.4000      8.3026      2.5286      0.0115      7.3601     27.4843    129.1656
   443.5000      8.3061      2.5206     -0.0102      7.8410     26.5949    134.8374
   443.6000      8.3061      2.5144     -0.0157      8.2155     26.4777    132.6104
   443.7000      8.3061      2.5187      0.0020      7.9585     26.5004    124.6916
   443.8000      8.3079      2.5326      0.0125      7.1127     25.9916    118.9427
   443.9000      8.3079      2.5504      0.0117      6.0390     25.3122    118.1621
   444.0000      8.3101      2.5714      0.0337      4.7618     24.9482    119.3912
   444.1000      8.3101      2.5992      0.0526      3.0774     24.9217    118.6185
   444.2000      8.3101      2.6256      0.0917      1.4790     25.0197    118.1152
   444.3000      8.3115      2.6309      0.0934      1.1553     25.0264    123.6709
   444.4000      8.3115      2.6115      0.0581      2.3303     25.0000    131.2891
   444.5000      8.3089      2.5875      0.0148      3.7869     25.0974    132.5895
   444.6000      8.3089      2.5739      0.0659      4.6126     25.0798    126.9560
   444.7000      8.3089      2.5674      0.0515      5.0056     24.7437    122.9178
   444.8000      8.3062      2.5594      0.0770      5.4902     24.5335    126.1098
   444.9000      8.3062      2.5502      0.0108      6.0495     24.6316    131.0220
   445.0000      8.3046      2.5462      0.0370      6.2898     24.4885    131.1586
   445.1000      8.3046      2.5370      0.0566      6.8471     23.8521    127.6771
   445.2000      8.3046      2.5166     -0.0138      8.0873     22.8264    122.8357
   445.3000      8.3046      2.5035     -0.0087      8.8759     21.7078    115.8626
   445.4000      8.3046      2.5030      0.0298      8.9090     21.0046    109.3690
   445.5000      8.3056      2.5033      0.0389      8.8885     20.7062    106.5630
   445.6000      8.3056      2.5013      0.0167      9.0112     20.5694    104.7041
   445.7000      8.3056      2.4999     -0.0157      9.0961     20.7393    102.2549
   445.8000      8.3063      2.5006      0.0314      9.0552     21.1146    100.5914
   445.9000      8.3063      2.4974      0.0334      9.2510     21.1535     98.8590
   446.0000      8.3075      2.4891      0.0301      9.7490     20.8263     97.6047
   446.1000      8.3075      2.4882      0.0167      9.8033     20.6562     98.8743
   446.2000      8.3075      2.5002      0.0291      9.0778     20.9931    102.0887
   446.3000      8.3076      2.5139      0.0458      8.2471     21.5838    105.2632
   446.4000      8.3076      2.5238      0.0036      7.6511     21.6533    105.7834
   446.5000      8.3054      2.5350      0.0185      6.9717     21.0342    102.5914
   446.6000      8.3054      2.5379      0.0907      6.7909     20.4612     99.1760
   446.7000      8.3054      2.5282     -0.0012      7.3812     20.5090    100.5790
   446.8000      8.3048      2.5281      0.0330      7.3870     21.0358    105.8614
   446.9000      8.3048      2.5358      0.0780      6.9200     21.4537    110.4371
   447.0000      8.3053      2.5300      0.0263      7.2714     21.5831    110.7573
   447.1000      8.3053      2.5181      0.0198      7.9953     21.8251    106.8389
   447.2000      8.3053      2.5104      0.0368      8.4591     22.5581    103.5370
   447.3000      8.3041      2.5000     -0.0100      9.0902     23.3991    105.1495
   447.4000      8.3041      2.4924     -0.0425      9.5512     23.6359    108.9054
   447.5000      8.3042      2.5012      0.0002      9.0154     23.3836    110.6286
   447.6000      8.3042      2.5191      0.0256      7.9348     23.1862    111.7091
   447.7000      8.3042      2.5276      0.0216      7.4161     23.1998    114.7147
   447.8000      8.3063      2.5201      0.0161      7.8741     23.5183    117.6474
   447.9000      8.3063      2.5022      0.0145      8.9601     24.1609    117.6501
   448.0000      8.3065      2.4832      0.0236     10.1113     24.5567    114.1134
   448.1000      8.3065      2.4680      0.0224     11.0290     24.5048    109.7026
   448.2000      8.3065      2.4626      0.0220     11.3580     24.4777    110.4220
   448.3000      8.3059      2.4725      0.0468     10.7571     24.6208    115.6762
   448.4000      8.3059      2.4910      0.0551      9.6378     24.8693    116.7247
   448.5000      8.3069      2.5052      0.0350      8.7783     25.2997    113.2304
   448.6000      8.3069      2.5071      0.0868      8.6597     25.8690    113.6567
   448.7000      8.3069      2.4942      0.0882      9.4442     26.3552    117.6881
   448.8000      8.3121      2.4789      0.0760     10.3698     26.7163    119.1089
   448.9000      8.3121      2.4775      0.0863     10.4546     26.9696    120.1437
   449.0000      8.3278      2.4810      0.1081     10.2397     26.8484    126.5375
   449.1000      8.3278      2.4770      0.0577     10.4852     26.3802    135.6133
   449.2000      8.3278      2.4761      0.0538     10.5373     25.8609    139.0250
   449.3000      8.3598      2.4806      0.0821     10.2674     25.3614    138.0986
   449.4000      8.3598      2.4726      0.0782     10.7492     24.8055    142.8847
   449.5000      8.4035      2.4505      0.0470     12.0880     24.2075    150.6976
   449.6000      8.4035      2.4302      0.0507     13.3194     23.7696    152.9591
   449.7000      8.4035      2.4180      0.0494     14.0586     23.5792    152.5194
   449.8000      8.4498      2.3969      0.1128     15.3376     23.2723    151.5015
   449.9000      8.4498      2.3483      0.0810     18.2835     22.6925    147.4173
   450.0000      8.4970      2.2889      0.0007     21.8830     22.2760    141.8142
   450.1000      8.4970      2.2529      0.0059     24.0654     22.2763    137.2671
   450.2000      8.4970      2.2535     -0.0261     24.0311     22.3424    134.9932
   450.3000      8.5418      2.2907     -0.0147     21.7780     22.3117    135.5622
   450.4000      8.5418      2.3590      0.0414     17.6378     22.2840    137.5551
   450.5000      8.5815      2.4335      0.1536     13.1222     22.0723    136.7048
   450.6000      8.5815      2.4738      0.2305     10.6809     21.7059    131.4845
   450.7000      8.5815      2.4653      0.2037     11.1922     21.6867    127.7482
   450.8000      8.6157      2.4483      0.1188     12.2221     22.1828    128.7095
   450.9000      8.6157      2.4699      0.2308     10.9155     22.6327    129.8675
   451.0000      8.6387      2.5195      0.3004      7.9080     22.6730    127.6966
   451.1000      8.6387      2.5512      0.2679      5.9904     22.5909    125.7059
   451.2000      8.6387      2.5478      0.1364      6.1913     22.6828    129.8072
   451.3000      8.6393      2.5264      0.1114      7.4903     22.9961    136.0936
   451.4000      8.6393      2.5042      0.0531      8.8362     23.3442    136.5439
   451.5000      8.6004      2.4937      0.0415      9.4727     23.5433    133.3439
