~Version Information
VERS.                      2.0: CWLS Log ASCII Standard - VERSION 2.0
WRAP.                       NO: One line per depth step
~Well Information Block
STRT.FT                15.0000: 
STOP.FT              1211.0000: 
STEP.FT                 0.2500: 
NULL.                -999.2500: 
COMP.          Pioneer Natural Resources: COMPANY
WELL.          Santa Fe 43-27 Tr: WELL
FLD.           Purgatoire River: FIELD
LOC.           2018' FSL & 534' FEL: LOCATION
PROV.                 Colorado: PROVINCE
CNTY.               Las Animas: COUNTRY
SRVC.                Patterson: SERVICE COMPANY
DATE.          Mon Mar 14 15:43:40 2005: LOG DATE
UWI.           05 071 08303 00: UNIQUE WELL ID
~Curve Information Block
DEPT.FT            0 000 00 00: Depth
GR.GAPI                       : Gamma Ray
CCL.                          : Casing Collar Locator
TT3.usec                      : CBL 3' Travel Time
AMP3.mV                       : CBL 3' Amplitude
AMP5.mV                       : CBL 5' Amplitude
~Parameter Information Block
~A  Depth        GR         CCL         TT3         AMP3        AMP5    
# ...
   407.0000     91.6359      0.0000   1146.0299     19.6546      3.8903
   407.2500     84.9841      0.0000   1107.0594     19.9498      4.0244
   407.5000     80.0290      0.0000   1068.6090     20.2455      4.1362
   407.7500     76.6321      0.0000   1028.4937     20.5519      4.2474
   408.0000     75.2791      0.0000    988.7014     20.9099      4.3678
   408.2500     77.0801      0.0000    956.6895     21.3630      4.4980
   408.5000     82.9127      0.0000    936.0627     21.9227      4.6341
   408.7500     92.3811      0.0000    920.8223     22.5548      4.7715
   409.0000    103.5975      0.0000    902.5037     23.1956      4.9075
   409.2500    114.2801      0.0000    879.9332     23.7842      5.0411
   409.5000    123.0768      0.0000    858.6664     24.2955      5.1707
   409.7500    129.6514      0.0000    843.4851     24.7538      5.2907
   410.0000    133.9145      0.0000    834.4127     25.2074      5.3888
   410.2500    135.7724      0.0000    828.9832     25.6760      5.4486
   410.5000    135.4408      0.0000    825.6800     26.1310      5.4543
   410.7500    133.5655      0.0000    824.7374     26.5284      5.3971
   411.0000    131.0976      0.0000    826.6302     26.8329      5.2773
   411.2500    129.1106      0.0000    830.8936     26.9947      5.1011
   411.5000    128.4723      0.0000    836.1725     26.9317      4.8799
   411.7500    129.4350      0.0000    840.8611     26.5528      4.6317
   412.0000    131.4458      0.0000    843.6705     25.7911      4.3801
   412.2500    133.2991      0.0000    844.0565     24.6261      4.1455
   412.5000    133.5705      0.0000    842.4584     23.1054      3.9365
   412.7500    131.0938      0.0000    840.2571     21.3488      3.7493
   413.0000    125.1218      0.0000    839.1436     19.5108      3.5768
   413.2500    115.2970      0.0000    839.9582     17.7312      3.4172
   413.5000    101.9970      0.0000    842.1010     16.1182      3.2765
   413.7500     86.7232      0.0000    844.2791     14.7499      3.1622
   414.0000     71.6094      0.0000    845.6868     13.6695      3.0769
   414.2500     58.3783      0.0000    846.3348     12.8861      3.0162
   414.5000     47.9250      0.0000    846.6032     12.3955      2.9735
   414.7500     40.6638      0.0000    846.8290     12.1963      2.9450
   415.0000     36.8994      0.0000    847.2458     12.2844      2.9292
   415.2500     36.8524      0.0000    848.3916     12.6449      2.9233
   415.5000     40.5317      0.0000    851.8366     13.2631      2.9207
   415.7500     47.6613      0.0000    860.8372     14.1396      2.9151
   416.0000     57.7118      0.0000    879.0576     15.2818      2.9043
   416.2500     69.8872      0.0000    905.8195     16.6631      2.8920
   416.5000     83.0516      0.0000    931.4568     18.1833      2.8840
   416.7500     95.8331      0.0000    941.1564     19.6722      2.8861
   417.0000    107.1090      0.0000    927.8240     20.9359      2.9024
   417.2500    116.5345      0.0000    899.9628     21.7963      2.9355
   417.5000    124.3876      0.0000    874.1517     22.1059      2.9862
   417.7500    130.7065      0.0000    861.3143     21.7762      3.0505
   418.0000    134.7769      0.0000    861.5280     20.8430      3.1178
   418.2500    135.6947      0.0000    868.6810     19.4979      3.1714
   418.5000    133.3539      0.0000    877.4799     18.0205      3.1930
   418.7500    128.8890      0.0000    886.9856     16.6524      3.1679
   419.0000    124.2582      0.0000    898.2729     15.5131      3.0913
   419.2500    121.1886      0.0000    908.8484     14.6056      2.9711
   419.5000    120.2922      0.0000    911.7855     13.8763      2.8262
   419.7500    121.2137      0.0000    902.7143     13.2693      2.6801
   420.0000    123.4576      0.0000    885.5335     12.7450      2.5516
   420.2500    126.6087      0.0000    869.1971     12.2819      2.4469
   420.5000    129.8052      0.0000    860.8552     11.8793      2.3592
   420.7500    131.7179      0.0000    864.0459     11.5595      2.2761
   421.0000    131.4265      0.0000    880.2593     11.3519      2.1912
   421.2500    129.0890      0.0000    907.4416     11.2608      2.1099
   421.5000    125.5468      0.0000    936.7992     11.2459      2.0439
   421.7500    121.4499      0.0000    956.7450     11.2435      2.0028
   422.0000    117.0549      0.0000    963.6383     11.2187      1.9871
   422.2500    112.7885      0.0000    964.2176     11.1969      1.9888
   422.5000    109.4531      0.0000    963.6160     11.2356      1.9961
   422.7500    107.7495      0.0000    956.7059     11.3668      2.0011
   423.0000    108.0714      0.0000    936.8676     11.5702      2.0043
   423.2500    110.7155      0.0000    908.3677     11.7957      2.0127
   423.5000    115.5786      0.0000    884.7422     12.0037      2.0318
   423.7500    121.5674      0.0000    879.2274     12.1809      2.0593
   424.0000    127.0596      0.0000    900.4280     12.3233      2.0865
   424.2500    131.3103      0.0000    950.9716     12.4132      2.1050
   424.5000    134.9711      0.0000   1021.3541     12.4216      2.1117
   424.7500    138.9627      0.0000   1085.5536     12.3381      2.1080
   425.0000    143.1239      0.0000   1111.8654     12.1966      2.0974
   425.2500    146.2218      0.0000   1085.7168     12.0683      2.0848
   425.5000    146.9426      0.0000   1021.9426     12.0193      2.0764
   425.7500    144.6884      0.0000    952.9004     12.0669      2.0766
   426.0000    140.0019      0.0000    905.8387     12.1749      2.0851
   426.2500    134.5744      0.0000    891.4394     12.2953      2.0983
   426.5000    130.2897      0.0000    906.6699     12.4139      2.1126
   426.7500    127.8833      0.0000    940.0658     12.5632      2.1263
   427.0000    126.6276      0.0000    974.6132     12.7941      2.1381
   427.2500    124.8816      0.0000    994.2060     13.1269      2.1458
   427.5000    120.5708      0.0000    993.6650     13.5170      2.1477
   427.7500    112.0089      0.0000    981.2987     13.8644      2.1460
   428.0000     99.2731      0.0000    969.1110     14.0675      2.1464
   428.2500     84.5630      0.0000    962.1743     14.0769      2.1522
   428.5000     70.7068      0.0000    958.1163     13.9060      2.1599
   428.7500     59.5103      0.0000    952.3216     13.6005      2.1602
   429.0000     51.4900      0.0000    941.5980     13.2168      2.1463
   429.2500     46.4367      0.0000    927.8094     12.8243      2.1191
   429.5000     43.7697      0.0000    919.8759     12.4971      2.0853
   429.7500     42.7675      0.0000    926.9035     12.2800      2.0518
   430.0000     42.9008      0.0000    946.6136     12.1663      2.0227
   430.2500     43.8967      0.0000    964.2112     12.1154      2.0007
   430.5000     45.4220      0.0000    966.9164     12.0917      1.9879
   430.7500     46.9113      0.0000    958.7222     12.0864      1.9851
   431.0000     48.0268      0.0000    957.8977     12.1048      1.9890
   431.2500     49.4128      0.0000    980.9136     12.1448      1.9918
   431.5000     52.8219      0.0000   1031.2234     12.1927      1.9848
   431.7500     59.9986      0.0000   1100.0665     12.2354      1.9633
   432.0000     71.0958      0.0000   1171.5692     12.2605      1.9311
   432.2500     84.2502      0.0000   1227.3508     12.2421      1.8985
   432.5000     96.8728      0.0000   1253.4192     12.1448      1.8750
   432.7500    107.3350      0.0000   1248.0803     11.9599      1.8639
   433.0000    115.4384      0.0000   1223.4811     11.7323      1.8620
   433.2500    121.6021      0.0000   1197.1648     11.5335      1.8626
   433.5000    126.0099      0.0000   1180.3668     11.4019      1.8609
   433.7500    128.6436      0.0000   1174.4131     11.3187      1.8566
   434.0000    129.9774      0.0000   1175.3578     11.2418      1.8539
   434.2500    131.2264      0.0000   1176.6561     11.1483      1.8569
   434.5000    133.4180      0.0000   1169.5654     11.0426      1.8647
   434.7500    136.1581      0.0000   1147.5222     10.9379      1.8720
