~Version Information
VERS.                      2.0: CWLS Log ASCII Standard - VERSION 2.0
WRAP.                       NO: One line per depth step
~Well Information Block
STRT.FT               430.0000: 
STOP.FT              2826.2500: 
STEP.FT                 0.2500: 
NULL.                -999.2500: 
COMP.          Pioneer Natural Resources: COMPANY
WELL.           Ei-ei-oh 31-24: WELL
FLD.           Purgatoire River: FIELD
LOC.           235' FNL & 2001' FEL--: LOCATION
PROV.                 Colorado: PROVINCE
CNTY.               Las Animas: COUNTRY
SRVC.                Patterson: SERVICE COMPANY
DATE.          Thu Jun 16 06:46:37 2005: LOG DATE
UWI.           05 071 08403 00: UNIQUE WELL ID
~Curve Information Block
DEPT.FT            0 000 00 00: Depth
DIR.Ohm-m                     : IEL Induction Resistivity
SN.Ohm-m                      : IEL Short Normal
SP.mV                         : IEL Spontaneous Potential
GR.GAPI                       : Gamma Ray
~Parameter Information Block
~A  Depth       DIR          SN          SP          GR     
# ...
  1033.0000     29.9276   2000.0000   2000.0000     93.0926
  1033.2500     32.6050   2000.0000   2000.0000     88.7244
  1033.5000     35.6901   2000.0000   2000.0000     81.5898
  1033.7500     39.1584   2000.0000   2000.0000     92.3820
  1034.0000     42.8901   2000.0000   2000.0000     85.2878
  1034.2500     46.6666   2000.0000   2000.0000     81.7435
  1034.5000     50.2520   2000.0000   2000.0000     78.4798
  1034.7500     53.5276   2000.0000   2000.0000     77.5536
  1035.0000     56.5569   2000.0000   2000.0000     77.4343
  1035.2500     59.5068   2000.0000   2000.0000     77.6558
  1035.5000     62.5144   2000.0000   2000.0000     77.2139
  1035.7500     65.6287   2000.0000   2000.0000     75.7109
  1036.0000     68.8362   2000.0000   2000.0000     71.2082
  1036.2500     72.0768    103.5758   2000.0000     67.1892
  1036.5000     75.1939    108.0312   2000.0000     61.4516
  1036.7500     77.9293    112.9540   2000.0000     58.8669
  1037.0000     80.0625    118.4380   2000.0000     57.5416
  1037.2500     81.5911    124.3217   2000.0000     58.0729
  1037.5000     82.7060    130.1892   2000.0000     59.9841
  1037.7500     83.5742    135.5014   -170.0130     61.3754
  1038.0000     84.1921    139.7666   -171.1053     62.7132
  1038.2500     84.4618    142.6321   -172.1772     62.9017
  1038.5000     84.3646    143.8711   -173.1642     62.6124
  1038.7500     84.0289    143.3325   -173.9742     62.4557
  1039.0000     83.6243    140.9398   -174.4993     62.3049
  1039.2500     83.2010    136.7630   -174.6336     61.9372
  1039.5000     82.5931    131.1082   -174.2933     60.7291
  1039.7500     81.4614    124.5189   -173.4332     59.7001
  1040.0000     79.4756    117.6241   -172.0586     58.5224
  1040.2500     76.5417    110.8950   -170.2267     58.5154
  1040.5000     72.8761    104.4824   -168.0407     60.7950
  1040.7500     68.8705     98.2763   -165.6359     64.2786
  1041.0000     64.8969     92.1353   -163.1621     71.9620
  1041.2500     61.2119     86.0813   -160.7643     77.7143
  1041.5000     57.9546     80.3102   -158.5656     85.3990
  1041.7500     55.1776     75.0604   -156.6554     89.3594
  1042.0000     52.8754     70.4881   -155.0814     93.8655
  1042.2500     51.0100     66.6418   -153.8492     96.3357
  1042.5000     49.5344     63.5023   -152.9260     99.4723
  1042.7500     48.4079     61.0112   -152.2499    101.0351
  1043.0000     47.5944     59.0657   -151.7413    102.3379
  1043.2500     47.0472     57.5155   -151.3170    102.4723
  1043.5000     46.6895     56.1940   -150.9025    101.7277
  1043.7500     46.4070     54.9763   -150.4429    100.9345
  1044.0000     46.0686     53.8272   -149.9091    100.1101
  1044.2500     45.5725     52.8080   -149.3001    100.0918
  1044.5000     44.8858     52.0353   -148.6415    101.0102
  1044.7500     44.0538     51.6132   -147.9821    102.5311
  1045.0000     43.1738     51.5760   -147.3885    107.1121
  1045.2500     42.3582     51.8703   -146.9398    111.9542
  1045.5000     41.7070     52.3800   -146.7204    120.7825
  1045.7500     41.2928     52.9820   -146.8099    126.1844
  1046.0000     41.1564     53.6103   -147.2706    130.6547
  1046.2500     41.3109     54.3086   -148.1324    130.2794
  1046.5000     41.7560     55.2344   -149.3787    125.3684
  1046.7500     42.4930     56.5844   -150.9364    120.5248
  1047.0000     43.5251     58.4493   -152.6752    113.0037
  1047.2500     44.8264     60.6712   -154.4168    108.3272
  1047.5000     46.2901     62.8127   -155.9569    101.6224
  1047.7500     47.6948     64.3002   -157.0941     97.0742
  1048.0000     48.7399     64.6819   -157.6634     90.1178
  1048.2500     49.1565     63.8362   -157.5644     85.8257
  1048.5000     48.8154     61.9749   -156.7804     81.3255
  1048.7500     47.7496     59.4434   -155.3813     80.6207
  1049.0000     46.0993     56.4898   -153.5108     84.1526
  1049.2500     44.0542     53.1870   -151.3598     89.3625
  1049.5000     41.8216     49.5446   -149.1326     99.4583
  1049.7500     39.6011     45.6860   -147.0141    106.1645
  1050.0000     37.5544     41.9354   -145.1440    114.1959
  1050.2500     35.7856     38.7447   -143.6036    117.6904
  1050.5000     34.3434     36.5128   -142.4159    120.2222
  1050.7500     33.2366     35.4101   -141.5561    120.5073
  1051.0000     32.4476     35.2958   -140.9695    119.6861
  1051.2500     31.9363     35.7708   -140.5894    118.6769
  1051.5000     31.6411     36.3529   -140.3527    116.9071
  1051.7500     31.4865     36.6854   -140.2091    115.8894
  1052.0000     31.4006     36.6506   -140.1249    115.3084
  1052.2500     31.3335     36.3312   -140.0813    115.7562
  1052.5000     31.2691     35.8877   -140.0705    117.2406
  1052.7500     31.2241     35.4578   -140.0905    118.1660
  1053.0000     31.2321     35.1224   -140.1411    118.6043
  1053.2500     31.3168     34.9145   -140.2214    118.2299
  1053.5000     31.4678     34.8316   -140.3286    117.2485
  1053.7500     31.6367     34.8420   -140.4577    116.5717
  1054.0000     31.7618     34.8938   -140.6022    115.2814
  1054.2500     31.8038     34.9357   -140.7548    113.8977
  1054.5000     31.7640     34.9389   -140.9073    110.8892
  1054.7500     31.6711     34.9088   -141.0518    108.5784
  1055.0000     31.5574     34.8808   -141.1812    105.6326
  1055.2500     31.4453     34.8972   -141.2900    104.7425
  1055.5000     31.3502     34.9727   -141.3759    106.1764
  1055.7500     31.2822     35.0697   -141.4400    109.0869
  1056.0000     31.2394     35.1061   -141.4869    114.9424
  1056.2500     31.2000     34.9947   -141.5227    118.4320
  1056.5000     31.1278     34.6919   -141.5519    121.1117
  1056.7500     30.9923     34.2285   -141.5746    120.8454
  1057.0000     30.7839     33.7001   -141.5835    118.3504
  1057.2500     30.5098     33.2134   -141.5646    116.6045
  1057.5000     30.1765     32.8175   -141.4995    116.0034
  1057.7500     29.7747     32.4651   -141.3698    117.2340
  1058.0000     29.2748     32.0339   -141.1635    120.3285
  1058.2500     28.6363     31.3967   -140.8789    122.4307
  1058.5000     27.8301     30.4949   -140.5272    125.2449
  1058.7500     26.8670     29.3656   -140.1314    127.0129
  1059.0000     25.8070     28.1091   -139.7232    129.6400
  1059.2500     24.7376     26.8333   -139.3378    131.3761
  1059.5000     23.7375     25.6232   -139.0092    133.9259
  1059.7500     22.8539     24.5521   -138.7653    135.5521
  1060.0000     22.1043     23.7042   -138.6264    137.8007
  1060.2500     21.4900     23.1680   -138.6037    139.0454
  1060.5000     21.0101     22.9968   -138.7006    139.9730
  1060.7500     20.6695     23.1691   -138.9130    139.6118
  1061.0000     20.4812     23.5941   -139.2313    137.8196
  1061.2500     20.4629     24.1610   -139.6410    136.6099
  1061.5000     20.6290     24.7927   -140.1239    136.5284
  1061.7500     20.9850     25.4584   -140.6590    137.9314
  1062.0000     21.5258     26.1462   -141.2248    140.3668
  1062.2500     22.2410     26.8360   -141.8018    140.2426
  1062.5000     23.1204     27.5022   -142.3753    135.4275
  1062.7500     24.1546     28.1429   -142.9374    129.9423
  1063.0000     25.3278     28.8027   -143.4872    122.0560
  1063.2500     26.6088     29.5629   -144.0286    118.8159
  1063.5000     27.9465     30.5018   -144.5658    117.2759
  1063.7500     29.2768     31.6463   -145.0982    117.4320
  1064.0000     30.5356     32.9385   -145.6156    117.7613
  1064.2500     31.6661     34.2357   -146.0966    117.7791
  1064.5000     32.6128     35.3500   -146.5101    117.8114
  1064.7500     33.3096     36.1187   -146.8199    117.8806
  1065.0000     33.6846     36.4641   -146.9913    117.5963
  1065.2500     33.6855     36.4071   -146.9976    116.9531
  1065.5000     33.3099     36.0310   -146.8258    115.7254
  1065.7500     32.6107     35.4325   -146.4793    115.3051
  1066.0000     31.6741     34.6937   -145.9776    116.1320
  1066.2500     30.5926     33.8769   -145.3536    117.8750
