~Version Information
VERS.                      2.0: CWLS Log ASCII Standard - VERSION 2.0
WRAP.                       NO: One line per depth step
~Well Information Block
STRT.FT                 3.5000: 
STOP.FT              1971.5000: 
STEP.FT                 0.2500: 
NULL.                -999.2500: 
COMP.          Evergreen Operating Corporation: COMPANY
WELL.          McCullough 34-32 Tr: WELL
FLD.           Purgatorie River: FIELD
LOC.           394' FSL & 2077' FEL: LOCATION
PROV.                 Colorado: PROVINCE
CNTY.               Las Animas: COUNTRY
SRVC.                         : SERVICE COMPANY
DATE.          Fri Sep 24 11:00:22 2004: LOG DATE
UWI.           05 071 08157 00: UNIQUE WELL ID
~Curve Information Block
DEPT.FT            0 000 00 00: Depth
GR.GAPI                       : Gamma Ray
CCL.                          : Casing Collar Locator
TT3.usec                      : CBL 3' Travel Time
AMP3.mV                       : CBL 3' Amplitude
~Parameter Information Block
~A  Depth        GR         CCL         TT3         AMP3    
# ...
  1946.5000    121.1864      0.0000    509.6463      6.8385
  1946.7500    112.2175      0.0000    505.5553      6.9002
  1947.0000    103.4753      0.0000    508.9607      6.8953
  1947.2500     96.5490      0.0000    515.5259      6.8375
  1947.5000     91.6509      0.0000    521.5865      6.7806
  1947.7500     87.7571      0.0000    525.4048      6.7664
  1948.0000     83.6149      0.0000    526.9494      6.7884
  1948.2500     78.8416      0.0000    526.9542      6.8042
  1948.5000     74.2255      0.0000    526.0554      6.7789
  1948.7500     70.8815      0.0000    524.4116      6.7102
  1949.0000     69.0426      0.0000    521.7404      6.6190
  1949.2500     67.8188      0.0000    517.8263      6.5270
  1949.5000     66.0451      0.0000    513.2768      6.4475
  1949.7500     63.1092      0.0000    509.5424      6.3887
  1950.0000     59.1129      0.0000    507.5898      6.3576
  1950.2500     54.6924      0.0000    506.6080      6.3553
  1950.5000     50.7323      0.0000    504.7199      6.3705
  1950.7500     47.9352      0.0000    501.1091      6.3806
  1951.0000     46.5011      0.0000    496.9566      6.3677
  1951.2500     46.2098      0.0000    494.4823      6.3366
  1951.5000     46.7976      0.0000    495.8671      6.3136
  1951.7500     48.1884      0.0000    503.1330      6.3244
  1952.0000     50.3563      0.0000    517.8521      6.3710
  1952.2500     53.0961      0.0000    539.3726      6.4322
  1952.5000     56.1141      0.0000    562.6851      6.4863
  1952.7500     59.4620      0.0000    579.5192      6.5307
  1953.0000     63.8212      0.0000    584.2657      6.5778
  1953.2500     70.1136      0.0000    579.5447      6.6397
  1953.5000     78.6097      0.0000    574.4026      6.7208
  1953.7500     88.4065      0.0000    576.7997      6.8178
  1954.0000     97.9004      0.0000    588.9495      6.9162
  1954.2500    105.6341      0.0000    608.4120      6.9880
  1954.5000    110.5110      0.0000    630.5994      7.0012
  1954.7500    111.5774      0.0000    650.4548      6.9382
  1955.0000    108.3226      0.0000    664.4292      6.8082
  1955.2500    101.4059      0.0000    671.8864      6.6389
  1955.5000     92.6760      0.0000    674.1625      6.4471
  1955.7500     84.2019      0.0000    671.8661      6.2161
  1956.0000     77.3357      0.0000    662.2894      5.9045
  1956.2500     72.5233      0.0000    637.8468      5.4633
  1956.5000     69.5931      0.0000    587.0606      4.8361
  1956.7500     68.0242      0.0000    500.7584      3.9719
  1957.0000     67.1018      0.0000    382.3810      2.8932
  1957.2500     66.2173      0.0000    252.8573      1.7549
  1957.5000     65.3773      0.0000    140.8024      0.7836
  1957.7500     65.3624      0.0000     64.6086      0.1276
  1958.0000     67.1369      0.0000     24.0427     -0.2196
  1958.2500     70.9347      0.0000      7.1716     -0.3632
  1958.5000     75.8611      0.0000      1.6982     -0.4095
  1958.7500     80.3184      0.0000      0.3141     -0.4211
  1959.0000     82.8479      0.0000      0.0420     -0.4234
  1959.2500     82.7774      0.0000   -999.2500   -999.2500
  1959.5000     80.3642      0.0000   -999.2500   -999.2500
  1959.7500     76.4876      0.0000   -999.2500   -999.2500
  1960.0000     72.1971      0.0000   -999.2500   -999.2500
  1960.2500     68.3561      0.0000   -999.2500   -999.2500
  1960.5000     65.3465      0.0000   -999.2500   -999.2500
  1960.7500     62.9167      0.0000   -999.2500   -999.2500
  1961.0000     60.5088      0.0000   -999.2500   -999.2500
  1961.2500     57.9240      0.0000   -999.2500   -999.2500
  1961.5000     55.6141      0.0000   -999.2500   -999.2500
  1961.7500     54.2580      0.0000   -999.2500   -999.2500
  1962.0000     54.1127      0.0000   -999.2500   -999.2500
  1962.2500     54.7856      0.0000   -999.2500   -999.2500
  1962.5000     55.6215      0.0000   -999.2500   -999.2500
  1962.7500     56.2556      0.0000   -999.2500   -999.2500
  1963.0000     56.7059      0.0000   -999.2500   -999.2500
  1963.2500     57.0826      0.0000   -999.2500   -999.2500
  1963.5000     57.4665      0.0000   -999.2500   -999.2500
  1963.7500     57.9430      0.0000   -999.2500   -999.2500
  1964.0000     58.4318      0.0000   -999.2500   -999.2500
  1964.2500     58.6285      0.0000   -999.2500   -999.2500
  1964.5000     58.4912      0.0000   -999.2500   -999.2500
  1964.7500     58.6505   -999.2500   -999.2500   -999.2500
  1965.0000     59.9525   -999.2500   -999.2500   -999.2500
  1965.2500     62.5798   -999.2500   -999.2500   -999.2500
  1965.5000     65.7603   -999.2500   -999.2500   -999.2500
  1965.7500     68.2792   -999.2500   -999.2500   -999.2500
  1966.0000     69.2470   -999.2500   -999.2500   -999.2500
  1966.2500     68.5103   -999.2500   -999.2500   -999.2500
  1966.5000     66.4483   -999.2500   -999.2500   -999.2500
  1966.7500     63.4596   -999.2500   -999.2500   -999.2500
  1967.0000     59.5503   -999.2500   -999.2500   -999.2500
  1967.2500     54.1403   -999.2500   -999.2500   -999.2500
  1967.5000     46.3149   -999.2500   -999.2500   -999.2500
  1967.7500     35.8297   -999.2500   -999.2500   -999.2500
  1968.0000     24.0827   -999.2500   -999.2500   -999.2500
  1968.2500     13.6114   -999.2500   -999.2500   -999.2500
  1968.5000      6.3181   -999.2500   -999.2500   -999.2500
  1968.7500      2.3700   -999.2500   -999.2500   -999.2500
  1969.0000      0.7106   -999.2500   -999.2500   -999.2500
  1969.2500      0.1688   -999.2500   -999.2500   -999.2500
  1969.5000      0.0314   -999.2500   -999.2500   -999.2500
  1969.7500      0.0042   -999.2500   -999.2500   -999.2500
  1970.0000      0.0000   -999.2500   -999.2500   -999.2500
  1970.2500   -999.2500   -999.2500   -999.2500   -999.2500
  1970.5000   -999.2500   -999.2500   -999.2500   -999.2500
  1970.7500   -999.2500   -999.2500   -999.2500   -999.2500
  1971.0000   -999.2500   -999.2500   -999.2500   -999.2500
  1971.2500   -999.2500   -999.2500   -999.2500   -999.2500
  1971.5000   -999.2500   -999.2500   -999.2500   -999.2500
