~Version Information
VERS.                      2.0: CWLS Log ASCII Standard - VERSION 2.0
WRAP.                       NO: One line per depth step
~Well Information Block
STRT.FT                -9.5000: 
STOP.FT              2893.0000: 
STEP.FT                 0.2500: 
NULL.                -999.2500: 
COMP.          Pioneer Natural Resources: COMPANY
WELL.          Old Yeller 31-32: WELL
FLD.           Purgatoire River: FIELD
LOC.           1832' FEL & 793' FNL----: LOCATION
STAT.                 Colorado: State
CNTY.               Las Animas: COUNTY
CTRY. USA : Country
SECT. 32 : Section
TOWN. 32S : Township
RANG. 67W : Range
SRVC.                         : SERVICE COMPANY
DATE.          Fri Sep 02 16:45:38 2005: LOG DATE
API. 05-071-08356                         : UNIQUE WELL ID
~Curve Information Block
DEPT.FT            0 000 00 00: Depth
CCL.                          : Casing Collar Locator
TT3.usec                      : CBL 3' Travel Time
AMP5.mV                       : CBL 5' Amplitude
GR.GAPI                       : Gamma Ray
~Parameter Information Block
~A  Depth       CCL         TT3         AMP5         GR     
# ...
   191.5000      0.0000    261.2119    120.6853     49.9792
   191.7500      0.0000    261.2006    124.2543     52.5406
   192.0000      0.0000    261.2051    119.8149     54.7040
   192.2500      0.0000    261.2229    121.9040     55.5295
   192.5000      0.0000    261.2448    123.6449     54.9588
   192.7500      0.0000    261.2605    121.4688     53.9289
   193.0000      0.0000    261.2675    117.0294     53.6408
   193.2500      0.0000    261.2720    121.7299     54.5673
   193.5000      0.0000    261.2822    126.6916     56.1384
   193.7500      0.0000    261.2985    124.0802     57.3099
   194.0000      0.0000    261.3122    122.4263     57.4166
   194.2500      0.0000    261.3125    121.7299     56.6070
   194.5000      0.0000    261.2965    121.4688     55.5199
   194.7500      0.0000    261.2718    122.6874     54.5876
   195.0000      0.0000    261.2528    124.6895     53.8647
   195.2500      0.0000    261.2517    121.9040     53.5634
   195.5000      0.0000    261.2697    118.6833     54.2811
   195.7500      0.0000    261.2971    125.1247     56.3821
   196.0000      0.0000    261.3226    121.9040     59.4454
   196.2500      0.0000    261.3421    121.9910     62.5952
   196.5000      0.0000    261.3568    119.2926     65.2312
   196.7500      0.0000    261.3660    119.3796     67.3460
   197.0000      0.0000    261.3645    125.1247     69.2085
   197.2500      0.0000    261.3463    119.5537     70.8813
   197.5000      0.0000    261.3120    121.2947     72.1877
   197.7500      0.0000    261.2719    127.3009     73.0859
   198.0000      0.0000    261.2398    128.7807     73.8315
   198.2500      0.0000    261.2233    119.2056     74.7601
   198.5000      0.0000    261.2205    122.6874     76.0869
   198.7500      0.0000    261.2253    126.5175     77.7143
   199.0000      0.0000    261.2340    122.6004     78.9968
   199.2500      0.0000    261.2514    124.6895     78.8876
   199.5000      0.0000    261.3019    114.9403     76.6820
   199.7500      0.0000    261.4487     90.3932     72.8044
   200.0000      0.0000    261.8024     76.7269     68.8339
   200.2500      0.0000    262.4771     60.4491     66.4089
   200.5000      0.0000    263.4899     57.5766     65.8205
   200.7500      0.0000    264.6898     57.3155     65.8234
   201.0000      0.0000    265.8174     54.0077     64.9971
   201.2500      0.0000    266.6614     56.7932     63.1321
   201.5000      0.0000    267.1630     55.4004     61.1345
   201.7500      0.0000    267.3905     57.8378     59.8524
   202.0000     -2.0000    267.4514     64.1921     59.3042
   202.2500      0.0000    267.4217     56.7932     59.0377
   202.5000      0.0000    267.3177     58.4471     59.0006
   202.7500      0.0000    267.0977     61.7548     59.7101
   203.0000      0.0000    266.6861     62.3642     61.4961
   203.2500      0.0000    266.0154     63.7569     63.8902
   203.5000      0.0000    265.0851     57.0543     65.9044
   203.7500      0.0000    264.0090     59.3175     66.7110
   204.0000      0.0000    262.9865     60.1010     66.0797
   204.2500      0.0000    262.1921     68.8927     64.3908
   204.5000      0.0000    261.6829     71.8522     62.3522
   204.7500      0.0000    261.4073     87.6077     60.5776
   205.0000      0.0000    261.2776     98.9237     59.2846
   205.2500      0.0000    261.2266    125.7340     58.2783
   205.5000      0.0000    261.2165    126.3434     57.2650
   205.7500      0.0000    261.2256    124.2543     56.3162
   206.0000      0.0000    261.2379    127.9973     55.9553
   206.2500      0.0000    261.2417    122.9486     56.6036
   206.5000      0.0000    261.2342    119.7278     57.9851
   206.7500      0.0000    261.2219    123.9061     59.3716
   207.0000      0.0000    261.2137    125.6470     60.4475
   207.2500      0.0000    261.2111    123.2967     61.5603
   207.5000      0.0000    261.2061    118.7703     62.9045
   207.7500      0.0000    261.1908    120.5113     63.8583
   208.0000      0.0000    261.1661    122.3392     63.5706
   208.2500      0.0000    261.1427    118.8574     62.0383
   208.5000      0.0000    261.1326    121.2947     60.1885
   208.7500      0.0000    261.1411    126.1693     58.9272
   209.0000      0.0000    261.1637    123.0356     58.3945
   209.2500      0.0000    261.1891    125.2118     58.0747
   209.5000      0.0000    261.2048    120.0760     57.3717
   209.7500      0.0000    261.2043    122.0781     56.0875
   210.0000      0.0000    261.1911    119.2926     54.5609
   210.2500      0.0000    261.1756    124.2543     53.2876
   210.5000      0.0000    261.1661    121.1206     52.2400
   210.7500      0.0000    261.1627    125.7340     50.8522
   211.0000      0.0000    261.1599    123.9061     48.9773
   211.2500      0.0000    261.1530    117.5517     47.4935
   211.5000      0.0000    261.1403    122.4263     47.4906
   211.7500      0.0000    261.1243    122.9486     49.1184
   212.0000      0.0000    261.1119    125.3859     51.6282
   212.2500      0.0000    261.1109    122.4263     54.3836
   212.5000      0.0000    261.1234    124.3413     57.4038
   212.7500      0.0000    261.1428    125.2118     60.7856
   213.0000      0.0000    261.1612    120.8594     63.8462
   213.2500      0.0000    261.1756    123.9931     65.2432
   213.5000      0.0000    261.1870    119.6408     64.0179
   213.7500      0.0000    261.1946    123.2967     60.3656
   214.0000      0.0000    261.1953    121.1206     55.4777
   214.2500      0.0000    261.1876    124.1672     50.8891
   214.5000      0.0000    261.1740    124.4283     47.8779
   214.7500      0.0000    261.1595    122.5133     47.0317
   215.0000      0.0000    261.1478    124.4283     48.0515
   215.2500      0.0000    261.1424    121.9910     49.9667
   215.5000      0.0000    261.1459    127.9973     51.6875
   215.7500      0.0000    261.1570    122.3392     52.6307
   216.0000      0.0000    261.1698    119.2926     53.0739
   216.2500      0.0000    261.1775    123.7320     53.8441
   216.5000      0.0000    261.1787    120.5983     55.3729
   216.7500      0.0000    261.1784    117.8999     57.1589
   217.0000      0.0000    261.1815    118.5092     58.5755
   217.2500      0.0000    261.1874    121.9040     60.2106
   217.5000      0.0000    261.1906    124.6895     63.9275
   217.7500      0.0000    261.1886    126.2563     71.2824
   218.0000      0.0000    261.1844    121.5558     81.7791
   218.2500      0.0000    261.1822    123.4708     92.6027
   218.5000      0.0000    261.1825    121.2947    100.2756
   218.7500      0.0000    261.1827    125.2118    103.0616
   219.0000      0.0000    261.1798    125.0377    101.9959
   219.2500      0.0000    261.1723    120.9465     99.5362
   219.5000      0.0000    261.1599    125.3859     97.3678
   219.7500      0.0000    261.1423    120.1631     95.7203
   220.0000      0.0000    261.1193    123.2967     94.3199
   220.2500      0.0000    261.0921    124.1672     93.2062
   220.5000      0.0000    261.0641    124.6895     92.2943
   220.7500      0.0000    261.0386    119.9890     90.3862
   221.0000      0.0000    261.0181    117.3776     85.4322
   221.2500      0.0000    261.0042    122.6004     76.4880
   221.5000      0.0000    260.9962    124.1672     65.1825
   221.7500      0.0000    260.9907    123.8190     54.6806
   222.0000      0.0000    260.9832    118.8574     47.2520
   222.2500      0.0000    260.9713    123.2967     43.0953
   222.5000      0.0000    260.9569    123.2967     41.1751
   222.7500      0.0000    260.9456    124.2543     40.5283
   223.0000      0.0000    260.9431    120.5113     40.6254
   223.2500      0.0000    260.9514    121.0335     41.0358
   223.5000      0.0000    260.9684    123.6449     41.3364
   223.7500      0.0000    260.9902    122.9486     41.4654
   224.0000      0.0000    261.0145    120.5113     41.9850
   224.2500      0.0000    261.0420    122.6004     43.7422
   224.5000      0.0000    261.0747    113.3734     47.0454
   224.7500      0.0000    261.1111    119.9019     51.1978
