~Version Information
VERS.                      2.0: CWLS Log ASCII Standard - VERSION 2.0
WRAP.                       NO: One line per depth step
~Well Information Block
STRT.FT               260.0000: 
STOP.FT              2269.5000: 
STEP.FT                 0.1000: 
NULL.                -999.2500: 
COMP.          Pioneer Natural Resources: COMPANY
WELL.            Moo Moo 31-36: WELL
FLD.           Purgatoire River: FIELD
LOC.           612' FNL & 2326' FEL: LOCATION
PROV.                 Colorado: PROVINCE
CNTY.               Las Animas: COUNTRY
SRVC.                Patterson: SERVICE COMPANY
DATE.          Fri Jun 17 07:04:43 2005: LOG DATE
UWI.           05 071 08395 00: UNIQUE WELL ID
~Curve Information Block
DEPT.FT            0 000 00 00: Depth
DCAL.in                       : CDL Caliper
RHOB.g/cc                     : CDL Bulk Density
RHOC.g/cc                     : CDL Density Correction
DPOR.pu                       : CDL Density Porosity
GR.GAPI                       : Gamma Ray
NPOR.pu                       : Neutron Porosity
~Parameter Information Block
~A  Depth       DCAL        RHOB        RHOC        DPOR         GR         NPOR    
# ...
  1325.6000      8.0373      2.6646      0.1156     -0.8860    115.1142     23.0155
  1325.7000      8.0373      2.6954      0.0882     -2.7503    105.4385     22.6911
  1325.8000      8.0298      2.7238      0.0957     -4.4736    100.0522     22.7949
  1325.9000      8.0298      2.7258      0.1120     -4.5910     93.4897     22.8122
  1326.0000      8.0316      2.6867      0.0398     -2.2246     88.4151     22.3114
  1326.1000      8.0316      2.6399      0.0208      0.6149     91.9744     21.1875
  1326.2000      8.0316      2.6140      0.0239      2.1808    101.9558     20.2472
  1326.3000      8.0258      2.6035      0.0167      2.8187    108.8689     19.8590
  1326.4000      8.0258      2.6071     -0.0084      2.5983    107.8506     19.4180
  1326.5000      8.0376      2.6300      0.0638      1.2146    102.9253     18.5972
  1326.6000      8.0376      2.6579      0.1059     -0.4816    102.2641     18.0082
  1326.7000      8.0376      2.6841      0.0499     -2.0645    107.1980     17.9965
  1326.8000      8.0395      2.7096      0.0944     -3.6151    111.1170     18.2602
  1326.9000      8.0395      2.7130      0.0962     -3.8197    109.1052     18.7526
  1327.0000      8.0290      2.6860      0.0234     -2.1842    103.5288     19.4687
  1327.1000      8.0290      2.6578      0.0472     -0.4699    100.8662     20.3274
  1327.2000      8.0290      2.6449      0.0861      0.3113    101.9488     20.8050
  1327.3000      8.0449      2.6459      0.0297      0.2498    103.3553     20.2263
  1327.4000      8.0449      2.6675     -0.0042     -1.0618    104.7562     19.4201
  1327.5000      8.0480      2.7009      0.0812     -3.0831    104.3153     19.1103
  1327.6000      8.0480      2.7110      0.0823     -3.6943    100.3458     18.9868
  1327.7000      8.0480      2.6757      0.0671     -1.5598    100.3052     19.3200
  1327.8000      8.0604      2.6151      0.0104      2.1157    110.4204     20.4746
  1327.9000      8.0604      2.5622     -0.0145      5.3191    124.1062     21.6844
  1328.0000      8.0644      2.5255      0.0244      7.5467    136.4597     22.5899
  1328.1000      8.0644      2.5022     -0.0489      8.9552    148.9671     24.0021
  1328.2000      8.0644      2.4898     -0.0055      9.7121    159.3974     25.9452
  1328.3000      8.0707      2.4775     -0.0467     10.4563    166.1029     27.4149
  1328.4000      8.0707      2.4648     -0.0156     11.2253    170.5889     28.2680
  1328.5000      8.0907      2.4602      0.0254     11.5027    170.7113     28.5690
  1328.6000      8.0907      2.4694      0.0623     10.9481    167.1638     28.1180
  1328.7000      8.0907      2.4956      0.0688      9.3583    167.7772     27.6531
  1328.8000      8.1145      2.5282      0.1351      7.3846    177.7288     27.9081
  1328.9000      8.1145      2.5445      0.1313      6.3953    190.3841     28.5538
  1329.0000      8.1178      2.5364      0.1261      6.8874    193.2270     29.4064
  1329.1000      8.1178      2.5137      0.0545      8.2600    186.7581     30.4755
  1329.2000      8.1178      2.4955      0.0498      9.3655    179.2229     31.0778
  1329.3000      8.1980      2.4960      0.0436      9.3304    169.7498     30.7704
  1329.4000      8.1980      2.5145      0.0499      8.2116    156.2907     29.7990
  1329.5000      8.2247      2.5293      0.1202      7.3164    147.6286     29.0013
  1329.6000      8.2247      2.5199      0.0582      7.8843    151.9093     28.9767
  1329.7000      8.2247      2.4967      0.0497      9.2898    162.6194     29.2664
  1329.8000      8.3251      2.4735      0.0621     10.6990    168.6806     29.3847
  1329.9000      8.3251      2.4509     -0.0006     12.0660    168.8295     29.1451
  1330.0000      8.3831      2.4356      0.0360     12.9950    169.0241     29.1817
  1330.1000      8.3831      2.4361      0.0612     12.9648    169.6576     30.4605
  1330.2000      8.3831      2.4615     -0.0043     11.4230    166.7182     31.8555
  1330.3000      8.2989      2.5039      0.0683      8.8570    163.1544     31.4774
  1330.4000      8.2989      2.5258      0.1094      7.5267    163.7189     29.9654
  1330.5000      8.3566      2.5131      0.1150      8.2964    163.2429     29.3461
  1330.6000      8.3566      2.4900      0.0821      9.6957    158.4375     30.0093
  1330.7000      8.3566      2.4660      0.1136     11.1502    154.5146     30.9897
  1330.8000      8.4469      2.4222      0.0354     13.8084    151.6534     32.0533
  1330.9000      8.4469      2.3489      0.0190     18.2483    146.5383     32.9959
  1331.0000      8.4564      2.2489      0.0093     24.3107    140.6506     32.8426
  1331.1000      8.4564      2.1258     -0.0259     31.7687    135.8131     31.8105
  1331.2000      8.4564      1.9864     -0.0798     40.2176    132.3433     31.2303
  1331.3000      8.4823      1.8396     -0.0917     49.1148    125.5173     31.7124
  1331.4000      8.4823      1.7004     -0.1448     57.5535    112.5011     32.8197
  1331.5000      8.4481      1.5844     -0.1195     64.5841     98.2760     33.5828
  1331.6000      8.4481      1.4914     -0.1364     70.2190     86.6934     33.8551
  1331.7000      8.4481      1.4162     -0.1165     74.7768     76.9562     34.3910
  1331.8000      8.4131      1.3694     -0.1269     77.6115     69.0493     34.9594
  1331.9000      8.4131      1.3664      0.0025     77.7922     64.6457     34.4793
  1332.0000      8.3896      1.4014      0.0641     75.6706     65.5183     33.3281
  1332.1000      8.3896      1.4656      0.0800     71.7845     70.4929     33.0474
  1332.2000      8.3896      1.5695      0.0779     65.4839     75.0538     33.9735
  1332.3000      8.4278      1.7147      0.1160     56.6871     78.8462     35.0681
  1332.4000      8.4278      1.8659      0.2141     47.5216     83.8673     35.4503
  1332.5000      8.7705      1.9869      0.2018     40.1908     89.0072     35.0237
  1332.6000      8.7705      2.0834      0.1922     34.3388     94.3141     34.2589
  1332.7000      8.7705      2.1786      0.1758     28.5675     97.0193     33.6302
  1332.8000      8.8942      2.2701      0.2399     23.0237     93.7433     33.2937
  1332.9000      8.8942      2.3423      0.1971     18.6504     88.8072     33.3983
  1333.0000      8.8150      2.4018      0.1466     15.0398     89.4072     33.3538
  1333.1000      8.8150      2.4616      0.1416     11.4170    100.3424     32.0880
  1333.2000      8.8150      2.5116      0.1254      8.3855    114.7303     29.7738
  1333.3000      8.3064      2.5403      0.0904      6.6488    118.8203     27.5962
  1333.4000      8.3064      2.5534      0.0924      5.8544    115.0600     26.4897
  1333.5000      8.1612      2.5548      0.1236      5.7690    115.7031     26.0074
  1333.6000      8.1612      2.5526      0.0817      5.9008    121.0414     25.1784
  1333.7000      8.1612      2.5628      0.0785      5.2842    124.4902     24.0359
  1333.8000      8.1414      2.5758      0.1185      4.4995    121.7139     22.7288
  1333.9000      8.1414      2.5689      0.0929      4.9134    112.8656     21.5376
  1334.0000      8.1378      2.5475      0.0668      6.2121    105.8202     21.1013
  1334.1000      8.1378      2.5376     -0.0044      6.8094    104.5366     20.7934
  1334.2000      8.1378      2.5503      0.0212      6.0408    102.9281     19.8343
  1334.3000      8.1384      2.5704      0.0583      4.8235     97.0189     18.6767
  1334.4000      8.1384      2.5771      0.0702      4.4180     92.0540     17.8468
  1334.5000      8.1234      2.5592      0.0994      5.5059     92.9598     17.4707
  1334.6000      8.1234      2.5336     -0.0108      7.0534     96.9556     17.5431
  1334.7000      8.1234      2.5348     -0.0153      6.9842    100.5392     17.9407
  1334.8000      8.1333      2.5491      0.0955      6.1170    101.9402     18.7258
  1334.9000      8.1333      2.5372     -0.0005      6.8343     99.8363     19.8715
  1335.0000      8.1681      2.5089      0.0119      8.5500     97.1330     20.7253
  1335.1000      8.1681      2.5001     -0.0466      9.0846     97.0121     20.6233
