~Version Information
VERS.                      2.0: CWLS Log ASCII Standard - VERSION 2.0
WRAP.                       NO: One line per depth step
~Well Information Block
STRT.FT                -7.2500: 
STOP.FT               862.2500: 
STEP.FT                 0.2500: 
NULL.                -999.2500: 
COMP.          Pioneer Natural Resources: COMPANY
WELL.          Santisteven 13-22: WELL
FLD.           Purgatorie River: FIELD
LOC.           1861' FSL & 992' FWL--: LOCATION
PROV.                       CO: PROVINCE
CNTY.               Las Animas: COUNTRY
SRVC.          Patterson Wireline: SERVICE COMPANY
DATE.          Thu Apr 07 09:08:11 2005: LOG DATE
UWI.           05 071 08337 00: UNIQUE WELL ID
~Curve Information Block
DEPT.FT            0 000 00 00: Depth
CCL.                          : Casing Collar Locator
TT3.usec                      : CBL 3' Travel Time
AMP3.mV                       : CBL 3' Amplitude
GR.GAPI                       : Gamma Ray
~Parameter Information Block
~A  Depth       CCL         TT3         AMP3         GR     
# ...
   595.7500      0.0000    786.3304      4.6464     56.3372
   596.0000      0.0000    786.3173      4.6160     62.3104
   596.2500      0.0000    786.0511      4.5910     70.0472
   596.5000      0.0000    785.7742      4.5609     77.4367
   596.7500      0.0000    785.6609      4.5279     82.2027
   597.0000      0.0000    785.7309      4.5046     83.3635
   597.2500      0.0000    785.9199      4.4992     81.7407
   597.5000      0.0000    786.1868      4.5148     78.9859
   597.7500      0.0000    786.5139      4.5547     76.1264
   598.0000      0.0000    786.8489      4.6111     73.1878
   598.2500      0.0000    787.1154      4.6528     70.0571
   598.5000      0.0000    787.3066      4.6476     67.1101
   598.7500      0.0000    787.5176      4.5969     64.7012
   599.0000      0.0000    787.8447      4.5354     62.5255
   599.2500      0.0000    788.2631      4.4983     59.9658
   599.5000      0.0000    788.6384      4.5006     56.9624
   599.7500      0.0000    788.8609      4.5421     54.1953
   600.0000      0.0000    788.9255      4.6064     52.5173
   600.2500      0.0000    788.8328      4.6572     52.4054
   600.5000      0.0000    788.4252      4.6605     53.7118
   600.7500      0.0000    787.3104      4.6178     55.6061
   601.0000      0.0000    784.9693      4.5656     56.8902
   601.2500      0.0000    781.0865      4.5402     56.7526
   601.5000      0.0000    775.9563      4.5477     55.3544
   601.7500      0.0000    770.6325      4.5637     53.5825
   602.0000      0.0000    766.6770      4.5581     52.2030
   602.2500      0.0000    765.6120      4.5196     51.3564
   602.5000      0.0000    768.0987      4.4640     50.7660
   602.7500      0.0000    773.2310      4.4204     50.1462
   603.0000      0.0000    778.9060      4.4067     49.4090
   603.2500      0.0000    783.2666      4.4178     48.7136
   603.5000      0.0000    785.6638      4.4366     48.4017
   603.7500      0.0000    786.2376      4.4502     48.8038
   604.0000      0.0000    784.9611      4.4541     50.0903
   604.2500      0.0000    781.4731      4.4506     52.1895
   604.5000      0.0000    776.0588      4.4475     54.7433
   604.7500      0.0000    770.6823      4.4550     57.2004
   605.0000      0.0000    768.2917      4.4785     58.9939
   605.2500      0.0000    770.3939      4.5164     59.6236
   605.5000      0.0000    775.7166      4.5627     58.7166
   605.7500      0.0000    781.8308      4.6071     56.2006
   606.0000      0.0000    787.6022      4.6390     52.4149
   606.2500      0.0000    793.4703      4.6591     48.0439
   606.5000      0.0000    799.8312      4.6792     44.0377
   606.7500      0.0000    806.0511      4.7064     41.4865
   607.0000      0.0000    811.2477      4.7338     41.1900
   607.2500      0.0000    815.3763      4.7506     43.1209
   607.5000      0.0000    818.9657      4.7508     46.4569
   607.7500      0.0000    822.1564      4.7383     50.3605
   608.0000      0.0000    824.5448      4.7222     54.7306
   608.2500      0.0000    825.7742      4.7041     59.9799
   608.5000      0.0000    825.7421      4.6748     66.0725
   608.7500      0.0000    824.3226      4.6320     72.0800
   609.0000      0.0000    821.3089      4.5887     76.8169
   609.2500      0.0000    816.7122      4.5607     79.6553
   609.5000      0.0000    810.8876      4.5536     80.6270
   609.7500      0.0000    804.3335      4.5622     80.1679
   610.0000      0.0000    797.7762      4.5801     79.0121
   610.2500      0.0000    792.6848      4.6041     78.1568
   610.5000      0.0000    791.2208      4.6294     78.7479
   610.7500      0.0000    794.8049      4.6464     81.8369
   611.0000      0.0000    802.3968      4.6467     87.8030
   611.2500      0.0000    810.6373      4.6302     95.7152
   611.5000      0.0000    816.1799      4.6040    103.5732
   611.7500      0.0000    817.9764      4.5770    109.5540
   612.0000      0.0000    817.5043      4.5587    113.0619
   612.2500      0.0000    817.1415      4.5605    114.6366
   612.5000      0.0000    818.2507      4.5912    115.1932
   612.7500      0.0000    820.4706      4.6427    115.3658
   613.0000      0.0000    822.5076      4.6815    115.2034
   613.2500      0.0000    823.3005      4.6667    114.3234
   613.5000      0.0000    822.4974      4.5868    112.4929
   613.7500      0.0000    820.3726      4.4767    110.0423
   614.0000      0.0000    817.6217      4.4001    107.6878
   614.2500      0.0000    814.8710      4.4107    106.1464
   614.5000      0.0000    812.0762      4.5148    105.8291
   614.7500      0.0000    808.7887      4.6629    106.5519
   615.0000      0.0000    805.2919      4.7876    107.5111
   615.2500      0.0000    802.9240      4.8570    107.8045
   615.5000      0.0000    802.9766      4.8818    107.0348
   615.7500      0.0000    805.7705      4.8788    105.4677
   616.0000      0.0000    810.8621      4.8492    103.9144
   616.2500      0.0000    817.2698      4.7926    103.3774
   616.5000      0.0000    823.2980      4.7276    104.3571
   616.7500      0.0000    827.1384      4.6893    106.3754
   617.0000      0.0000    828.1465      4.7106    108.3207
   617.2500      0.0000    827.0422      4.7978    109.2466
   617.5000      0.0000    824.7283      4.9207    108.9108
   617.7500      0.0000    821.2892      5.0282    107.7181
   618.0000      0.0000    816.2437      5.0811    106.3054
   618.2500      0.0000    809.6617      5.0719    105.2340
   618.5000      0.0000    802.9962      5.0169    104.8960
   618.7500      0.0000    798.6510      4.9345    105.3553
   619.0000      0.0000    798.3321      4.8315    106.1830
   619.2500      0.0000    801.3997      4.7013    106.7302
   619.5000      0.0000    804.6565      4.5314    106.7524
   619.7500      0.0000    804.1211      4.3171    106.6276
   620.0000      0.0000    797.9890      4.0733    106.8027
   620.2500      0.0000    788.7468      3.8311    107.0481
   620.5000      0.0000    782.5116      3.6174    106.3733
   620.7500      0.0000    785.5673      3.4397    103.8197
   621.0000      0.0000    800.7241      3.3009     99.5196
   621.2500      0.0000    826.2046      3.2211     94.9897
   621.5000      0.0000    857.1039      3.2198     92.2346
   621.7500     -2.0000    887.3372      3.2858     92.3881
   622.0000     -2.0000    911.2045      3.3855     95.0338
   622.2500     -2.0000    925.0496      3.4885     98.6539
   622.5000      0.0000    928.4772      3.5757    101.9018
   622.7500      0.0000    923.8480      3.6465    104.6143
   623.0000      0.0000    914.3381      3.7201    107.3603
   623.2500      0.0000    902.1423      3.8153    109.9750
   623.5000      0.0000    887.9201      3.9301    111.0454
   623.7500      0.0000    871.6548      4.0565    108.9636
   624.0000      0.0000    854.1611      4.2075    103.1507
   624.2500      0.0000    837.5543      4.4046     94.4720
   624.5000      0.0000    824.0753      4.6377     85.0666
   624.7500      0.0000    814.6942      4.8578     77.6458
   625.0000      0.0000    808.8939      5.0165     74.1713
   625.2500      0.0000    805.4448      5.1004     74.7480
   625.5000      0.0000    803.4338      5.1229     77.7759
   625.7500      0.0000    802.6687      5.0978     81.2531
   626.0000      0.0000    803.0546      5.0384     84.1329
   626.2500      0.0000    803.7682      4.9681     86.6038
   626.5000      0.0000    803.6268      4.9141     89.1750
   626.7500      0.0000    802.1900      4.8884     91.8395
   627.0000      0.0000    799.7861      4.8841     94.3243
   627.2500      0.0000    796.5619      4.8894     96.5995
   627.5000      0.0000    792.2252      4.8963     98.4444
   627.7500      0.0000    786.6688      4.8940     98.8692
   628.0000      0.0000    780.2728      4.8697     97.0061
   628.2500      0.0000    773.6541      4.8217     93.6763
   628.5000      0.0000    767.3484      4.7658     91.1675
   628.7500      0.0000    761.6863      4.7208     91.1568
   629.0000      0.0000    757.2030      4.6902     93.4223
