~Version Information
VERS.                      2.0: CWLS Log ASCII Standard - VERSION 2.0
WRAP.                       NO: One line per depth step
~Well Information Block
STRT.FT               456.0000: 
STOP.FT              1703.0000: 
STEP.FT                 0.2500: 
NULL.                -999.2500: 
COMP.          Pioneer Natural Resources: COMPANY
WELL.                Mead 11-9: WELL
FLD.           Purgatoire River: FIELD
LOC.           1127' FNL & 668' FWL: LOCATION
PROV.                 Colorado: PROVINCE
CNTY.               Las Animas: COUNTRY
SRVC.                Patterson: SERVICE COMPANY
DATE.          Fri Feb 18 16:14:34 2005: LOG DATE
UWI.           05 071 08160 00: UNIQUE WELL ID
~Curve Information Block
DEPT.FT            0 000 00 00: Depth
SN.Ohm-m                      : IEL Short Normal
SP.mV                         : IEL Spontaneous Potential
DIR.Ohm-m                     : IEL Induction Resistivity
GR.GAPI                       : Gamma Ray
~Parameter Information Block
~A  Depth        SN          SP         DIR          GR     
   456.0000   2000.0000   2000.0000     82.0665    101.1451
   456.2500   2000.0000   2000.0000     80.8770    101.0872
   456.5000   2000.0000   2000.0000     79.8578    100.7943
   456.7500   2000.0000   2000.0000     79.1001    100.2561
   457.0000   2000.0000   2000.0000     78.5214     99.1805
   457.2500   2000.0000   2000.0000     78.0459     98.6336
   457.5000   2000.0000   2000.0000     77.6722     98.6227
   457.7500   2000.0000   2000.0000     77.4164     99.1602
   458.0000   2000.0000   2000.0000     77.2531     99.8588
   458.2500   2000.0000   2000.0000     77.1260     99.5604
   458.5000   2000.0000   2000.0000     77.0149     97.9566
   458.7500   2000.0000   2000.0000     76.9608     96.8698
   459.0000   2000.0000   2000.0000     77.0140     96.2280
   459.2500   2000.0000   2000.0000     77.1442     96.2835
   459.5000   2000.0000   2000.0000     77.2174     96.1356
   459.7500   2000.0000   2000.0000     77.0881     95.5997
   460.0000   2000.0000   2000.0000     76.7352     94.4222
   460.2500   2000.0000   2000.0000     76.3150     93.6884
   460.5000   2000.0000   2000.0000     76.0693     92.8885
   460.7500   2000.0000   2000.0000     76.1591     92.5067
   461.0000   2000.0000   2000.0000     76.5585     91.9492
   461.2500   2000.0000   2000.0000     77.0831     91.3960
   461.5000   2000.0000   2000.0000     77.5316     89.9147
   461.7500   2000.0000   2000.0000     77.8237     88.4848
   462.0000   2000.0000   2000.0000     78.0094     86.3337
   462.2500   2000.0000   2000.0000     78.1548     85.4006
   462.5000   2000.0000   2000.0000     78.2383     84.9826
   462.7500   2000.0000   2000.0000     78.1688     85.0416
   463.0000   2000.0000   2000.0000     77.8995     84.8786
   463.2500   2000.0000   2000.0000     77.5110     84.3360
   463.5000   2000.0000   2000.0000     77.1618     82.9296
   463.7500   2000.0000   2000.0000     76.9544     81.8546
   464.0000   2000.0000   2000.0000     76.8445     80.5077
   464.2500   2000.0000   2000.0000     76.6868     79.9366
   464.5000   2000.0000   2000.0000     76.3683     79.5720
   464.7500   2000.0000   2000.0000     75.9134     79.5041
   465.0000   2000.0000   2000.0000     75.4781     79.1584
   465.2500   2000.0000   2000.0000     75.2593     78.4572
   465.5000   2000.0000   2000.0000     75.3951     76.5531
   465.7500   2000.0000   2000.0000     75.9000     74.9650
   466.0000   2000.0000   2000.0000     76.6480     73.0350
   466.2500   2000.0000   2000.0000     77.4122     72.6727
   466.5000   2000.0000   2000.0000     77.9418     73.9876
   466.7500   2000.0000   2000.0000     78.0436     75.6893
   467.0000   2000.0000   2000.0000     77.6472     77.8773
   467.2500   2000.0000   2000.0000     76.8606     78.3433
   467.5000   2000.0000   2000.0000     75.9710     77.6779
   467.7500   2000.0000   2000.0000     75.3271     77.0167
   468.0000   2000.0000   2000.0000     75.1479     76.4804
   468.2500   2000.0000   2000.0000     75.3899     76.1417
   468.5000   2000.0000   2000.0000     75.7813     74.4718
   468.7500   2000.0000   2000.0000     76.0508     72.2273
   469.0000   2000.0000   2000.0000     76.2055     67.9697
   469.2500   2000.0000   2000.0000     76.5876     65.6083
   469.5000   2000.0000   2000.0000     77.5670     64.2752
   469.7500   2000.0000   2000.0000     79.0455     64.9082
   470.0000   2000.0000   2000.0000     80.0833     67.0261
   470.2500   2000.0000   2000.0000     79.1168     68.5798
   470.5000   2000.0000   2000.0000     75.0137     70.9313
   470.7500   2000.0000   2000.0000     68.1331     72.6893
   471.0000   2000.0000   2000.0000     60.0811     75.4062
   471.2500   2000.0000   2000.0000     52.6416     76.7257
   471.5000   2000.0000   2000.0000     47.1370     77.0636
   471.7500   2000.0000   2000.0000     44.4410     76.1493
   472.0000   2000.0000   2000.0000     45.3454     73.8550
   472.2500   2000.0000   2000.0000     51.0886     72.3312
   472.5000   2000.0000   2000.0000     63.8216     70.8965
   472.7500   2000.0000   2000.0000     85.6817     70.8855
   473.0000   2000.0000   2000.0000    112.0869     72.8213
   473.2500   2000.0000   2000.0000    124.4882     75.5259
   473.5000   2000.0000   2000.0000    115.2121     81.3020
   473.7500   2000.0000   2000.0000    100.1802     85.8029
   474.0000   2000.0000   2000.0000     90.0161     92.6151
   474.2500   2000.0000   2000.0000     85.9363     96.7724
   474.5000   2000.0000   2000.0000     86.8751    101.9934
   474.7500   2000.0000   2000.0000     92.0520    104.7069
   475.0000   2000.0000   2000.0000     99.9659    107.6325
   475.2500   2000.0000   2000.0000    103.7756    108.7981
   475.5000   2000.0000   2000.0000     91.3270    109.2102
   475.7500   2000.0000   2000.0000     66.1090    108.5188
   476.0000   2000.0000   2000.0000     44.9040    106.1925
   476.2500   2000.0000   2000.0000     32.9066    104.1616
   476.5000   2000.0000   2000.0000     28.2365    101.5637
   476.7500   2000.0000   2000.0000     30.5822    100.8737
   477.0000   2000.0000   2000.0000     52.3910    101.8876
   477.2500   2000.0000   2000.0000 100000.0000    103.5184
   477.5000   2000.0000   2000.0000 100000.0000    106.1695
   477.7500   2000.0000   2000.0000 100000.0000    107.6013
   478.0000   2000.0000   2000.0000 100000.0000    109.1684
   478.2500   2000.0000   2000.0000 100000.0000    110.0801
   478.5000   2000.0000   2000.0000 100000.0000    112.0462
   478.7500   2000.0000   2000.0000 100000.0000    106.6617
   479.0000   2000.0000   2000.0000     35.7534    111.4854
   479.2500   2000.0000   2000.0000      8.1381    115.7133
   479.5000   2000.0000   2000.0000      5.1285    123.2757
   479.7500   2000.0000   2000.0000      4.5006    119.8688
   480.0000   2000.0000   2000.0000      4.8478    128.8448
   480.2500   2000.0000   2000.0000      6.0750    135.0570
   480.5000   2000.0000   2000.0000      8.7269    144.1650
   480.7500   2000.0000   2000.0000     15.2648    132.7625
   481.0000   2000.0000   2000.0000     48.6058    140.3187
   481.2500   2000.0000   2000.0000 100000.0000    144.5400
   481.5000   2000.0000   2000.0000 100000.0000    147.6240
   481.7500   2000.0000   2000.0000 100000.0000    127.3959
   482.0000   2000.0000   2000.0000 100000.0000    121.8591
   482.2500   2000.0000   2000.0000 100000.0000    116.5666
   482.5000   2000.0000   2000.0000 100000.0000    108.9654
   482.7500   2000.0000   2000.0000    117.9681    105.2696
   483.0000   2000.0000   2000.0000     40.8004    101.8872
   483.2500   2000.0000   2000.0000     29.7297    100.3270
   483.5000   2000.0000   2000.0000     26.5774     97.8967
   483.7500   2000.0000   2000.0000     25.8205     96.2171
   484.0000   2000.0000   2000.0000     25.9833     94.5081
   484.2500   2000.0000   2000.0000     26.5451     94.4060
   484.5000   2000.0000   2000.0000     27.3505     95.7618
   484.7500   2000.0000   2000.0000     28.5199     97.1199
   485.0000   2000.0000   2000.0000     30.4343     98.7234
   485.2500   2000.0000   2000.0000     33.6489     99.1361
   485.5000   2000.0000   2000.0000     38.5900     98.7192
   485.7500   2000.0000   2000.0000     44.9190     97.8946
   486.0000   2000.0000   2000.0000     50.7688     96.0928
   486.2500   2000.0000   2000.0000     53.4657     94.5594
   486.5000   2000.0000   2000.0000     52.2778     91.5997
   486.7500   2000.0000   2000.0000     48.9058     89.0829
   487.0000   2000.0000   2000.0000     45.0936     84.7314
   487.2500   2000.0000   2000.0000     41.5410     81.9132
   487.5000   2000.0000   2000.0000     38.3936     78.7479
   487.7500   2000.0000   2000.0000     35.7841     77.6065
   488.0000   2000.0000   2000.0000     33.9420     77.0793
   488.2500   2000.0000   2000.0000     33.0716     77.1857
   488.5000   2000.0000   2000.0000     33.2375     77.7293
   488.7500   2000.0000   2000.0000     34.3165     78.3442
   489.0000   2000.0000   2000.0000     35.9884     79.4838
   489.2500   2000.0000   2000.0000     37.7875     80.0520
