~Version Information
VERS.                      2.0: CWLS Log ASCII Standard - VERSION 2.0
WRAP.                       NO: One line per depth step
~Well Information Block
STRT.FT               -10.3000: 
STOP.FT              1936.7000: 
STEP.FT                 0.1000: 
NULL.                -999.2500: 
COMP.          Petrogulf Corporation: COMPANY
WELL.              Graff 9-31R: WELL
FLD.           Purgatorie River: FIELD
LOC.           707' FNL & 1713' FEL------: LOCATION
CNTY.               Las Animas: COUNTY
SRVC.                         : SERVICE COMPANY
DATE.          Wed Nov 17 13:41:51 2004: LOG DATE
UWI.                          : UNIQUE WELL ID
STAT.                       CO: STATE
~Curve Information Block
DEPT.FT            0 000 00 00: Depth
GR.GAPI                       : Gamma Ray
CCL.                          : Casing Collar Locator
TT3.usec                      : CBL 3' Travel Time
AMP3.mV                       : CBL 3' Amplitude
~Parameter Information Block
~A  Depth        GR         CCL         TT3         AMP3    
# ...
  1919.3000     83.9476      0.0000    680.4252      3.0997
  1919.4000     83.9476      0.0000    680.4252      3.0997
  1919.5000     76.4871      0.0000    676.6688      3.1332
  1919.6000     76.4871      0.0000    676.6688      3.1332
  1919.7000     76.4871      0.0000    676.6688      3.1332
  1919.8000     67.1555      0.0000    673.1449      3.1748
  1919.9000     67.1555      0.0000    673.1449      3.1748
  1920.0000     59.2295      0.0000    671.5066      3.2162
  1920.1000     59.2295      0.0000    671.5066      3.2162
  1920.2000     59.2295      0.0000    671.5066      3.2162
  1920.3000     54.5035      0.0000    674.1296      3.2335
  1920.4000     54.5035      0.0000    674.1296      3.2335
  1920.5000     53.3724      0.0000    682.2803      3.1995
  1920.6000     53.3724      0.0000    682.2803      3.1995
  1920.7000     53.3724      0.0000    682.2803      3.1995
  1920.8000     55.7888      0.0000    694.2798      3.0986
  1920.9000     55.7888      0.0000    694.2798      3.0986
  1921.0000     61.8242      0.0000    705.6962      2.9370
  1921.1000     61.8242      0.0000    705.6962      2.9370
  1921.2000     61.8242      0.0000    705.6962      2.9370
  1921.3000     71.4710      0.0000    712.3171      2.7443
  1921.4000     71.4710      0.0000    712.3171      2.7443
  1921.5000     84.1324      0.0000    713.2495      2.5630
  1921.6000     84.1324      0.0000    713.2495      2.5630
  1921.7000     84.1324      0.0000    713.2495      2.5630
  1921.8000     98.2415      0.0000    710.9766      2.4307
  1921.9000     98.2415      0.0000    710.9766      2.4307
  1922.0000    111.3138      0.0000    708.9877      2.3663
  1922.1000    111.3138      0.0000    708.9877      2.3663
  1922.2000    111.3138      0.0000    708.9877      2.3663
  1922.3000    120.8355      0.0000    709.8834      2.3651
  1922.4000    120.8355      0.0000    709.8834      2.3651
  1922.5000    125.7714      0.0000    714.6154      2.4050
  1922.6000    125.7714      0.0000    714.6154      2.4050
  1922.7000    125.7714      0.0000    714.6154      2.4050
  1922.8000    127.1700      0.0000    722.0746      2.4603
  1922.9000    127.1700      0.0000    722.0746      2.4603
  1923.0000    126.8691      0.0000    729.2526      2.5082
  1923.1000    126.8691      0.0000    729.2526      2.5082
  1923.2000    126.8691      0.0000    729.2526      2.5082
  1923.3000    125.7387      0.0000    731.5541      2.5191
  1923.4000    125.7387      0.0000    731.5541      2.5191
  1923.5000    123.5779      0.0000    720.6921      2.4318
  1923.6000    123.5779      0.0000    720.6921      2.4318
  1923.7000    123.5779      0.0000    720.6921      2.4318
  1923.8000    120.4542      0.0000    681.8938      2.1362
  1923.9000    120.4542      0.0000    681.8938      2.1362
  1924.0000    117.4368      0.0000    598.8860      1.5139
  1924.1000    117.4368      0.0000    598.8860      1.5139
  1924.2000    117.4368      0.0000    598.8860      1.5139
  1924.3000    115.7678      0.0000    469.4903      0.5505
  1924.4000    115.7678      0.0000    469.4903      0.5505
  1924.5000    115.4518      0.0000    316.9323     -0.5822
  1924.6000    115.4518      0.0000    316.9323     -0.5822
  1924.7000    115.4518      0.0000    316.9323     -0.5822
  1924.8000    114.8298      0.0000    179.0708     -1.6045
  1924.9000    114.8298      0.0000    179.0708     -1.6045
  1925.0000    111.7682      0.0000     82.9475     -2.3169
  1925.1000    111.7682      0.0000     82.9475     -2.3169
  1925.2000    111.7682      0.0000     82.9475     -2.3169
  1925.3000    105.6465      0.0000     31.0438     -2.7013
  1925.4000    105.6465      0.0000     31.0438     -2.7013
  1925.5000     98.2054      0.0000      9.2902     -2.8623
  1925.6000     98.2054      0.0000      9.2902     -2.8623
  1925.7000     98.2054      0.0000      9.2902     -2.8623
  1925.8000     92.0758      0.0000      2.2043     -2.9147
  1925.9000     92.0758      0.0000      2.2043     -2.9147
  1926.0000     88.3909      0.0000      0.4090     -2.9280
  1926.1000     88.3909      0.0000      0.4090     -2.9280
  1926.2000     88.3909      0.0000      0.4090     -2.9280
  1926.3000     86.1882      0.0000      0.0544     -2.9306
  1926.4000     86.1882      0.0000      0.0544     -2.9306
  1926.5000     84.0086      0.0000   -999.2500   -999.2500
  1926.6000     84.0086      0.0000   -999.2500   -999.2500
  1926.7000     84.0086      0.0000   -999.2500   -999.2500
  1926.8000     81.4273      0.0000   -999.2500   -999.2500
  1926.9000     81.4273      0.0000   -999.2500   -999.2500
  1927.0000     79.0928      0.0000   -999.2500   -999.2500
  1927.1000     79.0928      0.0000   -999.2500   -999.2500
  1927.2000     79.0928      0.0000   -999.2500   -999.2500
  1927.3000     78.0255      0.0000   -999.2500   -999.2500
  1927.4000     78.0255      0.0000   -999.2500   -999.2500
  1927.5000     79.1080      0.0000   -999.2500   -999.2500
  1927.6000     79.1080      0.0000   -999.2500   -999.2500
  1927.7000     79.1080      0.0000   -999.2500   -999.2500
  1927.8000     82.6757      0.0000   -999.2500   -999.2500
  1927.9000     82.6757      0.0000   -999.2500   -999.2500
  1928.0000     88.1512      0.0000   -999.2500   -999.2500
  1928.1000     88.1512      0.0000   -999.2500   -999.2500
  1928.2000     88.1512      0.0000   -999.2500   -999.2500
  1928.3000     94.2293      0.0000   -999.2500   -999.2500
  1928.4000     94.2293      0.0000   -999.2500   -999.2500
  1928.5000     99.8098      0.0000   -999.2500   -999.2500
  1928.6000     99.8098      0.0000   -999.2500   -999.2500
  1928.7000     99.8098      0.0000   -999.2500   -999.2500
  1928.8000    104.9306      0.0000   -999.2500   -999.2500
  1928.9000    104.9306      0.0000   -999.2500   -999.2500
  1929.0000    110.5515      0.0000   -999.2500   -999.2500
  1929.1000    110.5515      0.0000   -999.2500   -999.2500
  1929.2000    110.5515      0.0000   -999.2500   -999.2500
  1929.3000    117.1154      0.0000   -999.2500   -999.2500
  1929.4000    117.1154      0.0000   -999.2500   -999.2500
  1929.5000    123.5168      0.0000   -999.2500   -999.2500
  1929.6000    123.5168      0.0000   -999.2500   -999.2500
  1929.7000    123.5168      0.0000   -999.2500   -999.2500
  1929.8000    128.0018      0.0000   -999.2500   -999.2500
  1929.9000    128.0018      0.0000   -999.2500   -999.2500
  1930.0000    130.2070      0.0000   -999.2500   -999.2500
  1930.1000    130.2070      0.0000   -999.2500   -999.2500
  1930.2000    130.2070      0.0000   -999.2500   -999.2500
  1930.3000    131.9473      0.0000   -999.2500   -999.2500
  1930.4000    131.9473      0.0000   -999.2500   -999.2500
  1930.5000    135.7140      0.0000   -999.2500   -999.2500
  1930.6000    135.7140      0.0000   -999.2500   -999.2500
  1930.7000    135.7140      0.0000   -999.2500   -999.2500
  1930.8000    142.4816      0.0000   -999.2500   -999.2500
  1930.9000    142.4816      0.0000   -999.2500   -999.2500
  1931.0000    150.8403      0.0000   -999.2500   -999.2500
  1931.1000    150.8403      0.0000   -999.2500   -999.2500
  1931.2000    150.8403      0.0000   -999.2500   -999.2500
  1931.3000    157.7663      0.0000   -999.2500   -999.2500
  1931.4000    157.7663      0.0000   -999.2500   -999.2500
  1931.5000    160.2571      0.0000   -999.2500   -999.2500
  1931.6000    160.2571      0.0000   -999.2500   -999.2500
  1931.7000    160.2571      0.0000   -999.2500   -999.2500
  1931.8000    157.1891      0.0000   -999.2500   -999.2500
  1931.9000    157.1891      0.0000   -999.2500   -999.2500
  1932.0000    150.4352      0.0000   -999.2500   -999.2500
  1932.1000    150.4352   -999.2500   -999.2500   -999.2500
  1932.2000    150.4352   -999.2500   -999.2500   -999.2500
  1932.3000    143.8186   -999.2500   -999.2500   -999.2500
  1932.4000    143.8186   -999.2500   -999.2500   -999.2500
  1932.5000    140.1468   -999.2500   -999.2500   -999.2500
  1932.6000    140.1468   -999.2500   -999.2500   -999.2500
