~Version Information
VERS.                      2.0: CWLS Log ASCII Standard - VERSION 2.0
WRAP.                       NO: One line per depth step
~Well Information Block
STRT.FT               -16.5000: 
STOP.FT              1244.7500: 
STEP.FT                 0.2500: 
NULL.                -999.2500: 
COMP.          Pioneer Natural Resources: COMPANY
WELL.          Bouncer41-27 Tr: WELL
FLD.           Purgatorie River: FIELD
LOC.           292' FNL & 222' FEL--------: LOCATION
PROV.                       CO: PROVINCE
CNTY.               Las Animas: COUNTRY
SRVC.                         : SERVICE COMPANY
DATE.          Fri Feb 11 15:34:51 2005: LOG DATE
UWI.                071-08291 : UNIQUE WELL ID
~Curve Information Block
DEPT.FT            0 000 00 00: Depth
CCL.                          : Casing Collar Locator
TT3.usec                      : CBL 3' Travel Time
AMP3.mV                       : CBL 3' Amplitude
GR.GAPI                       : Gamma Ray
~Parameter Information Block
~A  Depth       CCL         TT3         AMP3         GR     
# ...
   988.5000      0.0000    674.1229      5.8322    144.8688
   988.7500      0.0000    689.6736      5.7223    139.7601
   989.0000      0.0000    703.6843      5.5973    134.1992
   989.2500      0.0000    714.7538      5.4803    129.5692
   989.5000      0.0000    722.8721      5.3955    126.1840
   989.7500      0.0000    728.1061      5.3593    124.0183
   990.0000      0.0000    730.8299      5.3769    123.0917
   990.2500      0.0000    731.8381      5.4442    122.9909
   990.5000      0.0000    731.8467      5.5427    122.4024
   990.7500      0.0000    731.0121      5.6382    119.6194
   991.0000      0.0000    728.8626      5.6979    114.0205
   991.2500      0.0000    724.9315      5.7154    107.1619
   991.5000      0.0000    719.7136      5.7150    101.9946
   991.7500      0.0000    714.9772      5.7279    100.6128
   992.0000      0.0000    712.7583      5.7648    102.6439
   992.2500      0.0000    713.9402      5.8129    105.7300
   992.5000      0.0000    717.8335      5.8505    107.3572
   992.7500      0.0000    722.7734      5.8620    106.1611
   993.0000      0.0000    726.8305      5.8411    102.1134
   993.2500      0.0000    728.3875      5.7886     96.2127
   993.5000      0.0000    726.8608      5.7125     89.9292
   993.7500      0.0000    723.3692      5.6306     84.3654
   994.0000      0.0000    720.4763      5.5672     79.9443
   994.2500      0.0000    720.4901      5.5444     77.1217
   994.5000      0.0000    723.5718      5.5742     77.0472
   994.7500      0.0000    727.4441      5.6518     81.0295
   995.0000      0.0000    728.4189      5.7505     89.2546
   995.2500      0.0000    721.7083      5.8275    100.0574
   995.5000      0.0000    701.2379      5.8481    110.5022
   995.7500      0.0000    662.3602      5.8084    118.0694
   996.0000      0.0000    608.5359      5.7259    122.2311
   996.2500      0.0000    555.5467      5.6150    124.5152
   996.5000      0.0000    525.0928      5.4918    127.0571
   996.7500      0.0000    530.1990      5.3942    131.1006
   997.0000      0.0000    565.8151      5.3655    136.5856
   997.2500      0.0000    613.8352      5.4058    142.5682
   997.5000      0.0000    657.0167      5.4669    147.9021
   997.7500      0.0000    688.3264      5.5080    152.1140
   998.0000      0.0000    709.1464      5.5317    155.8468
   998.2500      0.0000    722.1037      5.5506    159.8089
   998.5000      0.0000    727.0245      5.5531    163.0811
   998.7500      0.0000    721.6255      5.5268    163.3174
   999.0000      0.0000    704.3245      5.4898    159.2540
   999.2500      0.0000    677.4394      5.4685    152.6109
   999.5000      0.0000    648.9846      5.4597    146.9534
   999.7500      0.0000    630.2879      5.4386    144.6298
  1000.0000      0.0000    629.7733      5.3940    144.9067
  1000.2500      0.0000    647.5228      5.3429    144.9960
  1000.5000      0.0000    675.1592      5.3163    142.6700
  1000.7500      0.0000    701.4145      5.3344    137.9921
  1001.0000      0.0000    719.1025      5.3880    133.1390
  1001.2500      0.0000    727.9574      5.4415    130.8421
  1001.5000      0.0000    731.9042      5.4610    132.4460
  1001.7500      0.0000    734.4391      5.4439    136.9844
  1002.0000      0.0000    736.3358      5.4150    142.2220
  1002.2500      0.0000    736.5115      5.4002    146.6077
  1002.5000      0.0000    733.9457      5.4057    150.0220
  1002.7500      0.0000    728.4702      5.4179    152.7817
  1003.0000      0.0000    720.0805      5.4235    154.3938
  1003.2500      0.0000    707.8528      5.4276    153.6607
  1003.5000      0.0000    690.5226      5.4485    150.0465
  1003.7500      0.0000    669.6594      5.4986    144.7549
  1004.0000      0.0000    652.4880      5.5816    140.3561
  1004.2500      0.0000    648.8928      5.6985    139.2619
  1004.5000      0.0000    662.8650      5.8446    142.2598
  1004.7500      0.0000    687.7744      6.0022    148.2905
  1005.0000      0.0000    711.9074      6.1478    155.6187
  1005.2500      0.0000    727.5982      6.2649    163.0640
  1005.5000      0.0000    734.2197      6.3430    170.0663
  1005.7500      0.0000    735.0493      6.3701    175.9576
  1006.0000      0.0000    733.7816      6.3417    179.6007
  1006.2500      0.0000    733.0697      6.2828    179.8151
  1006.5000      0.0000    733.9943      6.2429    176.2190
  1006.7500      0.0000    736.0298      6.2565    169.6576
  1007.0000      0.0000    737.9485      6.3125    161.7267
  1007.2500      0.0000    738.9455      6.3705    154.0247
  1007.5000      0.0000    738.9579      6.4017    147.9631
  1007.7500      0.0000    738.0290      6.4100    144.7147
  1008.0000      0.0000    735.3848      6.4165    144.6987
  1008.2500      0.0000    728.7139      6.4246    147.1833
  1008.5000      0.0000    714.2335      6.4091    150.7099
  1008.7500      0.0000    688.2554      6.3438    154.1188
  1009.0000      0.0000    649.9126      6.2306    157.2165
  1009.2500      0.0000    602.9125      6.0913    160.1110
  1009.5000      0.0000    554.6642      5.9389    162.0817
  1009.7500      0.0000    513.4549      5.7731    162.0960
  1010.0000      0.0000    485.3994      5.6059    160.7415
  1010.2500      0.0000    472.6888      5.4778    160.5798
  1010.5000      0.0000    474.6860      5.4387    163.7397
  1010.7500      0.0000    490.7378      5.5080    169.3506
  1011.0000      0.0000    520.4197      5.6555    173.8041
  1011.2500      0.0000    560.3141      5.8110    173.5073
  1011.5000      0.0000    602.3134      5.8969    167.3477
  1011.7500      0.0000    635.8098      5.8736    157.0973
  1012.0000      0.0000    650.4557      5.7650    146.2491
  1012.2500      0.0000    638.8654      5.6344    138.1917
  1012.5000      0.0000    601.8469      5.5340    134.2085
  1012.7500      0.0000    553.0396      5.4787    132.6075
  1013.0000      0.0000    515.4061      5.4538    130.2459
  1013.2500      0.0000    508.8946      5.4341    125.3270
  1013.5000      0.0000    538.2089      5.3953    118.9116
  1013.7500      0.0000    590.5049      5.3187    113.7818
  1014.0000      0.0000    644.5533      5.1964    111.6497
  1014.2500      0.0000    683.4425      5.0407    111.3993
  1014.5000      0.0000    700.9700      4.8822    110.4560
  1014.7500      0.0000    699.8640      4.7593    107.7713
  1015.0000      0.0000    687.4595      4.7110    104.9832
  1015.2500      0.0000    672.7626      4.7615    104.7913
  1015.5000      0.0000    663.6588      4.8913    108.5708
  1015.7500      2.0000    663.6487      5.0336    115.3246
  1016.0000     -2.0000    671.2860      5.1155    122.7513
  1016.2500      0.0000    682.8981      5.1031    129.3197
  1016.5000      0.0000    694.4129      5.0214    134.8770
  1016.7500      0.0000    701.3570      4.9513    139.1902
  1017.0000      0.0000    699.5765      4.9899    140.8832
  1017.2500      0.0000    687.1006      5.1728    138.5572
  1017.5000      0.0000    666.1913      5.4299    132.5091
  1017.7500      0.0000    644.7231      5.6483    124.8314
  1018.0000      0.0000    633.5263      5.7724    117.9717
  1018.2500      0.0000    638.7533      5.8221    113.2238
  1018.5000      0.0000    656.7959      5.8393    110.3478
  1018.7500      0.0000    678.5430      5.8473    108.6634
  1019.0000      0.0000    697.3250      5.8495    108.4246
  1019.2500      0.0000    711.2383      5.8428    110.6280
  1019.5000      0.0000    720.0729      5.8260    115.6272
  1019.7500      0.0000    723.1918      5.8018    122.6838
  1020.0000      0.0000    720.6133      5.7756    130.8465
  1020.2500      0.0000    714.3608      5.7512    139.5074
  1020.5000      0.0000    707.6063      5.7239    147.9679
  1020.7500      0.0000    702.6365      5.6777    155.1877
  1021.0000      0.0000    699.8566      5.5978    160.3504
  1021.2500      0.0000    698.4752      5.4898    163.2977
  1021.5000      0.0000    697.6456      5.3866    164.2180
  1021.7500      0.0000    696.9830      5.3289    163.2655
