~Version Information
VERS.                      2.0: CWLS Log ASCII Standard - VERSION 2.0
WRAP.                       NO: One line per depth step
~Well Information Block
STRT.FT               -12.5000: 
STOP.FT              2487.7500: 
STEP.FT                 0.2500: 
NULL.                -999.2500: 
COMP.          Petrogulf Corporation: COMPANY
WELL.             Royal 8-33 V: WELL
FLD.           Purgatorie River: FIELD
LOC.           2365' FSL & 2336' FEL--: LOCATION
CNTY.               Las Animas: COUNTY
SRVC.                         : SERVICE COMPANY
DATE.          Sat Jan 17 11:43:49 2004: LOG DATE
UWI.           05 071 07934 00: UNIQUE WELL ID
STAT.                       CO: STATE
~Curve Information Block
DEPT.FT            0 000 00 00: Depth
CCL.                          : Casing Collar Locator
TT3.usec                      : CBL 3' Travel Time
AMP3.mV                       : CBL 3' Amplitude
GR.GAPI                       : Gamma Ray
~Parameter Information Block
~A  Depth       CCL         TT3         AMP3         GR     
# ...
   322.5000      0.0000    755.9262      7.1297     79.8553
   322.7500      0.0000    760.6483      7.3820     82.7178
   323.0000      0.0000    763.6276      7.5306     84.5033
   323.2500      0.0000    765.5148      7.5580     85.6996
   323.5000      0.0000    767.4385      7.4921     86.8220
   323.7500      0.0000    769.8233      7.3905     87.5970
   324.0000      0.0000    771.6080      7.3322     87.2309
   324.2500      0.0000    770.2965      7.4095     85.6968
   324.5000      0.0000    762.9237      7.6905     84.3307
   324.7500      0.0000    747.8448      8.1665     84.6832
   325.0000      0.0000    726.9578      8.7550     87.0133
   325.2500      0.0000    706.2521      9.3778     90.2815
   325.5000      0.0000    690.9809     10.0319     93.4955
   325.7500      0.0000    677.5609     10.7762     96.6851
   326.0000      0.0000    652.6810     11.6622    100.4132
   326.2500      0.0000    604.7653     12.6862    104.5300
   326.5000      0.0000    536.5850     13.7952    107.7724
   326.7500      0.0000    465.0416     14.9132    108.6699
   327.0000      0.0000    409.0502     15.9503    106.7128
   327.2500      0.0000    377.6312     16.8011    102.8291
   327.5000      0.0000    367.0725     17.3616     99.0410
   327.7500      0.0000    367.9969     17.5570     97.3013
   328.0000      0.0000    375.5995     17.3519     98.0167
   328.2500      0.0000    392.5040     16.7713     99.6143
   328.5000      0.0000    421.2800     15.9751     99.7199
   328.7500      0.0000    456.7846     15.2945     96.9592
   329.0000      0.0000    487.2657     15.0869     92.0244
   329.2500      0.0000    500.5239     15.4831     87.2821
   329.5000      0.0000    488.9187     16.3083     85.2595
   329.7500      0.0000    453.6580     17.2728     87.1999
   330.0000      4.0000    406.5275     18.2033     92.6839
   330.2500      0.0000    363.9981     19.0841    100.1322
   330.5000      0.0000    337.1054     19.9448    107.6062
   330.7500      0.0000    326.8305     20.7573    113.6253
   331.0000      0.0000    327.7295     21.4035    117.5756
   331.2500      0.0000    335.1141     21.6847    119.4048
   331.5000      0.0000    350.9398     21.3755    119.2059
   331.7500      0.0000    384.4277     20.3303    117.3082
   332.0000      0.0000    444.6239     18.5746    114.4079
   332.2500      0.0000    529.1965     16.3105    111.1756
   332.5000      0.0000    620.6932     13.8474    107.9377
   332.7500      0.0000    696.0667     11.4932    105.0199
   333.0000      0.0000    741.0862      9.4454    103.0013
   333.2500      0.0000    756.2661      7.7514    102.2376
   333.5000      0.0000    751.5583      6.3655    102.4109
   333.7500      0.0000    737.9116      5.2398    102.7347
   334.0000      0.0000    722.6992      4.3620    102.4291
   334.2500      0.0000    709.3235      3.7248    101.0761
   334.5000      0.0000    698.5422      3.2859     98.8227
   334.7500      0.0000    690.0797      2.9730     96.2233
   335.0000      0.0000    683.7460      2.7343     93.7845
   335.2500      0.0000    679.5439      2.5722     91.7388
   335.5000      0.0000    677.2441      2.5140     90.2826
   335.7500      0.0000    676.2583      2.5485     89.8471
   336.0000      0.0000    675.9365      2.6054     90.9808
   336.2500      0.0000    675.8743      2.6067     93.9648
   336.5000      0.0000    676.0781      2.5355     98.5266
   336.7500      0.0000    677.1677      2.4439    103.7649
   337.0000      0.0000    680.6310      2.3910    108.3125
   337.2500      0.0000    688.7552      2.3783    110.8989
   337.5000      0.0000    703.6422      2.3540    111.0955
   337.7500      0.0000    725.1961      2.2803    109.5686
   338.0000      0.0000    749.4384      2.1833    107.5499
   338.2500      0.0000    769.7545      2.1286    105.9091
   338.5000      0.0000    781.6827      2.1562    104.6011
   338.7500      0.0000    786.8954      2.2501    103.0284
   339.0000      0.0000    791.2530      2.3696    100.7881
   339.2500      0.0000    798.7612      2.4935     97.7821
   339.5000      0.0000    808.5247      2.6260     93.8620
   339.7500      0.0000    817.2327      2.7734     88.9498
   340.0000      0.0000    822.7896      2.9268     83.6237
   340.2500      0.0000    825.1879      3.0642     79.2670
   340.5000      0.0000    825.3907      3.1635     77.3101
   340.7500      0.0000    824.4119      3.2157     78.0767
   341.0000      0.0000    823.0672      3.2267     80.3855
   341.2500      0.0000    821.8347      3.2012     82.4347
   341.5000      0.0000    820.4882      3.1302     82.9940
   341.7500      0.0000    817.6898      3.0014     81.8380
   342.0000      0.0000    811.2176      2.8248     79.6501
   342.2500      0.0000    799.8015      2.6383     77.7860
   342.5000      0.0000    785.9191      2.4809     77.6519
   342.7500      0.0000    776.1183      2.3626     79.8831
   343.0000      0.0000    776.4466      2.2666     83.9392
   343.2500      0.0000    786.8644      2.1800     88.3509
   343.5000      0.0000    801.2092      2.1159     91.5114
   343.7500      0.0000    812.5959      2.1107     92.6973
   344.0000      0.0000    817.6375      2.2033     92.5239
   344.2500      0.0000    815.9588      2.4179     92.2865
   344.5000      0.0000    808.0018      2.7569     92.8716
   344.7500      0.0000    794.2315      3.2107     94.3326
   345.0000      0.0000    775.3715      3.7810     96.2280
   345.2500      0.0000    752.4819      4.4940     97.9174
   345.5000      0.0000    727.2484      5.3788     98.6230
   345.7500      0.0000    702.4013      6.4259     97.8559
   346.0000      0.0000    680.1697      7.5819     96.0659
   346.2500      0.0000    659.1238      8.8075     94.4268
   346.5000      0.0000    633.4640     10.1410     93.7488
   346.7500      0.0000    597.0563     11.6880     93.8969
   347.0000      0.0000    548.1216     13.5389     94.2681
   347.2500      0.0000    490.0961     15.6827     94.3747
   347.5000      0.0000    430.2757     17.9597     93.8658
   347.7500      0.0000    378.0109     20.0743     92.5940
   348.0000      0.0000    340.8038     21.6751     91.0023
   348.2500      0.0000    320.3746     22.4722     90.0285
   348.5000      4.0000    313.6196     22.3339     90.2867
   348.7500      0.0000    317.3960     21.3434     91.4992
   349.0000      0.0000    331.9355     19.7871     92.8018
   349.2500      0.0000    360.3118     18.0307     93.4097
   349.5000      0.0000    404.4569     16.3211     92.9735
   349.7500      0.0000    460.2906     14.6802     91.5248
   350.0000      0.0000    517.6776     13.0183     89.2932
   350.2500      0.0000    568.6065     11.3187     86.7837
   350.5000      0.0000    614.6508      9.6671     85.0013
   350.7500      0.0000    662.2662      8.1536     85.1198
   351.0000      0.0000    711.8198      6.8287     87.5051
   351.2500      0.0000    756.0309      5.7309     91.1475
   351.5000      0.0000    788.0331      4.8938     94.2392
   351.7500      0.0000    806.5655      4.3230     95.5497
   352.0000      0.0000    813.9086      3.9942     95.4727
   352.2500      0.0000    812.4255      3.8770     95.6881
   352.5000      0.0000    804.4279      3.9469     97.5629
   352.7500      0.0000    794.1550      4.1757    100.9061
   353.0000      0.0000    787.7911      4.5271    104.2726
   353.2500      0.0000    789.7826      4.9652    106.1231
   353.5000      0.0000    799.1923      5.4664    105.8133
   353.7500      0.0000    810.7026      6.0223    104.2384
   354.0000      0.0000    818.8267      6.6388    103.4905
   354.2500      0.0000    820.5643      7.3271    104.8537
   354.5000      0.0000    815.2997      8.0865    106.9326
   354.7500      0.0000    803.4259      8.8974    106.8062
   355.0000      0.0000    784.7538      9.7272    103.3903
   355.2500      0.0000    758.1048     10.5342     98.8084
   355.5000      0.0000    724.0717     11.2669     96.1497
   355.7500      0.0000    689.3870     11.8706     96.6734
