~Version Information
VERS.                      2.0: CWLS Log ASCII Standard - VERSION 2.0
WRAP.                       NO: One line per depth step
~Well Information Block
STRT.FT               -10.8000: 
STOP.FT              2238.7000: 
STEP.FT                 0.1000: 
NULL.                -999.2500: 
COMP.          Petrogulf Corporation: COMPANY
WELL.             McLeod 9-42V: WELL
FLD.           Purgatorie River: FIELD
LOC.           1658' FNL & 415' FEL----: LOCATION
CNTY.               Las Animas: COUNTY
SRVC.                         : SERVICE COMPANY
DATE.          Wed Nov 17 12:01:16 2004: LOG DATE
UWI.                          : UNIQUE WELL ID
STAT.                       CO: STATE
~Curve Information Block
DEPT.FT            0 000 00 00: Depth
GR.GAPI                       : Gamma Ray
CCL.                          : Casing Collar Locator
TT3.usec                      : CBL 3' Travel Time
AMP3.mV                       : CBL 3' Amplitude
~Parameter Information Block
~A  Depth        GR         CCL         TT3         AMP3    
# ...
  1624.0000    115.4566      0.0000    706.3141      5.8623
  1624.1000    115.4566      0.0000    706.3141      5.8623
  1624.2000    115.4566      0.0000    706.3141      5.8623
  1624.3000    117.2229      0.0000    716.0358      5.7472
  1624.4000    117.2229      0.0000    716.0358      5.7472
  1624.5000    117.2338      0.0000    726.1358      5.6019
  1624.6000    117.2338      0.0000    726.1358      5.6019
  1624.7000    117.2338      0.0000    726.1358      5.6019
  1624.8000    116.2393      0.0000    732.5176      5.4343
  1624.9000    116.2393      0.0000    732.5176      5.4343
  1625.0000    114.8674      0.0000    734.9153      5.2828
  1625.1000    114.8674      0.0000    734.9153      5.2828
  1625.2000    114.8674      0.0000    734.9153      5.2828
  1625.3000    113.1535      0.0000    735.6805      5.1921
  1625.4000    113.1535      0.0000    735.6805      5.1921
  1625.5000    110.5456      0.0000    736.9374      5.1845
  1625.6000    110.5456      0.0000    736.9374      5.1845
  1625.7000    110.5456      0.0000    736.9374      5.1845
  1625.8000    106.7860      0.0000    739.0382      5.2437
  1625.9000    106.7860      0.0000    739.0382      5.2437
  1626.0000    102.8550      0.0000    741.1812      5.3223
  1626.1000    102.8550      0.0000    741.1812      5.3223
  1626.2000    102.8550      0.0000    741.1812      5.3223
  1626.3000    100.5357      0.0000    742.7397      5.3664
  1626.4000    100.5357      0.0000    742.7397      5.3664
  1626.5000    100.9467      0.0000    743.7883      5.3393
  1626.6000    100.9467      0.0000    743.7883      5.3393
  1626.7000    100.9467      0.0000    743.7883      5.3393
  1626.8000    103.7310      0.0000    744.8001      5.2338
  1626.9000    103.7310      0.0000    744.8001      5.2338
  1627.0000    107.5353      0.0000    746.0079      5.0742
  1627.1000    107.5353      0.0000    746.0079      5.0742
  1627.2000    107.5353      0.0000    746.0079      5.0742
  1627.3000    110.9049      0.0000    746.6908      4.9029
  1627.4000    110.9049      0.0000    746.6908      4.9029
  1627.5000    112.7774      0.0000    744.9341      4.7525
  1627.6000    112.7774      0.0000    744.9341      4.7525
  1627.7000    112.7774      0.0000    744.9341      4.7525
  1627.8000    112.6582      0.0000    738.9543      4.6209
  1627.9000    112.6582      0.0000    738.9543      4.6209
  1628.0000    110.8164      0.0000    729.3961      4.4771
  1628.1000    110.8164      0.0000    729.3961      4.4771
  1628.2000    110.8164      0.0000    729.3961      4.4771
  1628.3000    108.3746      0.0000    719.4485      4.2931
  1628.4000    108.3746      0.0000    719.4485      4.2931
  1628.5000    106.7981      0.0000    711.6189      4.0707
  1628.6000    106.7981      0.0000    711.6189      4.0707
  1628.7000    106.7981      0.0000    711.6189      4.0707
  1628.8000    106.7530      0.0000    705.3715      3.8367
  1628.9000    106.7530      0.0000    705.3715      3.8367
  1629.0000    107.4858      0.0000    699.1321      3.6186
  1629.1000    107.4858      0.0000    699.1321      3.6186
  1629.2000    107.4858      0.0000    699.1321      3.6186
  1629.3000    107.7057      0.0000    693.3641      3.4251
  1629.4000    107.7057      0.0000    693.3641      3.4251
  1629.5000    107.0150      0.0000    690.2350      3.2499
  1629.6000    107.0150      0.0000    690.2350      3.2499
  1629.7000    107.0150      0.0000    690.2350      3.2499
  1629.8000    106.0264      0.0000    690.8861      3.0864
  1629.9000    106.0264      0.0000    690.8861      3.0864
  1630.0000    105.0966      0.0000    693.4781      2.9368
  1630.1000    105.0966      0.0000    693.4781      2.9368
  1630.2000    105.0966      0.0000    693.4781      2.9368
  1630.3000    103.5950      0.0000    693.7039      2.8096
  1630.4000    103.5950      0.0000    693.7039      2.8096
  1630.5000    100.8008      0.0000    688.0528      2.7106
  1630.6000    100.8008      0.0000    688.0528      2.7106
  1630.7000    100.8008      0.0000    688.0528      2.7106
  1630.8000     97.1254      0.0000    677.0721      2.6369
  1630.9000     97.1254      0.0000    677.0721      2.6369
  1631.0000     93.7489      0.0000    664.6461      2.5781
  1631.1000     93.7489      0.0000    664.6461      2.5781
  1631.2000     93.7489      0.0000    664.6461      2.5781
  1631.3000     90.9655      0.0000    654.2787      2.5240
  1631.4000     90.9655      0.0000    654.2787      2.5240
  1631.5000     87.5540      0.0000    647.0419      2.4750
  1631.6000     87.5540      0.0000    647.0419      2.4750
  1631.7000     87.5540      0.0000    647.0419      2.4750
  1631.8000     82.1559      0.0000    642.5760      2.4428
  1631.9000     82.1559      0.0000    642.5760      2.4428
  1632.0000     74.8953      0.0000    640.3813      2.4358
  1632.1000     74.8953      0.0000    640.3813      2.4358
  1632.2000     74.8953      0.0000    640.3813      2.4358
  1632.3000     67.3092      0.0000    639.7007      2.4394
  1632.4000     67.3092      0.0000    639.7007      2.4394
  1632.5000     60.8989      0.0000    639.2582      2.4183
  1632.6000     60.8989      0.0000    639.2582      2.4183
  1632.7000     60.8989      0.0000    639.2582      2.4183
  1632.8000     56.0236      0.0000    638.1008      2.3452
  1632.9000     56.0236      0.0000    638.1008      2.3452
  1633.0000     52.1570      0.0000    636.7551      2.2276
  1633.1000     52.1570      0.0000    636.7551      2.2276
  1633.2000     52.1570      0.0000    636.7551      2.2276
  1633.3000     48.9681      0.0000    637.4448      2.1052
  1633.4000     48.9681      0.0000    637.4448      2.1052
  1633.5000     47.0153      0.0000    643.2526      2.0204
  1633.6000     47.0153      0.0000    643.2526      2.0204
  1633.7000     47.0153      0.0000    643.2526      2.0204
  1633.8000     47.3373      0.0000    656.9014      1.9924
  1633.9000     47.3373      0.0000    656.9014      1.9924
  1634.0000     50.6012      0.0000    679.4331      2.0170
  1634.1000     50.6012      0.0000    679.4331      2.0170
  1634.2000     50.6012      0.0000    679.4331      2.0170
  1634.3000     56.8655      0.0000    708.7277      2.0805
  1634.4000     56.8655      0.0000    708.7277      2.0805
  1634.5000     65.9860      0.0000    738.7194      2.1660
  1634.6000     65.9860      0.0000    738.7194      2.1660
  1634.7000     65.9860      0.0000    738.7194      2.1660
  1634.8000     77.7933      0.0000    761.5900      2.2577
  1634.9000     77.7933      0.0000    761.5900      2.2577
  1635.0000     91.6306      0.0000    772.9146      2.3530
  1635.1000     91.6306      0.0000    772.9146      2.3530
  1635.2000     91.6306      0.0000    772.9146      2.3530
  1635.3000    105.8267      0.0000    774.7506      2.4702
  1635.4000    105.8267      0.0000    774.7506      2.4702
  1635.5000    117.9458      0.0000    772.6954      2.6387
  1635.6000    117.9458      0.0000    772.6954      2.6387
  1635.7000    117.9458      0.0000    772.6954      2.6387
  1635.8000    125.8248      0.0000    770.3685      2.8781
  1635.9000    125.8248      0.0000    770.3685      2.8781
  1636.0000    128.6758      0.0000    767.3983      3.1885
  1636.1000    128.6758      0.0000    767.3983      3.1885
  1636.2000    128.6758      0.0000    767.3983      3.1885
  1636.3000    127.6309      0.0000    762.1149      3.5561
  1636.4000    127.6309      0.0000    762.1149      3.5561
  1636.5000    125.4853      0.0000    754.9960      3.9613
  1636.6000    125.4853      0.0000    754.9960      3.9613
  1636.7000    125.4853      0.0000    754.9960      3.9613
  1636.8000    125.5713      0.0000    748.7555      4.3794
  1636.9000    125.5713      0.0000    748.7555      4.3794
  1637.0000    130.1919      0.0000    745.5795      4.7744
  1637.1000    130.1919      0.0000    745.5795      4.7744
  1637.2000    130.1919      0.0000    745.5795      4.7744
  1637.3000    139.4159      0.0000    745.3094      5.0973
