~Version Information
VERS.                      2.0: CWLS Log ASCII Standard - VERSION 2.0
WRAP.                       NO: One line per depth step
~Well Information Block
STRT.FT               875.6000: 
STOP.FT              2510.0000: 
STEP.FT                 0.1000: 
NULL.                -999.2500: 
COMP.          Petrogulf Corporation: COMPANY
WELL.          Collister 17-31 V: WELL
FLD.           Purgatoire River: FIELD
LOC.           910' FNL & 1594' FEL: LOCATION
PROV.                 Colorado: PROVINCE
CNTY.               Las Animas: COUNTRY
SRVC.                Patterson: SERVICE COMPANY
DATE.          Fri Dec 12 13:49:30 2003: LOG DATE
UWI.                          : UNIQUE WELL ID
~Curve Information Block
DEPT.FT            0 000 00 00: Depth
DCAL.in                       : CDL Caliper
DPOR.pu                       : CDL Density Porosity
NPOR.pu                       : Neutron Porosity
RHOB.g/cc                     : CDL Bulk Density
RHOC.g/cc                     : CDL Density Correction
GR.GAPI                       : Gamma Ray
~Parameter Information Block
~A  Depth       DCAL        DPOR        NPOR        RHOB        RHOC         GR     
# ...
  1211.6000      8.0821      8.2538     23.1279      2.5138      0.0179    129.4556
  1211.7000      8.0821      8.8874     23.0910      2.5034      0.0392    126.9651
  1211.8000      8.0868      7.4684     23.3027      2.5268      0.1128    120.8930
  1211.9000      8.0868      5.5839     23.4961      2.5579      0.1336    114.2480
  1212.0000      8.0704      5.0855     23.5337      2.5661      0.1369    109.0018
  1212.1000      8.0704      5.7635     23.5809      2.5549      0.0882    108.9662
  1212.2000      8.0704      6.0271     23.8091      2.5506      0.0749    111.6516
  1212.3000      8.0687      4.8149     24.2910      2.5706      0.1538    109.8693
  1212.4000      8.0687      2.7496     25.0120      2.6046      0.2141    103.0285
  1212.5000      8.0654      1.5811     25.9967      2.6239      0.1958     98.4519
  1212.6000      8.0654      2.1822     26.9288      2.6140      0.1747    101.3532
  1212.7000      8.0654      3.5304     27.2750      2.5917      0.0868    104.8363
  1212.8000      8.0541      4.2009     27.3114      2.5807      0.1042    104.2606
  1212.9000      8.0541      4.3692     27.4971      2.5779      0.1302    104.5253
  1213.0000      8.0606      5.0383     27.2403      2.5669      0.0560    106.1284
  1213.1000      8.0606      5.8621     26.2473      2.5533      0.0347    106.4718
  1213.2000      8.0606      5.2663     25.3388      2.5631      0.0239    106.6254
  1213.3000      8.0553      2.2185     24.5790      2.6134      0.0783    106.2244
  1213.4000      8.0553     -2.0639     23.3621      2.6841      0.2293    105.4322
  1213.5000      8.0397     -4.6194     21.9336      2.7262      0.1835    104.7213
  1213.6000      8.0397     -4.2546     20.6478      2.7202      0.1249    101.8493
  1213.7000      8.0397     -2.7684     18.9995      2.6957      0.0839     97.7437
  1213.8000      8.0494     -2.0653     16.5870      2.6841      0.1188     92.4116
  1213.9000      8.0494     -1.8004     13.8352      2.6797      0.1506     87.2861
  1214.0000      8.0969     -1.1400     11.3171      2.6688      0.0937     89.3298
  1214.1000      8.0969      0.0687      9.2192      2.6489      0.1321     98.2578
  1214.2000      8.0969      2.2672      7.6419      2.6126      0.1396    107.7027
  1214.3000      8.0886      5.1641      6.4735      2.5648      0.1065    114.2960
  1214.4000      8.0886      8.4996      5.3093      2.5098      0.0498    115.0061
  1214.5000      8.1017     14.1857      4.1188      2.4159      0.0821    108.4312
  1214.6000      8.1017     24.3573      3.2891      2.2481      0.0148     98.2880
  1214.7000      8.1017     37.1391      3.0653      2.0372     -0.1511     89.3724
  1214.8000      8.1731     47.6713      3.5220      1.8634     -0.1652     82.3340
  1214.9000      8.1731     54.4635      4.8184      1.7514     -0.1132     75.2549
  1215.0000      8.1588     60.0341      6.7789      1.6594     -0.1224     69.5718
  1215.1000      8.1588     65.2315      8.6999      1.5737     -0.1266     68.4483
  1215.2000      8.1588     67.6252     10.4058      1.5342     -0.0866     69.5537
  1215.3000      8.1787     66.1667     12.4966      1.5582      0.1876     69.2553
  1215.4000      8.1787     63.4286     14.8144      1.6034      0.3415     69.0472
  1215.5000      8.2281     61.4689     16.6198      1.6358      0.3129     72.1282
  1215.6000      8.2281     59.7751     18.1006      1.6637      0.3145     77.9563
  1215.7000      8.2281     56.7385     19.7090      1.7138      0.2657     81.7130
  1215.8000      8.4042     50.5608     21.0042      1.8157      0.2492     83.8963
  1215.9000      8.4042     41.6677     21.4221      1.9625      0.3544     91.3034
  1216.0000      8.5104     33.2591     21.3250      2.1012      0.3585    105.1469
  1216.1000      8.5104     27.0141     21.0316      2.2043      0.3487    118.4022
  1216.2000      8.5104     21.3942     20.3711      2.2970      0.3685    124.0078
  1216.3000      8.3110     15.7732     19.4643      2.3897      0.4211    122.5891
  1216.4000      8.3110     12.3934     18.5070      2.4455      0.4008    123.4661
  1216.5000      8.2929     12.4214     17.6908      2.4450      0.3004    130.2938
  1216.6000      8.2929     14.0257     17.4401      2.4186      0.2255    134.8002
  1216.7000      8.2929     15.7856     17.5815      2.3895      0.2329    130.9043
  1216.8000      8.1898     18.5105     17.2744      2.3446      0.2251    126.2745
  1216.9000      8.1898     22.6782     16.2940      2.2758      0.1229    127.5767
  1217.0000      8.2030     27.3331     14.9077      2.1990      0.1049    131.1097
  1217.1000      8.2030     31.6261     13.2412      2.1282      0.0580    132.5138
  1217.2000      8.2030     34.9947     11.5482      2.0726      0.0707    131.3007
  1217.3000      8.2636     37.2129     10.1722      2.0360      0.0242    132.5647
  1217.4000      8.2636     38.6180      9.2904      2.0128      0.0039    139.1590
  1217.5000      8.2248     40.0988      8.7221      1.9884      0.1044    140.6369
  1217.6000      8.2248     42.2737      8.2346      1.9525      0.0621    127.9679
  1217.7000      8.2248     45.3237      7.9082      1.9022      0.1462    110.1630
  1217.8000      8.2273     50.1377      8.0002      1.8227      0.0785    101.5691
  1217.9000      8.2273     56.1520      8.3985      1.7235      0.0049    100.0167
  1218.0000      8.2188     61.2402      8.6880      1.6395      0.0756     93.4259
  1218.1000      8.2188     65.5415      8.7212      1.5686      0.0565     81.2000
  1218.2000      8.2188     70.8597      8.7448      1.4808      0.0441     70.4939
  1218.3000      8.2163     76.8813      8.9423      1.3815     -0.0491     64.2257
  1218.4000      8.2163     80.6856      9.1706      1.3187     -0.0744     58.2091
  1218.5000      8.1899     80.7688      9.4412      1.3173      0.0691     50.7257
  1218.6000      8.1899     79.3645      9.6801      1.3405      0.1680     44.7907
  1218.7000      8.1899     78.9794      9.6041      1.3468      0.1270     40.1444
  1218.8000      8.2941     79.7508      9.4398      1.3341      0.1597     35.7960
  1218.9000      8.2941     81.0487      9.6002      1.3127      0.1203     33.6160
  1219.0000      8.3860     82.3400     10.1485      1.2914      0.0195     32.9450
  1219.1000      8.3860     83.2157     10.7775      1.2769      0.0675     31.0955
  1219.2000      8.3860     83.5640     11.0039      1.2712      0.0372     28.7920
  1219.3000      8.2925     83.0496     10.6188      1.2797      0.0470     27.3088
  1219.4000      8.2925     81.4590      9.7834      1.3059      0.0710     25.6364
  1219.5000      8.2977     79.2688      8.8827      1.3421      0.1486     25.6367
  1219.6000      8.2977     76.8369      7.9293      1.3822      0.1283     30.7476
  1219.7000      8.2977     73.9343      6.8616      1.4301      0.2164     36.9498
  1219.8000      8.3309     71.0927      5.7519      1.4770      0.2962     39.5075
  1219.9000      8.3309     69.5100      4.4147      1.5031      0.2935     41.1637
  1220.0000      8.3406     69.5792      3.0472      1.5019      0.3033     45.7945
  1220.1000      8.3406     70.6491      2.1252      1.4843      0.2543     51.0784
  1220.2000      8.3406     71.7999      1.4278      1.4653      0.2486     50.5891
  1220.3000      8.3564     72.6527      0.6889      1.4512      0.2200     43.2740
  1220.4000      8.3564     73.1055      0.2676      1.4438      0.1926     33.5881
  1220.5000      8.3582     73.2983      0.4970      1.4406      0.2683     26.0708
  1220.6000      8.3582     73.4607      1.3129      1.4379      0.2548     24.3120
  1220.7000      8.3582     72.7813      2.4641      1.4491      0.2044     29.0972
  1220.8000      8.3844     70.3004      3.7761      1.4900      0.3034     37.2975
  1220.9000      8.3844     66.5364      4.9710      1.5521      0.3584     44.0217
  1221.0000      8.4453     62.9291      5.9657      1.6117      0.4342     48.7997
  1221.1000      8.4453     60.7695      7.1849      1.6473      0.4300     53.3342
