~Version Information
VERS.                      2.0: CWLS Log ASCII Standard - VERSION 2.0
WRAP.                       NO: One line per depth step
~Well Information Block
STRT.FT               -13.5000: 
STOP.FT              2474.2500: 
STEP.FT                 0.2500: 
NULL.                -999.2500: 
COMP.          Pioneer Natural Resources: COMPANY
WELL.              Tiaga 23-14: WELL
FLD.           Purgatorie River: FIELD
LOC.           2168' FSL & 2030' FWL--: LOCATION
PROV.                       CO: PROVINCE
CNTY.               Las Animas: COUNTRY
SRVC.                         : SERVICE COMPANY
DATE.          Thu May 12 17:01:37 2005: LOG DATE
UWI.                          : UNIQUE WELL ID
~Curve Information Block
DEPT.FT            0 000 00 00: Depth
TT3.usec                      : CBL 3' Travel Time
AMP3.mV                       : CBL 3' Amplitude
GR.GAPI                       : Gamma Ray
CCL.                          : Casing Collar Locator
~Parameter Information Block
~A  Depth       TT3         AMP3         GR         CCL     
# ...
  2432.0000    609.0801      4.9747     62.6259      0.0000
  2432.2500    594.6037      4.9740     62.4533      0.0000
  2432.5000    578.4032      5.0102     62.6192      0.0000
  2432.7500    556.1742      5.0660     62.8724      0.0000
  2433.0000    522.8438      5.1239     62.8078      0.0000
  2433.2500    487.1672      5.1792     62.2917      0.0000
  2433.5000    470.1565      5.2188     61.8155      0.0000
  2433.7500    480.5011      5.2201     62.1583      0.0000
  2434.0000    499.0074      5.1751     63.5681      0.0000
  2434.2500    498.8367      5.1024     65.3289      0.0000
  2434.5000    479.9979      5.0370     66.2920      0.0000
  2434.7500    468.7814      4.9998     65.9153      0.0000
  2435.0000    481.7891      4.9789     64.6974      0.0000
  2435.2500    505.4337      4.9477     63.5641      0.0000
  2435.5000    516.6967      4.8925     62.9377      0.0000
  2435.7500    512.8677      4.8252     62.6043      0.0000
  2436.0000    507.4651      4.7907     62.4262      0.0000
  2436.2500    508.8936      4.8464     62.6480      0.0000
  2436.5000    512.9548      4.9867     63.1903      0.0000
  2436.7500    509.9741      5.1254     63.2397      0.0000
  2437.0000    505.5992      5.1835     62.0550      0.0000
  2437.2500    521.5491      5.1354     59.8699      0.0000
  2437.5000    562.5840      5.0000     57.6483      0.0000
  2437.7500    608.2658      4.8376     56.2247     -2.0000
  2438.0000    640.9702      4.7192     55.9545      2.0000
  2438.2500    658.9285      4.6811     56.9243      0.0000
  2438.5000    666.5488      4.7347     59.0617      0.0000
  2438.7500    665.8682      4.8896     61.8236      0.0000
  2439.0000    655.7993      5.0944     63.9660      0.0000
  2439.2500    633.2724      5.2119     64.1972      0.0000
  2439.5000    594.4266      5.1776     62.3911      0.0000
  2439.7500    542.0477      5.0911     59.8367      0.0000
  2440.0000    494.3756      5.0614     58.1035      0.0000
  2440.2500    477.5359      5.0899     57.9959      0.0000
  2440.5000    501.0739      5.1339     59.5800      0.0000
  2440.7500    542.4690      5.1775     62.5666      0.0000
  2441.0000    562.8632      5.2258     66.2260      0.0000
  2441.2500    542.2923      5.2774     69.2517      0.0000
  2441.5000    496.0920      5.3218     70.3889      0.0000
  2441.7500    454.2639      5.3514     69.5630      0.0000
  2442.0000    431.3199      5.3620     68.1507      0.0000
  2442.2500    422.6280      5.3444     67.7746      0.0000
  2442.5000    419.6689      5.2913     68.8088      0.0000
  2442.7500    418.1730      5.2161     70.2453      0.0000
  2443.0000    416.9902      5.1480     70.9596      0.0000
  2443.2500    415.9872      5.1023     70.7555      0.0000
  2443.5000    415.1743      5.0728     70.0138      0.0000
  2443.7500    414.4579      5.0543     68.7133      0.0000
  2444.0000    413.7017      5.0530     66.3752      0.0000
  2444.2500    412.9227      5.0703     62.9944      0.0000
  2444.5000    412.3638      5.1017     59.5308      0.0000
  2444.7500    412.2810      5.1424     57.1839      0.0000
  2445.0000    412.6358      5.1867     56.3612      0.0000
  2445.2500    413.1469      5.2383     56.5805      0.0000
  2445.5000    413.8267      5.3062     57.1955      0.0000
  2445.7500    416.0284      5.3924     57.8637      0.0000
  2446.0000    424.3971      5.5002     58.4099      0.0000
  2446.2500    447.6566      5.6529     58.6903      0.0000
  2446.5000    490.3444      5.8718     58.7690      0.0000
  2446.7500    537.6810      6.1057     58.9476      0.0000
  2447.0000    559.2876      6.2585     59.4272      0.0000
  2447.2500    538.7827      6.2999     60.0481      0.0000
  2447.5000    492.3831      6.2747     60.4080      0.0000
  2447.7500    450.7929      6.2263     60.1350      0.0000
  2448.0000    430.0592      6.1669     59.0974      0.0000
  2448.2500    429.8531      6.1086     57.5242      0.0000
  2448.5000    450.0715      6.0746     55.8910      0.0000
  2448.7500    490.8764      6.0670     54.5474      0.0000
  2449.0000    536.5364      6.0549     53.5088      0.0000
  2449.2500    557.2832      6.0074     52.6319      0.0000
  2449.5000    537.3926      5.9357     51.7627      0.0000
  2449.7500    492.5370      5.8780     50.6559      0.0000
  2450.0000    451.9885      5.8491     49.0639      0.0000
  2450.2500    430.0129      5.8417     47.1991      0.0000
  2450.5000    422.1067      5.8566     45.9932      0.0000
  2450.7500    419.8499      5.8876     46.4751      0.0000
  2451.0000    419.0503      5.9169     48.7379      0.0000
  2451.2500    418.6184      5.9478     51.7351      0.0000
  2451.5000    418.3730      6.0053     54.2441      0.0000
  2451.7500    418.2025      6.0979     55.8235      0.0000
  2452.0000    417.9336      6.2069     56.7393      0.0000
  2452.2500    417.4442      6.3094     57.3176      0.0000
  2452.5000    416.8084      6.4047     57.6209      0.0000
  2452.7500    416.3870      6.5150     57.5041      0.0000
  2453.0000    417.4539      6.6552     56.7623      0.0000
  2453.2500    424.3978      6.8016     55.4277      0.0000
  2453.5000    446.1445      6.9048     54.0693      0.0000
  2453.7500    488.6173      6.9369     53.6033      0.0000
  2454.0000    541.6119      6.9107     54.7122      0.0000
  2454.2500    584.0526      6.8570     57.6172      0.0000
  2454.5000    605.9270      6.8048     62.2525      0.0000
  2454.7500    612.9227      6.7710     68.2180      0.0000
  2455.0000    612.7934      6.7527     74.5832      0.0000
  2455.2500    608.3383      6.7439     80.1541      0.0000
  2455.5000    601.6883      6.7566     84.0169      0.0000
  2455.7500    598.2501      6.8044     85.6553      0.0000
  2456.0000    601.6233      6.8696     84.7673      0.0000
  2456.2500    608.5570      6.9172     81.4374      0.0000
  2456.5000    614.9203      6.9368     76.5591      0.0000
  2456.7500    621.7858      6.9493     71.6835      0.0000
  2457.0000    631.8741      6.9773     68.1418      0.0000
  2457.2500    643.7770      7.0281     66.2588      0.0000
  2457.5000    652.1406      7.0882     65.3209      0.0000
  2457.7500    650.9500      7.1247     64.2575      0.0000
  2458.0000    634.4793      7.1044     62.5147      0.0000
  2458.2500    601.4908      7.0149     60.4820      0.0000
  2458.5000    560.4958      6.8779     59.0915      0.0000
  2458.7500    523.6261      6.7441     58.9687      0.0000
  2459.0000    503.3787      6.6655     59.9536      0.0000
  2459.2500    513.1130      6.6619     61.3728      0.0000
  2459.5000    548.7735      6.7094     62.6966      0.0000
  2459.7500    585.4689      6.7600     63.8390      0.0000
  2460.0000    605.8766      6.7743     64.7954      0.0000
  2460.2500    611.3904      6.7462     65.2566      0.0000
  2460.5000    605.7833      6.7112     65.0198      0.0000
  2460.7500    584.0280      6.7147     64.6794      0.0000
  2461.0000    541.0628      6.7640     65.3180      0.0000
  2461.2500    488.6485      6.8316     67.3041      0.0000
  2461.5000    452.9961      6.9064     69.7035      0.0000
  2461.7500    453.2980      7.0161     71.0265      0.0000
  2462.0000    489.0860      7.1907     70.4426      0.0000
  2462.2500    540.9380      7.4156     68.2695      0.0000
  2462.5000    583.3448      7.6229     65.5250      0.0000
  2462.7500    604.9164      7.7367     63.2956      0.0000
  2463.0000    610.7790      7.7388     62.5051      0.0000
  2463.2500    609.0266      7.6856     63.8020      0.0000
  2463.5000    604.7858      7.6575     67.0983      2.0000
  2463.7500    602.1417      7.6956     71.1372      0.0000
  2464.0000    602.0715      7.7814     74.0058   -999.2500
  2464.2500    599.6058      7.8685     74.5199   -999.2500
  2464.5000    589.5568      7.9331     73.0396   -999.2500
  2464.7500    574.2242      7.9941     70.4678   -999.2500
  2465.0000    560.7758      8.0778     66.3878   -999.2500
  2465.2500    552.3992      8.1819     58.8780   -999.2500
