~Version Information
VERS.                      2.0: CWLS Log ASCII Standard - VERSION 2.0
WRAP.                       NO: One line per depth step
~Well Information Block
STRT.FT               840.0000: 
STOP.FT              2268.0000: 
STEP.FT                 0.2500: 
NULL.                -999.2500: 
COMP.          Pioneer Natural Resources: COMPANY
WELL.              Tonto 42-23: WELL
FLD.           Purgatoire River: FIELD
LOC.           2217' FNL & 423' FEL: LOCATION
PROV.                 Colorado: PROVINCE
CNTY.               Las Animas: COUNTRY
SRVC.                Patterson: SERVICE COMPANY
DATE.          Sun Apr 17 01:24:47 2005: LOG DATE
UWI.           05 071 08335 00: UNIQUE WELL ID
~Curve Information Block
DEPT.FT            0 000 00 00: Depth
SN.Ohm-m                      : IEL Short Normal
SP.mV                         : IEL Spontaneous Potential
DIR.Ohm-m                     : IEL Induction Resistivity
GR.GAPI                       : Gamma Ray
~Parameter Information Block
~A  Depth        SN          SP         DIR          GR     
# ...
  1577.0000     30.2468    -91.5424     21.4409     72.9408
  1577.2500     29.2240    -91.5448     20.1010     77.3720
  1577.5000     27.8478    -91.5473     18.7844     85.4102
  1577.7500     26.1435    -91.5401     17.6227     91.7468
  1578.0000     24.3076    -91.5084     16.6694    102.7713
  1578.2500     22.5390    -91.4276     15.9206    110.9588
  1578.5000     20.9033    -91.2804     15.3415    123.6116
  1578.7500     19.3844    -91.0851     14.8869    131.4846
  1579.0000     17.9647    -90.9049     14.5162    141.1073
  1579.2500     16.6254    -90.8192     14.2027    145.5927
  1579.5000     15.4125    -90.8722     13.9374    149.1435
  1579.7500     14.5106    -91.0473     13.7282    149.3933
  1580.0000     14.1126    -91.2904     13.5920    146.8698
  1580.2500     14.2458    -91.5508     13.5465    143.6084
  1580.5000     14.8075    -91.7977     13.6042    137.0181
  1580.7500     15.6879    -92.0126     13.7716    131.7702
  1581.0000     16.7385    -92.1823     14.0530    123.0357
  1581.2500     17.7413    -92.3007     14.4534    117.0181
  1581.5000     18.5650    -92.3729     14.9760    108.5448
  1581.7500     19.3082    -92.4154     15.6152    103.7096
  1582.0000     20.2217    -92.4566     16.3482     98.2344
  1582.2500     21.4328    -92.5382     17.1311     95.9907
  1582.5000     22.8076    -92.7098     17.9022     94.8073
  1582.7500     24.1444    -93.0065     18.5904     95.2037
  1583.0000     25.3362    -93.4240     19.1207     96.6468
  1583.2500     26.3046    -93.9147     19.4217     97.6053
  1583.5000     26.8945    -94.4079     19.4444     98.4619
  1583.7500     26.9280    -94.8365     19.1878     98.6269
  1584.0000     26.3387    -95.1569     18.7064     98.8617
  1584.2500     25.1857    -95.3562     18.0859     99.8119
  1584.5000     23.6225    -95.4470     17.4064    104.2850
  1584.7500     21.8832    -95.4555     16.7235    109.9960
  1585.0000     20.1864    -95.4114     16.0715    121.8160
  1585.2500     18.6653    -95.3466     15.4734    130.2526
  1585.5000     17.4027    -95.2927     14.9446    140.7668
  1585.7500     16.4401    -95.2665     14.4923    145.3531
  1586.0000     15.7205    -95.2568     14.1143    148.3682
  1586.2500     15.1106    -95.2303     13.8013    148.2763
  1586.5000     14.5660    -95.1532     13.5432    146.5205
  1586.7500     14.1740    -95.0080     13.3358    145.2878
  1587.0000     14.0200    -94.7937     13.1884    144.2227
  1587.2500     14.1220    -94.5177     13.1263    143.7587
  1587.5000     14.4266    -94.1927     13.1850    142.3684
  1587.7500     14.8282    -93.8337     13.3969    140.5454
  1588.0000     15.2456    -93.4502     13.7779    136.0683
  1588.2500     15.6910    -93.0445     14.3198    131.7286
  1588.5000     16.2468    -92.6201     14.9899    123.2007
  1588.7500     16.9734    -92.1897     15.7397    116.5617
  1589.0000     17.8554    -91.7713     16.5168    106.1476
  1589.2500     18.8168    -91.3784     17.2717     99.3122
  1589.5000     19.7652    -91.0136     17.9549     89.7438
  1589.7500     20.6515    -90.6711     18.5099     84.3430
  1590.0000     21.5135    -90.3444     18.8804     78.9941
  1590.2500     22.3945    -90.0377     19.0333     77.8059
  1590.5000     23.1343    -89.7701     18.9784     79.7564
  1590.7500     23.3850    -89.5689     18.7607     83.4295
  1591.0000     22.9426    -89.4519     18.4330     92.2214
  1591.2500     21.9103    -89.4116     18.0315     99.9093
  1591.5000     20.5573    -89.4158     17.5702    113.1067
  1591.7500     19.1866    -89.4266     17.0493    122.2222
  1592.0000     18.0408    -89.4246     16.4683    134.7303
  1592.2500     17.1775    -89.4209     15.8335    141.2290
  1592.5000     16.4860    -89.4454     15.1581    146.9030
  1592.7500     15.8477    -89.5235     14.4582    147.9543
  1593.0000     15.2469    -89.6582     13.7529    146.8730
  1593.2500     14.7489    -89.8317     13.0665    145.6606
  1593.5000     14.3925    -90.0187     12.4275    144.7655
  1593.7500     14.1477    -90.1924     11.8621    144.9645
  1594.0000     13.9784    -90.3236     11.3879    145.4606
  1594.2500     13.8953    -90.3871     11.0123    144.9876
  1594.5000     13.9547    -90.3768     10.7369    142.0866
  1594.7500     14.1631    -90.3110     10.5608    139.1284
  1595.0000     14.3677    -90.2186     10.4823    135.6657
  1595.2500     14.3783    -90.1203     10.4979    135.6224
  1595.5000     14.1674    -90.0198     10.5992    139.9152
  1595.7500     13.8520    -89.9056     10.7715    144.7304
  1596.0000     13.5908    -89.7605     10.9956    151.5731
  1596.2500     13.5003    -89.5722     11.2514    153.9847
  1596.5000     13.5806    -89.3418     11.5220    152.6190
  1596.7500     13.7679    -89.0818     11.7956    148.4243
  1597.0000     14.0262    -88.8090     12.0667    138.7312
  1597.2500     14.3625    -88.5393     12.3410    131.3493
  1597.5000     14.8455    -88.2873     12.6395    121.1318
  1597.7500     15.6090    -88.0681     12.9973    115.8138
  1598.0000     16.7415    -87.8993     13.4546    110.8246
  1598.2500     18.1035    -87.8012     14.0453    109.4807
  1598.5000     19.3279    -87.7963     14.7868    109.7959
  1598.7500     20.1648    -87.9035     15.6739    110.9032
  1599.0000     20.7557    -88.1290     16.6759    112.5256
  1599.2500     21.3922    -88.4613     17.7435    112.8923
  1599.5000     22.1578    -88.8732     18.8256    111.9090
  1599.7500     22.9867    -89.3262     19.8872    110.3172
  1600.0000     23.8414    -89.7768     20.9118    106.5550
  1600.2500     24.7421    -90.1854     21.8913    102.9171
  1600.5000     25.7963    -90.5283     22.8220     95.7234
  1600.7500     27.1302    -90.8057     23.7150     90.4155
  1601.0000     28.7499    -91.0324     24.6046     83.8745
  1601.2500     30.5356    -91.2145     25.5422     81.7791
  1601.5000     32.2845    -91.3296     26.5808     83.1203
  1601.7500     33.8035    -91.3330     27.7579     86.6993
  1602.0000     35.0629    -91.1897     29.0743     94.5470
  1602.2500     36.1304    -90.9006     30.4728    100.4890
  1602.5000     36.9442    -90.5041     31.8350    109.3520
  1602.7500     37.3170    -90.0572     33.0135    114.7742
  1603.0000     37.1986    -89.6164     33.8916    121.4519
  1603.2500     36.8115    -89.2219     34.4359    124.6632
  1603.5000     36.4504    -88.8889     34.7085    127.9199
  1603.7500     36.2545    -88.6071     34.8307    129.6738
  1604.0000     36.2208    -88.3521     34.9233    132.7427
  1604.2500     36.3120    -88.1040     35.0573    135.1213
  1604.5000     36.5120    -87.8623     35.2371    137.8833
  1604.7500     36.8419    -87.6479     35.4090    138.1673
  1605.0000     37.3059    -87.4951     35.4853    135.6319
  1605.2500     37.8050    -87.4355     35.3798    132.5139
  1605.5000     38.1987    -87.4835     35.0450    127.3081
  1605.7500     38.4494    -87.6282     34.4811    124.2367
  1606.0000     38.5849    -87.8386     33.7079    120.6405
  1606.2500     38.5607    -88.0811     32.7245    118.6707
  1606.5000     38.2661    -88.3363     31.5035    115.8505
  1606.7500     37.6377    -88.6003     30.0230    114.1805
  1607.0000     36.7373    -88.8671     28.3088    112.7837
  1607.2500     35.6606    -89.1104     26.4391    112.8664
  1607.5000     34.3504    -89.2874     24.5115    114.0079
  1607.7500     32.6112    -89.3623     22.6060    114.7611
  1608.0000     30.3249    -89.3289     20.7772    115.1215
  1608.2500     27.5702    -89.2155     19.0664    115.2259
  1608.5000     24.6508    -89.0686     17.5104    117.0554
  1608.7500     21.9897    -88.9279     16.1342    120.2906
  1609.0000     19.8019    -88.8080     14.9414    127.7551
  1609.2500     18.0038    -88.6973     13.9121    133.1841
  1609.5000     16.4819    -88.5721     13.0129    139.7655
  1609.7500     15.2118    -88.4144     12.2082    142.6230
  1610.0000     14.1772    -88.2232     11.4714    145.1486
  1610.2500     13.3695    -88.0125     10.7905    146.1284
