~Version Information
VERS.                      2.0: CWLS Log ASCII Standard - VERSION 2.0
WRAP.                       NO: One line per depth step
~Well Information Block
STRT.FT               260.0000: 
STOP.FT              2611.5000: 
STEP.FT                 0.2500: 
NULL.                -999.2500: 
COMP.          Pioneer Natural Resources: COMPANY
WELL.           Costello 44-24: WELL
FLD.           Purgatoire River: FIELD
LOC.           327' FSL & 378' FEL: LOCATION
PROV.                 Colorado: PROVINCE
CNTY.               Las Animas: COUNTRY
SRVC.                Patterson: SERVICE COMPANY
DATE.          Mon Jul 11 00:49:32 2005: LOG DATE
UWI.           05 071 08413 00: UNIQUE WELL ID
~Curve Information Block
DEPT.FT            0 000 00 00: Depth
SN.Ohm-m                      : IEL Short Normal
SP.mV                         : IEL Spontaneous Potential
DIR.Ohm-m                     : IEL Induction Resistivity
GR.GAPI                       : Gamma Ray
~Parameter Information Block
~A  Depth        SN          SP         DIR          GR     
   260.0000   2000.0000    200.0000      8.2481    115.6836
   260.2500   2000.0000    200.0000      8.2411    120.4996
   260.5000   2000.0000    200.0000      8.2432    126.2450
   260.7500   2000.0000    200.0000      8.2539    128.4698
   261.0000   2000.0000    200.0000      8.2679    129.4997
   261.2500   2000.0000    200.0000      8.2793    129.1951
   261.5000   2000.0000    200.0000      8.2873    127.9180
   261.7500   2000.0000    200.0000      8.2970    126.7175
   262.0000   2000.0000    200.0000      8.3150    125.3076
   262.2500   2000.0000    200.0000      8.3432    125.5183
   262.5000   2000.0000    200.0000      8.3756    128.5286
   262.7500   2000.0000    200.0000      8.4021    132.1942
   263.0000   2000.0000    200.0000      8.4140    139.1653
   263.2500   2000.0000    200.0000      8.4084    144.0234
   263.5000   2000.0000    200.0000      8.3878    150.1927
   263.7500   2000.0000    200.0000      8.3577    152.9768
   264.0000   2000.0000    200.0000      8.3248    155.3372
   264.2500   2000.0000    200.0000      8.2960    156.3230
   264.5000   2000.0000    200.0000      8.2785    157.7090
   264.7500   2000.0000    200.0000      8.2784    158.5201
   265.0000   2000.0000    200.0000      8.2986    159.0243
   265.2500   2000.0000    200.0000      8.3358    158.6507
   265.5000   2000.0000    200.0000      8.3803    156.9481
   265.7500   2000.0000    200.0000      8.4197    155.1482
   266.0000   2000.0000    200.0000      8.4442    151.9127
   266.2500   2000.0000    200.0000      8.4509    149.8053
   266.5000   2000.0000    200.0000      8.4421    147.1044
   266.7500   2000.0000    200.0000      8.4225    145.4026
   267.0000   2000.0000    200.0000      8.3965    142.4329
   267.2500   2000.0000    200.0000      8.3681    140.2525
   267.5000   2000.0000    200.0000      8.3410    137.4844
   267.7500   2000.0000    200.0000      8.3175    136.2959
   268.0000   2000.0000    200.0000      8.2968    135.2226
   268.2500   2000.0000    200.0000      8.2757    134.6949
   268.5000   2000.0000    200.0000      8.2513    134.3822
   268.7500   2000.0000    200.0000      8.2245    134.8784
   269.0000   2000.0000    200.0000      8.2018    136.5557
   269.2500   2000.0000    200.0000      8.1917    137.4555
   269.5000   2000.0000    200.0000      8.2004    136.8338
   269.7500   2000.0000    200.0000      8.2279    134.8478
   270.0000   2000.0000    200.0000      8.2679    130.3723
   270.2500   2000.0000    200.0000      8.3110    127.0348
   270.5000   2000.0000    200.0000      8.3489    122.2260
   270.7500   2000.0000    200.0000      8.3767    119.5875
   271.0000   2000.0000    200.0000      8.3936    117.5317
   271.2500   2000.0000    200.0000      8.4011    117.8505
   271.5000   2000.0000    200.0000      8.4017    120.4826
   271.7500   2000.0000    200.0000      8.3974    122.8869
   272.0000   2000.0000    200.0000      8.3892    126.1264
   272.2500   2000.0000    200.0000      8.3778    127.7535
   272.5000   2000.0000    200.0000      8.3656    129.8583
   272.7500   2000.0000    200.0000      8.3574    131.4719
   273.0000   2000.0000    200.0000      8.3588    134.3889
   273.2500   2000.0000    200.0000      8.3725    136.3746
   273.5000   2000.0000    200.0000      8.3949    138.8150
   273.7500   2000.0000    200.0000      8.4179    139.9209
   274.0000   2000.0000    200.0000      8.4337    140.7151
   274.2500   2000.0000    200.0000      8.4398    140.6077
   274.5000   2000.0000    200.0000      8.4392    139.4815
   274.7500   2000.0000    200.0000      8.4360    138.3438
   275.0000   2000.0000    200.0000      8.4317    137.0042
   275.2500   2000.0000    200.0000      8.4234    136.9250
   275.5000   2000.0000    200.0000      8.4060    138.3480
   275.7500   2000.0000    200.0000      8.3724    139.9749
   276.0000   2000.0000    200.0000      8.3138    142.1956
   276.2500   2000.0000    200.0000      8.2214    142.8400
   276.5000   2000.0000    200.0000      8.0934    142.4506
   276.7500   2000.0000    200.0000      7.9422    142.0690
   277.0000   2000.0000    200.0000      7.7930    142.7069
   277.2500   2000.0000    200.0000      7.6722    143.6987
   277.5000   2000.0000    200.0000      7.5922    144.0970
   277.7500   2000.0000    200.0000      7.5456    143.0607
   278.0000   2000.0000    200.0000      7.5101    141.0697
   278.2500   2000.0000    200.0000      7.4620    140.9557
   278.5000   2000.0000    200.0000      7.3874    143.7969
   278.7500   2000.0000    200.0000      7.2870    147.1459
   279.0000   2000.0000    200.0000      7.1774    152.1393
   279.2500   2000.0000    200.0000      7.0912    154.1504
   279.5000   2000.0000    200.0000      7.0763    154.0731
   279.7500   2000.0000    200.0000      7.1862    152.2343
   280.0000   2000.0000    200.0000      7.4608    148.3085
   280.2500   2000.0000    200.0000      7.8986    145.6572
   280.5000   2000.0000    200.0000      8.4264    142.0033
   280.7500   2000.0000    200.0000      8.8981    139.9254
   281.0000   2000.0000    200.0000      9.1660    138.2112
   281.2500   2000.0000    200.0000      9.1953    138.4338
   281.5000   2000.0000    200.0000      9.0916    140.3282
   281.7500   2000.0000    200.0000      9.0253    132.3618
   282.0000   2000.0000    200.0000      9.1788    133.7149
   282.2500   2000.0000    200.0000      9.7995    133.9465
   282.5000   2000.0000    200.0000     11.4110    133.3670
   282.7500   2000.0000    200.0000     15.5904    122.9408
   283.0000   2000.0000    200.0000     30.4893    120.8035
   283.2500   2000.0000    200.0000 100000.0000    119.0744
   283.5000   2000.0000    200.0000 100000.0000    117.0344
   283.7500   2000.0000    200.0000 100000.0000    107.8009
   284.0000   2000.0000    200.0000 100000.0000    109.7014
   284.2500   2000.0000    200.0000 100000.0000    112.5108
   284.5000   2000.0000    200.0000 100000.0000    118.8846
   284.7500   2000.0000    200.0000 100000.0000    114.0977
   285.0000   2000.0000    200.0000 100000.0000    123.1690
   285.2500   2000.0000    200.0000 100000.0000    129.5890
   285.5000   2000.0000    200.0000 100000.0000    138.5043
   285.7500   2000.0000    200.0000 100000.0000    130.2646
   286.0000   2000.0000    200.0000 100000.0000    134.6154
   286.2500   2000.0000    200.0000 100000.0000    136.0673
   286.5000   2000.0000    200.0000 100000.0000    136.5513
   286.7500   2000.0000    200.0000 100000.0000    136.0924
   287.0000   2000.0000    200.0000      9.8554    134.6578
   287.2500   2000.0000    200.0000      5.1644    133.4513
   287.5000   2000.0000    200.0000      4.0300    132.1384
   287.7500   2000.0000    200.0000      3.8859    132.2621
   288.0000   2000.0000    200.0000      4.2986    134.2152
   288.2500   2000.0000    200.0000      5.2260    135.9206
   288.5000   2000.0000    200.0000      6.8651    137.0907
   288.7500   2000.0000    200.0000      9.9245    136.3363
   289.0000   2000.0000    200.0000     16.9038    133.3431
   289.2500   2000.0000    200.0000     40.5694    130.8102
   289.5000   2000.0000    200.0000    462.7171    127.3965
   289.7500   2000.0000    200.0000 100000.0000    125.9153
   290.0000   2000.0000    200.0000   2620.0024    125.3015
   290.2500   2000.0000    200.0000     66.1916    125.8753
   290.5000   2000.0000    200.0000     31.0864    127.8361
   290.7500   2000.0000    200.0000     21.6354    129.8274
   291.0000   2000.0000    200.0000     18.1117    134.2499
   291.2500   2000.0000    200.0000     16.7151    138.4165
   291.5000   2000.0000    200.0000     16.2056    146.1602
   291.7500   2000.0000    200.0000     16.0788    151.6130
   292.0000   2000.0000    200.0000     16.1341    158.8976
   292.2500   2000.0000    200.0000     16.3240    162.5049
   292.5000   2000.0000    200.0000     16.7041    164.7937
   292.7500   2000.0000    200.0000     17.4092    163.5962
   293.0000   2000.0000    200.0000     18.6095    158.0674
   293.2500   2000.0000    200.0000     20.4164    153.1447
