~Version Information
VERS.                      2.0: CWLS Log ASCII Standard - VERSION 2.0
WRAP.                       NO: One line per depth step
~Well Information Block
STRT.FT               546.2500: 
STOP.FT              2496.7500: 
STEP.FT                 0.2500: 
NULL.                -999.2500: 
COMP.          Petrogulf Corporation: COMPANY
WELL.               Egan 9-11V: WELL
FLD.           Purgatorie River: FIELD
LOC.           724' FNL & 1379' FWL: LOCATION
PROV.                 Colorado: PROVINCE
CNTY.               Las Animas: COUNTRY
SRVC.          Patterson Wireline: SERVICE COMPANY
DATE.          Fri Jul 11 23:32:41 2003: LOG DATE
UWI.           05 071 07875 00: UNIQUE WELL ID
~Curve Information Block
DEPT.FT            0 000 00 00: Depth
SP.mV                         : DIL Spontaneous Potential
RILD.Ohm-m                    : DIL Deep Resistivity
RILM.Ohm-m                    : DIL Medium Resistivity
RLL3.Ohm-m                    : DIL Shallow Resistivity
GR.GAPI                       : Gamma Ray
~Parameter Information Block
~A  Depth        SP         RILD        RILM        RLL3         GR     
# ...
  1218.2500   2000.0000     36.1897     49.6668   2000.0000     90.3035
  1218.5000   2000.0000     36.6401     49.4322   2000.0000     93.1644
  1218.7500   2000.0000     37.1136     49.2216   2000.0000     94.1116
  1219.0000   2000.0000     37.5814     49.0771   2000.0000     93.9800
  1219.2500   2000.0000     38.0220     49.0282   2000.0000     93.0653
  1219.5000   2000.0000     38.4039     49.0927   2000.0000     90.8606
  1219.7500   2000.0000     38.6880     49.2766   2000.0000     89.0171
  1220.0000   2000.0000     38.8552     49.5763   2000.0000     85.8925
  1220.2500   2000.0000     38.9270     49.9802   2000.0000     83.6953
  1220.5000   2000.0000     38.9502     50.4705   2000.0000     80.5288
  1220.7500   2000.0000     38.9643     51.0260   2000.0000     78.6215
  1221.0000   2000.0000     38.9833     51.6232   2000.0000     76.0104
  1221.2500   2000.0000     39.0053     52.2377   2000.0000     74.2762
  1221.5000   2000.0000     39.0271     52.8442   2000.0000     71.2647
  1221.7500   2000.0000     39.0443     53.4155   2000.0000     68.7356
  1222.0000   2000.0000     39.0378     53.9215   2000.0000     64.1756
  1222.2500   2000.0000     38.9692     54.3266   2000.0000     61.0948
  1222.5000   2000.0000     38.7951     54.5864   2000.0000     57.5033
  1222.7500   2000.0000     38.4925     54.6468   2000.0000     56.0316
  1223.0000   2000.0000     38.0692     54.4430   2000.0000     54.6120
  1223.2500   2000.0000     37.5458     53.9015   2000.0000     53.6790
  1223.5000   2000.0000     36.9252     52.9472   2000.0000     51.8347
  1223.7500   2000.0000     36.1732     51.5164   2000.0000     50.2799
  1224.0000   2000.0000     35.2257     49.5737   2000.0000     47.6542
  1224.2500   2000.0000     34.0156     47.1291   2000.0000     45.9810
  1224.5000   2000.0000     32.5066     44.2495   2000.0000     44.1815
  1224.7500   2000.0000     30.7210     41.0552   2000.0000     43.6802
  1225.0000   2000.0000     28.7463     37.7016   2000.0000     43.9761
  1225.2500   2000.0000     26.7139     34.3521   2000.0000     44.7812
  1225.5000   2000.0000     24.7583     31.1505   2000.0000     47.0124
  1225.7500   2000.0000     22.9786     28.2042   2000.0000     49.5587
  1226.0000   2000.0000     21.4249     25.5782   2000.0000     56.0044
  1226.2500   2000.0000     20.1063     23.2997   2000.0000     62.5085
  1226.5000   2000.0000     19.0096     21.3674   2000.0000     75.2360
  1226.7500   2000.0000     18.1125     19.7616   2000.0000     84.7704
  1227.0000   2000.0000     17.3895     18.4526   2000.0000     98.6845
  1227.2500   2000.0000     16.8117     17.4061   2000.0000    106.8586
  1227.5000   2000.0000     16.3465     16.5872   2000.0000    116.5182
  1227.7500   2000.0000     15.9593     15.9615   2000.0000    120.6793
  1228.0000   2000.0000     15.6176     15.4958   2000.0000    122.7129
  1228.2500   2000.0000     15.2962     15.1575   2000.0000    121.2446
  1228.5000   2000.0000     14.9808     14.9147   2000.0000    115.7070
  1228.7500   2000.0000     14.6676     14.7357   2000.0000    110.5888
  1229.0000   2000.0000     14.3618     14.5901   2000.0000    102.1717
  1229.2500   2000.0000     14.0748     14.4500   2000.0000     96.8678
  1229.5000   2000.0000     13.8215     14.2923   2000.0000     90.6052
  1229.7500   2000.0000     13.6159     14.1010   2000.0000     88.0370
  1230.0000   2000.0000     13.4637     13.8688   2000.0000     87.0535
  1230.2500   2000.0000     13.3552     13.5964   2000.0000     88.5711
  1230.5000   2000.0000     13.2664     13.2922   2000.0000     94.3897
  1230.7500   2000.0000     13.1684     12.9689   2000.0000    100.2953
  1231.0000   2000.0000     13.0391     12.6411   2000.0000    110.5670
  1231.2500   2000.0000     12.8699     12.3228   2000.0000    117.2390
  1231.5000   2000.0000     12.6620     12.0257   2000.0000    125.6057
  1231.7500   2000.0000     12.4220     11.7587   2000.0000    129.6267
  1232.0000   2000.0000     12.1589     11.5273   2000.0000    133.0008
  1232.2500   2000.0000     11.8849     11.3346   2000.0000    133.7784
  1232.5000   2000.0000     11.6160     11.1810   2000.0000    134.2554
  1232.7500   2000.0000     11.3697     11.0657   2000.0000    135.0044
  1233.0000   2000.0000     11.1625     10.9862   2000.0000    137.0249
  1233.2500   2000.0000     11.0063     10.9395   2000.0000    138.4588
  1233.5000   2000.0000     10.9079     10.9225   2000.0000    139.8286
  1233.7500   2000.0000     10.8691     10.9321   2000.0000    139.8653
  1234.0000   2000.0000     10.8875     10.9662   2000.0000    138.0540
  1234.2500   2000.0000     10.9581     11.0238   2000.0000    135.5486
  1234.5000   2000.0000     11.0752     11.1052   2000.0000    130.9213
  1234.7500   2000.0000     11.2331     11.2123   2000.0000    128.3813
  1235.0000   2000.0000     11.4269     11.3479   2000.0000    126.7682
  1235.2500   2000.0000     11.6515     11.5159   2000.0000    127.1089
  1235.5000   2000.0000     11.9013     11.7202   2000.0000    128.4647
  1235.7500   2000.0000     12.1713     11.9645   2000.0000    129.0245
  1236.0000   2000.0000     12.4583     12.2519   2000.0000    128.3724
  1236.2500   2000.0000     12.7623     12.5847   2000.0000    126.8678
  1236.5000   2000.0000     13.0872     12.9640   2000.0000    123.3911
  1236.7500   2000.0000     13.4409     13.3904   2000.0000    120.5600
  1237.0000   2000.0000     13.8341     13.8636   2000.0000    116.0878
  1237.2500   2000.0000     14.2783     14.3833   2000.0000    113.3262
  1237.5000   2000.0000     14.7838     14.9493   2000.0000    110.1583
  1237.7500   2000.0000     15.3584     15.5619   2000.0000    108.9723
  1238.0000   2000.0000     16.0045     16.2219   2000.0000    108.6133
  1238.2500   2000.0000     16.7156     16.9307   2000.0000    108.9671
  1238.5000   2000.0000     17.4743     17.6901   2000.0000    109.4902
  1238.7500   2000.0000     18.2572     18.5014   2000.0000    109.5267
  1239.0000   2000.0000     19.0464     19.3657   2000.0000    109.1929
  1239.2500   2000.0000     19.8385     20.2826   2000.0000    108.8184
  1239.5000   2000.0000     20.6394     21.2500   2000.0000    107.7431
  1239.7500   2000.0000     21.4510     22.2631   2000.0000    106.3127
  1240.0000   2000.0000     22.2641     23.3137   2000.0000    102.7193
  1240.2500   2000.0000     23.0650     24.3890   2000.0000     99.4817
  1240.5000   2000.0000     23.8474     25.4694   2000.0000     93.9642
  1240.7500   2000.0000     24.6154     26.5268   2000.0000     90.2455
  1241.0000   2000.0000     25.3707     27.5230   2000.0000     85.2202
  1241.2500   2000.0000     26.0974     28.4074   2000.0000     82.4926
  1241.5000   2000.0000     26.7504     29.1178   2000.0000     79.5156
  1241.7500   2000.0000     27.2486     29.5865   2000.0000     78.2415
  1242.0000   2000.0000     27.4732     29.7504   2000.0000     77.1557
  1242.2500   2000.0000     27.2952     29.5634   2000.0000     76.8070
  1242.5000   2000.0000     26.6435     29.0114   2000.0000     76.8322
  1242.7500   2000.0000     25.5618     28.1188   2000.0000     77.4872
  1243.0000   2000.0000     24.1871     26.9471   2000.0000     80.1177
  1243.2500   2000.0000     22.6715     25.5810   2000.0000     83.2743
  1243.5000   2000.0000     21.1292     24.1111   2000.0000     90.2161
  1243.7500   2000.0000     19.6358     22.6187   2000.0000     96.0257
  1244.0000   2000.0000     18.2433     21.1654   2000.0000    105.4934
  1244.2500   2000.0000     16.9827     19.7909   2000.0000    111.7228
  1244.5000   2000.0000     15.8592     18.5154   2000.0000    120.4978
  1244.7500   2000.0000     14.8558     17.3444   2000.0000    125.9145
  1245.0000   2000.0000     13.9465     16.2746   2000.0000    133.1545
  1245.2500   2000.0000     13.1117     15.2988   2000.0000    137.1426
  1245.5000   2000.0000     12.3471     14.4093   2000.0000    141.5008
  1245.7500   2000.0000     11.6620     13.6005   2000.0000    143.3183
  1246.0000   2000.0000     11.0715     12.8693   2000.0000    145.0472
