~Version Information
VERS.                      2.0: CWLS Log ASCII Standard - VERSION 2.0
WRAP.                       NO: One line per depth step
~Well Information Block
STRT.FT                -3.2500: 
STOP.FT              1637.5000: 
STEP.FT                 0.2500: 
NULL.                -999.2500: 
COMP.          Pioneer Natural Resources: COMPANY
WELL.            Mad Dog 42-31: WELL
FLD.           Purgatorie River: FIELD
LOC.           2064' FNL & 479' FEL--: LOCATION
PROV.                       CO: PROVINCE
CNTY.               Las Animas: COUNTRY
SRVC.                         : SERVICE COMPANY
DATE.          Fri Oct 15 16:13:39 2004: LOG DATE
UWI.          005 071 08195   : UNIQUE WELL ID
~Curve Information Block
DEPT.FT            0 000 00 00: Depth
HVOLTA.V                      : Head Voltage Apparent
GR.GAPI                       : Gamma Ray
CCL.                          : Casing Collar Locator
TT3.usec                      : CBL 3' Travel Time
AMP3.mV                       : CBL 3' Amplitude
~Parameter Information Block
~A  Depth      HVOLTA        GR         CCL         TT3         AMP3    
# ...
   416.7500     97.1494    107.4305      0.0000    729.4661      6.1762
   417.0000     97.4158    103.4411      0.0000    725.5812      6.2810
   417.2500     97.1875     99.1866      0.0000    724.1852      6.4042
   417.5000     97.1936     95.7010      0.0000    725.6251      6.5323
   417.7500     97.1554     94.0062      0.0000    729.9001      6.6656
   418.0000     97.3644     94.7989      0.0000    736.2198      6.8089
   418.2500     97.2079     97.8556      0.0000    742.7064      6.9574
   418.5000     97.3177    101.8270      0.0000    747.2695      7.0924
   418.7500     97.2988    104.9537      0.0000    749.0231      7.1929
   419.0000     97.2389    106.3723      0.0000    748.5095      7.2533
   419.2500     97.3034    106.5995      0.0000    746.5854      7.2845
   419.5000     97.2795    106.4257      0.0000    743.7155      7.2962
   419.7500     97.1016    105.5604      0.0000    740.3123      7.2829
   420.0000     97.1183    102.8835      0.0000    736.8464      7.2320
   420.2500     97.1362     98.0783      0.0000    733.4390      7.1422
   420.5000     97.2724     92.4100      0.0000    730.1124      7.0319
   420.7500     97.0777     87.5405      0.0000    727.5823      6.9333
   421.0000     97.2103     84.1133      0.0000    727.1472      6.8813
   421.2500     97.2485     81.8879      0.0000    729.4625      6.8975
   421.5000     97.0980     80.6016      0.0000    733.4836      6.9738
   421.7500     97.2724     80.1221      0.0000    736.7991      7.0697
   422.0000     97.2139     80.1543      0.0000    737.4446      7.1383
   422.2500     97.1494     80.4724      0.0000    735.6035      7.1592
   422.5000     97.2927     81.3894      0.0000    733.1536      7.1437
   422.7500     97.3369     83.5531      0.0000    731.4297      7.1103
   423.0000     97.2592     87.1743      0.0000    729.9218      7.0631
   423.2500     97.3990     91.6100      0.0000    727.2410      6.9915
   423.5000     97.2856     95.8082      0.0000    722.7441      6.8894
   423.7500     97.2318     99.1678      0.0000    717.2313      6.7735
   424.0000     97.1732    101.8990      0.0000    712.8832      6.6859
   424.2500     97.1601    104.4340      0.0000    712.4142      6.6759
   424.5000     97.2999    106.6885      0.0000    716.9347      6.7700
   424.7500     97.1219    108.2778      0.0000    724.1838      6.9500
   425.0000     97.3812    109.2515      0.0000    729.9070      7.1531
   425.2500     97.1219    110.0233      0.0000    731.4592      7.3016
   425.5000     97.0812    110.5700      0.0000    729.5081      7.3457
   425.7500     97.2449    110.2687      0.0000    726.4526      7.2849
   426.0000     97.1971    108.7877      0.0000    724.2255      7.1546
   426.2500     97.2545    106.7041      0.0000    723.7000      6.9975
   426.5000     97.2043    104.7655      0.0000    725.1673      6.8466
   426.7500     97.2175    102.8063      0.0000    728.6282      6.7223
   427.0000     97.1386    100.0059      0.0000    733.7382      6.6330
   427.2500     97.2246     96.0905      0.0000    739.8754      6.5789
   427.5000     97.2963     91.7524      0.0000    746.3649      6.5586
   427.7500     97.1529     87.9983      0.0000    752.4833      6.5716
   428.0000     97.3238     85.4653      0.0000    757.3566      6.6058
   428.2500     97.2378     84.3539      0.0000    760.1784      6.6235
   428.5000     97.3919     84.7509      0.0000    760.6583      6.5698
   428.7500     97.3512     86.7194      0.0000    759.3177      6.4066
   429.0000     97.3106     89.8751      0.0000    757.4811      6.1439
   429.2500     97.3954     93.0507      0.0000    756.7223      5.8344
   429.5000     97.3477     94.8063      0.0000    757.8165      5.5355
   429.7500     97.3751     94.5141      0.0000    760.1887      5.2763
   430.0000     97.2892     92.7364      0.0000    762.5852      5.0575
   430.2500     97.2927     90.3708      0.0000    764.1769      4.8710
   430.5000     97.2282     87.7888      0.0000    764.8997      4.7102
   430.7500     97.1732     84.9812      0.0000    765.0675      4.5674
   431.0000     97.0909     81.9973      0.0000    764.9970      4.4320
   431.2500     97.2139     78.9664      0.0000    764.9417      4.2931
   431.5000     97.1362     76.1972      0.0000    765.2341      4.1437
   431.7500     97.1661     74.4855      0.0000    766.4705      3.9836
   432.0000     97.2307     75.1347      0.0000    769.7951      3.8296
   432.2500     97.3477     79.3675      0.0000    776.8036      3.7284
   432.5000     97.1804     87.0350      0.0000    788.3760      3.7512
   432.7500     97.4158     95.4930      0.0000    802.7925      3.9524
   433.0000     97.1016    100.5295      0.0000    815.2712      4.3193
   433.2500     97.2449     99.5342      0.0000    820.5071      4.7691
   433.5000     97.2938     93.7731      0.0000    816.5803      5.2084
   433.7500     97.1494     87.1619      0.0000    807.0753      5.5923
   434.0000     97.1971     83.1496      0.0000    799.4192      5.9272
   434.2500     97.1290     82.9204      0.0000    800.2150      6.2303
   434.5000     97.1661     85.6708      0.0000    811.2087      6.4971
   434.7500     97.1936     89.7724      0.0000    829.3016      6.7017
   435.0000     97.3369     93.8246      0.0000    849.6245      6.8154
   435.2500     97.2318     97.0623      0.0000    867.6869      6.8228
   435.5000     97.3680     99.0185      0.0000    879.7026      6.7241
   435.7500     97.1804     99.3102      0.0000    883.6365      6.5297
   436.0000     97.1326     98.1105      0.0000    880.9833      6.2554
   436.2500     97.2414     96.3705      0.0000    875.9183      5.9203
   436.5000     97.3309     95.0992      0.0000    871.7094      5.5444
   436.7500     97.2592     94.5102      0.0000    868.4578      5.1465
   437.0000     97.1900     93.9966      0.0000    863.8566      4.7395
   437.2500     97.3334     92.8253      0.0000    854.8401      4.3278
   437.5000     97.1936     90.8778      0.0000    839.7336      3.9196
   437.7500     97.3548     88.8975      0.0000    821.1940      3.5503
   438.0000     97.2664     87.9171      0.0000    805.9991      3.2886
   438.2500     97.2999     88.2354      0.0000    799.6085      3.2099
   438.5000     97.2414     89.0267      0.0000    800.9107      3.3575
   438.7500     97.2414     89.1760      0.0000    803.4636      3.7215
   439.0000     97.3584     88.4620      0.0000    801.7354      4.2347
   439.2500     97.1732     87.6688      0.0000    795.1876      4.7877
   439.5000     97.0299     87.5156      0.0000    786.6971      5.2689
   439.7500     97.2867     87.7971      0.0000    778.8616      5.6171
   440.0000     97.3512     87.7107      0.0000    772.5428      5.8478
   440.2500     97.2795     86.8021      0.0000    767.5307      6.0311
   440.5000     97.2521     85.3950      0.0000    763.0961      6.2417
   440.7500     97.0120     84.2746      0.0000    758.0759      6.5150
   441.0000     97.2114     84.2368      0.0000    751.5171      6.8244
   441.2500     97.1625     85.8258      0.0000    743.5872      7.0818
   441.5000     97.2378     89.1759      0.0000    735.4245      7.1670
   441.7500     97.4193     93.9525      0.0000    728.2084      6.9986
   442.0000     97.2043     99.4142      0.0000    723.1957      6.6092
   442.2500     97.2831    104.5512      0.0000    722.8425      6.1426
   442.5000     97.1219    108.2795      0.0000    730.9047      5.7486
   442.7500     97.1326    109.6434      0.0000    750.6726      5.4860
   443.0000     97.3691    108.0287      0.0000    782.0605      5.3405
   443.2500     97.1768    103.5091      0.0000    819.4495      5.2965
   443.5000     97.1732     97.1195      0.0000    853.6599      5.3479
   443.7500     97.1601     90.5567     -2.0000    877.9886      5.4640
   444.0000     97.0777     85.3257      2.0000    891.8061      5.5903
   444.2500     97.1864     82.0110      0.0000    897.3707      5.6794
   444.5000     97.2999     80.2335      0.0000    894.7399      5.7182
