~Version Information
VERS.                      2.0: CWLS Log ASCII Standard - VERSION 2.0
WRAP.                       NO: One line per depth step
~Well Information Block
STRT.FT                 0.0000: 
STOP.FT              1916.0000: 
STEP.FT                 0.1000: 
NULL.                -999.2500: 
COMP.          Pioneer Natural Resources: COMPANY
WELL.          Blackjack 32-11 Tr: WELL
FLD.           Purgatorie River: FIELD
LOC.           2066' FNL & 1453' FEL: LOCATION
PROV.                 Colorado: PROVINCE
CNTY.               Las Animas: COUNTRY
SRVC.                Patterson: SERVICE COMPANY
DATE.          Tue Aug 16 12:08:23 2005: LOG DATE
UWI.                          : UNIQUE WELL ID
~Curve Information Block
DEPT.FT            0 000 00 00: Depth
DCAL.in                       : CDL Caliper
RHOB.g/cc                     : CDL Bulk Density
RHOC.g/cc                     : CDL Density Correction
DPOR.pu                       : CDL Density Porosity
GR.GAPI                       : Gamma Ray
NPOR.pu                       : Neutron Porosity
~Parameter Information Block
~A  Depth       DCAL        RHOB        RHOC        DPOR         GR         NPOR    
# ...
   499.2000     16.4745      1.4337      1.9949     -0.0243    184.8221     25.9580
   499.3000     16.4701      1.5397      1.9178     -0.0222    174.4306     25.2936
   499.4000     16.4701      1.6563      1.9292     -0.0199    171.9876     24.7313
   499.5000     16.4709      1.8042      2.1027     -0.0169    178.0957     24.4313
   499.6000     16.4709      1.9663      2.0072     -0.0137    184.8617     24.5923
   499.7000     16.4709      2.0868      2.4413     -0.0113    188.9000     25.1880
   499.8000     16.4722      2.0756      2.1747     -0.0115    190.9353     25.6151
   499.9000     16.4722      2.0171      2.1783     -0.0127    188.3101     25.6696
   500.0000     16.4711      2.0935      2.0521     -0.0111    182.5617     25.5001
   500.1000     16.4711      2.2246      2.3269     -0.0085    178.6190     24.9570
   500.2000     16.4711      2.2047      2.5097     -0.0089    176.2698     24.5497
   500.3000     16.4713      2.0707      2.4854     -0.0116    177.1308     24.9480
   500.4000     16.4713      1.9371      2.1910     -0.0143    182.2885     25.5151
   500.5000     16.4744      1.7817      2.0635     -0.0174    185.7448     25.6957
   500.6000     16.4744      1.6155      2.1782     -0.0207    184.8477     25.8572
   500.7000     16.4744      1.5646      1.7437     -0.0217    184.4471     25.9071
   500.8000     16.4777      1.6472      2.0175     -0.0201    185.8387     25.7585
   500.9000     16.4777      1.7030      2.2964     -0.0189    185.5477     25.8765
   501.0000     16.4700      1.6539      2.1156     -0.0199    183.0124     26.3796
   501.1000     16.4700      1.5719      1.8598     -0.0216    176.5847     26.8495
   501.2000     16.4700      1.5257      1.9207     -0.0225    166.4253     26.9264
   501.3000     16.4672      1.5141      2.1171     -0.0227    161.7462     26.7612
   501.4000     16.4672      1.5164      1.9698     -0.0227    167.0398     26.7045
   501.5000     16.4744      1.5607      1.7853     -0.0218    175.4872     26.8654
   501.6000     16.4744      1.6236      2.1030     -0.0205    178.5180     27.1041
   501.7000     16.4744      1.6267      1.7248     -0.0205    173.1608     27.3760
   501.8000     16.4821      1.5554      2.0890     -0.0219    166.4140     27.5638
   501.9000     16.4821      1.4465      1.6681     -0.0241    164.9901     27.4685
   502.0000     16.4755      1.4114      1.8236     -0.0248    168.7100     27.4458
   502.1000     16.4755      1.5303      2.2045     -0.0224    173.5356     27.7703
   502.2000     16.4755      1.7271      2.1643     -0.0185    173.5933     28.1914
   502.3000     16.4756      1.8232      2.5060     -0.0165    167.8227     28.5182
   502.4000     16.4756      1.7636      1.9983     -0.0177    162.0750     28.7292
   502.5000     16.4744      1.7154      1.9285     -0.0187    160.3245     28.6509
   502.6000     16.4744      1.7559      1.8712     -0.0179    159.6526     28.1401
   502.7000     16.4744      1.7877      1.9852     -0.0173    157.8477     27.4393
   502.8000     16.4744      1.7770      2.3429     -0.0175    154.5471     26.8690
   502.9000     16.4744      1.7928      2.0129     -0.0172    149.8801     26.6037
   503.0000     16.4765      1.8611      2.1591     -0.0158    145.9464     26.4877
   503.1000     16.4765      1.8884      2.3681     -0.0152    144.5020     26.4038
   503.2000     16.4765      1.8379      2.2552     -0.0163    146.2799     26.5585
   503.3000     16.4815      1.7488      2.2670     -0.0180    147.8796     26.7037
   503.4000     16.4815      1.6183      1.9349     -0.0206    146.2589     26.3224
   503.5000     16.4789      1.4440      2.1746     -0.0241    144.9810     25.7578
   503.6000     16.4789      1.3156      1.6828     -0.0267    145.2673     25.8151
   503.7000     16.4789      1.3470      1.6567     -0.0261    145.3445     26.6565
   503.8000     16.4740      1.4744      2.0921     -0.0235    145.5310     27.4882
   503.9000     16.4740      1.5298      1.9348     -0.0224    145.2708     27.6776
   504.0000     16.4787      1.4825      2.0113     -0.0234    141.3644     27.7804
   504.1000     16.4787      1.4902      1.4801     -0.0232    132.7030     28.4268
   504.2000     16.4787      1.6991      1.9418     -0.0190    126.7609     29.6131
   504.3000     16.4804      1.9679      2.4231     -0.0136    128.8311     31.1392
   504.4000     16.4804      2.0356      2.3762     -0.0123    133.7763     32.5687
   504.5000     16.4785      1.7914      2.6153     -0.0172    134.3498     33.5296
   504.6000     16.4785      1.3379      1.6801     -0.0263    129.7994     33.7975
   504.7000     16.4785      0.9405      1.8999     -0.0342    125.1474     33.1916
   504.8000     16.4812      0.7271      1.8918     -0.0385    122.0046     32.2011
   504.9000     16.4812      0.6698      1.7203     -0.0396    118.9996     31.6408
   505.0000     16.4748      0.7675      1.8732     -0.0377    119.1840     31.2275
   505.1000     16.4748      1.0027      1.7328     -0.0330    126.8078     30.4464
   505.2000     16.4748      1.2372      1.8395     -0.0283    136.9122     29.3551
   505.3000     16.4715      1.3132      1.7303     -0.0267    139.7359     27.9447
   505.4000     16.4715      1.2759      1.6723     -0.0275    134.8432     26.5676
   505.5000     16.4733      1.3021      1.6508     -0.0270    130.7343     25.9478
   505.6000     16.4733      1.4643      1.8866     -0.0237    130.9642     25.9098
   505.7000     16.4733      1.6480      2.4954     -0.0200    133.0827     25.7030
   505.8000     16.4793      1.6924      2.3190     -0.0192    135.8387     25.2407
   505.9000     16.4793      1.5870      2.0804     -0.0213    138.7689     24.9436
   506.0000     16.4752      1.4554      1.8062     -0.0239    141.7666     25.0630
   506.1000     16.4752      1.3912      1.9521     -0.0252    142.0531     25.6578
   506.2000     16.4752      1.3724      2.0376     -0.0256    139.2835     26.5078
   506.3000     16.4761      1.3487      1.9813     -0.0260    136.8938     27.0692
   506.4000     16.4761      1.3432      1.9984     -0.0262    137.3464     26.9005
   506.5000     16.4777      1.3635      2.2519     -0.0257    141.6219     26.2206
   506.6000     16.4777      1.3910      1.8875     -0.0252    145.8905     25.6580
   506.7000     16.4777      1.4227      2.2119     -0.0246    148.4916     25.5579
   506.8000     16.4703      1.3824      2.2019     -0.0254    150.9314     25.9501
   506.9000     16.4703      1.2786      1.8058     -0.0274    152.8022     26.6989
   507.0000     16.4783      1.2605      1.9361     -0.0278    153.5812     27.4161
   507.1000     16.4783      1.3304      1.9724     -0.0264    150.3488     27.5817
   507.2000     16.4783      1.3290      2.1982     -0.0264    142.8240     27.1423
   507.3000     16.4709      1.1901      2.0925     -0.0292    137.6517     26.8117
   507.4000     16.4709      1.0448      1.6771     -0.0321    139.2186     27.2257
   507.5000     16.4731      1.0246      1.6624     -0.0325    144.6587     27.8898
   507.6000     16.4731      1.0560      2.1579     -0.0319    148.7336     28.0070
   507.7000     16.4731      1.0172      2.0305     -0.0327    151.0157     27.5714
   507.8000     16.4809      1.0098      1.6990     -0.0328    151.1500     27.0293
   507.9000     16.4809      1.1477      2.0250     -0.0301    148.9267     26.6861
   508.0000     16.4864      1.2849      2.1356     -0.0273    149.2422     26.4365
   508.1000     16.4864      1.2865      2.0781     -0.0273    153.0919     26.2596
   508.2000     16.4864      1.2510      1.7944     -0.0280    155.5798     26.1625
   508.3000     16.4736      1.2186      1.8853     -0.0286    153.5556     25.9883
   508.4000     16.4736      1.0978      1.9472     -0.0311    147.6227     25.8185
   508.5000     16.4762      0.9139      2.0777     -0.0347    141.7725     25.7904
   508.6000     16.4762      0.7948      1.7007     -0.0371    139.0154     26.0868
   508.7000     16.4762      0.7840      2.0298     -0.0373    140.1124     26.6640
