~Version Information
VERS.                      2.0: CWLS Log ASCII Standard - VERSION 2.0
WRAP.                       NO: One line per depth step
~Well Information Block
STRT.FT                 0.5000: 
STOP.FT              2891.5000: 
STEP.FT                 0.2500: 
NULL.                -999.2500: 
COMP.          Petrogulf Corporation: COMPANY
WELL.            Montoya 1-41V: WELL
FLD.           Purgatoire River: FIELD
LOC.           610' FNL & 1205' FEL--: LOCATION
PROV.                 Colorado: PROVINCE
CNTY.               Las Animas: COUNTRY
SRVC.                Patterson: SERVICE COMPANY
DATE.          Mon Sep 12 11:42:30 2005: LOG DATE
UWI.           05 071 08144 00: UNIQUE WELL ID
~Curve Information Block
DEPT.FT            0 000 00 00: Depth
CCL.                          : Casing Collar Locator
TT3.usec                      : CBL 3' Travel Time
AMP3.mV                       : CBL 3' Amplitude
GR.GAPI                       : Gamma Ray
~Parameter Information Block
~A  Depth       CCL         TT3         AMP3         GR     
# ...
   369.0000      0.0000    483.8857      9.2645     94.0100
   369.2500      0.0000    485.5245      9.0884     94.6042
   369.5000      0.0000    495.5198      8.8253     95.3166
   369.7500      0.0000    519.4962      8.3921     95.5738
   370.0000      0.0000    560.1128      7.7848     95.2562
   370.2500      0.0000    612.3441      7.0955     94.3772
   370.5000      0.0000    661.7511      6.4636     92.6050
   370.7500      0.0000    691.9035      5.9977     89.2807
   371.0000      0.0000    696.5182      5.7246     84.1045
   371.2500      0.0000    683.2981      5.5940     77.6456
   371.5000      2.0000    665.7192      5.5238     71.1428
   371.7500      0.0000    653.2440      5.4462     66.0692
   372.0000      0.0000    648.5508      5.3317     63.6880
   372.2500      0.0000    649.3182      5.1888     64.2619
   372.5000      0.0000    650.2173      5.0443     66.5121
   372.7500      0.0000    645.5825      4.9115     68.6053
   373.0000      0.0000    633.0424      4.7716     69.9887
   373.2500      0.0000    614.8499      4.5918     71.7407
   373.5000      0.0000    595.3485      4.3605     74.9940
   373.7500      0.0000    577.9733      4.1014     79.5614
   374.0000      0.0000    564.5345      3.8509     84.2267
   374.2500      0.0000    555.6289      3.6300     87.7598
   374.5000      0.0000    550.7451      3.4456     89.4147
   374.7500      0.0000    548.5729      3.3078     89.1019
   375.0000      0.0000    547.7668      3.2293     87.6612
   375.2500      0.0000    547.4877      3.2044     86.6313
   375.5000      0.0000    547.3761      3.2037     87.1534
   375.7500      0.0000    547.3030      3.1986     89.1075
   376.0000      0.0000    547.2263      3.1839     91.5502
   376.2500      0.0000    547.1470      3.1739     93.8054
   376.5000      0.0000    547.0939      3.1822     95.8366
   376.7500      0.0000    547.0862      3.2107     97.6206
   377.0000      0.0000    547.1192      3.2567     98.5513
   377.2500      0.0000    547.1619      3.3203     97.9886
   377.5000      0.0000    547.1636      3.4035     96.4305
   377.7500      0.0000    547.0900      3.5070     95.4523
   378.0000      0.0000    546.9573      3.6280     96.0128
   378.2500      0.0000    546.8165      3.7609     97.3167
   378.5000      0.0000    546.7053      3.9018     97.9300
   378.7500      0.0000    546.6406      4.0504     97.5551
   379.0000      0.0000    546.6458      4.2033     97.0865
   379.2500      0.0000    546.7450      4.3465     97.2341
   379.5000      0.0000    546.9166      4.4613     97.6964
   379.7500      0.0000    547.0785      4.5402     97.7565
   380.0000      0.0000    547.1466      4.5908     97.3672
   380.2500      0.0000    547.1050      4.6214     97.2466
   380.5000      0.0000    547.0079      4.6294     97.7920
   380.7500      0.0000    546.9273      4.6111     98.3561
   381.0000      0.0000    546.9052      4.5786     98.0155
   381.2500      0.0000    546.9438      4.5589     96.8984
   381.5000      0.0000    547.0202      4.5780     96.4541
   381.7500      0.0000    547.1085      4.6450     98.1711
   382.0000      0.0000    547.1966      4.7468    101.8638
   382.2500      0.0000    547.2869      4.8516    105.4829
   382.5000      0.0000    547.3878      4.9236    107.0538
   382.7500      0.0000    547.5087      4.9425    106.5890
   383.0000      0.0000    547.6557      4.9159    105.8235
   383.2500      0.0000    547.8125      4.8747    106.3095
   383.5000      0.0000    547.9290      4.8524    107.9857
   383.7500      0.0000    547.9562      4.8622    109.4557
   384.0000      0.0000    547.8971      4.8934    109.4869
   384.2500      0.0000    547.8111      4.9337    108.1886
   384.5000      0.0000    547.7737      4.9904    106.8310
   384.7500      0.0000    547.8420      5.0826    106.6743
   385.0000      0.0000    548.1384      5.2172    107.8176
   385.2500      0.0000    549.0699      5.3801    108.8892
   385.5000      0.0000    551.5753      5.5506    107.9899
   385.7500      0.0000    556.9229      5.7162    104.3794
   386.0000      0.0000    565.6544      5.8731     99.3987
   386.2500      0.0000    576.5943      6.0186     95.5251
   386.5000      0.0000    587.6968      6.1462     94.3358
   386.7500      0.0000    597.9937      6.2475     95.4955
   387.0000      0.0000    607.3905      6.3191     97.8418
   387.2500      0.0000    614.7933      6.3659    100.9506
   387.5000      0.0000    618.9419      6.3954    105.0669
   387.7500      0.0000    620.8816      6.4088    109.7985
   388.0000      0.0000    622.1711      6.3977    113.6939
   388.2500      0.0000    620.6288      6.3510    115.3453
   388.5000      0.0000    611.7930      6.2674    114.4585
   388.7500      0.0000    595.3970      6.1592    111.6642
   389.0000      0.0000    577.3939      6.0419    107.7925
   389.2500      0.0000    565.0160      5.9243    103.6314
   389.5000      0.0000    561.6451      5.8129     99.8539
   389.7500      0.0000    565.7230      5.7211     96.7215
   390.0000      0.0000    572.2027      5.6679     94.0273
   390.2500      0.0000    575.3265      5.6608     91.4925
   390.5000      0.0000    572.2965      5.6834     89.1441
   390.7500      0.0000    564.9593      5.7031     87.3624
   391.0000      0.0000    557.4008      5.6951     86.6329
   391.2500      0.0000    552.2857      5.6606     87.1825
   391.5000      0.0000    549.7628      5.6251     88.7810
   391.7500      0.0000    548.7865      5.6206     90.8998
   392.0000      0.0000    548.4717      5.6681     92.9578
   392.2500      0.0000    548.4244      5.7685     94.3164
   392.5000      0.0000    548.5093      5.9058     94.3478
   392.7500      0.0000    548.6412      6.0551     93.1188
   393.0000      0.0000    548.7397      6.1912     92.0622
   393.2500      0.0000    548.8713      6.2979     93.2661
   393.5000      0.0000    549.4271      6.3725     97.6263
   393.7500      0.0000    551.2188      6.4182    103.9131
   394.0000      0.0000    555.1559      6.4365    109.7750
   394.2500      0.0000    561.3314      6.4284    113.5174
   394.5000      0.0000    568.3557      6.4017    115.0599
   394.7500      0.0000    574.6326      6.3715    115.5368
   395.0000      0.0000    581.1257      6.3483    116.0196
   395.2500      0.0000    591.7430      6.3269    116.4768
   395.5000      0.0000    609.2747      6.2889    115.9000
   395.7500      0.0000    631.1985      6.2214    113.4721
   396.0000      0.0000    650.8351      6.1316    109.5189
   396.2500      0.0000    662.6898      6.0436    105.3215
   396.5000      0.0000    666.1865      5.9847    102.2245
   396.7500      0.0000    664.9125      5.9722    101.0588
   397.0000      0.0000    663.2977      6.0078    102.0037
   397.2500      0.0000    663.8898      6.0838    104.4686
   397.5000      0.0000    666.8176      6.1915    107.1606
   397.7500      0.0000    670.9496      6.3199    108.6864
   398.0000      0.0000    674.9812      6.4436    108.3006
   398.2500      0.0000    677.5037      6.5182    106.2662
   398.5000      0.0000    676.5060      6.5000    103.7187
   398.7500      0.0000    669.3109      6.3765    101.9945
   399.0000      0.0000    653.7433      6.1821    101.5904
   399.2500      0.0000    630.3979      5.9836    101.8338
   399.5000      0.0000    603.9681      5.8423    101.8443
   399.7500      0.0000    581.4619      5.7776    101.5401
   400.0000      0.0000    568.6792      5.7632    101.3564
   400.2500      0.0000    568.3953      5.7575    101.3576
   400.5000      0.0000    580.6247      5.7372    101.0495
   400.7500      0.0000    602.6047      5.7020     99.9454
   401.0000      0.0000    628.5824      5.6585     98.1029
   401.2500      0.0000    651.7484      5.6108     96.1231
   401.5000      0.0000    667.8132      5.5676     94.5286
   401.7500      0.0000    676.7662      5.5487     93.0891
   402.0000      0.0000    681.6911      5.5762     90.9885
   402.2500      0.0000    687.1486      5.6531     87.7874
