~Version Information
VERS.                      2.0: CWLS Log ASCII Standard - VERSION 2.0
WRAP.                       NO: One line per depth step
~Well Information Block
STRT.FT               185.5000: 
STOP.FT              2039.2500: 
STEP.FT                 0.2500: 
NULL.                -999.2500: 
COMP.          Petrogulf Corporation: COMPANY
WELL.            Montoya 7-12R: WELL
FLD.           Purgatorie River: FIELD
LOC.           1769' FNL & 658' FWL--: LOCATION
PROV.                       CO: PROVINCE
CNTY.               Las Animas: COUNTRY
SRVC.                         : SERVICE COMPANY
DATE.          Wed Feb 09 09:05:42 2005: LOG DATE
UWI.         005 071 08240  : UNIQUE WELL ID
~Curve Information Block
DEPT.FT            0 000 00 00: Depth
CCL.                          : Casing Collar Locator
CCLRT.                        : CCLRT
TT3.usec                      : CBL 3' Travel Time
AMP3.mV                       : CBL 3' Amplitude
GR.GAPI                       : Gamma Ray
~Parameter Information Block
~A  Depth       CCL        CCLRT        TT3         AMP3         GR     
# ...
   549.5000      0.0000   -999.2500    667.1368      5.4309    159.3591
   549.7500      0.0000   -999.2500    667.8780      5.5094    156.8093
   550.0000      0.0000   -999.2500    666.8469      5.6119    150.8062
   550.2500      0.0000   -999.2500    664.6367      5.7147    141.0143
   550.5000      0.0000   -999.2500    662.6100      5.7985    127.0767
   550.7500      0.0000   -999.2500    661.7805      5.8610    110.4823
   551.0000      0.0000   -999.2500    662.4196      5.9225     94.9186
   551.2500      0.0000   -999.2500    664.3378      6.0172     84.6013
   551.5000      0.0000   -999.2500    667.1294      6.1675     82.3645
   551.7500      0.0000   -999.2500    670.1752      6.3661     89.1352
   552.0000      0.0000   -999.2500    672.7637      6.5867    104.1609
   552.2500      0.0000   -999.2500    674.5906      6.8055    124.9702
   552.5000      0.0000   -999.2500    676.2648      7.0101    147.7435
   552.7500      0.0000   -999.2500    679.0569      7.1981    168.8809
   553.0000      0.0000   -999.2500    683.8173      7.3788    186.5868
   553.2500      0.0000   -999.2500    690.2408      7.5705    200.6819
   553.5000      0.0000   -999.2500    697.2555      7.7881    211.0204
   553.7500      0.0000   -999.2500    703.7088      8.0310    216.8174
   554.0000      0.0000   -999.2500    708.5215      8.2841    217.8126
   554.2500      0.0000   -999.2500    710.8972      8.5288    215.2314
   554.5000      0.0000   -999.2500    711.1363      8.7570    210.7157
   554.7500      0.0000   -999.2500    711.0521      8.9767    204.7342
   555.0000      0.0000   -999.2500    712.9077      9.2039    197.1761
   555.2500      0.0000   -999.2500    717.6453      9.4450    189.2933
   555.5000      0.0000   -999.2500    724.1739      9.6837    183.4898
   555.7500      0.0000   -999.2500    730.3234      9.8885    180.7880
   556.0000      0.0000   -999.2500    734.1369     10.0381    179.8913
   556.2500      0.0000   -999.2500    733.7042     10.1427    179.3649
   556.5000      0.0000   -999.2500    725.5372     10.2389    179.4904
   556.7500      0.0000   -999.2500    704.2469     10.3599    181.0999
   557.0000      0.0000   -999.2500    667.1549     10.5129    183.4049
   557.2500      0.0000   -999.2500    622.2755     10.6790    184.0338
   557.5000      0.0000   -999.2500    589.4619     10.8285    181.3160
   557.7500      0.0000   -999.2500    587.2131     10.9389    176.1582
   558.0000      0.0000   -999.2500    615.8646     11.0098    171.4785
   558.2500      0.0000   -999.2500    656.8313     11.0651    169.6425
   558.5000      0.0000   -999.2500    687.8585     11.1365    170.2742
   558.7500      0.0000   -999.2500    695.6943     11.2457    170.5715
   559.0000      0.0000   -999.2500    677.0613     11.4021    168.1217
   559.2500      0.0000   -999.2500    635.0671     11.6107    163.3973
   559.5000      0.0000   -999.2500    576.5831     11.8724    159.0887
   559.7500      0.0000   -999.2500    510.0177     12.1757    157.0697
   560.0000      0.0000   -999.2500    444.2878     12.4914    156.6807
   560.2500      0.0000   -999.2500    388.5554     12.7760    156.1121
   560.5000      0.0000   -999.2500    349.4366     12.9867    154.7618
   560.7500      0.0000   -999.2500    327.4352     13.1055    153.7718
   561.0000      0.0000   -999.2500    317.7072     13.1530    154.5759
   561.2500      0.0000   -999.2500    314.3382     13.1786    157.3280
   561.5000      0.0000   -999.2500    313.3855     13.2343    160.8524
   561.7500      0.0000   -999.2500    313.0970     13.3603    163.9247
   562.0000      0.0000   -999.2500    312.8986     13.5779    165.9978
   562.2500      0.0000   -999.2500    312.6747     13.8778    166.5101
   562.5000      0.0000   -999.2500    312.4137     14.2098    164.5093
   562.7500      0.0000   -999.2500    312.1516     14.4946    159.8990
   563.0000      0.0000   -999.2500    311.9195     14.6608    154.5940
   563.2500      0.0000   -999.2500    311.7288     14.6885    151.2778
   563.5000      0.0000   -999.2500    311.5763     14.6260    150.8041
   563.7500      0.0000   -999.2500    311.4546     14.5590    151.4707
   564.0000      0.0000   -999.2500    311.3581     14.5530    150.9465
   564.2500      0.0000   -999.2500    311.2835     14.6221    148.4223
   564.5000      0.0000   -999.2500    311.2271     14.7403    145.0184
   564.7500      0.0000   -999.2500    311.1850     14.8682    142.8334
   565.0000      0.0000   -999.2500    311.1555     14.9688    143.6366
   565.2500      0.0000   -999.2500    311.1384     15.0122    147.6394
   565.5000      0.0000   -999.2500    311.1303     14.9794    153.1030
   565.7500      0.0000   -999.2500    311.1243     14.8730    157.3974
   566.0000      0.0000   -999.2500    311.1133     14.7286    158.6917
   566.2500      0.0000   -999.2500    311.0906     14.6026    156.9914
   566.5000      0.0000   -999.2500    311.0534     14.5340    153.9300
   566.7500      0.0000   -999.2500    311.0082     14.5179    151.4720
   567.0000      0.0000   -999.2500    310.9725     14.5192    150.2892
   567.2500      0.0000   -999.2500    310.9610     14.5056    149.2954
   567.5000      0.0000   -999.2500    310.9729     14.4623    147.0610
   567.7500      0.0000   -999.2500    310.9919     14.3887    143.5652
   568.0000      0.0000   -999.2500    310.9950     14.3013    140.1237
   568.2500      0.0000   -999.2500    310.9642     14.2357    137.9745
   568.5000      0.0000   -999.2500    310.8954     14.2219    137.7792
   568.7500      0.0000   -999.2500    310.8029     14.2515    140.1849
   569.0000      0.0000   -999.2500    310.7139     14.2801    145.5423
   569.2500      0.0000   -999.2500    310.6548     14.2673    152.7901
   569.5000      0.0000   -999.2500    310.6385     14.2072    159.5408
   569.7500      0.0000   -999.2500    310.6613     14.1164    163.5927
   570.0000      0.0000   -999.2500    310.7123     13.9963    163.9451
   570.2500      0.0000   -999.2500    310.8163     13.8192    160.5944
   570.5000      0.0000   -999.2500    311.0809     13.5563    154.1688
   570.7500      0.0000   -999.2500    311.9925     13.2128    145.7327
   571.0000      0.0000   -999.2500    315.0248     12.8240    136.1094
   571.2500      0.0000   -999.2500    323.5320     12.4127    125.3264
   571.5000      0.0000   -999.2500    342.4360     11.9609    113.2082
   571.7500      0.0000   -999.2500    375.1289     11.4328    100.3425
   572.0000      0.0000   -999.2500    419.0611     10.8218     87.9318
   572.2500      0.0000   -999.2500    465.6305     10.1568     76.9081
   572.5000      0.0000   -999.2500    506.7483      9.4704     67.7783
   572.7500      0.0000   -999.2500    541.1991      8.7878     61.2467
   573.0000      0.0000   -999.2500    572.9611      8.1501     58.3763
   573.2500      0.0000   -999.2500    604.2587      7.6189     59.9855
   573.5000      2.0000   -999.2500    632.7750      7.2366     66.1324
   573.7500      0.0000   -999.2500    655.3494      6.9941     75.9968
   574.0000      0.0000   -999.2500    671.3087      6.8457     87.7955
   574.2500      0.0000   -999.2500    681.4544      6.7536     98.9634
   574.5000      0.0000   -999.2500    686.2727      6.7189    107.0838
   574.7500      0.0000   -999.2500    686.2102      6.7628    110.9938
   575.0000      0.0000   -999.2500    681.7677      6.8779    111.1272
   575.2500      0.0000   -999.2500    672.9917      7.0116    109.0950
   575.5000      0.0000   -999.2500    661.1563      7.1130    106.8254
   575.7500      0.0000   -999.2500    652.0745      7.1852    105.4693
   576.0000      0.0000   -999.2500    654.3343      7.2777    104.9115
   576.2500      0.0000   -999.2500    671.0327      7.4383    104.4974
   576.5000      0.0000   -999.2500    694.9333      7.6830    104.0823
   576.7500      0.0000   -999.2500    714.4984      7.9956    104.3492
   577.0000      0.0000   -999.2500    723.0981      8.3372    106.3888
   577.2500      0.0000   -999.2500    720.8880      8.6594    110.8480
