~Version Information
VERS.                      2.0: CWLS Log ASCII Standard - VERSION 2.0
WRAP.                       NO: One line per depth step
~Well Information Block
STRT.FT               650.0000: 
STOP.FT              1080.5000: 
STEP.FT                 0.1000: 
NULL.                -999.2500: 
COMP.          Pioneer Natural Resources: COMPANY
WELL.            Galileo 21-11: WELL
FLD.           Purgatoire River: FIELD
LOC.           407' FNL & 2394' FWL: LOCATION
PROV.                 Colorado: PROVINCE
CNTY.               Las Animas: COUNTRY
SRVC.                Patterson: SERVICE COMPANY
DATE.          Mon Apr 11 16:20:08 2005: LOG DATE
UWI.           05 071 08353 00: UNIQUE WELL ID
~Curve Information Block
DEPT.FT            0 000 00 00: Depth
DCAL.in                       : CDL Caliper
RHOB.g/cc                     : CDL Bulk Density
RHOC.g/cc                     : CDL Density Correction
DPOR.pu                       : CDL Density Porosity
GR.GAPI                       : Gamma Ray
NPOR.pu                       : Neutron Porosity
~Parameter Information Block
~A  Depth       DCAL        RHOB        RHOC        DPOR         GR         NPOR    
# ...
   784.4000      7.9704      2.5523      0.0618      5.9232     91.5035     20.0181
   784.5000      7.9673      2.5833      0.1299      4.0443     96.4313     20.2127
   784.6000      7.9673      2.5858      0.1067      3.8882     92.8130     20.1360
   784.7000      7.9673      2.5696      0.0784      4.8739     88.4733     19.8127
   784.8000      7.9674      2.5525      0.0757      5.9084     90.6767     19.5407
   784.9000      7.9674      2.5366      0.0929      6.8720     94.1237     19.4858
   785.0000      7.9683      2.5232      0.0234      7.6857     95.1840     19.7858
   785.1000      7.9683      2.5259      0.0432      7.5190     95.4241     20.1754
   785.2000      7.9683      2.5458      0.0714      6.3146     94.7708     20.0129
   785.3000      7.9716      2.5612      0.0744      5.3842     94.5917     19.3424
   785.4000      7.9716      2.5544      0.0854      5.7941     95.5273     18.7931
   785.5000      7.9690      2.5349      0.0351      6.9773     95.5295     18.4650
   785.6000      7.9690      2.5247      0.0594      7.5931     91.6728     18.1061
   785.7000      7.9690      2.5212      0.0686      7.8040     82.5838     17.8085
   785.8000      7.9666      2.5082      0.0508      8.5929     71.7815     17.9740
   785.9000      7.9666      2.4920      0.0071      9.5752     67.1523     18.5546
   786.0000      7.9669      2.4888      0.0236      9.7678     71.0092     18.8309
   786.1000      7.9669      2.4927      0.0255      9.5328     77.6816     18.5574
   786.2000      7.9669      2.4908      0.0240      9.6479     83.9910     18.3642
   786.3000      7.9675      2.4883      0.0164      9.8008     89.5504     18.5905
   786.4000      7.9675      2.4950      0.0265      9.3943     90.7874     18.8698
   786.5000      7.9658      2.5134      0.0453      8.2814     86.3902     18.9809
   786.6000      7.9658      2.5402      0.0918      6.6563     82.5118     19.0303
   786.7000      7.9658      2.5688      0.0992      4.9197     82.0792     18.9321
   786.8000      7.9672      2.5896      0.1463      3.6586     80.4996     18.4721
   786.9000      7.9672      2.5910      0.1135      3.5777     76.0075     18.0853
   787.0000      7.9677      2.5791      0.0906      4.2960     72.2804     18.4196
   787.1000      7.9677      2.5765      0.1200      4.4541     70.3120     19.2833
   787.2000      7.9677      2.5886      0.1233      3.7188     69.9147     19.8475
   787.3000      7.9672      2.6028      0.1116      2.8626     73.0263     19.4999
   787.4000      7.9672      2.6102      0.1275      2.4123     78.2290     18.4715
   787.5000      7.9686      2.6132      0.1036      2.2274     82.9674     17.5643
   787.6000      7.9686      2.6174      0.0837      1.9740     86.7242     17.5030
   787.7000      7.9686      2.6196      0.0926      1.8412     89.2418     18.2824
   787.8000      7.9656      2.6090      0.1269      2.4838     90.7314     19.2126
   787.9000      7.9656      2.5798      0.0855      4.2534     89.6216     19.6014
   788.0000      7.9674      2.5412      0.0504      6.5961     84.6406     19.4886
   788.1000      7.9674      2.5073      0.0429      8.6492     77.5147     19.6376
   788.2000      7.9674      2.4825      0.0335     10.1490     70.3610     20.3068
   788.3000      7.9671      2.4630      0.0128     11.3312     68.0697     21.2134
   788.4000      7.9671      2.4491      0.0058     12.1744     74.8902     22.0640
   788.5000      7.9683      2.4528     -0.0184     11.9498     84.2295     22.1532
   788.6000      7.9683      2.4803      0.0376     10.2863     87.2903     21.1066
   788.7000      7.9683      2.5119      0.0761      8.3672     84.5175     19.8982
   788.8000      7.9689      2.5312      0.0625      7.2019     79.7243     19.3723
   788.9000      7.9689      2.5473      0.0681      6.2224     76.7424     19.0544
   789.0000      7.9661      2.5667      0.1086      5.0492     75.6345     18.5107
   789.1000      7.9661      2.5802      0.1373      4.2275     73.5753     18.2198
   789.2000      7.9661      2.5868      0.1433      3.8285     73.7485     18.6029
   789.3000      7.9652      2.5925      0.1325      3.4850     78.1351     19.4014
   789.4000      7.9652      2.5878      0.1411      3.7723     81.4640     19.8078
   789.5000      7.9670      2.5593      0.0963      5.4974     80.1809     19.6530
   789.6000      7.9670      2.5210      0.0366      7.8179     77.1792     19.4527
   789.7000      7.9670      2.4936      0.0653      9.4759     76.1435     19.3368
   789.8000      7.9639      2.4789      0.0621     10.3701     77.1319     19.4877
   789.9000      7.9639      2.4822      0.0595     10.1682     78.5409     19.9854
   790.0000      7.9680      2.5101      0.1090      8.4776     78.7833     20.4560
   790.1000      7.9680      2.5476      0.1327      6.2046     78.1427     20.4940
   790.2000      7.9680      2.5748      0.1774      4.5600     78.0386     20.0440
   790.3000      7.9670      2.5887      0.1986      3.7180     78.3172     19.1505
   790.4000      7.9670      2.6004      0.2057      3.0064     79.7532     18.0677
   790.5000      7.9665      2.6161      0.2006      2.0521     85.0345     17.7809
   790.6000      7.9665      2.6301      0.1874      1.2046     92.0501     18.6307
   790.7000      7.9665      2.6362      0.1601      0.8340     96.2071     19.6009
   790.8000      7.9675      2.6378      0.1358      0.7367     98.6634     20.1242
   790.9000      7.9675      2.6464      0.1419      0.2158    101.0842     20.5089
   791.0000      7.9724      2.6655      0.2190     -0.9408    101.2870     20.7397
   791.1000      7.9724      2.6817      0.2595     -1.9213     98.5499     20.6103
   791.2000      7.9724      2.6819      0.2604     -1.9357     95.5120     20.3227
   791.3000      8.0232      2.6552      0.2420     -0.3134     96.0290     20.3217
   791.4000      8.0232      2.5984      0.1624      3.1260    100.7840     20.7088
   791.5000      8.0620      2.5360      0.0890      6.9118    105.6040     21.2600
   791.6000      8.0620      2.4955      0.0529      9.3626    108.7701     21.7303
   791.7000      8.0620      2.4795      0.0679     10.3323    111.1140     22.1008
   791.8000      8.0666      2.4779      0.0191     10.4294    113.7391     22.5469
   791.9000      8.0666      2.4885      0.0303      9.7869    117.4421     22.9363
   792.0000      8.0685      2.5086      0.0857      8.5703    122.9927     22.8999
   792.1000      8.0685      2.5261      0.0613      7.5093    129.7213     22.2802
   792.2000      8.0685      2.5283      0.1150      7.3769    131.3183     21.6526
   792.3000      8.0704      2.5123      0.1068      8.3454    124.2578     21.6733
   792.4000      8.0704      2.4936      0.0971      9.4811    115.6044     22.3652
   792.5000      8.0656      2.4889      0.1129      9.7635    113.6360     23.6073
   792.6000      8.0656      2.4907      0.1179      9.6539    118.9572     24.8504
   792.7000      8.0656      2.4816      0.1111     10.2043    125.1526     25.6745
   792.8000      8.0512      2.4640      0.0365     11.2727    128.7033     26.0951
   792.9000      8.0512      2.4571      0.0525     11.6897    131.0157     26.0725
   793.0000      8.0650      2.4738      0.0292     10.6781    132.7744     25.8827
   793.1000      8.0650      2.5059      0.0922      8.7351    130.7961     25.6942
   793.2000      8.0650      2.5336      0.0545      7.0559    124.6681     25.3664
   793.3000      8.0658      2.5403      0.1158      6.6494    122.1112     25.1420
   793.4000      8.0658      2.5212      0.0630      7.8036    127.3591     25.2375
   793.5000      8.0671      2.5027      0.0337      8.9259    133.3036     25.3437
   793.6000      8.0671      2.5083      0.0409      8.5861    134.8499     25.2649
   793.7000      8.0671      2.5231      0.0642      7.6899    135.0018     25.2771
   793.8000      8.0669      2.5298      0.0456      7.2868    133.0641     25.4301
   793.9000      8.0669      2.5317      0.0428      7.1676    127.1915     25.5872
