~Version Information
VERS.                      2.0: CWLS Log ASCII Standard - VERSION 2.0
WRAP.                       NO: One line per depth step
~Well Information Block
STRT.FT               962.7000: 
STOP.FT              2435.5000: 
STEP.FT                 0.1000: 
NULL.                -999.2500: 
COMP.          Petrogulf Corporation: COMPANY
WELL.              Hand 8-44 V: WELL
FLD.           Purgatorie River: FIELD
LOC.           1076' FEL & 820' FSL: LOCATION
CNTY.               Las Animas: COUNTY
SRVC.                         : SERVICE COMPANY
DATE.          Fri Nov 21 14:12:41 2003: LOG DATE
UWI.                          : UNIQUE WELL ID
STAT.                 Colorado: STATE
~Curve Information Block
DEPT.FT            0 000 00 00: Depth
DCAL.in                       : CDL Caliper
RHOB.g/cc                     : CDL Bulk Density
RHOC.g/cc                     : CDL Density Correction
DPOR.pu                       : CDL Density Porosity
GR.GAPI                       : Gamma Ray
NPOR.pu                       : Neutron Porosity
~Parameter Information Block
~A  Depth       DCAL        RHOB        RHOC        DPOR         GR         NPOR    
# ...
  1941.9000      8.1855      2.3656      0.0038     17.2348     63.0591      9.2751
  1942.0000      8.1863      2.3744      0.0252     16.7035     66.2255      8.7029
  1942.1000      8.1863      2.3718      0.0152     16.8586     65.3885      7.8102
  1942.2000      8.1863      2.3532      0.0519     17.9851     59.0629      7.0381
  1942.3000      8.1804      2.3251      0.0239     19.6914     52.0526      6.4183
  1942.4000      8.1804      2.3148     -0.0355     20.3177     47.5463      5.7596
  1942.5000      8.1795      2.3466     -0.0040     18.3882     44.0555      5.2258
  1942.6000      8.1795      2.3982      0.1430     15.2616     39.9395      5.1138
  1942.7000      8.1795      2.4275      0.1028     13.4879     36.8704      5.2857
  1942.8000      8.1848      2.4300      0.0795     13.3345     36.8642      5.3292
  1942.9000      8.1848      2.4285      0.0669     13.4258     37.2805      5.2615
  1943.0000      8.1775      2.4385      0.0934     12.8153     34.2621      5.3665
  1943.1000      8.1775      2.4502      0.1005     12.1097     31.7058      5.6521
  1943.2000      8.1775      2.4448      0.0888     12.4374     35.1421      5.9465
  1943.3000      8.1539      2.4268      0.1020     13.5290     42.6553      6.0997
  1943.4000      8.1539      2.4110      0.0609     14.4851     47.2471      6.1416
  1943.5000      8.1898      2.4010      0.0743     15.0939     46.1252      6.2425
  1943.6000      8.1898      2.3927      0.0770     15.5967     43.8710      6.4031
  1943.7000      8.1898      2.3837      0.0481     16.1379     43.2402      6.4361
  1943.8000      8.1881      2.3779      0.0641     16.4914     41.9933      6.4046
  1943.9000      8.1881      2.3812      0.0183     16.2908     40.4059      6.5809
  1944.0000      8.1784      2.3923      0.1002     15.6188     42.5520      6.8706
  1944.1000      8.1784      2.4074      0.0369     14.7044     46.8156      6.8795
  1944.2000      8.1784      2.4274      0.0883     13.4918     47.9241      6.5305
  1944.3000      8.1756      2.4419      0.1453     12.6133     47.4907      6.2020
  1944.4000      8.1756      2.4459      0.0355     12.3684     48.9825      6.2791
  1944.5000      8.1781      2.4524      0.0920     11.9748     49.3281      6.8118
  1944.6000      8.1781      2.4564      0.1455     11.7332     45.9368      7.4604
  1944.7000      8.1781      2.4403      0.1291     12.7106     42.0815      8.0420
  1944.8000      8.1897      2.4089      0.0213     14.6095     41.0625      8.6771
  1944.9000      8.1897      2.3810      0.0510     16.3046     42.4002      9.3018
  1945.0000      8.1749      2.3612      0.0315     17.5026     45.4450      9.7818
  1945.1000      8.1749      2.3518     -0.0098     18.0739     48.2696      9.9265
  1945.2000      8.1749      2.3616      0.0048     17.4812     47.9929      9.7246
  1945.3000      8.1769      2.3842      0.0460     16.1068     47.2638      9.6365
  1945.4000      8.1769      2.4125      0.0168     14.3930     50.5827     10.1035
  1945.5000      8.1786      2.4531      0.0836     11.9304     57.5503     10.8442
  1945.6000      8.1786      2.4989      0.1072      9.1567     62.1649     11.0719
  1945.7000      8.1786      2.5317      0.1171      7.1686     60.4202     10.8327
  1945.8000      8.1841      2.5467      0.1298      6.2595     58.0419     10.5787
  1945.9000      8.1841      2.5454      0.1068      6.3385     60.6738     10.2210
  1946.0000      8.1620      2.5284      0.0751      7.3709     65.2590      9.5992
  1946.1000      8.1620      2.5054      0.0700      8.7666     69.3086      8.8277
  1946.2000      8.1620      2.4915      0.0662      9.6039     73.0687      8.2221
  1946.3000      8.1577      2.4903      0.0569      9.6767     73.2390      8.0688
  1946.4000      8.1577      2.4940      0.0938      9.4531     68.4575      8.3391
  1946.5000      8.1495      2.5017      0.0921      8.9902     63.2438      8.6041
  1946.6000      8.1495      2.5167      0.0988      8.0810     61.7335      8.4927
  1946.7000      8.1495      2.5211      0.1308      7.8125     60.7665      8.2894
  1946.8000      8.1515      2.4960      0.0379      9.3305     56.7353      8.3745
  1946.9000      8.1515      2.4574      0.0239     11.6717     52.2426      8.5393
  1947.0000      8.1502      2.4309      0.0768     13.2800     49.9122      8.5767
  1947.1000      8.1502      2.4248     -0.0088     13.6506     51.2644      8.7586
  1947.2000      8.1502      2.4298      0.0542     13.3482     54.5054      9.2752
  1947.3000      8.1498      2.4293      0.0375     13.3729     54.9395      9.9196
  1947.4000      8.1498      2.4268      0.0896     13.5265     50.3168     10.5900
  1947.5000      8.1581      2.4344      0.0281     13.0680     44.2229     11.3083
  1947.6000      8.1581      2.4467      0.0818     12.3204     43.9165     11.8610
  1947.7000      8.1581      2.4459      0.0444     12.3718     49.8344     11.9487
  1947.8000      8.1787      2.4361      0.0326     12.9634     55.1357     11.6365
  1947.9000      8.1787      2.4362      0.1096     12.9558     55.9604     11.5601
  1948.0000      8.1476      2.4423      0.0973     12.5895     55.3083     12.0774
  1948.1000      8.1476      2.4464      0.0630     12.3400     56.2789     12.6964
  1948.2000      8.1476      2.4548      0.1293     11.8278     57.2562     12.8910
  1948.3000      8.1083      2.4736      0.0820     10.6932     57.8757     12.5552
  1948.4000      8.1083      2.5003      0.1204      9.0741     60.6951     11.9628
  1948.5000      8.0311      2.5226      0.1427      7.7191     61.8217     11.6632
  1948.6000      8.0311      2.5376      0.0823      6.8094     56.8087     11.5828
  1948.7000      8.0311      2.5471      0.1463      6.2337     51.6899     11.2777
  1948.8000      8.0749      2.5420      0.0369      6.5433     50.3023     10.7889
  1948.9000      8.0749      2.5301      0.0696      7.2686     50.4933     10.3107
  1949.0000      8.0897      2.5340      0.0319      7.0320     52.4490     10.0368
  1949.1000      8.0897      2.5508      0.1485      6.0146     53.5381     10.0455
  1949.2000      8.0897      2.5538      0.0782      5.8329     50.9972      9.9179
  1949.3000      8.0766      2.5409      0.0271      6.6096     50.2105      9.3286
  1949.4000      8.0766      2.5289      0.0323      7.3393     52.4033      8.5660
  1949.5000      8.0772      2.5183      0.0763      7.9833     54.5552      8.0262
  1949.6000      8.0772      2.5076      0.0115      8.6309     59.8014      7.9812
  1949.7000      8.0772      2.5099      0.0541      8.4920     68.0587      8.3053
  1949.8000      8.0769      2.5287      0.0969      7.3545     72.9144      8.4421
  1949.9000      8.0769      2.5457      0.1485      6.3219     71.1791      8.2178
  1950.0000      8.0721      2.5436      0.1091      6.4470     64.4119      8.0349
  1950.1000      8.0721      2.5257      0.0981      7.5334     58.3382      8.0308
  1950.2000      8.0721      2.5064      0.1148      8.7014     57.4302      7.8627
  1950.3000      8.0744      2.4989      0.0554      9.1575     60.2449      7.4945
  1950.4000      8.0744      2.5024      0.1130      8.9455     64.9691      7.4486
  1950.5000      8.0841      2.5019      0.1156      8.9744     69.4611      8.0420
  1950.6000      8.0841      2.4984      0.0387      9.1872     66.3005      8.8883
  1950.7000      8.0841      2.4951      0.1080      9.3856     55.2162      9.3005
  1950.8000      8.1223      2.4747      0.0903     10.6233     46.2371      9.3197
  1950.9000      8.1223      2.4393      0.0041     12.7712     43.1471      9.2835
  1951.0000      8.0875      2.4081      0.0525     14.6601     42.7089      9.3043
  1951.1000      8.0875      2.3747      0.0755     16.6845     44.2039      9.6417
  1951.2000      8.0875      2.3361      0.0080     19.0267     48.6935     10.2305
  1951.3000      8.0666      2.3225     -0.0107     19.8462     52.0968     10.4766
  1951.4000      8.0666      2.3586      0.0432     17.6608     51.9715     10.1980
