~Version Information
VERS.                      2.0: CWLS Log ASCII Standard - VERSION 2.0
WRAP.                       NO: One line per depth step
~Well Information Block
STRT.FT                -8.2500: 
STOP.FT              2209.7500: 
STEP.FT                 0.2500: 
NULL.                -999.2500: 
COMP.          Petrogulf Corporation: COMPANY
WELL.          Alexander 9-43V: WELL
FLD.           Purgatorie River: FIELD
LOC.                          : LOCATION
CNTY.               Las Animas: COUNTY
SRVC.                         : SERVICE COMPANY
DATE.          Wed May 28 09:25:28 2003: LOG DATE
UWI.           05 071 07727 00: UNIQUE WELL ID
STAT.                 Colorado: STATE
~Curve Information Block
DEPT.FT            0 000 00 00: Depth
CCL.                          : Casing Collar Locator
TT3.usec                      : CBL 3' Travel Time
AMP3.mV                       : CBL 3' Amplitude
GR.GAPI                       : Gamma Ray
~Parameter Information Block
~A  Depth       CCL         TT3         AMP3         GR     
# ...
   427.2500      0.0000    498.1205      8.3256     76.8595
   427.5000      0.0000    497.5181      8.3239     73.8135
   427.7500      0.0000    496.2149      8.3077     71.2412
   428.0000      0.0000    485.9590      8.3251     69.8905
   428.2500      0.0000    465.7592      8.4252     69.3508
   428.5000      0.0000    445.6534      8.6150     68.3106
   428.7500      0.0000    437.2729      8.8476     65.8861
   429.0000      0.0000    442.2642      9.0527     62.5203
   429.2500      0.0000    452.2341      9.1810     59.4262
   429.5000      0.0000    458.3931      9.2291     57.3793
   429.7500      0.0000    458.3325      9.2296     56.2967
   430.0000      0.0000    454.4072      9.2179     55.7399
   430.2500      0.0000    449.3568      9.2023     55.3713
   430.5000      0.0000    444.6636      9.1587     54.9902
   430.7500      0.0000    440.9911      9.0525     54.5431
   431.0000      0.0000    438.6562      8.8613     54.2350
   431.2500      0.0000    438.0048      8.5830     54.4655
   431.5000      0.0000    439.8541      8.2468     55.5958
   431.7500      0.0000    445.2601      7.9258     57.7558
   432.0000      0.0000    454.4029      7.7179     60.7329
   432.2500      0.0000    465.5822      7.6839     63.9343
   432.5000      0.0000    475.4889      7.7985     66.5542
   432.7500      0.0000    481.9286      7.9698     67.9647
   433.0000      0.0000    488.1465      8.1031     68.1377
   433.2500      0.0000    503.5563      8.1383     67.7977
   433.5000      0.0000    536.5490      8.0482     68.1272
   433.7500      0.0000    585.2481      7.8357     70.0928
   434.0000      0.0000    637.3931      7.5427     73.8208
   434.2500      0.0000    679.8124      7.2423     78.5387
   434.5000      0.0000    706.6145      7.0011     83.1298
   434.7500      0.0000    719.1812      6.8436     86.7419
   435.0000      0.0000    721.4821      6.7512     88.9442
   435.2500      0.0000    716.8704      6.6936     89.5892
   435.5000      0.0000    707.9421      6.6619     88.8882
   435.7500      0.0000    697.3223      6.6733     87.5423
   436.0000      0.0000    687.4279      6.7476     86.3560
   436.2500      0.0000    679.1813      6.8792     85.5880
   436.5000      0.0000    670.9583      7.0351     84.9308
   436.7500      0.0000    659.1138      7.1838     84.0964
   437.0000      0.0000    640.6978      7.3190     83.0705
   437.2500      0.0000    616.8989      7.4402     81.8484
   437.5000      0.0000    593.6509      7.5223     80.4210
   437.7500      0.0000    577.4884      7.5305     79.1293
   438.0000      0.0000    570.9371      7.4699     78.5516
   438.2500      0.0000    572.8413      7.3938     78.6593
   438.5000      0.0000    581.9504      7.3582     78.3052
   438.7500      0.0000    597.8389      7.3833     75.9334
   439.0000      0.0000    618.4514      7.4534     70.8993
   439.2500      0.0000    639.0279      7.5369     63.9887
   439.5000      0.0000    654.7761      7.6002     56.7306
   439.7500      0.0000    664.0056      7.6199     50.5595
   440.0000      0.0000    668.1800      7.5985     46.6331
   440.2500      0.0000    669.7548      7.5693     45.7389
   440.5000      0.0000    670.4960      7.5697     47.9367
   440.7500      0.0000    671.1755      7.5943     52.5301
   441.0000      0.0000    672.0650      7.5837     58.4729
   441.2500      0.0000    673.4930      7.4790     64.7141
   441.5000      0.0000    676.1162      7.2830     70.4062
   441.7500      0.0000    680.4031      7.0559     75.0071
   442.0000      0.0000    685.6110      6.8657     78.0675
   442.2500      0.0000    689.5523      6.7499     79.1052
   442.5000      0.0000    690.1658      6.6977     78.1784
   442.7500      0.0000    687.6312      6.6571     76.5413
   443.0000      0.0000    684.5656      6.5746     76.2301
   443.2500      0.0000    684.0400      6.4394     78.7524
   443.5000      0.0000    687.5941      6.2794     84.1396
   443.7500      0.0000    694.6932      6.1171     91.0054
   444.0000      0.0000    703.1116      5.9406     97.1697
   444.2500      0.0000    709.7246      5.7275    100.4248
   444.5000      0.0000    712.0489      5.4917     99.6461
   444.7500      0.0000    709.9250      5.2869     95.8665
   445.0000      0.0000    705.5770      5.1545     91.8814
   445.2500      0.0000    701.8268      5.0771     90.1758
   445.5000      0.0000    700.4337      5.0029     91.2964
   445.7500      0.0000    701.7202      4.9073     94.2171
   446.0000      0.0000    704.7261      4.8151     97.7021
   446.2500      0.0000    707.3141      4.7658    101.1145
   446.5000      0.0000    706.9914      4.7650    104.3328
   446.7500      0.0000    702.6918      4.7763    107.3452
   447.0000      0.0000    695.7052      4.7611    110.0926
   447.2500      0.0000    688.3310      4.7256    112.3757
   447.5000      0.0000    681.9374      4.7282    113.3799
   447.7500      0.0000    677.0074      4.8360    111.6435
   448.0000      0.0000    674.3644      5.0635    106.5257
   448.2500      0.0000    674.7854      5.3530     99.7229
   448.5000      0.0000    677.3349      5.6178     94.3463
   448.7500      0.0000    679.2913      5.7974     92.2961
   449.0000      4.0833    678.4011      5.8707     93.1081
   449.2500      0.0000    675.2508      5.8445     95.2263
   449.5000      0.0000    673.2245      5.7508     97.7153
   449.7500     -3.7256    675.0356      5.6388    100.7441
   450.0000      0.0000    678.9066      5.5583    104.9285
   450.2500      0.0000    679.9424      5.5528    110.3852
   450.5000      0.0000    676.3373      5.6521    116.2340
   450.7500      0.0000    672.3437      5.8467    120.8843
   451.0000      0.0000    673.7851      6.0777    122.7709
   451.2500      0.0000    682.3041      6.2730    121.0589
   451.5000      0.0000    695.0852      6.4066    116.2968
   451.7500      0.0000    708.5087      6.5106    110.6857
   452.0000      0.0000    720.5842      6.6168    107.1555
   452.2500      0.0000    730.6361      6.7053    107.5206
   452.5000      0.0000    737.9290      6.7312    111.3711
   452.7500      0.0000    741.3613      6.6839    116.7215
   453.0000      0.0000    741.1813      6.5977    121.6735
   453.2500      0.0000    740.5192      6.5148    125.5739
   453.5000      0.0000    743.2537      6.4590    128.7673
   453.7500      0.0000    749.6082      6.4360    131.4021
   454.0000      0.0000    755.2480      6.4414    132.8016
   454.2500      0.0000    755.6506      6.4648    132.3438
   454.5000      0.0000    750.6170      6.4953    130.7768
   454.7500      0.0000    744.1506      6.5322    130.0732
   455.0000      0.0000    740.5475      6.5917    131.6211
   455.2500      0.0000    740.3707      6.6866    134.7240
   455.5000      0.0000    739.4877      6.7968    137.1710
   455.7500      0.0000    732.7670      6.8670    137.1519
   456.0000      0.0000    719.3065      6.8438    134.3884
   456.2500      0.0000    703.0836      6.7323    129.8258
   456.5000      0.0000    688.1201      6.6175    124.8193
   456.7500      0.0000    673.6300      6.6027    120.3439
   457.0000      0.0000    653.5978      6.7174    116.3401
   457.2500      0.0000    620.8848      6.9024    111.7294
   457.5000      0.0000    573.3830      7.0778    105.3657
   457.7500      0.0000    518.1596      7.2050     97.2040
   458.0000      0.0000    469.2350      7.2827     88.7089
   458.2500      0.0000    439.8792      7.3093     82.1440
   458.5000      0.0000    435.8519      7.2746     79.2115
   458.7500      0.0000    454.3733      7.1873     79.9258
   459.0000      0.0000    487.6056      7.0806     82.6074
   459.2500      0.0000    527.1055      6.9797     85.2791
   459.5000      0.0000    567.0392      6.8975     87.3468
   459.7500      0.0000    604.5615      6.8688     89.8691
   460.0000      0.0000    637.4449      6.9372     94.1577
   460.2500      0.0000    662.7253      7.0904    100.4323
   460.5000      0.0000    678.7795      7.2475    107.8967
