~Version Information
VERS.                      2.0: CWLS Log ASCII Standard - VERSION 2.0
WRAP.                       NO: One line per depth step
~Well Information Block
STRT.FT               -14.0000: 
STOP.FT              2531.7500: 
STEP.FT                 0.2500: 
NULL.                -999.2500: 
COMP.          Petrogulf Corporation: COMPANY
WELL.            Lavedure 7-44: WELL
FLD.           Purgatorie River: FIELD
LOC.           969' FSL & 501' FEL--: LOCATION
PROV.                       CO: PROVINCE
CNTY.               Las Animas: COUNTRY
SRVC.          Patterson Wireline: SERVICE COMPANY
DATE.          Wed Dec 10 09:23:08 2003: LOG DATE
UWI.                          : UNIQUE WELL ID
~Curve Information Block
DEPT.FT            0 000 00 00: Depth
CCL.                          : Casing Collar Locator
TT3.usec                      : CBL 3' Travel Time
AMP3.mV                       : CBL 3' Amplitude
GR.GAPI                       : Gamma Ray
~Parameter Information Block
~A  Depth       CCL         TT3         AMP3         GR     
# ...
  2163.5000      0.0000    776.2713      4.1054     84.0065
  2163.7500      0.0000    776.9408      4.1918     80.2866
  2164.0000      0.0000    780.2338      4.2526     75.6143
  2164.2500      0.0000    785.8020      4.1861     71.1186
  2164.5000      0.0000    793.0634      3.9776     67.6307
  2164.7500      0.0000    800.0930      3.7062     65.3332
  2165.0000      0.0000    803.1520      3.4750     63.9125
  2165.2500      0.0000    798.2999      3.3239     62.9253
  2165.5000      0.0000    784.2280      3.2154     61.9895
  2165.7500      0.0000    763.5126      3.1042     60.7989
  2166.0000      0.0000    741.2670      2.9858     59.1768
  2166.2500      0.0000    722.4662      2.8723     57.1448
  2166.5000      0.0000    709.7272      2.7667     54.9082
  2166.7500      0.0000    702.8207      2.6878     52.8548
  2167.0000      0.0000    700.1318      2.6819     51.6353
  2167.2500      0.0000    700.5663      2.7681     52.0990
  2167.5000      0.0000    704.3536      2.8892     54.8315
  2167.7500      0.0000    712.3491      2.9558     59.5153
  2168.0000      0.0000    724.4357      2.9358     64.7755
  2168.2500      0.0000    738.0175      2.8738     68.8861
  2168.5000      0.0000    748.2057      2.8360     70.8036
  2168.7500      0.0000    750.6807      2.8630     70.6686
  2169.0000      0.0000    745.2605      2.9597     69.4501
  2169.2500      0.0000    736.5726      3.0888     68.1763
  2169.5000      0.0000    731.1718      3.1737     67.4625
  2169.7500      0.0000    733.8649      3.1497     67.5080
  2170.0000      0.0000    745.7521      3.0211     68.1366
  2170.2500      0.0000    764.7515      2.8468     68.8165
  2170.5000      0.0000    788.0331      2.6700     69.0678
  2170.7500      0.0000    813.3336      2.4851     68.9308
  2171.0000      0.0000    836.3348      2.2797     68.8058
  2171.2500      0.0000    848.0725      2.0831     68.9907
  2171.5000      0.0000    839.9894      1.9487     69.6539
  2171.7500      0.0000    813.5934      1.8936     70.8448
  2172.0000      0.0000    781.6316      1.8809     71.9982
  2172.2500      0.0000    757.6696      1.8754     71.8753
  2172.5000      0.0000    746.2743      1.9076     69.7341
  2172.7500      0.0000    743.3544      2.0586     66.4270
  2173.0000      0.0000    743.1214      2.3687     63.8913
  2173.2500      0.0000    743.3787      2.7778     63.5095
  2173.5000      0.0000    745.4103      3.1808     64.9681
  2173.7500      0.0000    750.2917      3.5303     66.5948
  2174.0000      0.0000    756.3560      3.8544     66.8970
  2174.2500      0.0000    760.5309      4.1699     65.8338
  2174.5000      0.0000    761.2605      4.4012     64.4772
  2174.7500      0.0000    759.1600      4.4108     63.6658
  2175.0000      0.0000    755.6080      4.1221     63.4858
  2175.2500      0.0000    751.8170      3.6111     63.8801
  2175.5000      0.0000    748.4630      3.0696     64.9543
  2175.7500      0.0000    745.1354      2.6661     66.4537
  2176.0000      0.0000    740.7516      2.4300     67.5126
  2176.2500      0.0000    734.8303      2.2634     67.2854
  2176.5000      0.0000    727.7443      2.0579     65.7741
  2176.7500      0.0000    720.2868      1.7942     63.9806
  2177.0000      0.0000    713.6875      1.5353     63.1899
  2177.2500      0.0000    709.0529      1.3514     63.9515
  2177.5000      0.0000    706.0856      1.2721     65.7768
  2177.7500      0.0000    703.3632      1.2867     67.7802
  2178.0000      0.0000    700.4918      1.3524     69.2751
  2178.2500      0.0000    699.0655      1.4103     69.7085
  2178.5000      0.0000    701.1346      1.4275     68.5820
  2178.7500      0.0000    707.7682      1.4260     65.7764
  2179.0000      0.0000    719.7097      1.4497     61.7460
  2179.2500      0.0000    738.8605      1.5051     57.2356
  2179.5000      0.0000    767.1985      1.5598     52.8391
  2179.7500      0.0000    802.0430      1.6007     48.8641
  2180.0000      0.0000    832.3427      1.6607     45.5828
  2180.2500      2.0000    843.2751      1.7628     43.3913
  2180.5000      2.0000    828.0197      1.8576     42.5829
  2180.7500      0.0000    794.1971      1.8541     43.1249
  2181.0000      0.0000    757.2262      1.7152     44.8260
  2181.2500      0.0000    728.9059      1.4970     47.4957
  2181.5000      0.0000    712.6987      1.2975     50.7106
  2181.7500      0.0000    706.3820      1.1914     53.6473
  2182.0000      0.0000    706.1866      1.2081     55.3860
  2182.2500      0.0000    708.8665      1.3305     55.3898
  2182.5000      0.0000    712.1587      1.4985     53.7651
  2182.7500      0.0000    714.8367      1.6342     51.2673
  2183.0000      0.0000    715.9647      1.6864     49.0998
  2183.2500      0.0000    713.9950      1.6524     48.4132
  2183.5000      0.0000    707.7871      1.5615     49.5970
  2183.7500      0.0000    698.9346      1.4519     51.9281
  2184.0000      0.0000    691.6516      1.3647     54.0856
  2184.2500      0.0000    689.6487      1.3267     55.1395
  2184.5000      0.0000    693.6658      1.3238     55.0952
  2184.7500      0.0000    702.0264      1.3146     54.5883
  2185.0000      0.0000    712.6683      1.2862     54.2698
  2185.2500      0.0000    723.8657      1.2705     54.5163
  2185.5000      0.0000    733.2720      1.2912     55.4471
  2185.7500      0.0000    737.6971      1.3259     56.9338
  2186.0000      0.0000    735.0017      1.3414     58.7001
  2186.2500      0.0000    726.0619      1.3411     60.7888
  2186.5000      0.0000    714.3107      1.3483     63.9731
  2186.7500      0.0000    703.6226      1.3615     69.3841
  2187.0000      0.0000    697.0201      1.3581     77.3411
  2187.2500      0.0000    696.4857      1.3323     86.3488
  2187.5000      0.0000    702.2320      1.3018     93.4950
  2187.7500      0.0000    711.6126      1.2913     96.3306
  2188.0000      0.0000    719.9919      1.3247     94.6502
  2188.2500      0.0000    723.9533      1.4085     90.4796
  2188.5000      0.0000    723.8715      1.5055     86.4603
  2188.7500      0.0000    723.1726      1.5542     84.2708
  2189.0000      0.0000    725.3696      1.5272     84.1883
  2189.2500      0.0000    731.5981      1.4480     85.5005
  2189.5000      0.0000    739.8945      1.3520     87.1773
  2189.7500      0.0000    746.4808      1.2644     88.4869
  2190.0000      0.0000    748.8549      1.2087     89.3013
  2190.2500      0.0000    748.2986      1.1975     89.9205
  2190.5000      0.0000    748.6323      1.2153     90.6979
  2190.7500      0.0000    751.8624      1.2357     91.7286
  2191.0000      0.0000    755.3056      1.2492     92.6759
  2191.2500      0.0000    753.4803      1.2577     92.9428
  2191.5000      0.0000    743.0778      1.2556     92.3275
  2191.7500      0.0000    726.3483      1.2428     91.4037
  2192.0000      0.0000    709.8976      1.2395     90.8539
  2192.2500      0.0000    700.2009      1.2644     90.5009
  2192.5000      0.0000    699.8715      1.3109     89.4907
  2192.7500      0.0000    707.3801      1.3642     87.4454
  2193.0000      0.0000    719.2241      1.4261     84.9832
  2193.2500      0.0000    731.7772      1.4996     82.9132
  2193.5000      0.0000    741.8839      1.5638     81.2055
  2193.7500      0.0000    747.3665      1.5855     79.0229
  2194.0000      0.0000    747.9472      1.5542     75.7429
  2194.2500      0.0000    745.1494      1.4935     71.7651
  2194.5000      0.0000    740.4705      1.4368     68.3177
  2194.7500      0.0000    733.8992      1.3977     66.5418
  2195.0000      0.0000    725.0685      1.3724     66.7128
  2195.2500      0.0000    715.9742      1.3641     68.1873
  2195.5000      0.0000    711.3625      1.3837     69.9573
  2195.7500      0.0000    715.2077      1.4294     71.1175
  2196.0000      0.0000    726.6439      1.4907     71.0414
  2196.2500      0.0000    739.8391      1.5680     69.7099
  2196.5000      0.0000    747.9877      1.6643     68.0469
  2196.7500      0.0000    747.5970      1.7704     67.4171
