~Version Information
VERS.                      2.0: CWLS Log ASCII Standard - VERSION 2.0
WRAP.                       NO: One line per depth step
~Well Information Block
STRT.FT               510.0000: 
STOP.FT              1848.7500: 
STEP.FT                 0.2500: 
NULL.                -999.2500: 
COMP.          Pioneer Natural Resources: COMPANY
WELL.           Stampede 42-18: WELL
FLD.           Purgatoire River: FIELD
LOC.           2479' FNL & 160' FEL--: LOCATION
CNTY.               Las Animas: COUNTY
SRVC.          Superior Well Services: SERVICE COMPANY
DATE.          Sat Jun 09 02:07:27 2007: LOG DATE
UWI.           05 071 08237 00: UNIQUE WELL ID
STAT.                 Colorado: STATE
~Curve Information Block
DEPT.FT            0 000 00 00: Depth
SN.Ohm-m                      : IEL Short Normal
SP.mV                         : IEL Spontaneous Potential
DIR.Ohm-m                     : IEL Induction Resistivity
GR.GAPI                       : Gamma Ray
~Parameter Information Block
~A  Depth        SN          SP         DIR          GR     
# ...
  1816.5000     17.3468     54.0235     16.4011    103.8465
  1816.7500     17.1322     53.9066     16.3460    102.3959
  1817.0000     16.9160     53.8108     16.3084    100.3767
  1817.2500     16.7103     53.7007     16.2695     99.3804
  1817.5000     16.5049     53.5547     16.2174     98.7750
  1817.7500     16.3049     53.3655     16.1539     99.2926
  1818.0000     16.1461     53.1330     16.0917    101.9614
  1818.2500     16.0618     52.8582     16.0446    104.9091
  1818.5000     16.0558     52.5411     16.0210    109.8639
  1818.7500     16.1105     52.1841     16.0222    112.4078
  1819.0000     16.2048     51.7964     16.0435    113.4579
  1819.2500     16.3110     51.3947     16.0750    111.9810
  1819.5000     16.3937     51.0005     16.1018    107.1944
  1819.7500     16.4405     50.6368     16.1088    103.2310
  1820.0000     16.4746     50.3243     16.0884     98.0574
  1820.2500     16.5185     50.0768     16.0450     96.2135
  1820.5000     16.5700     49.8980     15.9935     97.5206
  1820.7500     16.6219     49.7855     15.9525    101.9260
  1821.0000     16.6689     49.7431     15.9391    114.6251
  1821.2500     16.6895     49.7936     15.9688    126.8862
  1821.5000     16.6550     49.9743     16.0536    148.7858
  1821.7500     16.5652     50.3096     16.1957    163.5745
  1822.0000     16.4491     50.7790     16.3782    181.7042
  1822.2500     16.3364     51.3095     16.5625    188.7487
  1822.5000     16.2516     51.8094     16.7001    189.3883
  1822.7500     16.2182     52.2176     16.7532    183.4810
  1823.0000     16.2479     52.5281     16.7127    168.2895
  1823.2500     16.3363     52.7724     16.6023    156.2047
  1823.5000     16.4741     52.9831     16.4675    137.6730
  1823.7500     16.6440     53.1745     16.3572    125.7142
  1824.0000     16.8070     53.3460     16.3113    109.4983
  1824.2500     16.9224     53.4964     16.3549    100.8867
  1824.5000     16.9937     53.6297     16.4988     92.8911
  1824.7500     17.0795     53.7505     16.7385     90.8970
  1825.0000     17.2501     53.8533     17.0530     91.1011
  1825.2500     17.5274     53.9177     17.4073     91.8985
  1825.5000     17.8684     53.9198     17.7654     92.4920
  1825.7500     18.1979     53.8528     18.1045     92.3053
  1826.0000     18.4485     53.7369     18.4161     91.2903
  1826.2500     18.5740     53.6088     18.6933     90.0917
  1826.5000     18.5490     53.5021     18.9214     87.4961
  1826.7500     18.3870     53.4395     19.0846     85.5572
  1827.0000     18.1584     53.4324     19.1794     83.4391
  1827.2500     17.9580     53.4823     19.2162     83.1972
  1827.5000     17.8447     53.5780     19.2087     85.1359
  1827.7500     17.8161     53.6987     19.1655     87.8039
  1828.0000     17.8324     53.8192     19.0926     92.6140
  1828.2500     17.8482     53.9161     18.9991     95.1106
  1828.5000     17.8201     53.9708     18.8988     95.1516
  1828.7500     17.7263     53.9719     18.8041     91.1046
  1829.0000     17.5924     53.9171     18.7219     77.0524
  1829.2500     17.4668     53.8142     18.6518     62.8294
  1829.5000     17.3716     53.6813     18.5874     38.7143
  1829.7500     17.2983     53.5438     18.5195     24.4187
  1830.0000     17.2447     53.4275     18.4441      9.6963
  1830.2500     17.2285     53.3438     18.3678      4.4380
  1830.5000     17.2615     53.2809     18.3051      1.0572
  1830.7500     17.3281     53.2109     18.2628      0.3382
  1831.0000     17.3997     53.1042     18.2266      0.0448
  1831.2500     17.4579     52.9363     18.1678      0.0081
  1831.5000     17.4995     52.6893     18.0689   -999.2500
  1831.7500     17.5230     52.3574     17.9438   -999.2500
  1832.0000     17.5127     51.9541     17.8279   -999.2500
  1832.2500     17.4413     51.5077     17.7450   -999.2500
  1832.5000     17.3002     51.0497     17.6828   -999.2500
  1832.7500     17.1277     50.6143     17.6008   -999.2500
  1833.0000     16.9840     50.2526     17.4646   -999.2500
  1833.2500     16.8930     50.0401     17.2779   -999.2500
  1833.5000     16.8289     50.0535     17.0811   -999.2500
  1833.7500     16.7588     50.3197     16.9216   -999.2500
  1834.0000     16.6737     50.7793     16.8241   -999.2500
  1834.2500     16.5799     51.3036     16.7802   -999.2500
  1834.5000     16.4887     51.7574     16.7597   -999.2500
  1834.7500     16.4236     52.0533     16.7300   -999.2500
  1835.0000     16.4112     52.1624     16.6742   -999.2500
  1835.2500     16.4513     52.0940     16.5968   -999.2500
  1835.5000     16.5156     51.8746     16.5191   -999.2500
  1835.7500     16.5756     51.5414     16.4885   -999.2500
  1836.0000     16.6236     51.1435     16.5005   -999.2500
  1836.2500     16.6712     50.7425     16.5949   -999.2500
  1836.5000     16.7328     50.4023     16.7758   -999.2500
  1836.7500     16.8062     50.1721     17.0212   -999.2500
  1837.0000     16.8744     50.0740     17.2877   -999.2500
  1837.2500     16.9328     50.0974     17.5282   -999.2500
  1837.5000     16.9957     50.1992     17.7147   -999.2500
  1837.7500     17.0698     50.3106     17.8535   -999.2500
  1838.0000     17.1420     50.3606     17.9891   -999.2500
  1838.2500     17.2036     50.3081     18.2123   -999.2500
  1838.5000     17.2652     50.1565     18.6829   -999.2500
  1838.7500     17.3488     49.9375     19.6692   -999.2500
  1839.0000     17.4673     49.6905     21.6144   -999.2500
  1839.2500     17.6016     49.4624     25.2312   -999.2500
  1839.5000     17.7029     49.3197     32.0171   -999.2500
  1839.7500     17.7288     49.3417     44.9083   -999.2500
  1840.0000     17.6657     49.5877     70.8543   -999.2500
  1840.2500     17.5262     50.0609    128.3828   -999.2500
  1840.5000     17.3438     50.7031    277.6676   -999.2500
  1840.7500     17.1623     51.4245    813.1490   -999.2500
  1841.0000     17.0142     52.1424  13821.4727   -999.2500
  1841.2500     16.9101     52.7993 100000.0000   -999.2500
  1841.5000     16.8460     53.3582 100000.0000   -999.2500
  1841.7500     16.8171     53.7933 100000.0000   -999.2500
  1842.0000     16.8241     54.0871 100000.0000   -999.2500
  1842.2500     16.8642     54.2363 100000.0000   -999.2500
  1842.5000     16.9185     54.2552 100000.0000   -999.2500
  1842.7500     16.9494     54.1732 100000.0000   -999.2500
  1843.0000     16.9264     54.0267 100000.0000   -999.2500
  1843.2500     16.8677     53.8443 100000.0000   -999.2500
  1843.5000     16.8300     53.6275 100000.0000   -999.2500
  1843.7500     16.8521     53.2975 100000.0000   -999.2500
  1844.0000     16.9352     52.5815 100000.0000   -999.2500
  1844.2500     17.0597     50.8506 100000.0000   -999.2500
  1844.5000     17.1814     47.1075 100000.0000   -999.2500
  1844.7500     17.1736     40.4659 100000.0000   -999.2500
  1845.0000     16.6482     31.0773 100000.0000   -999.2500
  1845.2500     14.8182     20.6226 100000.0000   -999.2500
  1845.5000     11.1360     11.4988 100000.0000   -999.2500
  1845.7500      6.4786      5.2747 100000.0000   -999.2500
  1846.0000      2.7258      1.9603 100000.0000   -999.2500
  1846.2500      0.7924      0.5837 100000.0000   -999.2500
  1846.5000      0.1546      0.1380 100000.0000   -999.2500
  1846.7500      0.0198      0.0255 100000.0000   -999.2500
  1847.0000      0.0016      0.0034 100000.0000   -999.2500
  1847.2500   -999.2500   -999.2500 100000.0000   -999.2500
  1847.5000   -999.2500   -999.2500  44729.2344   -999.2500
  1847.7500   -999.2500   -999.2500  21596.6758   -999.2500
  1848.0000   -999.2500   -999.2500  18259.0020   -999.2500
  1848.2500   -999.2500   -999.2500  17447.6270   -999.2500
  1848.5000   -999.2500   -999.2500  17250.4688   -999.2500
  1848.7500   -999.2500   -999.2500 100000.0000   -999.2500
