~Version Information
 VERS.                                  2.0 : CWLS LAS VERSION
 WRAP.                                   NO : WRAPING MODE
 SWARE .                 MController 2.5.0J : SOFTWARE VERSION
~Well Information
 WELL.                       Ei-Ei-Oh 31-24 : WELL
 COMP.    Pioneer Natural Resources USA Inc : COMPANY
 FLD.                      Purgatoire River : FIELD
 LOC.                NW/NE Sec 24 T32S R67W : LOCATION
 DATE.                         6/12-13/2005 : DATE(S) LOGGED
 SRVC.       Blanco Geological Services LLC : SERVICE COMPANY
 STAT.                                   CO : STATE
 CNTY.                           Las Animas : COUNTY
 CTRY.                                  USA : COUNTRY
 API.                       05-071-08403-00 : API NUMBER
 STRT.FT                             436.00 : START DEPTH
 STOP.FT                            2853.00 : STOP DEPTH
 STEP.FT                               1.00 : DEPTH INCREMENT
 NULL.                                -9999 : NULL VALUE
~Curve information
 DEPTH.FT                                   :
 ROP.MIN/FT                                 :
 GAS.UNITS                                  :
~ASCII Log data
# ...
      1636.0         0.23        488.6 
      1637.0         0.23        527.8 
      1638.0         0.23        510.5 
      1639.0         0.17        454.9 
      1640.0         0.23        454.2 
      1641.0         0.23        451.0 
      1642.0         0.20        498.4 
      1643.0         0.27        494.8 
      1644.0         0.27        497.1 
      1645.0         0.33        474.2 
      1646.0         1.62        455.5 
      1647.0         0.43        220.9 
      1648.0         0.47        427.2 
      1649.0         0.50       1145.5 
      1650.0         0.27       1136.7 
      1651.0         0.30       1049.3 
      1652.0         0.25        915.5 
      1653.0         0.23        769.6 
      1654.0         0.27        664.6 
      1655.0         0.27        577.6 
      1656.0         0.27        573.3 
      1657.0         0.27        614.5 
      1658.0         0.23        636.8 
      1659.0         0.30        642.3 
      1660.0         0.23        640.1 
      1661.0         0.27        632.2 
      1662.0         0.23        639.4 
      1663.0         0.20        665.6 
      1664.0         0.23        643.3 
      1665.0         0.22        651.8 
      1666.0         0.23        629.9 
      1667.0         0.20        619.4 
      1668.0         0.23        619.4 
      1669.0         0.30        611.9 
      1670.0         0.37        616.8 
      1671.0         0.23        650.2 
      1672.0         0.30        703.5 
      1673.0         0.23        710.1 
      1674.0         0.17        662.0 
      1675.0         0.37        591.0 
      1676.0         2.85       1029.0 
      1677.0         0.23       1092.5 
      1678.0         0.20       1130.5 
      1679.0         0.27       1138.3 
      1680.0         0.23       1069.0 
      1681.0         0.35        981.3 
      1682.0         0.33        846.5 
      1683.0         0.27        741.8 
      1684.0         0.20        697.6 
      1685.0         0.27        678.3 
      1686.0         0.27        666.9 
      1687.0         0.20        650.2 
      1688.0         0.20        628.3 
      1689.0         0.20        600.5 
      1690.0         0.20        571.4 
      1691.0         0.17        546.2 
      1692.0         0.20        535.0 
      1693.0         0.17        520.0 
      1694.0         0.13        516.7 
      1695.0         0.13        511.5 
      1696.0         0.15        557.6 
      1697.0         0.20        497.7 
      1698.0         0.20        488.6 
      1699.0         0.17        464.7 
      1700.0         0.20        467.7 
      1701.0         0.17        483.7 
      1702.0         0.20        511.2 
      1703.0         0.10        509.5 
      1704.0         0.13        511.5 
      1705.0         0.13        500.0 
      1706.0         2.05        493.2 
      1707.0         0.20        308.4 
      1708.0         0.37        471.6 
      1709.0         0.33       1305.2 
      1710.0         0.37       1588.5 
      1711.0         0.43       1612.7 
      1712.0         0.33       1423.3 
      1713.0         0.30       1157.3 
      1714.0         0.30        936.5 
      1715.0         0.32        793.5 
      1716.0         0.27        688.2 
      1717.0         0.30        627.3 
      1718.0         0.23        591.3 
      1719.0         0.27        577.2 
      1720.0         0.23        581.5 
      1721.0         0.27        587.7 
      1722.0         0.23        587.4 
      1723.0         0.23        574.6 
      1724.0         0.23        564.8 
      1725.0         0.20        539.3 
      1726.0         0.23        522.3 
      1727.0         0.17        508.9 
      1728.0         0.20        500.4 
      1729.0         0.25        496.1 
      1730.0         0.23        494.5 
      1731.0         0.23        488.6 
      1732.0         0.23        482.7 
      1733.0         0.27        474.5 
      1734.0         0.20        475.2 
      1735.0         0.13        479.1 
      1736.0         1.57        500.4 
      1737.0         0.32         95.1 
      1738.0         0.33        176.8 
      1739.0         0.33        308.3 
      1740.0         0.43        455.2 
      1741.0         0.77       1114.4 
      1742.0         0.77       1081.7 
      1743.0         0.27        760.8 
      1744.0         0.62        669.5 
      1745.0         0.30        537.0 
      1746.0         0.43        518.7 
      1747.0         0.20        524.2 
      1748.0         0.23        538.3 
      1749.0         0.23        533.7 
      1750.0         0.27        540.6 
      1751.0         0.23        548.5 
      1752.0         0.23        548.5 
      1753.0         0.20        554.7 
      1754.0         0.20        538.3 
      1755.0         0.20        531.8 
      1756.0         0.22        522.3 
      1757.0         0.23        514.1 
      1758.0         0.20        500.4 
      1759.0         0.20        491.5 
      1760.0         0.27        485.0 
      1761.0         0.23        478.8 
      1762.0         0.17        472.9 
      1763.0         0.13        476.8 
      1764.0         0.10        467.3 
      1765.0         0.30        466.7 
      1766.0         2.32        520.3 
      1767.0         0.50       1073.9 
      1768.0         0.57       1084.7 
      1769.0         0.30       1086.9 
      1770.0         0.33       1029.0 
      1771.0         0.47        895.2 
      1772.0         0.35        705.2 
      1773.0         0.30        607.7 
      1774.0         0.37        558.6 
      1775.0         0.40        502.7 
      1776.0         0.33        467.0 
      1777.0         0.27        502.0 
      1778.0         0.30        535.0 
      1779.0         0.30        571.4 
      1780.0         0.27        574.6 
      1781.0         0.23        567.4 
      1782.0         0.28        550.1 
      1783.0         0.30        526.9 
      1784.0         0.30        504.9 
      1785.0         0.23        500.7 
      1786.0         0.23        514.1 
      1787.0         0.20        520.0 
      1788.0         0.20        498.4 
      1789.0         0.20        493.2 
      1790.0         0.20        489.2 
      1791.0         0.20        478.1 
      1792.0         0.23        463.7 
      1793.0         0.23        477.5 
      1794.0         0.27        474.5 
      1795.0         0.23        471.9 
      1796.0         2.22        475.2 
      1797.0         0.27        404.1 
      1798.0         0.37       1002.9 
      1799.0         0.37       1007.4 
      1800.0         0.38       1031.7 
      1801.0         0.33       1039.8 
      1802.0         0.40        978.0 
      1803.0         0.43        818.4 
      1804.0         0.43        638.4 
      1805.0         0.40        510.2 
      1806.0         0.40        504.9 
      1807.0         0.43        544.2 
      1808.0         0.48        561.9 
      1809.0         0.40        549.8 
      1810.0         0.43        514.1 
      1811.0         0.37        494.2 
      1812.0         0.30        501.7 
      1813.0         0.37        509.9 
      1814.0         0.30        478.8 
      1815.0         0.23        479.4 
      1816.0         0.27        477.1 
      1817.0         0.27        494.2 
      1818.0         0.25        501.3 
      1819.0         0.23        506.3 
      1820.0         0.27        502.0 
      1821.0         0.23        496.8 
      1822.0         0.20        495.1 
      1823.0         0.20        499.7 
      1824.0         0.20        504.3 
      1825.0         0.47        508.5 
      1826.0         2.62        494.2 
      1827.0         0.37        451.8 
      1828.0         0.37       1026.7 
      1829.0         0.33       1059.5 
      1830.0         0.30       1038.2 
      1831.0         0.30        942.3 
      1832.0         0.30        802.7 
      1833.0         0.35        715.3 
      1834.0         0.23        611.3 
      1835.0         0.27        571.4 
