~Version Information
VERS.                      2.0: CWLS Log ASCII Standard - VERSION 2.0
WRAP.                       NO: One line per depth step
~Well Information Block
STRT.FT                -3.2500: 
STOP.FT              2202.2500: 
STEP.FT                 0.2500: 
NULL.                -999.2500: 
COMP.          Pioneer Natural Resources: COMPANY
WELL.           Parklane 43-34: WELL
FLD.           Purgatorie River: FIELD
LOC.           1704' FSL & 1119' FEL--: LOCATION
PROV.                       CO: PROVINCE
CNTY.               Las Animas: COUNTRY
SRVC.                         : SERVICE COMPANY
DATE.          Thu Oct 14 14:49:09 2004: LOG DATE
UWI.           005 071 08162  : UNIQUE WELL ID
~Curve Information Block
DEPT.FT            0 000 00 00: Depth
GR.GAPI                       : Gamma Ray
CCL.                          : Casing Collar Locator
TT3.usec                      : CBL 3' Travel Time
AMP3.mV                       : CBL 3' Amplitude
~Parameter Information Block
~A  Depth        GR         CCL         TT3         AMP3    
# ...
  1437.2500     98.1177      0.0000    608.6875     19.3240
  1437.5000     98.9576      0.0000    674.9018     18.0777
  1437.7500    107.1803      0.0000    717.0907     16.5877
  1438.0000    121.6855      0.0000    739.2535     14.8629
  1438.2500    139.5865      0.0000    748.1367     13.0246
  1438.5000    156.9902      0.0000    749.7908     11.2746
  1438.7500    171.3765      0.0000    749.2245      9.7878
  1439.0000    182.7220      0.0000    749.1234      8.6255
  1439.2500    191.7853      0.0000    749.3691      7.7438
  1439.5000    197.7686      0.0000    749.0037      7.0674
  1439.7500    198.3224      0.0000    748.0173      6.5518
  1440.0000    192.2598      0.0000    747.1186      6.1953
  1440.2500    182.1362      0.0000    746.7126      6.0151
  1440.5000    173.2608      0.0000    746.5161      6.0150
  1440.7500    169.6904      0.0000    745.6191      6.1640
  1441.0000    171.5911      0.0000    742.7502      6.4035
  1441.2500    176.1373      0.0000    736.9903      6.6883
  1441.5000    179.9574      0.0000    729.1275      7.0276
  1441.7500    180.9912      0.0000    722.2829      7.4745
  1442.0000    179.1789      0.0000    720.1662      8.0621
  1442.2500    175.6446      0.0000    724.1766      8.7517
  1442.5000    171.0940      0.0000    732.8764      9.4439
  1442.7500    165.1571      0.0000    744.6571     10.0333
  1443.0000    157.0500      0.0000    759.8466     10.4520
  1443.2500    146.3988      0.0000    779.2599     10.6790
  1443.5000    133.8152      0.0000    801.1628     10.7366
  1443.7500    121.3305      0.0000    820.7794     10.6896
  1444.0000    111.8530      0.0000    833.3005     10.6376
  1444.2500    107.2685      0.0000    837.1371     10.6816
  1444.5000    106.9164      0.0000    834.2827     10.8574
  1444.7500    108.3736      0.0000    828.0612     11.0914
  1445.0000    109.7960      0.0000    821.2261     11.2403
  1445.2500    111.1181      0.0000    815.9250     11.2065
  1445.5000    113.0122      0.0000    813.5253     11.0237
  1445.7500    115.3833      0.0000    812.9971     10.8083
  1446.0000    117.2266      0.0000    810.7068     10.6065
  1446.2500    117.5208      0.0000    803.4296     10.3189
  1446.5000    116.0159      0.0000    791.4092      9.8373
  1446.7500    113.3095      0.0000    778.3381      9.2360
  1447.0000    110.2502      0.0000    768.8937      8.7511
  1447.2500    107.3117      0.0000    765.4662      8.5708
  1447.5000    104.6433      2.0000    764.6246      8.7099
  1447.7500    102.5665      0.0000    755.8873      9.0722
  1448.0000    101.6897      0.0000    727.7120      9.5707
  1448.2500    102.3847      0.0000    680.3984     10.1670
  1448.5000    104.1452      0.0000    633.9044     10.8152
  1448.7500    105.5488      0.0000    617.4814     11.4051
  1449.0000    105.0988      0.0000    646.7326     11.8167
  1449.2500    102.3977      0.0000    710.0043     12.0491
  1449.5000     98.6240      0.0000    777.5508     12.2254
  1449.7500     96.0234      0.0000    823.5455     12.4392
  1450.0000     96.7632      0.0000    840.8099     12.6596
  1450.2500    101.5083      0.0000    838.7560     12.8085
  1450.5000    108.5228      0.0000    830.8726     12.8687
  1450.7500    114.5276      0.0000    823.9156     12.8895
  1451.0000    117.2244      0.0000    816.3489     12.9331
  1451.2500    117.2643      0.0000    804.4432     13.0379
  1451.5000    117.7934      0.0000    788.1619     13.2209
  1451.7500    122.0189      0.0000    771.3203     13.4894
  1452.0000    130.8282      0.0000    757.7736     13.8488
  1452.2500    142.1216      0.0000    748.5959     14.2972
  1452.5000    152.2629      0.0000    742.4395     14.8132
  1452.7500    158.3242      0.0000    738.0620     15.3498
  1453.0000    159.1532      0.0000    737.0689     15.8444
  1453.2500    154.8765      0.0000    744.5009     16.2315
  1453.5000    146.3731      0.0000    765.5193     16.4490
  1453.7500    135.5922      0.0000    799.8737     16.4487
  1454.0000    125.5156      0.0000    839.7261     16.2103
  1454.2500    118.7933      0.0000    874.0873     15.7443
  1454.5000    116.1390      0.0000    895.5847     15.0956
  1454.7500    116.0854      0.0000    902.5367     14.3482
  1455.0000    116.4385      0.0000    895.6816     13.5948
  1455.2500    116.2114      0.0000    875.4352     12.8656
  1455.5000    116.2612      0.0000    843.6547     12.0928
  1455.7500    117.9101      0.0000    806.9024     11.1749
  1456.0000    121.2806      0.0000    775.3229     10.0788
  1456.2500    125.3130      0.0000    756.5712      8.8764
  1456.5000    129.0235      0.0000    750.7382      7.6995
  1456.7500    132.1872      0.0000    751.0235      6.6695
  1457.0000    135.1743      0.0000    749.0278      5.8521
  1457.2500    138.5371      0.0000    740.7554      5.2496
  1457.5000    142.5694      0.0000    729.3140      4.8217
  1457.7500    147.0706      0.0000    721.5366      4.5135
  1458.0000    151.6190      0.0000    721.3182      4.2789
  1458.2500    155.8494      0.0000    726.7781      4.0971
  1458.5000    159.1544      0.0000    733.4767      3.9764
  1458.7500    160.5014      0.0000    738.6775      3.9421
  1459.0000    159.0089      0.0000    742.4390      4.0195
  1459.2500    154.6010      0.0000    746.4276      4.2311
  1459.5000    148.0075      0.0000    752.4327      4.6018
  1459.7500    140.4065      0.0000    761.0909      5.1553
  1460.0000    133.1372      0.0000    770.8976      5.9020
  1460.2500    127.1442      0.0000    778.3533      6.8430
  1460.5000    122.3029      0.0000    779.4709      7.9905
  1460.7500    117.7815      0.0000    771.7886      9.3767
  1461.0000    113.5262      0.0000    754.8865     11.0235
  1461.2500    111.0177      0.0000    729.1627     12.8861
  1461.5000    112.1174      0.0000    695.8495     14.8279
  1461.7500    117.0638      0.0000    658.3750     16.6680
  1462.0000    123.6358      0.0000    619.5890     18.2712
  1462.2500    128.4232      0.0000    575.9460     19.6056
  1462.5000    129.1436      0.0000    520.2474     20.7329
  1462.7500    125.8093      0.0000    453.6019     21.7430
  1463.0000    120.1177      0.0000    389.3434     22.6820
  1463.2500    114.6162      0.0000    341.7839     23.5317
  1463.5000    112.2752      0.0000    314.8899     24.2578
  1463.7500    115.4711      0.0000    303.1575     24.8672
  1464.0000    124.4190      0.0000    299.1014     25.3981
  1464.2500    136.6225      0.0000    297.8976     25.8570
  1464.5000    148.3645      0.0000    297.5133     26.1869
  1464.7500    157.1031      0.0000    297.3733     26.3159
  1465.0000    162.2963      0.0000    297.3901     26.2283
  1465.2500    164.2065      0.0000    297.6717     25.9808
  1465.5000    162.9678      0.0000    298.8978     25.6571
  1465.7500    158.9197      0.0000    303.4836     25.3118
  1466.0000    152.8569      0.0000    317.1855     24.9533
  1466.2500    145.6590      0.0000    348.8806     24.5711
  1466.5000    138.0441      0.0000    404.9392     24.1641
  1466.7500    130.5534      0.0000    479.9060     23.7276
  1467.0000    123.6733      0.0000    554.3989     23.2266
  1467.2500    118.2179      0.0000    607.5217     22.6244
  1467.5000    115.3046      0.0000    630.8669     21.9583
  1467.7500    115.4118      0.0000    626.3854     21.3712
  1468.0000    117.7214      0.0000    595.2843     21.0398
  1468.2500    120.8039      0.0000    538.9944     21.0507
  1468.5000    123.6080      0.0000    470.6288     21.3107
  1468.7500    125.6897      0.0000    416.9785     21.5515
  1469.0000    127.1274      0.0000    405.8264     21.4311
  1469.2500    128.3414      0.0000    450.9244     20.6865
  1469.5000    129.3999      0.0000    543.7961     19.2521
  1469.7500    129.4314      0.0000    655.4744     17.2807
  1470.0000    127.2223      0.0000    750.4988     15.0639
  1470.2500    122.3090      0.0000    806.0366     12.9039
  1470.5000    115.2253      0.0000    820.6882     11.0053
