~Version Information
VERS.                      2.0: CWLS Log ASCII Standard - VERSION 2.0
WRAP.                       NO: One line per depth step
~Well Information Block
STRT.FT               830.0000: 
STOP.FT              3122.7500: 
STEP.FT                 0.2500: 
NULL.                -999.2500: 
COMP.          Pioneer Natural Resources: COMPANY
WELL.              Stones 24-8: WELL
FLD.           Purgatoire River: FIELD
LOC.           648' FSL & 2264' FWL: LOCATION
PROV.                 Colorado: PROVINCE
CNTY.               Las Animas: COUNTRY
SRVC.                Patterson: SERVICE COMPANY
DATE.          Wed Jan 19 12:44:32 2005: LOG DATE
UWI.           05 071 07945 00: UNIQUE WELL ID
~Curve Information Block
DEPT.FT            0 000 00 00: Depth
SN.Ohm-m                      : IEL Short Normal
SP.mV                         : IEL Spontaneous Potential
DIR.Ohm-m                     : IEL Induction Resistivity
GR.GAPI                       : Gamma Ray
~Parameter Information Block
~A  Depth        SN          SP         DIR          GR     
# ...
  1734.5000     23.5321   -220.6457 100000.0000    102.6544
  1734.7500     23.6133   -219.5899 100000.0000    105.5043
  1735.0000     23.5311   -218.5097 100000.0000    109.7476
  1735.2500     23.2815   -217.5081    329.9774    112.0558
  1735.5000     22.8883   -216.6587     70.6322    114.6459
  1735.7500     22.4013   -215.9859     38.8269    115.9040
  1736.0000     21.8844   -215.4704     25.3147    117.2127
  1736.2500     21.3968   -215.0737     18.0837    117.6872
  1736.5000     20.9761   -214.7682     14.0248    117.6955
  1736.7500     20.6348   -214.5530     11.7197    117.2391
  1737.0000     20.3669   -214.4503     10.4005    116.1304
  1737.2500     20.1616   -214.4883      9.6402    115.2510
  1737.5000     20.0120   -214.6827      9.2120    113.4857
  1737.7500     19.9167   -215.0246      9.0153    111.7142
  1738.0000     19.8765   -215.4792      9.0259    108.2172
  1738.2500     19.8916   -215.9942      9.2672    105.8536
  1738.5000     19.9574   -216.5132      9.8240    103.2782
  1738.7500     20.0636   -216.9920     10.9383    102.3730
  1739.0000     20.1955   -217.4098     13.3341    101.7390
  1739.2500     20.3344   -217.7726     19.7978    101.5271
  1739.5000     20.4577   -218.1091     57.2760    101.7947
  1739.7500     20.5433   -218.4604 100000.0000    102.7143
  1740.0000     20.5794   -218.8673 100000.0000    105.1033
  1740.2500     20.5735   -219.3576 100000.0000    106.7798
  1740.5000     20.5495   -219.9382 100000.0000    108.4865
  1740.7500     20.5316   -220.5953 100000.0000    109.0508
  1741.0000     20.5293   -221.3063 100000.0000    109.4934
  1741.2500     20.5379   -222.0618 100000.0000    109.6080
  1741.5000     20.5517   -222.8859 100000.0000    109.2227
  1741.7500     20.5758   -223.8442 100000.0000    108.5414
  1742.0000     20.6325   -225.0355 100000.0000    107.4728
  1742.2500     20.7630   -226.5705     81.1184    107.3514
  1742.5000     21.0128   -228.5514     31.1847    108.9794
  1742.7500     21.3991   -231.0633     23.7497    111.3396
  1743.0000     21.8849   -234.1708     25.5563    115.6703
  1743.2500     22.3876   -237.9209     58.8297    117.9150
  1743.5000     22.8156   -242.3366 100000.0000    118.6724
  1743.7500     23.1059   -247.3974 100000.0000    117.2973
  1744.0000     23.2367   -253.0118 100000.0000    113.6410
  1744.2500     23.2060   -259.0004 100000.0000    111.2564
  1744.5000     22.9856   -265.1218 100000.0000    109.3414
  1744.7500     22.4781   -271.1592 100000.0000    109.5515
  1745.0000     21.5080   -277.0566 100000.0000    111.8348
  1745.2500     19.8801   -283.0445 100000.0000    114.2249
  1745.5000     17.5004   -289.6689 100000.0000    118.2036
  1745.7500     14.4987   -297.6588 100000.0000    120.5525
  1746.0000     11.2478   -307.6450      1.3784    122.6099
  1746.2500      8.2261   -319.8326      0.4375    122.3536
  1746.5000      5.7941   -333.7885      0.1803    118.2789
  1746.7500      4.0501   -348.4725      0.0852    112.5373
  1747.0000      2.8716   -362.5292      0.0516     99.6199
  1747.2500      2.0732   -374.7149      0.0427     89.2757
  1747.5000      1.5279   -384.2584      0.0486     74.1129
  1747.7500      1.1810   -391.0013      0.0739     65.6531
  1748.0000      1.0037   -395.2952      0.1398     56.2869
  1748.2500      0.9622   -397.7577      0.2911     52.0827
  1748.5000      1.0163   -399.0250      0.6153     48.4662
  1748.7500      1.1296   -399.6056      1.3493     47.8299
  1749.0000      1.2733   -399.8202      2.6956     49.4601
  1749.2500      1.4207   -399.8219      2.6109     52.0059
  1749.5000      1.5376   -399.6267      1.2643     57.4736
  1749.7500      1.5817   -399.1288      0.5616     62.2155
  1750.0000      1.5269   -398.1094      0.2483     71.5671
  1750.2500      1.3938   -396.2503      0.1022     79.5318
  1750.5000      1.2571   -393.1720      0.0417     93.6036
  1750.7500      1.2363   -388.4944      0.0191    103.7514
  1751.0000      1.5000   -381.9037      0.0107    118.7864
  1751.2500      2.2811   -373.2034      0.0076    127.6569
  1751.5000      3.8395   -362.3565      0.0071    137.0815
  1751.7500      6.3329   -349.5401      0.0091    139.9119
  1752.0000      9.6644   -335.2068      0.0167    139.4401
  1752.2500     13.4523   -320.1031      0.0429    137.3521
  1752.5000     17.1862   -305.1826      0.1372    134.2247
  1752.7500     20.4539   -291.4183      0.4316    132.8361
  1753.0000     23.0745   -279.5867      1.5513    130.9022
  1753.2500     25.0780   -270.1242 100000.0000    128.6569
  1753.5000     26.6022   -263.1018 100000.0000    122.8162
  1753.7500     27.7960   -258.2927 100000.0000    117.3844
  1754.0000     28.7755   -255.2803 100000.0000    107.8876
  1754.2500     29.6208   -253.5648 100000.0000    101.4674
  1754.5000     30.3765   -252.6476 100000.0000     93.2501
  1754.7500     31.0411   -252.0940     13.3605     89.3621
  1755.0000     31.5554   -251.5674      6.0611     86.0588
  1755.2500     31.8187   -250.8536      5.0387     85.1728
  1755.5000     31.7355   -249.8478      5.5277     85.1081
  1755.7500     31.2693   -248.5320      7.5536     85.7091
  1756.0000     30.4678   -246.9435     13.7869     87.6667
  1756.2500     29.4372   -245.1351     75.6223     89.9026
  1756.5000     28.2851   -243.1544 100000.0000     95.1151
  1756.7500     27.0753   -241.0447 100000.0000     99.9596
  1757.0000     25.8244   -238.8643 100000.0000    108.9147
  1757.2500     24.5299   -236.7040 100000.0000    115.3456
  1757.5000     23.2019   -234.6875 100000.0000    124.0722
  1757.7500     21.8795   -232.9487 100000.0000    128.6202
  1758.0000     20.6302   -231.5957 100000.0000    133.8218
  1758.2500     19.5295   -230.6806 100000.0000    136.9996
  1758.5000     18.6318   -230.1900 100000.0000    142.1733
  1758.7500     17.9511   -230.0619 100000.0000    145.4636
  1759.0000     17.4624   -230.2186 100000.0000    148.4039
  1759.2500     17.1213   -230.5982 100000.0000    148.2914
  1759.5000     16.8905   -231.1664     22.0395    145.0524
  1759.7500     16.7591   -231.9064     13.1319    141.3296
  1760.0000     16.7418   -232.7979     10.8082    134.3662
  1760.2500     16.8569   -233.8040     10.2128    129.4962
  1760.5000     17.0931   -234.8772     10.4048    123.1808
  1760.7500     17.3953   -235.9795     11.0982    120.0496
  1761.0000     17.6869   -237.0971     12.1766    116.6927
  1761.2500     17.9218   -238.2366     13.5396    114.9934
  1761.5000     18.1171   -239.4054     15.0356    113.1170
  1761.7500     18.3387   -240.5936     16.4636    112.4102
  1762.0000     18.6556   -241.7739     17.6482    112.0645
  1762.2500     19.1001   -242.9201     18.5226    112.0793
  1762.5000     19.6586   -244.0270     19.1395    112.4984
  1762.7500     20.2893   -245.1161     19.6101    113.5422
  1763.0000     20.9487   -246.2222     20.0385    117.1998
  1763.2500     21.6008   -247.3749     20.4911    120.8579
  1763.5000     22.2108   -248.5903     20.9966    126.1717
  1763.7500     22.7440   -249.8774     21.5567    128.0584
  1764.0000     23.1862   -251.2515     22.1557    126.6734
  1764.2500     23.5704   -252.7394     22.7721    122.8001
  1764.5000     23.9811   -254.3690     23.3950    113.6231
  1764.7500     24.5229   -256.1492     24.0390    106.4575
  1765.0000     25.2695   -258.0516     24.7424     96.6325
  1765.2500     26.2243   -260.0088     25.5454     91.8783
  1765.5000     27.3191   -261.9302     26.4606     88.2229
  1765.7500     28.4479   -263.7318     27.4565     87.9176
  1766.0000     29.5062   -265.3629     28.4614     89.7434
  1766.2500     30.4138   -266.8207     29.3843     91.7021
  1766.5000     31.1161   -268.1469     30.1365     94.2420
  1766.7500     31.5855   -269.4110     30.6494     95.1217
  1767.0000     31.8343   -270.6907     30.8872     95.2991
  1767.2500     31.9238   -272.0553     30.8628     94.9871
  1767.5000     31.9462   -273.5559     30.6480     94.3013
  1767.7500     31.9879   -275.2218     30.3687     93.9249
