~Version Information
VERS.                      2.0: CWLS Log ASCII Standard - VERSION 2.0
WRAP.                       NO: One line per depth step
~Well Information Block
STRT.FT               962.7000: 
STOP.FT              2435.5000: 
STEP.FT                 0.1000: 
NULL.                -999.2500: 
COMP.          Petrogulf Corporation: COMPANY
WELL.              Hand 8-44 V: WELL
FLD.           Purgatorie River: FIELD
LOC.           1076' FEL & 820' FSL: LOCATION
CNTY.               Las Animas: COUNTY
SRVC.                         : SERVICE COMPANY
DATE.          Fri Nov 21 14:12:41 2003: LOG DATE
UWI.                          : UNIQUE WELL ID
STAT.                 Colorado: STATE
~Curve Information Block
DEPT.FT            0 000 00 00: Depth
DCAL.in                       : CDL Caliper
RHOB.g/cc                     : CDL Bulk Density
RHOC.g/cc                     : CDL Density Correction
DPOR.pu                       : CDL Density Porosity
GR.GAPI                       : Gamma Ray
NPOR.pu                       : Neutron Porosity
~Parameter Information Block
~A  Depth       DCAL        RHOB        RHOC        DPOR         GR         NPOR    
# ...
  1077.9000      8.3516      2.6344      0.0608      0.9442    114.8052     30.5596
  1078.0000      8.3443      2.6051      0.0857      2.7198    120.0563     30.4961
  1078.1000      8.3443      2.5667      0.0206      5.0472    126.6285     29.9472
  1078.2000      8.3443      2.5352      0.0130      6.9561    123.8854     29.2671
  1078.3000      8.3478      2.5284     -0.0510      7.3722    110.2567     28.8085
  1078.4000      8.3478      2.5467      0.0392      6.2630     98.4108     28.7092
  1078.5000      8.3256      2.5658     -0.0434      5.1019     98.7630     28.7555
  1078.6000      8.3256      2.5757      0.0142      4.5036    105.5331     28.7560
  1078.7000      8.3256      2.5846      0.0298      3.9626    108.6028     28.8396
  1078.8000      8.3636      2.5909     -0.0352      3.5831    104.5612     29.1259
  1078.9000      8.3636      2.5818      0.0827      4.1357     96.2804     29.3456
  1079.0000      8.3609      2.5608     -0.0648      5.4053     90.2321     29.2159
  1079.1000      8.3609      2.5563     -0.0349      5.6797     90.8512     29.0006
  1079.2000      8.3609      2.5702      0.0082      4.8357     94.3834     29.0588
  1079.3000      8.3597      2.5825     -0.0027      4.0914     95.6061     29.1904
  1079.4000      8.3597      2.5899      0.0169      3.6447     93.6561     29.2477
  1079.5000      8.3528      2.5969     -0.0139      3.2178     90.6713     29.3633
  1079.6000      8.3528      2.5959      0.0159      3.2765     87.5165     29.5219
  1079.7000      8.3528      2.5694      0.0333      4.8835     82.5876     29.7282
  1079.8000      8.3489      2.5220     -0.0836      7.7590     78.5670     29.9878
  1079.9000      8.3489      2.4887     -0.0513      9.7787     79.9184     30.1076
  1080.0000      8.3329      2.4820     -0.0133     10.1809     86.8155     30.0525
  1080.1000      8.3329      2.4843     -0.0104     10.0410     96.6692     30.0622
  1080.2000      8.3329      2.4926      0.0291      9.5373    105.1388     30.3645
  1080.3000      8.3291      2.5151      0.0673      8.1745    109.7772     30.8765
  1080.4000      8.3291      2.5428      0.0362      6.4991    110.8902     31.0716
  1080.5000      8.3346      2.5643      0.0201      5.1951    108.0052     30.9816
  1080.6000      8.3346      2.5818      0.0736      4.1340    102.5643     31.0903
  1080.7000      8.3346      2.5952      0.0451      3.3214     98.8926     31.2057
  1080.8000      8.3293      2.6052      0.0910      2.7126     98.0529     31.1563
  1080.9000      8.3293      2.6217      0.0493      1.7181     98.7376     31.2063
  1081.0000      8.3390      2.6546      0.1351     -0.2796    100.2435     31.3541
  1081.1000      8.3390      2.7086      0.1234     -3.5534    101.6281     31.4545
  1081.2000      8.3390      2.7714      0.2030     -7.3560    102.1164     31.4248
  1081.3000      8.3371      2.8127      0.1842     -9.8587    100.7553     31.1752
  1081.4000      8.3371      2.8135      0.1858     -9.9099     99.4305     30.9090
  1081.5000      8.3362      2.7737      0.1681     -7.4943    102.5755     30.7928
  1081.6000      8.3362      2.7143      0.1377     -3.8952    107.2593     30.8149
  1081.7000      8.3362      2.6784      0.0492     -1.7201    109.0295     30.9580
  1081.8000      8.3336      2.6834      0.1311     -2.0235    110.1568     30.9604
  1081.9000      8.3336      2.6868      0.1042     -2.2306    109.8867     30.7529
  1082.0000      8.3380      2.6461      0.0373      0.2392    105.9380     30.7698
  1082.1000      8.3380      2.5777     -0.0563      4.3820    102.2288     31.2357
  1082.2000      8.3380      2.5301     -0.0478      7.2685    105.2965     31.6173
  1082.3000      8.3247      2.5275      0.0056      7.4246    115.3298     31.5452
  1082.4000      8.3247      2.5527      0.0776      5.8978    122.9537     31.3872
  1082.5000      8.3352      2.5682      0.0810      4.9579    121.2339     31.3516
  1082.6000      8.3352      2.5550      0.0738      5.7575    116.3389     31.1246
  1082.7000      8.3352      2.5299     -0.0143      7.2779    116.8905     30.7751
  1082.8000      8.3590      2.5264      0.0552      7.4891    121.2110     30.6559
  1082.9000      8.3590      2.5537      0.0313      5.8359    125.4595     30.7843
  1083.0000      8.3581      2.5840      0.0665      4.0012    129.5685     31.0098
  1083.1000      8.3581      2.5894      0.0909      3.6706    132.5313     31.2235
  1083.2000      8.3581      2.5774      0.0457      4.3977    133.5911     31.3466
  1083.3000      8.3723      2.5677      0.0737      4.9855    134.7433     31.3475
  1083.4000      8.3723      2.5619      0.0731      5.3409    135.2243     31.1984
  1083.5000      8.3756      2.5540      0.0728      5.8175    132.4639     30.9597
  1083.6000      8.3756      2.5483      0.0319      6.1627    129.2073     30.5143
  1083.7000      8.3756      2.5526      0.0381      5.9046    128.0262     29.6045
  1083.8000      8.3660      2.5585      0.0799      5.5444    124.8983     28.6938
  1083.9000      8.3660      2.5568      0.0666      5.6505    120.7871     28.3854
  1084.0000      8.3611      2.5599      0.0326      5.4587    121.6615     28.3793
  1084.1000      8.3611      2.5733      0.0577      4.6480    125.5416     28.0169
  1084.2000      8.3611      2.5743      0.0488      4.5885    128.5133     27.4197
  1084.3000      8.3594      2.5525      0.0686      5.9100    130.2105     27.1451
  1084.4000      8.3594      2.5312     -0.0169      7.2027    129.1322     27.1189
  1084.5000      8.3565      2.5286      0.0405      7.3552    125.5964     27.0572
  1084.6000      8.3565      2.5369      0.0424      6.8523    121.9990     26.6077
  1084.7000      8.3565      2.5460      0.0292      6.3009    119.7497     25.2634
  1084.8000      8.3555      2.5566      0.0093      5.6586    118.9222     23.3644
  1084.9000      8.3555      2.5706      0.0525      4.8136    116.1421     21.8985
  1085.0000      8.3619      2.5844      0.0258      3.9779    109.2918     20.9729
  1085.1000      8.3619      2.5962      0.0695      3.2577    104.1752     20.0755
  1085.2000      8.3619      2.6074      0.0123      2.5792    105.9763     18.9696
  1085.3000      8.3559      2.6080      0.1126      2.5433    110.4803     17.6330
  1085.4000      8.3559      2.5796      0.1147      4.2685    111.6934     16.1268
  1085.5000      8.3603      2.5221      0.0928      7.7488    109.0775     14.6320
  1085.6000      8.3603      2.4492      0.0234     12.1694    104.9194     13.2382
  1085.7000      8.3603      2.3596      0.0040     17.6021    101.3455     11.5473
  1085.8000      8.3662      2.2458     -0.0631     24.5000    100.0229      9.4504
  1085.9000      8.3662      2.1147     -0.0855     32.4453    102.1980      7.6160
  1086.0000      8.3961      1.9739     -0.1417     40.9766    107.2993      6.5015
  1086.1000      8.3961      1.8296     -0.1487     49.7239    113.3464      6.0380
  1086.2000      8.3961      1.6935     -0.1198     57.9667    119.7699      6.1260
  1086.3000      8.4283      1.5719     -0.1179     65.3374    122.0192      6.7071
  1086.4000      8.4283      1.4623     -0.0807     71.9794    115.3211      7.6145
  1086.5000      8.4386      1.3700     -0.0239     77.5779    106.8967      8.5237
  1086.6000      8.4386      1.3099     -0.0409     81.2191    103.0289      9.3617
  1086.7000      8.4386      1.2834      0.0518     82.8222    100.1023     10.4203
  1086.8000      8.4311      1.2717      0.0979     83.5330     93.0026     11.8505
  1086.9000      8.4311      1.2755      0.1196     83.3049     81.0839     13.6888
  1087.0000      8.4362      1.3305      0.0947     79.9688     69.9041     16.1701
  1087.1000      8.4362      1.4570      0.2591     72.3006     66.1827     19.1483
  1087.2000      8.4362      1.6157      0.3601     62.6831     67.8506     21.5170
  1087.3000      8.4954      1.7430      0.4181     54.9717     67.1200     22.6892
  1087.4000      8.4954      1.8177      0.4052     50.4404     61.8892     23.4410
