~Version Information
 VERS.                      2.0: CWLS Log ASCII Standard - VERSION 2.0
 WRAP.                       NO: One line per depth step
 ~Well Information Block
 STRT.FT               115.0000: 
 STOP.FT              1768.2500: 
 STEP.FT                 0.2500: 
 NULL.                -999.2500: 
 COMP.          Petrogulf Corporation: COMPANY
 WELL.           Parsons 23-15V: WELL
 FLD.           Purgatorie River: FIELD
 LOC.           2095' FSL & 1817' FWL--API 05 071 07556 00----: LOCATION
 CNTY.               Las Animas: COUNTY
 SRVC.                         : SERVICE COMPANY
 DATE.          Fri Apr 19 16:58:41 2002: LOG DATE
 UWI.                          : UNIQUE WELL ID
 STAT.                       CO: STATE
 PROV.                         :Province
 ~Curve Information Block
 DEPT.FT            0 000 00 00: Depth
 SP.mV                         : DIL Spontaneous Potential
 RILD.Ohm-m                    : DIL Deep Resistivity
 RILM.Ohm-m                    : DIL Medium Resistivity
 RLL3.Ohm-m                    : DIL Shallow Resistivity
 GR.GAPI                       : Gamma Ray
 ~Parameter Information Block
 ~A  Depth        SP         RILD        RILM        RLL3         GR     
# ...
   143.0000   2000.0000      7.0192 100000.0000   2698.9004     55.1826
   143.2500   2000.0000      6.9949 100000.0000   2571.6870     57.5585
   143.5000   2000.0000      6.9767 100000.0000   2458.9268     60.0581
   143.7500   2000.0000      6.9683 100000.0000   2394.7278     61.9535
   144.0000   2000.0000      6.9744 100000.0000   2357.7725     62.7531
   144.2500   2000.0000      6.9994 100000.0000   2308.6748     62.3557
   144.5000   2000.0000      7.0425 100000.0000   2237.3765     61.1144
   144.7500   2000.0000      7.0943 100000.0000   2163.9531     59.5842
   145.0000   2000.0000      7.1380 100000.0000   2108.3252     58.0947
   145.2500   2000.0000      7.1577 100000.0000   2073.4341     56.6527
   145.5000   2000.0000      7.1484 100000.0000   2052.7576     55.3244
   145.7500   2000.0000      7.1195 100000.0000   2042.1693     54.4775
   146.0000   2000.0000      7.0869 100000.0000   2041.2230     54.4252
   146.2500   2000.0000      7.0628 100000.0000   2047.5172     54.9964
   146.5000   2000.0000      7.0513 100000.0000   2055.2285     55.6553
   146.7500   2000.0000      7.0509 100000.0000   2060.9841     56.0096
   147.0000   2000.0000      7.0583 100000.0000   2069.0906     56.1154
   147.2500   2000.0000      7.0702 100000.0000   2086.4453     56.2952
   147.5000   2000.0000      7.0816 100000.0000   2111.1360     56.6776
   147.7500   2000.0000      7.0855 100000.0000   2130.1274     56.9241
   148.0000   2000.0000      7.0751 100000.0000   2132.2986     56.4514
   148.2500   2000.0000      7.0454 100000.0000   2121.2964     54.9512
   148.5000   2000.0000      6.9934 100000.0000   2110.3701     52.6620
   148.7500   2000.0000      6.9186 100000.0000   2105.6899     50.1900
   149.0000   2000.0000      6.8261 100000.0000   2101.0366     48.2652
   149.2500   2000.0000      6.7321 100000.0000   2090.1858     47.5842
   149.5000   2000.0000      6.6633 100000.0000   2079.3633     48.5186
   149.7500   2000.0000      6.6471 100000.0000   2082.9268     50.8509
   150.0000   2000.0000      6.6973 100000.0000   2106.6284     53.9232
   150.2500   2000.0000      6.8025 100000.0000   2136.7771     57.0220
   150.5000   2000.0000      6.9264 100000.0000   2148.8018     59.6057
   150.7500   2000.0000      7.0218 100000.0000   2129.2507     61.4648
   151.0000   2000.0000      7.0538 100000.0000   2087.6379     62.9192
   151.2500   2000.0000      7.0181 100000.0000   2045.2117     64.6616
   151.5000   2000.0000      6.9428 100000.0000   2016.4500     67.1355
   151.7500   2000.0000      6.8771 100000.0000   2003.2428     70.0996
   152.0000   2000.0000      6.8751 100000.0000   2000.9735     72.9318
   152.2500   2000.0000      6.9795 100000.0000   2004.8186     75.3466
   152.5000   2000.0000      7.2009 100000.0000   2011.9301     77.7821
   152.7500   2000.0000      7.4931 100000.0000   2022.2830     81.1102
   153.0000   2000.0000      7.7397 100000.0000   2040.6847     85.9385
   153.2500   2000.0000      7.7951 100000.0000   2077.4602     91.9736
   153.5000   2000.0000      7.5889 100000.0000   2140.9138     97.9050
   153.7500   2000.0000      7.1888 100000.0000   2221.6646    101.9943
   154.0000   2000.0000      6.7360 100000.0000   2287.4717    103.1151
   154.2500   2000.0000      6.3443 100000.0000   2305.9929    101.6350
   154.5000   2000.0000      6.0692 100000.0000   2277.6694     99.4590
   154.7500   2000.0000      5.9327 100000.0000   2237.3020     98.8446
   155.0000   2000.0000      5.9602 100000.0000   2217.4978    100.6180
   155.2500   2000.0000      6.1997 100000.0000   2216.9780    103.3764
   155.5000   2000.0000      6.7136 100000.0000   2210.1416    104.5947
   155.7500   2000.0000      7.5117 100000.0000   2182.3547    102.6847
   156.0000   2000.0000      8.3768 100000.0000   2148.0171     98.1662
   156.2500   2000.0000      8.7254 100000.0000   2133.5615     93.0773
   156.5000   2000.0000      8.1098 100000.0000   2148.7561     89.2587
   156.7500   2000.0000      6.9327 100000.0000   2179.5593     86.9003
   157.0000   2000.0000      5.8808 100000.0000   2211.2896     84.4989
   157.2500   2000.0000      5.2453 100000.0000   2257.7688     80.1501
   157.5000   2000.0000      5.0353 100000.0000   2360.1660     73.0047
   157.7500   2000.0000      5.1955 100000.0000   2548.5347     63.8009
   158.0000   2000.0000      5.6621 100000.0000   2804.0879     54.2886
   158.2500   2000.0000      6.2914 100000.0000   3064.8479     46.1420
   158.5000   2000.0000      6.7127 100000.0000   3269.7544     40.1460
   158.7500   2000.0000      6.4283 100000.0000   3395.4922     36.0726
   159.0000   2000.0000      5.4519 100000.0000   3456.1592     33.1925
   159.2500   2000.0000      4.3785 100000.0000   3479.2390     30.9887
   159.5000   2000.0000      3.6358 100000.0000   3486.1721     29.5048
   159.7500   2000.0000      3.3148 100000.0000   3487.8125     29.1343
   160.0000   2000.0000      3.4191     19.3824   3488.1182     30.2178
   160.2500   2000.0000      4.0379     10.4814   3488.1558     32.8798
   160.5000   2000.0000      5.4933      8.5671   3488.1558     37.0333
   160.7500   2000.0000      8.7614      8.7154   3488.1558     42.3705
   161.0000   2000.0000     17.8193     10.3668   3488.1558     48.4161
   161.2500   2000.0000     85.9701     13.7757   3488.1558     54.6871
   161.5000   2000.0000 100000.0000     19.3602   3488.1558     60.8274
   161.7500   2000.0000 100000.0000     27.1196   3488.1558     66.7404
   162.0000   2000.0000 100000.0000     36.9765   3488.1558     72.7265
   162.2500   2000.0000 100000.0000     51.4156   3488.1558     79.3496
   162.5000   2000.0000 100000.0000     80.2169   3488.1558     87.0198
   162.7500   2000.0000 100000.0000    153.0871   3488.1558     95.7887
   163.0000   2000.0000   1743.9504    288.4359   3488.1558    105.3456
   163.2500   2000.0000     49.2908    202.2542   3488.1558    114.8541
   163.5000   2000.0000     29.3127     89.4035   3488.1558    123.0475
   163.7500   2000.0000     23.8669     48.2033   3488.1558    128.9267
   164.0000   2000.0000     22.0489     31.8824   3488.1558    132.3546
   164.2500   2000.0000     21.5701     24.3142   3488.1558    133.9463
   164.5000   2000.0000     21.6408     20.3659   3488.1558    134.5881
   164.7500   2000.0000     21.9079     18.1035   3488.1558    134.9637
   165.0000   2000.0000     22.1502     16.7005   3488.1558    135.1311
   165.2500   2000.0000     22.2082     15.7969   3488.1558    134.4843
   165.5000   2000.0000     22.0241     15.2552   3488.1558    132.3663
   165.7500   2000.0000     21.6870     15.0391   3488.1558    128.8537
   166.0000   2000.0000     21.3730     15.1445   3488.0903    124.7866
   166.2500   2000.0000     21.2377     15.5599   3487.6519    120.8454
   166.5000   2000.0000     21.3540     16.2497   3485.4009    116.8212
   166.7500   2000.0000     21.7129     17.1553   3476.3901    112.1899
   167.0000   2000.0000     22.2567     18.2110   3448.1919    107.1191
   167.2500   2000.0000     22.9199     19.3631   3379.0781    102.3341
   167.5000   2000.0000     23.6562     20.5764   3246.0781     98.2725
   167.7500   2000.0000     24.4439     21.8213   3044.4141     95.0618
   168.0000   2000.0000     25.2668     23.0565   2802.3718     93.1426
   168.2500   2000.0000     26.0869     24.2270   2571.3940     93.1809
   168.5000   2000.0000     26.8289     25.2788   2397.3743     95.2684
   168.7500   2000.0000     27.3925     26.1760   2302.0806     98.6388
   169.0000   2000.0000     27.6911     26.8994   2289.4497    102.3616
   169.2500   2000.0000     27.6878     27.4312   2361.0840    106.0976
   169.5000   2000.0000     27.4014     27.7425   2517.8442    110.0431
   169.7500   2000.0000     26.8845     27.7959   2743.7244    114.3806
   170.0000   2000.0000     26.2013     27.5506   2993.7976    118.9843
   170.2500   2000.0000     25.4209     26.9669   3208.8076    123.4987
   170.5000   2000.0000     24.6191     26.0232   3345.6655    127.5129
   170.7500   2000.0000     23.8725     24.7528   3390.4128    130.8258
