~Version Information
VERS.                      2.0: CWLS Log ASCII Standard - VERSION 2.0
WRAP.                       NO: One line per depth step
~Well Information Block
STRT.FT               605.6000: 
STOP.FT              1938.0000: 
STEP.FT                 0.1000: 
NULL.                -999.2500: 
COMP.          Petrogulf Corporation: COMPANY
WELL.              Graff 9-31R: WELL
FLD.           Purgatorie River: FIELD
LOC.           707' FNL & 1713' FEL: LOCATION
CNTY.               Las Animas: COUNTY
SRVC.                         : SERVICE COMPANY
DATE.          Mon Oct 25 06:13:30 2004: LOG DATE
UWI.           05 071 08037 00: UNIQUE WELL ID
STAT.                 Colorado: STATE
~Curve Information Block
DEPT.FT            0 000 00 00: Depth
DCAL.in                       : CDL Caliper
RHOB.g/cc                     : CDL Bulk Density
RHOC.g/cc                     : CDL Density Correction
DPOR.pu                       : CDL Density Porosity
GR.GAPI                       : Gamma Ray
NPOR.pu                       : Neutron Porosity
~Parameter Information Block
~A  Depth       DCAL        RHOB        RHOC        DPOR         GR         NPOR    
# ...
  1661.6000      7.9154      2.4533      0.0489     11.9190    142.3618     26.4844
  1661.7000      7.9154      2.4477      0.1320     12.2626    144.2267     26.3220
  1661.8000      7.9098      2.4379      0.1550     12.8565    145.5725     26.1662
  1661.9000      7.9098      2.4280      0.0592     13.4558    145.2337     25.9675
  1662.0000      7.8984      2.4434      0.0722     12.5224    142.4562     25.8005
  1662.1000      7.8984      2.4966      0.0871      9.2997    136.6160     25.8288
  1662.2000      7.8984      2.5711      0.1472      4.7841    130.3988     26.1107
  1662.3000      7.8303      2.6373      0.2525      0.7709    126.2733     26.6895
  1662.4000      7.8303      2.6754      0.2670     -1.5383    124.3997     27.2284
  1662.5000      7.7787      2.6756      0.2789     -1.5515    123.8858     27.1766
  1662.6000      7.7787      2.6379      0.2062      0.7343    121.5062     26.5986
  1662.7000      7.7787      2.5867      0.1282      3.8337    116.3408     26.3224
  1662.8000      7.6935      2.5594      0.0576      5.4887    111.0580     26.6463
  1662.9000      7.6935      2.5669      0.1214      5.0348    106.3392     26.7276
  1663.0000      7.6694      2.5821      0.1266      4.1157    102.8760     26.0508
  1663.1000      7.6694      2.5829      0.1013      4.0658    103.0233     25.3103
  1663.2000      7.6694      2.5784      0.0684      4.3395    107.0219     24.8012
  1663.3000      7.7553      2.5821      0.0971      4.1168    113.0718     24.0808
  1663.4000      7.7553      2.5882      0.1135      3.7445    116.5305     23.0908
  1663.5000      7.7585      2.5847      0.1176      3.9578    114.4264     22.1327
  1663.6000      7.7585      2.5665      0.1102      5.0612    110.6236     21.6364
  1663.7000      7.7585      2.5307      0.1096      7.2291    111.2811     21.7488
  1663.8000      7.7542      2.4813      0.0276     10.2227    116.7860     21.9138
  1663.9000      7.7542      2.4353      0.0452     13.0121    122.9587     21.5401
  1664.0000      7.7337      2.4158     -0.0154     14.1934    127.7346     20.8983
  1664.1000      7.7337      2.4344      0.0098     13.0663    131.2261     20.5191
  1664.2000      7.7337      2.4735      0.0781     10.6972    134.3935     20.6641
  1664.3000      7.7619      2.5108      0.0789      8.4345    137.2056     21.2345
  1664.4000      7.7619      2.5419      0.1393      6.5520    137.0400     21.8128
  1664.5000      7.8844      2.5658      0.1779      5.1024    133.9937     22.3593
  1664.6000      7.8844      2.5763      0.2345      4.4644    134.5293     23.0320
  1664.7000      7.8844      2.5682      0.2368      4.9580    139.2557     23.5755
  1664.8000      7.9008      2.5439      0.2376      6.4309    142.5065     23.6438
  1664.9000      7.9008      2.5157      0.1727      8.1395    145.9452     23.5691
  1665.0000      7.9177      2.5000      0.1140      9.0907    149.9654     24.0634
  1665.1000      7.9177      2.4945      0.1443      9.4220    149.3826     25.1526
  1665.2000      7.9177      2.4847      0.1503     10.0184    144.8831     26.0929
  1665.3000      7.8904      2.4816      0.0853     10.2053    141.5941     26.5217
  1665.4000      7.8904      2.5120      0.1063      8.3644    141.0938     26.5870
  1665.5000      7.8726      2.5733      0.1799      4.6503    140.4051     26.4332
  1665.6000      7.8726      2.6305      0.2360      1.1841    136.7697     26.2762
  1665.7000      7.8726      2.6623      0.2271     -0.7449    130.2548     25.9156
  1665.8000      7.8699      2.6780      0.2027     -1.6977    124.1306     25.0743
  1665.9000      7.8699      2.6819      0.2181     -1.9363    121.0314     24.2397
  1666.0000      7.8539      2.6686      0.1535     -1.1275    117.0484     23.8116
  1666.1000      7.8539      2.6455      0.1544      0.2701    109.1896     23.6002
  1666.2000      7.8539      2.6232      0.1124      1.6247    103.6588     23.3412
  1666.3000      7.7806      2.6035      0.0850      2.8191    105.2418     22.9776
  1666.4000      7.7806      2.5800      0.0905      4.2447    111.0155     22.7474
  1666.5000      7.7982      2.5481      0.0224      6.1732    116.5634     22.6589
  1666.6000      7.7982      2.5212      0.0384      7.8052    118.9376     22.5383
  1666.7000      7.7982      2.5118      0.0394      8.3784    119.9852     22.4505
  1666.8000      7.8298      2.5142      0.0400      8.2322    123.5616     22.3783
  1666.9000      7.8298      2.5198      0.0474      7.8932    129.1224     22.2496
  1667.0000      7.8662      2.5299      0.0266      7.2772    133.2992     22.1743
  1667.1000      7.8662      2.5479      0.0821      6.1907    133.7770     22.3839
  1667.2000      7.8662      2.5628      0.1301      5.2864    130.1148     22.6886
  1667.3000      7.9017      2.5668      0.0847      5.0434    126.6541     22.8048
  1667.4000      7.9017      2.5699      0.0941      4.8552    128.0307     23.1816
  1667.5000      7.9060      2.5737      0.1513      4.6216    131.9363     24.0597
  1667.6000      7.9060      2.5679      0.1025      4.9775    134.5346     24.5295
  1667.7000      7.9060      2.5555      0.0554      5.7253    134.6911     23.9351
  1667.8000      7.8825      2.5463      0.0371      6.2841    134.7348     22.8666
  1667.9000      7.8825      2.5393      0.0877      6.7084    134.6146     22.3025
  1668.0000      7.8800      2.5331      0.0657      7.0825    129.1640     22.7437
  1668.1000      7.8800      2.5315      0.0782      7.1845    122.0541     23.6597
  1668.2000      7.8800      2.5315      0.0607      7.1794    122.9328     24.2262
  1668.3000      7.8889      2.5298      0.0671      7.2818    130.3088     24.4490
  1668.4000      7.8889      2.5277      0.0739      7.4104    133.9339     24.6396
  1668.5000      7.8898      2.5259      0.1468      7.5218    131.1889     24.9126
  1668.6000      7.8898      2.5294      0.0864      7.3089    127.9052     25.1973
  1668.7000      7.8898      2.5454      0.0719      6.3416    127.5482     25.1148
  1668.8000      7.8923      2.5620      0.1115      5.3320    126.7819     24.5888
  1668.9000      7.8923      2.5622      0.1391      5.3221    122.6898     24.1552
  1669.0000      7.9018      2.5559      0.0916      5.7035    120.5123     24.2881
  1669.1000      7.9018      2.5634      0.1089      5.2469    124.9625     24.7256
  1669.2000      7.9018      2.5754      0.1747      4.5202    132.1438     24.8424
  1669.3000      7.8833      2.5679      0.1893      4.9732    136.5457     24.5570
  1669.4000      7.8833      2.5414      0.0725      6.5803    135.6973     24.1204
  1669.5000      7.8768      2.5171      0.0348      8.0541    131.9992     23.7104
  1669.6000      7.8768      2.5056      0.1046      8.7494    129.9324     23.4984
  1669.7000      7.8768      2.5073      0.0641      8.6495    129.8655     23.5728
  1669.8000      7.8731      2.5289      0.0743      7.3364    130.0285     23.8045
  1669.9000      7.8731      2.5629      0.1180      5.2798    127.7992     23.8853
  1670.0000      7.8765      2.5837      0.1229      4.0202    124.9839     23.7089
  1670.1000      7.8765      2.5844      0.1476      3.9732    125.9612     23.4503
  1670.2000      7.8765      2.5828      0.1850      4.0750    128.8785     23.2830
  1670.3000      7.8668      2.5846      0.1641      3.9638    129.3322     23.1903
  1670.4000      7.8668      2.5741      0.1502      4.6029    127.0043     23.2740
  1670.5000      7.8394      2.5479      0.1223      6.1900    124.6527     23.8541
  1670.6000      7.8394      2.5288      0.0981      7.3452    124.3065     24.5581
  1670.7000      7.8394      2.5353      0.0463      6.9489    126.0691     24.6352
  1670.8000      7.8283      2.5535      0.1454      5.8477    126.9124     24.3571
  1670.9000      7.8283      2.5602      0.1067      5.4432    123.8758     24.3238
  1671.0000      7.7816      2.5687      0.0920      4.9275    122.0750     24.3683
  1671.1000      7.7816      2.6007      0.1811      2.9858    123.0703     24.2785
