~Version Information
VERS.                      2.0: CWLS Log ASCII Standard - VERSION 2.0
WRAP.                       NO: One line per depth step
~Well Information Block
STRT.FT               575.0000: 
STOP.FT              2016.2500: 
STEP.FT                 0.2500: 
NULL.                -999.2500: 
COMP.          Pioneer Natural Resources: COMPANY
WELL.          Bucksnort 41-35: WELL
FLD.           Purgatoire River: FIELD
LOC.           117' FNL & 463' FEL--: LOCATION
PROV.                 Colorado: PROVINCE
CNTY.               Las Animas: COUNTRY
SRVC.                Patterson: SERVICE COMPANY
DATE.          Thu Jul 21 10:13:55 2005: LOG DATE
UWI.           05 071 08401 00: UNIQUE WELL ID
~Curve Information Block
DEPT.FT            0 000 00 00: Depth
SN.Ohm-m                      : IEL Short Normal
SP.mV                         : IEL Spontaneous Potential
DIR.Ohm-m                     : IEL Induction Resistivity
GR.GAPI                       : Gamma Ray
~Parameter Information Block
~A  Depth        SN          SP         DIR          GR     
# ...
   776.0000   2000.0000   2000.0000      6.9766    137.3003
   776.2500   2000.0000   2000.0000      6.9765    136.3336
   776.5000   2000.0000   2000.0000      6.9796    134.9060
   776.7500   2000.0000   2000.0000      6.9850    134.1217
   777.0000   2000.0000   2000.0000      6.9921    132.9606
   777.2500   2000.0000   2000.0000      7.0018    132.3468
   777.5000   2000.0000   2000.0000      7.0159    132.3819
   777.7500   2000.0000   2000.0000      7.0365    133.0780
   778.0000   2000.0000   2000.0000      7.0649    134.0395
   778.2500   2000.0000   2000.0000      7.1013    133.9187
   778.5000   2000.0000   2000.0000      7.1445    132.5616
   778.7500   2000.0000   2000.0000      7.1926    131.4560
   779.0000   2000.0000   2000.0000      7.2424    130.3184
   779.2500   2000.0000   2000.0000      7.2906    129.9238
   779.5000   2000.0000   2000.0000      7.3357    129.5228
   779.7500   2000.0000   2000.0000      7.3790    129.3109
   780.0000   2000.0000   2000.0000      7.4247    129.3313
   780.2500   2000.0000   2000.0000      7.4787    129.7318
   780.5000   2000.0000   2000.0000      7.5464    130.7655
   780.7500   2000.0000   2000.0000      7.6332    131.3811
   781.0000   2000.0000   2000.0000      7.7430    131.4242
   781.2500   2000.0000   2000.0000      7.8767    130.5561
   781.5000   2000.0000   2000.0000      8.0296    127.8900
   781.7500   2000.0000   2000.0000      8.1909    125.5179
   782.0000   2000.0000   2000.0000      8.3459    121.9011
   782.2500   2000.0000   2000.0000      8.4806    119.9539
   782.5000   2000.0000   2000.0000      8.5879    118.6157
   782.7500   2000.0000   2000.0000      8.6689    119.2517
   783.0000   2000.0000   2000.0000      8.7315    122.6639
   783.2500   2000.0000   2000.0000      8.7844    126.0973
   783.5000   2000.0000   2000.0000      8.8329    131.6481
   783.7500   2000.0000   2000.0000      8.8781    134.9722
   784.0000   2000.0000   2000.0000      8.9196    138.8699
   784.2500   2000.0000   2000.0000      8.9594    140.7057
   784.5000   2000.0000   2000.0000      9.0037    142.3347
   784.7500   2000.0000   2000.0000      9.0630    142.4755
   785.0000   2000.0000   2000.0000      9.1490    140.5238
   785.2500   2000.0000   2000.0000      9.2729    137.5018
   785.5000   2000.0000   2000.0000      9.4444    131.0583
   785.7500   2000.0000   2000.0000      9.6702    126.4767
   786.0000   2000.0000   2000.0000      9.9532    120.7767
   786.2500   2000.0000   2000.0000     10.2904    118.1385
   786.5000   2000.0000   2000.0000     10.6720    115.5570
   786.7500   2000.0000   2000.0000     11.0811    114.2345
   787.0000   2000.0000   2000.0000     11.4942    112.1189
   787.2500   2000.0000   2000.0000     11.8824    110.5765
   787.5000   2000.0000   2000.0000     12.2172    108.6296
   787.7500   2000.0000   2000.0000     12.4778    107.9235
   788.0000   2000.0000   2000.0000     12.6579    107.6823
   788.2500   2000.0000   2000.0000     12.7674    107.6723
   788.5000   2000.0000   2000.0000     12.8266    107.3377
   788.7500   2000.0000   2000.0000     12.8582    106.9236
   789.0000   2000.0000   2000.0000     12.8822    106.3437
   789.2500   2000.0000   2000.0000     12.9133    106.0470
   789.5000   2000.0000   2000.0000     12.9607    105.5220
   789.7500   2000.0000   2000.0000     13.0282    105.0080
   790.0000   2000.0000   2000.0000     13.1139    104.1626
   790.2500   2000.0000   2000.0000     13.2120    103.8087
   790.5000   2000.0000   2000.0000     13.3171    103.8937
   790.7500   2000.0000   2000.0000     13.4275    104.3343
   791.0000   2000.0000   2000.0000     13.5467    105.4244
   791.2500   2000.0000   2000.0000     13.6802    106.4396
   791.5000   2000.0000   2000.0000     13.8314    108.4341
   791.7500   2000.0000   2000.0000     13.9990    109.9634
   792.0000   2000.0000   2000.0000     14.1766    112.0228
   792.2500   2000.0000   2000.0000     14.3552    112.8297
   792.5000   2000.0000   2000.0000     14.5276    112.7612
   792.7500   2000.0000   2000.0000     14.6923    111.9969
   793.0000   2000.0000   2000.0000     14.8546    110.6301
   793.2500   2000.0000   2000.0000     15.0233    110.1450
   793.5000   2000.0000   2000.0000     15.2068    110.5674
   793.7500   2000.0000   2000.0000     15.4134    111.5040
   794.0000   2000.0000   2000.0000     15.6519    113.2251
   794.2500   2000.0000   2000.0000     15.9327    114.1747
   794.5000   2000.0000   2000.0000     16.2640    114.7998
   794.7500   2000.0000   2000.0000     16.6487    114.4156
   795.0000   2000.0000   2000.0000     17.0841    112.1263
   795.2500   2000.0000   2000.0000     17.5626    109.2742
   795.5000   2000.0000   2000.0000     18.0748    103.1883
   795.7500   2000.0000   2000.0000     18.6116     98.2924
   796.0000   2000.0000   2000.0000     19.1656     90.4733
   796.2500   2000.0000   2000.0000     19.7327     85.4410
   796.5000   2000.0000   2000.0000     20.3109     79.2634
   796.7500   2000.0000   2000.0000     20.8985     76.7717
   797.0000   2000.0000   2000.0000     21.4894     75.9973
   797.2500   2000.0000   2000.0000     22.0712     76.9116
   797.5000   2000.0000   2000.0000     22.6262     78.2877
   797.7500   2000.0000   2000.0000     23.1385     77.9703
   798.0000   2000.0000   2000.0000     23.6014     74.7456
   798.2500   2000.0000   2000.0000     24.0198     71.0321
   798.5000   2000.0000   2000.0000     24.4083     64.2674
   798.7500   2000.0000   2000.0000     24.7863     59.6965
   799.0000   2000.0000   2000.0000     25.1744     53.8485
   799.2500   2000.0000   2000.0000     25.5910     51.0472
   799.5000   2000.0000   2000.0000     26.0513     48.6213
   799.7500   2000.0000   2000.0000     26.5655     47.9457
   800.0000   2000.0000   2000.0000     27.1358     47.7212
   800.2500   2000.0000   2000.0000     27.7531     47.7268
   800.5000   2000.0000   2000.0000     28.3990     47.3345
   800.7500   2000.0000   2000.0000     29.0535     46.5431
   801.0000   2000.0000   2000.0000     29.7013     44.6789
   801.2500   2000.0000   2000.0000     30.3266     43.4113
   801.5000   2000.0000   2000.0000     30.9019     42.2874
   801.7500   2000.0000   2000.0000     31.3816     42.2515
   802.0000   2000.0000   2000.0000     31.7157     43.0284
   802.2500   2000.0000   2000.0000     31.8719     43.8466
   802.5000   2000.0000   2000.0000     31.8503     45.2756
   802.7500   2000.0000   2000.0000     31.6807     46.2994
   803.0000   2000.0000   2000.0000     31.4109     47.7244
   803.2500   2000.0000   2000.0000     31.0940     48.4422
   803.5000   2000.0000   2000.0000     30.7762     49.1869
   803.7500   2000.0000   2000.0000     30.4855     49.6769
   804.0000   2000.0000   2000.0000     30.2291     50.6468
   804.2500   2000.0000   2000.0000     30.0047     51.2646
   804.5000   2000.0000   2000.0000     29.8140     51.5108
   804.7500   2000.0000   2000.0000     29.6658     51.0690
   805.0000   2000.0000   2000.0000     29.5684     49.9004
   805.2500   2000.0000   2000.0000     29.5247     49.1334
   805.5000   2000.0000   2000.0000     29.5363     48.1895
   805.7500   2000.0000   2000.0000     29.6054     47.5727
   806.0000   2000.0000   2000.0000     29.7294     46.5401
   806.2500   2000.0000   2000.0000     29.8901     45.9798
   806.5000   2000.0000   2000.0000     30.0489     46.0214
   806.7500   2000.0000   2000.0000     30.1539     46.9089
   807.0000   2000.0000   2000.0000     30.1571     49.1953
   807.2500   2000.0000   2000.0000     30.0357     50.7124
   807.5000   2000.0000   2000.0000     29.8036     51.8564
   807.7500   2000.0000   2000.0000     29.5029     51.6876
   808.0000   2000.0000   2000.0000     29.1814     50.7502
   808.2500   2000.0000   2000.0000     28.8727     50.2733
   808.5000   2000.0000   2000.0000     28.5920     50.1812
   808.7500   2000.0000   2000.0000     28.3361     50.3343
   809.0000   2000.0000   2000.0000     28.0805     50.5563
   809.2500   2000.0000   2000.0000     27.7788     50.8592
