~Version Information
VERS.                      2.0: CWLS Log ASCII Standard - VERSION 2.0
WRAP.                       NO: One line per depth step
~Well Information Block
STRT.FT               -14.0000: 
STOP.FT              2565.5000: 
STEP.FT                 0.5000: 
NULL.                -999.2500: 
COMP.          Pioneer Natural Resources: COMPANY
WELL.             Carbon 34-21: WELL
FLD.           Purgatorie River: FIELD
LOC.           56' FSL & 2304' FEL: LOCATION
PROV.                 Colorado: PROVINCE
CNTY.               Las Animas: COUNTRY
SRVC.          Patterson Wireline: SERVICE COMPANY
DATE.          Mon Nov 08 08:55:10 2004: LOG DATE
UWI.           05-071-08117-00: UNIQUE WELL ID
~Curve Information Block
DEPT.FT            0 000 00 00: Depth
TT3.usec                      : CBL 3' Travel Time
AMP3.mV                       : CBL 3' Amplitude
GR.GAPI                       : Gamma Ray
CCL.                          : Casing Collar Locator
~Parameter Information Block
~A  Depth       TT3         AMP3         GR         CCL     
# ...
  1192.0000    283.8168     71.2236     98.5343      0.0000
  1192.5000    283.8617     69.9331     92.9414      0.0000
  1193.0000    283.8880     68.8567     92.5577      0.0000
  1193.5000    283.8912     68.5637     95.1640      0.0000
  1194.0000    283.9226     68.6383     94.5224      0.0000
  1194.5000    283.9433     68.7678     91.0406      0.0000
  1195.0000    283.9329     69.0045     95.6429      0.0000
  1195.5000    283.8878     69.5749    105.8298      0.0000
  1196.0000    283.8287     70.5306    114.5709      0.0000
  1196.5000    283.8245     71.5295    119.8764      0.0000
  1197.0000    283.8526     72.3092    120.3109      0.0000
  1197.5000    283.8547     72.6804    122.4726      0.0000
  1198.0000    283.8657     72.7183    127.3589      0.0000
  1198.5000    283.8831     72.9196    125.9154      0.0000
  1199.0000    283.8743     73.5582    107.7001      0.0000
  1199.5000    283.8697     74.3571     73.8080      0.0000
  1200.0000    283.8970     74.8626     45.6411      0.0000
  1200.5000    283.9375     74.9370     37.2626      0.0000
  1201.0000    283.9341     74.6831     43.0053      0.0000
  1201.5000    283.8884     74.4423     47.2795      0.0000
  1202.0000    283.8712     74.4764     51.2590      0.0000
  1202.5000    283.8669     74.4111     66.8607      0.0000
  1203.0000    283.8572     74.1073     91.9402      0.0000
  1203.5000    283.8282     73.4554    113.4837      0.0000
  1204.0000    283.7679     72.1013    127.0458      0.0000
  1204.5000    283.7729     70.6930    132.2254      0.0000
  1205.0000    283.8625     69.8973    125.8308      0.0000
  1205.5000    283.9233     69.4766    116.4431      0.0000
  1206.0000    283.9416     69.2249    108.4709      0.0000
  1206.5000    283.9306     68.7856     99.9247      0.0000
  1207.0000    283.9104     67.6762     90.3255      0.0000
  1207.5000    283.9353     66.0886     82.7072      0.0000
  1208.0000    283.9799     64.7214     82.6754      0.0000
  1208.5000    283.9871     64.0216     88.6773      0.0000
  1209.0000    283.9343     63.7584     92.1347      0.0000
  1209.5000    283.8480     63.6512     87.6702      0.0000
  1210.0000    283.7863     63.5648     81.6932      0.0000
  1210.5000    283.7299     63.6310     79.7263      0.0000
  1211.0000    283.6932     63.9570     73.2421      0.0000
  1211.5000    283.6689     64.5602     63.3731      0.0000
  1212.0000    283.5917     65.4702     56.6831      0.0000
  1212.5000    283.5018     66.2451     52.9578      0.0000
  1213.0000    283.4624     66.6956     50.3290      0.0000
  1213.5000    283.4493     67.3678     46.9438      0.0000
  1214.0000    283.4590     67.9728     43.5499      0.0000
  1214.5000    283.4443     68.3698     40.7847      0.0000
  1215.0000    283.3583     69.0415     39.3103      0.0000
  1215.5000    283.2727     70.0921     38.7456      0.0000
  1216.0000    283.2751     71.0681     45.1952      0.0000
  1216.5000    283.4162     70.7149     68.2038      0.0000
  1217.0000    283.7040     68.7868    101.0073      0.0000
  1217.5000    283.9285     67.8244    121.3480      0.0000
  1218.0000    283.8681     69.5186    125.9978      0.0000
  1218.5000    283.5969     72.0534    133.6670      0.0000
  1219.0000    283.3314     73.4128    143.3374      0.0000
  1219.5000    283.2906     72.3628    155.9482      0.0000
  1220.0000    283.4787     69.8056    170.6529      0.0000
  1220.5000    283.6243     69.0387    176.0094      0.0000
  1221.0000    283.5706     71.1499    175.8276      0.0000
  1221.5000    283.3512     74.4608    176.3582      0.0000
  1222.0000    283.0942     77.7026    175.7061      0.0000
  1222.5000    282.9773     79.8459    179.3034      0.0000
  1223.0000    282.9579     81.0274    183.6340      0.0000
  1223.5000    282.9413     81.8458    181.6219      0.0000
  1224.0000    282.9311     82.4256    171.7540      0.0000
  1224.5000    282.9290     82.5560    158.2295      0.0000
  1225.0000    282.9104     82.3069    150.0535      0.0000
  1225.5000    282.8888     82.0710    155.8492      0.0000
  1226.0000    282.8833     81.8926    174.6274      0.0000
  1226.5000    282.8758     81.5157    190.2312      0.0000
  1227.0000    282.8863     80.9665    194.8727      0.0000
  1227.5000    283.2354     79.8506    191.9978      0.0000
  1228.0000    284.9208     76.1379    184.8170      0.0000
  1228.5000    288.0793     68.5844    173.4604      0.0000
  1229.0000    290.2598     62.4911    156.5707      0.0000
  1229.5000    290.6229     61.5575    146.6207      0.0000
  1230.0000    290.6050     61.8615    153.0573      2.8107
  1230.5000    290.8596     61.2045    171.5013      0.0000
  1231.0000    290.8850     61.7839    191.2887      0.0000
  1231.5000    288.8956     67.7360    195.0683      0.0000
  1232.0000    285.4487     74.9342    184.4829      0.0000
  1232.5000    283.3665     78.1966    170.5644      0.0000
  1233.0000    282.8192     79.0707    159.7060      0.0000
  1233.5000    282.7205     79.4026    158.9614      0.0000
  1234.0000    282.7220     79.5782    163.9060      0.0000
  1234.5000    282.7733     79.5916    165.5620      0.0000
  1235.0000    282.8064     79.4951    150.3643      0.0000
  1235.5000    282.8090     79.4667    131.2265      0.0000
  1236.0000    282.7964     79.6474    131.1571      0.0000
  1236.5000    282.8114     79.4830    139.2334      0.0000
  1237.0000    282.9010     78.6917    142.8543      0.0000
  1237.5000    283.0195     77.9421    148.3767      0.0000
  1238.0000    283.0698     77.8128    147.4423      0.0000
  1238.5000    283.0431     78.0295    133.2067      0.0000
  1239.0000    282.9903     78.4955    119.6102      0.0000
  1239.5000    282.9961     78.7972    117.8279      0.0000
  1240.0000    283.0542     78.5392    128.6209      0.0000
  1240.5000    283.0871     77.9031    137.8066      0.0000
  1241.0000    283.0775     77.5489    141.0274      0.0000
  1241.5000    283.0284     77.7723    144.7567      0.0000
  1242.0000    283.0161     77.7453    143.1233      0.0000
  1242.5000    283.0667     77.0046    135.1100      0.0000
  1243.0000    283.0909     76.6701    127.6261      0.0000
  1243.5000    283.0443     77.0687    116.9043      0.0000
  1244.0000    282.9703     77.2913    106.6415      0.0000
  1244.5000    282.9172     77.0633    113.1433      0.0000
  1245.0000    282.9367     76.2572    130.9560      0.0000
  1245.5000    283.0020     75.1869    139.0320      0.0000
  1246.0000    283.0084     74.7392    136.8768      0.0000
  1246.5000    282.9380     74.9978    132.3804      0.0000
  1247.0000    282.8457     75.3936    125.9851      0.0000
  1247.5000    282.7556     75.6318    120.4183      0.0000
  1248.0000    282.7184     75.5782    122.5571      0.0000
  1248.5000    282.7208     75.2346    130.4323      0.0000
  1249.0000    282.6896     75.1756    137.8743      0.0000
  1249.5000    282.5997     75.7660    136.1843      0.0000
  1250.0000    282.5228     76.0882    125.3896      0.0000
  1250.5000    282.4816     75.9944    119.2123      0.0000
  1251.0000    282.4639     75.8083    116.9973      0.0000
  1251.5000    282.4474     75.6232    106.8606      0.0000
  1252.0000    282.4091     75.5958     94.8273      0.0000
  1252.5000    282.3712     75.7399     88.0379      0.0000
  1253.0000    282.3487     75.8180     84.2727      0.0000
  1253.5000    282.3466     75.6516     80.8458      0.0000
  1254.0000    282.3574     75.3532     77.6941      0.0000
  1254.5000    282.3650     75.1812     70.3530      0.0000
  1255.0000    282.4037     74.8952     59.7583      0.0000
  1255.5000    282.4609     74.4252     53.1034      0.0000
  1256.0000    282.4905     74.1894     51.2665      0.0000
  1256.5000    282.5206     74.1221     53.3749      0.0000
  1257.0000    282.5699     73.8607     55.2152      0.0000
  1257.5000    282.6279     73.5158     50.9269      0.0000
  1258.0000    282.6797     73.3368     45.4087      0.0000
  1258.5000    282.7305     73.2795     41.6780      0.0000
