~Version Information
VERS.                      2.0: CWLS Log ASCII Standard - VERSION 2.0
WRAP.                       NO: One line per depth step
~Well Information Block
STRT.FT                -4.0000: 
STOP.FT              2638.2500: 
STEP.FT                 0.2500: 
NULL.                -999.2500: 
COMP.          Petrogulf Corporation: COMPANY
WELL.            Montoya 6-14V: WELL
FLD.           Purgatorie River: FIELD
LOC.           318' FSL & 882' FWL--: LOCATION
PROV.                       CO: PROVINCE
CNTY.               Las Animas: COUNTRY
SRVC.                         : SERVICE COMPANY
DATE.          Mon May 02 08:32:04 2005: LOG DATE
UWI.      005 071 08020: UNIQUE WELL ID
~Curve Information Block
DEPT.FT            0 000 00 00: Depth
AMP3.mV                       : CBL 3' Amplitude
CCL.                          : Casing Collar Locator
GR.GAPI                       : Gamma Ray
TT3.usec                      : CBL 3' Travel Time
~Parameter Information Block
~A  Depth       AMP3        CCL          GR         TT3     
# ...
  2073.0000     87.9776      0.0000     87.1397    254.2749
  2073.2500     88.0119      0.0000    102.7242    254.2545
  2073.5000     88.0912      0.0000    118.6561    254.2457
  2073.7500     88.1904      0.0000    131.6529    254.2507
  2074.0000     88.2676      0.0000    139.8553    254.2615
  2074.2500     88.2798      0.0000    142.7546    254.2640
  2074.5000     88.2090      0.0000    141.0131    254.2492
  2074.7500     88.0736      0.0000    136.3522    254.2191
  2075.0000     87.9166      0.0000    130.7935    254.1834
  2075.2500     87.7840      0.0000    125.8545    254.1528
  2075.5000     87.7074      0.0000    122.6426    254.1343
  2075.7500     87.6958      0.0000    122.1898    254.1315
  2076.0000     87.7382      0.0000    125.1576    254.1448
  2076.2500     87.8060      0.0000    131.3886    254.1685
  2076.5000     87.8520      0.0000    139.8437    254.1904
  2076.7500     87.8253      0.0000    148.7578    254.1973
  2077.0000     87.7039      0.0000    156.0811    254.1830
  2077.2500     87.5165      0.0000    160.3389    254.1512
  2077.5000     87.3278      0.0000    161.4445    254.1118
  2077.7500     87.1992      0.0000    160.8699    254.0753
  2078.0000     87.1596      0.0000    160.8743    254.0490
  2078.2500     87.2008      0.0000    163.0001    254.0362
  2078.5000     87.2854      0.0000    167.1327    254.0350
  2078.7500     87.3551      0.0000    172.1137    254.0388
  2079.0000     87.3350      0.0000    176.6661    254.0407
  2079.2500     87.1363      0.0000    179.2578    254.0435
  2079.5000     86.6630      0.0000    178.1689    254.0753
  2079.7500     85.8413      0.0000    172.9672    254.2092
  2080.0000     84.6159      0.0000    165.2422    254.5639
  2080.2500     82.8497      0.0000    156.8728    255.2418
  2080.5000     80.2956      0.0000    148.0455    256.2220
  2080.7500     76.9178      0.0000    137.5297    257.3205
  2081.0000     73.2933      0.0000    124.3598    258.2935
  2081.2500     70.3947      0.0000    108.8445    258.9932
  2081.5000     68.8153      0.0000     92.3702    259.4179
  2081.7500     68.3591      0.0000     76.7998    259.6423
  2082.0000     68.3902      0.0000     64.1689    259.7393
  2082.2500     68.3696      2.0000     56.3684    259.7509
  2082.5000     68.0879      0.0000     54.2452    259.6861
  2082.7500     67.6828      0.0000     56.6577    259.5142
  2083.0000     67.5882      0.0000     60.9000    259.1609
  2083.2500     68.3278      0.0000     64.6768    258.5359
  2083.5000     70.1413      0.0000     67.8214    257.6099
  2083.7500     72.7508      0.0000     71.9951    256.4939
  2084.0000     75.4989      0.0000     78.6936    255.4192
  2084.2500     77.7200      0.0000     87.4857    254.5992
  2084.5000     79.0376      0.0000     96.0040    254.1037
  2084.7500     79.4416      0.0000    101.5647    253.8649
  2085.0000     79.1705      0.0000    102.6610    253.7715
  2085.2500     78.5159      0.0000     99.0734    253.7415
  2085.5000     77.6838      0.0000     91.3297    253.7363
  2085.7500     76.7757      0.0000     80.6775    253.7446
  2086.0000     75.8441      0.0000     69.1454    253.7639
  2086.2500     74.9513      0.0000     58.8366    253.7897
  2086.5000     74.1972      0.0000     51.1237    253.8131
  2086.7500     73.7073      0.0000     46.6536    253.8256
  2087.0000     73.5849      0.0000     45.4228    253.8257
  2087.2500     73.8563      0.0000     46.2591    253.8206
  2087.5000     74.4557      0.0000     46.9436    253.8205
  2087.7500     75.2624      0.0000     45.8124    253.8302
  2088.0000     76.1550      0.0000     43.1760    253.8469
  2088.2500     77.0493      0.0000     40.7572    253.8627
  2088.5000     77.9103      0.0000     39.8045    253.8697
  2088.7500     78.7330      0.0000     39.9285    253.8641
  2089.0000     79.4954      0.0000     39.7242    253.8480
  2089.2500     80.1314      0.0000     38.3753    253.8295
  2089.5000     80.5599      0.0000     36.5131    253.8186
  2089.7500     80.7464      0.0000     35.5485    253.8193
  2090.0000     80.7251      0.0000     36.4716    253.8255
  2090.2500     80.5568      0.0000     39.3968    253.8240
  2090.5000     80.2669      0.0000     43.7692    253.8054
  2090.7500     79.8218      0.0000     48.4966    253.7704
  2091.0000     79.1494      0.0000     52.2543    253.7293
  2091.2500     78.1667      0.0000     54.4073    253.6958
  2091.5000     76.7820      0.0000     55.5195    253.6833
  2091.7500     74.8973      0.0000     56.4448    253.7007
  2092.0000     72.4589      0.0000     57.1411    253.7496
  2092.2500     69.5442      0.0000     56.9445    253.8230
  2092.5000     66.3859      0.0000     55.7491    253.9068
  2092.7500     63.2644      0.0000     54.1614    253.9846
  2093.0000     60.3426      0.0000     52.4491    254.0462
  2093.2500     57.6180      0.0000     50.1357    254.0915
  2093.5000     55.0506      0.0000     47.0175    254.1272
  2093.7500     52.7019      0.0000     44.0071    254.1561
  2094.0000     50.7046      0.0000     42.4821    254.1711
  2094.2500     49.1238      0.0000     43.0442    254.1569
  2094.5000     47.9143      0.0000     45.1397    254.0985
  2094.7500     47.0298      0.0000     47.5399    253.9902
  2095.0000     46.5364      0.0000     49.0469    253.8399
  2095.2500     46.5836      0.0000     49.0401    253.6670
  2095.5000     47.2564      0.0000     47.5949    253.4948
  2095.7500     48.4528      0.0000     45.2054    253.3413
  2096.0000     49.8914      0.0000     42.4142    253.2147
  2096.2500     51.2351      0.0000     39.4824    253.1159
  2096.5000     52.2251      0.0000     36.3256    253.0424
  2096.7500     52.7263      0.0000     33.0430    252.9879
  2097.0000     52.6935      0.0000     30.4819    252.9381
  2097.2500     52.1408      0.0000     29.8450    252.8755
  2097.5000     51.1479      0.0000     31.6145    252.7895
  2097.7500     49.8620      0.0000     35.1367    252.6863
  2098.0000     48.4579      0.0000     39.3236    252.5857
  2098.2500     47.0459      0.0000     43.5853    252.5128
  2098.5000     45.5780      0.0000     48.0486    252.4970
  2098.7500     43.8577      0.0000     53.0240    252.5757
  2099.0000     41.6851      0.0000     58.5413    252.8204
  2099.2500     39.0081      0.0000     64.6450    253.4120
  2099.5000     35.9359      0.0000     71.6975    254.7691
  2099.7500     32.6397      0.0000     79.5660    257.5845
  2100.0000     29.2671      0.0000     86.5176    262.5164
  2100.2500     25.9341      0.0000     89.8241    269.5632
  2100.5000     22.7676      0.0000     87.9582    277.7612
  2100.7500     19.9257      0.0000     81.8941    286.0799
  2101.0000     17.5477      0.0000     74.1227    295.4086
  2101.2500     15.6709      0.0000     66.6946    310.3911
  2101.5000     14.2051      0.0000     60.1467    339.0751
  2101.7500     12.9918      0.0000     53.8747    388.4475
  2102.0000     11.8956      0.0000     47.4500    457.1536
  2102.2500      6.5496      0.0000     56.6971    763.5250
  2102.5000      6.0221      0.0000     51.7503    757.3931
  2102.7500      5.5751      0.0000     48.5550    747.2231
  2103.0000      5.1904      0.0000     46.4853    735.1921
  2103.2500      4.8620      0.0000     45.0106    723.0535
  2103.5000      4.6450      0.0000     44.1428    713.1937
  2103.7500      4.6043      0.0000     44.1806    708.1506
  2104.0000      4.7143      0.0000     45.2316    709.4984
  2104.2500      4.8633      0.0000     47.1668    716.2300
  2104.5000      4.9742      0.0000     49.7732    724.1245
  2104.7500      5.0906      0.0000     52.6301    728.1866
  2105.0000      5.3152      0.0000     54.9993    726.7833
  2105.2500      5.6805      0.0000     56.1614    723.1521
  2105.5000      6.1078      0.0000     55.9947    722.4940
  2105.7500      6.4941      0.0000     55.2277    727.3909
  2106.0000      6.8109      0.0000     54.9055    735.5361
  2106.2500      7.0897      0.0000     55.2930    741.6143
