~Version Information
VERS.                      2.0: CWLS Log ASCII Standard - VERSION 2.0
WRAP.                       NO: One line per depth step
~Well Information Block
STRT.FT               800.0000: 
STOP.FT              1933.5000: 
STEP.FT                 0.2500: 
NULL.                -999.2500: 
COMP.          Pioneer Natural Resources: COMPANY
WELL.            Nova 11-14 Tr: WELL
FLD.           Purgatoire River: FIELD
LOC.           706' FNL & 1109' FWL: LOCATION
PROV.                 Colorado: PROVINCE
CNTY.               Las Animas: COUNTRY
SRVC.                Patterson: SERVICE COMPANY
DATE.          Wed Jul 20 23:28:11 2005: LOG DATE
UWI.           05 071 08434 00: UNIQUE WELL ID
~Curve Information Block
DEPT.FT            0 000 00 00: Depth
SN.Ohm-m                      : IEL Short Normal
SP.mV                         : IEL Spontaneous Potential
DIR.Ohm-m                     : IEL Induction Resistivity
GR.GAPI                       : Gamma Ray
~Parameter Information Block
~A  Depth        SN          SP         DIR          GR     
# ...
   934.0000   2000.0000   2000.0000     15.9174     96.0243
   934.2500   2000.0000   2000.0000     16.4114     92.6313
   934.5000   2000.0000   2000.0000     16.8607     90.0487
   934.7500   2000.0000   2000.0000     17.2133     89.6494
   935.0000   2000.0000   2000.0000     17.4371     90.0318
   935.2500   2000.0000   2000.0000     17.5481     90.6349
   935.5000   2000.0000   2000.0000     17.6015     92.4706
   935.7500   2000.0000   2000.0000     17.6471     94.8766
   936.0000   2000.0000   2000.0000     17.6926    100.7637
   936.2500   2000.0000   2000.0000     17.7074    105.7993
   936.5000   2000.0000   2000.0000     17.6657    113.2607
   936.7500   2000.0000   2000.0000     17.5799    117.0403
   937.0000   2000.0000   2000.0000     17.4869    119.7643
   937.2500   2000.0000   2000.0000     17.4038    119.6177
   937.5000   2000.0000   2000.0000     17.3011    117.3752
   937.7500   2000.0000   2000.0000     17.1208    115.2355
   938.0000   2000.0000   2000.0000     16.8182    111.7754
   938.2500   2000.0000   2000.0000     16.3884    109.2705
   938.5000   2000.0000   2000.0000     15.8607    104.9624
   938.7500   2000.0000   2000.0000     15.2779    101.9472
   939.0000   2000.0000   2000.0000     14.6835     98.5564
   939.2500   2000.0000   2000.0000     14.1175     98.1141
   939.5000   2000.0000   2000.0000     13.6127    101.4616
   939.7500   2000.0000   2000.0000     13.1871    106.3089
   940.0000   2000.0000   2000.0000     12.8410    115.8112
   940.2500   2000.0000   2000.0000     12.5630    122.1432
   940.5000   2000.0000   2000.0000     12.3407    129.5353
   940.7500   2000.0000   2000.0000     12.1689    132.6314
   941.0000   2000.0000   2000.0000     12.0473    135.3896
   941.2500   2000.0000   2000.0000     11.9739    137.1213
   941.5000   2000.0000   2000.0000     11.9396    141.3868
   941.7500   2000.0000   2000.0000     11.9304    145.4672
   942.0000   2000.0000   2000.0000     11.9347    151.4590
   942.2500   2000.0000   2000.0000     11.9509    153.6543
   942.5000   2000.0000   2000.0000     11.9897    152.5804
   942.7500   2000.0000   2000.0000     12.0680    149.2809
   943.0000   2000.0000   2000.0000     12.2016    142.4056
   943.2500   2000.0000   2000.0000     12.4003    137.7201
   943.5000   2000.0000   2000.0000     12.6692    132.0864
   943.7500   2000.0000   2000.0000     13.0107    129.9798
   944.0000   2000.0000   2000.0000     13.4237    130.0163
   944.2500   2000.0000   2000.0000     13.9008    131.8905
   944.5000   2000.0000   2000.0000     14.4245    135.7354
   944.7500   2000.0000   2000.0000     14.9705    137.9318
   945.0000   2000.0000   2000.0000     15.5137    140.0847
   945.2500   2000.0000   2000.0000     16.0396    141.0608
   945.5000   2000.0000   2000.0000     16.5527    142.4122
   945.7500   2000.0000   2000.0000     17.0761    143.2437
   946.0000   2000.0000   2000.0000     17.6401    143.8698
   946.2500   2000.0000   2000.0000     18.2650    143.3893
   946.5000   2000.0000   2000.0000     18.9489    140.4574
   946.7500   2000.0000   2000.0000     19.6641    136.7497
   947.0000   2000.0000   2000.0000     20.3622    128.8056
   947.2500   2000.0000   2000.0000     20.9852    122.3850
   947.5000   2000.0000   2000.0000     21.4806    111.8670
   947.7500   2000.0000   2000.0000     21.8181    104.6347
   948.0000   2000.0000   2000.0000     21.9980     94.2651
   948.2500   2000.0000   2000.0000     22.0411     88.3628
   948.5000   2000.0000   2000.0000     21.9645     82.3059
   948.7500   2000.0000   2000.0000     21.7689     80.6988
   949.0000   2000.0000   2000.0000     21.4600     82.3794
   949.2500   2000.0000   2000.0000     21.0854     86.0910
   949.5000   2000.0000   2000.0000     20.7416     94.4827
   949.7500   2000.0000   2000.0000     20.5314    101.0303
   950.0000   2000.0000   2000.0000     20.5028    110.9400
   950.2500   2000.0000   2000.0000     20.6087    117.2506
   950.5000   2000.0000   2000.0000     20.7123    126.1542
   950.7500   2000.0000   2000.0000     20.6487    131.6382
   951.0000   2000.0000   2000.0000     20.3218    138.5492
   951.2500   2000.0000   2000.0000     19.7616    141.4915
   951.5000   2000.0000   2000.0000     19.0884    142.0343
   951.7500   2000.0000   2000.0000     18.4245    139.8783
   952.0000   2000.0000   2000.0000     17.8376    135.3090
   952.2500   2000.0000   2000.0000     17.3423    133.3987
   952.5000   2000.0000   2000.0000     16.9331    134.1927
   952.7500   2000.0000   2000.0000     16.6126    136.7190
   953.0000   2000.0000   2000.0000     16.3928    140.9806
   953.2500   2000.0000   2000.0000     16.2769    142.7685
   953.5000   2000.0000   2000.0000     16.2445    143.1091
   953.7500   2000.0000   2000.0000     16.2569    142.1581
   954.0000   2000.0000   2000.0000     16.2786    139.9678
   954.2500   2000.0000   2000.0000     16.2977    138.3468
   954.5000   2000.0000   2000.0000     16.3271    135.6272
   954.7500   2000.0000   2000.0000     16.3900    133.3143
   955.0000   2000.0000   2000.0000     16.5034    128.8184
   955.2500   2000.0000   2000.0000     16.6708    125.4962
   955.5000   2000.0000   2000.0000     16.8852    121.3290
   955.7500   2000.0000   2000.0000     17.1354    119.8171
   956.0000   2000.0000   2000.0000     17.4100    120.1229
   956.2500   2000.0000   2000.0000     17.7006    122.0498
   956.5000   2000.0000   2000.0000     18.0013    126.8379
   956.7500   2000.0000   2000.0000     18.3052    130.5317
   957.0000   2000.0000   2000.0000     18.5970    135.1012
   957.2500   2000.0000   2000.0000     18.8506    136.3984
   957.5000   2000.0000   2000.0000     19.0426    134.1318
   957.7500   2000.0000   2000.0000     19.1783    129.5085
   958.0000   2000.0000   2000.0000     19.3034    119.2609
   958.2500   2000.0000   2000.0000     19.4808    112.0507
   958.5000   2000.0000   2000.0000     19.7471    104.1211
   958.7500   2000.0000   2000.0000     20.0824    102.0391
   959.0000   2000.0000   2000.0000     20.4186    103.9443
   959.2500   2000.0000   2000.0000     20.6803    107.6934
   959.5000   2000.0000   2000.0000     20.8244    114.4641
   959.7500   2000.0000   2000.0000     20.8439    118.0583
   960.0000   2000.0000   2000.0000     20.7393    120.0531
   960.2500   2000.0000   2000.0000     20.4990    119.1729
   960.5000   2000.0000   2000.0000     20.1100    117.1363
   960.7500   2000.0000   2000.0000     19.5833    117.4756
   961.0000   2000.0000   2000.0000     18.9602    122.7478
   961.2500   2000.0000   2000.0000     18.2942    128.9361
   961.5000   2000.0000   2000.0000     17.6262    139.0142
   961.7500   2000.0000   2000.0000     16.9760    144.3156
   962.0000   2000.0000   2000.0000     16.3492    148.6720
   962.2500   2000.0000   2000.0000     15.7515    149.4846
   962.5000   2000.0000   2000.0000     15.1965    148.9311
   962.7500   2000.0000   2000.0000     14.6994    148.2095
   963.0000   2000.0000   2000.0000     14.2646    147.9923
   963.2500   2000.0000   2000.0000     13.8769    149.0971
   963.5000   2000.0000   2000.0000     13.5071    152.7490
   963.7500   2000.0000   2000.0000     13.1274    155.8301
   964.0000   2000.0000   2000.0000     12.7282    159.8655
   964.2500   2000.0000   2000.0000     12.3210    161.7375
   964.5000   2000.0000   2000.0000     11.9283    163.7592
   964.7500   2000.0000   2000.0000     11.5692    165.0314
   965.0000   2000.0000   2000.0000     11.2544    166.7236
   965.2500   2000.0000   2000.0000     10.9896    167.0566
   965.5000   2000.0000   2000.0000     10.7797    165.4043
   965.7500   2000.0000   2000.0000     10.6288    163.1403
   966.0000   2000.0000   2000.0000     10.5362    159.9097
   966.2500   2000.0000   2000.0000     10.4938    158.9657
   966.5000   2000.0000   2000.0000     10.4883    159.5127
   966.7500   2000.0000   2000.0000     10.5082    160.1714
   967.0000   2000.0000   2000.0000     10.5483    159.5621
   967.2500   2000.0000   2000.0000     10.6101    157.6687
