~Version Information
VERS.                      2.0: CWLS Log ASCII Standard - VERSION 2.0
WRAP.                       NO: One line per depth step
~Well Information Block
STRT.FT                -3.5000: 
STOP.FT              1745.0000: 
STEP.FT                 0.2500: 
NULL.                -999.2500: 
COMP.          Pioneer Natural Resources: COMPANY
WELL.           Labrador 34-30: WELL
FLD.           Purgatorie River: FIELD
LOC.           926' FSL & 2080' FEL--: LOCATION
PROV.                       CO: PROVINCE
CNTY.               Las Animas: COUNTRY
SRVC.                         : SERVICE COMPANY
DATE.          Fri Dec 10 09:58:23 2004: LOG DATE
UWI.                071-08202 : UNIQUE WELL ID
~Curve Information Block
DEPT.FT            0 000 00 00: Depth
GR.GAPI                       : Gamma Ray
CCL.                          : Casing Collar Locator
TT3.usec                      : CBL 3' Travel Time
AMP3.mV                       : CBL 3' Amplitude
~Parameter Information Block
~A  Depth        GR         CCL         TT3         AMP3    
# ...
  1035.0000    157.3321      0.0000    763.2981      7.8762
  1035.2500    155.6261     -2.0000    760.8770      7.9661
  1035.5000    154.3712     -2.0000    756.8831      8.0925
  1035.7500    155.8463      0.0000    753.6252      8.2916
  1036.0000    159.4699      0.0000    754.0657      8.6175
  1036.2500    161.7196      0.0000    759.5179      9.0945
  1036.5000    159.3008      0.0000    768.5568      9.6446
  1036.7500    152.6880      0.0000    777.3055     10.0974
  1037.0000    146.2135      0.0000    781.3040     10.3196
  1037.2500    144.3055      0.0000    778.6476     10.3227
  1037.5000    147.7355      0.0000    771.5272     10.2239
  1037.7500    153.4711      0.0000    764.0684     10.1355
  1038.0000    157.5906      0.0000    758.9564     10.1136
  1038.2500    157.9594      0.0000    756.4210     10.1678
  1038.5000    154.5493      0.0000    755.4838     10.2791
  1038.7500    148.1415      0.0000    755.2501     10.4158
  1039.0000    139.4872      0.0000    755.2658     10.5525
  1039.2500    129.6911      0.0000    755.3611     10.6874
  1039.5000    120.8723      0.0000    755.4852     10.8389
  1039.7500    115.9402      0.0000    755.6171     11.0248
  1040.0000    117.2762      0.0000    755.7422     11.2418
  1040.2500    124.9725      0.0000    755.8437     11.4636
  1040.5000    136.1926      0.0000    755.9193     11.6496
  1040.7500    147.0007      0.0000    755.9945     11.7598
  1041.0000    155.3049      0.0000    756.1057     11.7792
  1041.2500    161.7259      0.0000    756.2634     11.7346
  1041.5000    167.7380      0.0000    756.4375     11.6830
  1041.7500    173.8420      0.0000    756.5816     11.6783
  1042.0000    179.7723      0.0000    756.6666     11.7461
  1042.2500    185.6251      0.0000    756.6873     11.8752
  1042.5000    191.8795      0.0000    756.6542     12.0237
  1042.7500    198.2715      0.0000    756.5927     12.1438
  1043.0000    203.0933      0.0000    756.5382     12.2061
  1043.2500    203.8017      0.0000    756.5103     12.1994
  1043.5000    198.6199      0.0000    756.4794     12.1134
  1043.7500    188.1999      0.0000    756.3448     11.9349
  1044.0000    176.0831      0.0000    755.9174     11.6678
  1044.2500    167.1090      0.0000    754.8981     11.3490
  1044.5000    164.5274      0.0000    752.9528     11.0423
  1044.7500    167.9825      0.0000    750.0292     10.8129
  1045.0000    174.1338      0.0000    746.6538     10.7012
  1045.2500    179.2580      0.0000    743.5995     10.7086
  1045.5000    181.3371      0.0000    741.0425     10.8007
  1045.7500    180.1599      0.0000    738.2734     10.9235
  1046.0000    176.3295      0.0000    734.5179     11.0256
  1046.2500    170.6752      0.0000    730.0294     11.0732
  1046.5000    163.9904      0.0000    726.3886     11.0529
  1046.7500    156.6334      0.0000    725.6165     10.9654
  1047.0000    148.5840      0.0000    728.6476     10.8211
  1047.2500    140.1605      0.0000    734.5665     10.6428
  1047.5000    132.4054      0.0000    741.2917     10.4653
  1047.7500    126.5900      0.0000    746.8185     10.3290
  1048.0000    123.4092      0.0000    749.9617     10.2732
  1048.2500    122.5143      0.0000    750.4916     10.3263
  1048.5000    122.5738      0.0000    749.0737     10.4862
  1048.7500    121.9970      0.0000    747.0867     10.7088
  1049.0000    120.1950      0.0000    745.9261     10.9261
  1049.2500    118.1648      0.0000    745.6634     11.0877
  1049.5000    117.3024      0.0000    744.0374     11.1872
  1049.7500    117.5222      0.0000    736.6094     11.2520
  1050.0000    117.0774      0.0000    718.0043     11.3122
  1050.2500    114.4079      0.0000    684.5044     11.3811
  1050.5000    109.7139      0.0000    638.3498     11.4600
  1050.7500    104.5200      0.0000    591.0545     11.5516
  1051.0000    100.2384      0.0000    560.5079     11.6605
  1051.2500     97.5616      0.0000    560.9486     11.7782
  1051.5000     96.9503      0.0000    592.6671     11.8767
  1051.7500     99.1293      0.0000    640.2824     11.9232
  1052.0000    104.6941      0.0000    681.3420     11.9014
  1052.2500    112.9241      0.0000    698.2271     11.8215
  1052.5000    121.1955      0.0000    685.5605     11.7146
  1052.7500    126.4159      0.0000    651.9930     11.6159
  1053.0000    127.5696      0.0000    617.2974     11.5437
  1053.2500    126.5909      0.0000    602.8810     11.4915
  1053.5000    126.5039      0.0000    618.4457     11.4388
  1053.7500    128.9599      0.0000    655.8596     11.3707
  1054.0000    133.6932      0.0000    697.0734     11.2927
  1054.2500    139.5937      0.0000    727.9954     11.2309
  1054.5000    145.4059      0.0000    745.1546     11.2118
  1054.7500    149.4823      0.0000    752.4084     11.2381
  1055.0000    149.8292      0.0000    754.8008     11.2846
  1055.2500    145.0298      0.0000    755.4800     11.3198
  1055.5000    135.1118      0.0000    755.7186     11.3250
  1055.7500    121.5509      0.0000    755.8519     11.2934
  1056.0000    106.7495      0.0000    755.9423     11.2255
  1056.2500     93.4484      0.0000    756.1419     11.1317
  1056.5000     84.0018      0.0000    756.8331     11.0354
  1056.7500     79.4227      0.0000    758.4876     10.9631
  1057.0000     78.7505      0.0000    761.1650     10.9265
  1057.2500     79.7356      0.0000    764.1391     10.9129
  1057.5000     80.7977      0.0000    766.4753     10.8960
  1057.7500     82.4548      0.0000    768.3464     10.8590
  1058.0000     86.5148      0.0000    771.3497     10.8051
  1058.2500     93.7098      0.0000    776.8942     10.7430
  1058.5000    102.5030      0.0000    784.4664     10.6676
  1058.7500    110.4009      0.0000    791.9898     10.5620
  1059.0000    115.9548      0.0000    797.7888     10.4163
  1059.2500    118.9956      0.0000    801.9651     10.2382
  1059.5000    119.4223      0.0000    806.2924     10.0478
  1059.7500    116.8251      0.0000    813.1220      9.8672
  1060.0000    111.8016      0.0000    823.3997      9.7120
  1060.2500    106.9644      0.0000    834.3238      9.5889
  1060.5000    105.5780      0.0000    839.4581      9.5040
  1060.7500    108.7503      0.0000    833.3578      9.4764
  1061.0000    114.2274      0.0000    816.9355      9.5345
  1061.2500    118.1337      0.0000    797.1323      9.6911
  1061.5000    117.9049      0.0000    781.0922      9.9254
  1061.7500    113.9597      0.0000    771.5753     10.1957
  1062.0000    109.2163      0.0000    767.3737     10.4673
  1062.2500    107.1789      0.0000    766.1131     10.7278
  1062.5000    110.1028      0.0000    765.9794     10.9871
  1062.7500    118.2904      0.0000    765.9238     11.2742
  1063.0000    130.3551      0.0000    765.4372     11.6227
  1063.2500    143.7534      0.0000    764.4150     12.0420
  1063.5000    155.6419      0.0000    763.0191     12.4998
  1063.7500    164.1280      0.0000    761.5007     12.9387
  1064.0000    169.1567      0.0000    760.0890     13.3110
  1064.2500    172.2716      0.0000    758.9726     13.5852
  1064.5000    175.3846      0.0000    758.3029     13.7253
  1064.7500    179.3161      0.0000    758.3411     13.6853
  1065.0000    183.2079      0.0000    759.8090     13.4386
  1065.2500    185.2239      0.0000    764.1279     13.0142
  1065.5000    183.8026      0.0000    772.6693     12.5005
  1065.7500    178.6335      0.0000    784.7397     12.0014
  1066.0000    171.1669      0.0000    796.2781     11.5771
  1066.2500    164.2368      0.0000    802.0859     11.2176
  1066.5000    160.2569      0.0000    800.3267     10.8713
  1066.7500    158.9737      0.0000    793.8320     10.4930
  1067.0000    157.2802      0.0000    786.6356     10.0678
  1067.2500    151.8466      0.0000    781.0229      9.6016
  1067.5000    142.0513      0.0000    778.7701      9.1040
  1067.7500    130.2560      0.0000    783.1656      8.5845
  1068.0000    119.6905      0.0000    797.3686      8.0601
  1068.2500    112.6116      0.0000    820.1270      7.5572
