~Version Information
VERS.                      2.0: CWLS Log ASCII Standard - VERSION 2.0
WRAP.                       NO: One line per depth step
~Well Information Block
STRT.FT               520.0000: 
STOP.FT              2183.5000: 
STEP.FT                 0.1000: 
NULL.                -999.2500: 
COMP.          Pioneer Natural Resources: COMPANY
WELL.             Enzo 43-8 Tr: WELL
FLD.           Purgatoire River: FIELD
LOC.           2303' FSL & 604' FEL: LOCATION
PROV.                 Colorado: PROVINCE
CNTY.               Las Animas: COUNTRY
SRVC.                Patterson: SERVICE COMPANY
DATE.          Sun Oct 31 15:10:54 2004: LOG DATE
UWI.           05 071 08213 00: UNIQUE WELL ID
~Curve Information Block
DEPT.FT            0 000 00 00: Depth
DCAL.in                       : CDL Caliper
RHOB.g/cc                     : CDL Bulk Density
RHOC.g/cc                     : CDL Density Correction
DPOR.pu                       : CDL Density Porosity
NPOR.pu                       : Neutron Porosity
GR.GAPI                       : Gamma Ray
~Parameter Information Block
~A  Depth       DCAL        RHOB        RHOC        DPOR        NPOR         GR     
# ...
  1931.2000      8.1914      2.5193      0.2848      7.9218     23.9413    156.5126
  1931.3000      8.2594      2.5424      0.3283      6.5236     24.3099    156.4357
  1931.4000      8.2594      2.5066      0.2209      8.6928     24.1778    156.9624
  1931.5000      8.2900      2.4423      0.1728     12.5896     24.1468    155.8730
  1931.6000      8.2900      2.3878      0.1799     15.8934     24.2575    153.1645
  1931.7000      8.2900      2.3495      0.1919     18.2091     23.9794    150.3440
  1931.8000      8.2981      2.3205      0.1607     19.9706     23.4605    149.9094
  1931.9000      8.2981      2.2987      0.0584     21.2903     23.0820    153.8402
  1932.0000      8.3663      2.2736      0.1090     22.8125     22.7162    160.2472
  1932.1000      8.3663      2.2219      0.1229     25.9478     22.2839    164.5967
  1932.2000      8.3663      2.1510      0.0995     30.2400     21.8761    164.5270
  1932.3000      8.5009      2.0998      0.2475     33.3428     21.3032    160.8725
  1932.4000      8.5009      2.0702      0.4094     35.1409     20.4685    156.7634
  1932.5000      8.6434      2.0187      0.3775     38.2586     19.6918    154.9043
  1932.6000      8.6434      1.9347      0.3235     43.3541     19.4673    156.4420
  1932.7000      8.6434      1.8696      0.3068     47.2945     19.9964    160.3645
  1932.8000      8.7366      1.8760      0.3827     46.9116     20.9006    163.6078
  1932.9000      8.7366      1.9575      0.4594     41.9694     21.6920    166.5889
  1933.0000      8.7657      2.1016      0.5081     33.2394     22.2677    171.6329
  1933.1000      8.7657      2.2930      0.6555     21.6368     22.9282    175.2644
  1933.2000      8.7657      2.4819      0.7165     10.1872     23.8550    172.5689
  1933.3000      8.6664      2.6126      0.6577      2.2672     24.7949    161.7417
  1933.4000      8.6664      2.6778      0.6130     -1.6865     25.5705    148.0718
  1933.5000      8.4425      2.6983      0.5877     -2.9280     26.0359    143.3178
  1933.6000      8.4425      2.6822      0.5037     -1.9524     26.2192    150.4682
  1933.7000      8.4425      2.6418      0.2819      0.4969     26.5948    159.1130
  1933.8000      8.2518      2.6118      0.1890      2.3171     27.2644    160.8276
  1933.9000      8.2518      2.6147      0.2111      2.1366     27.7323    159.9439
  1934.0000      8.1663      2.6522      0.1323     -0.1321     27.8110    160.2819
  1934.1000      8.1663      2.7215      0.1297     -4.3309     27.7154    155.6769
  1934.2000      8.1663      2.8016      0.1795     -9.1886     27.6417    143.5982
  1934.3000      8.1189      2.8635      0.1493    -12.9388     27.7223    130.4251
  1934.4000      8.1189      2.8953      0.1507    -14.8677     28.1134    120.7449
  1934.5000      8.0712      2.8955      0.1073    -14.8797     28.8019    113.9573
  1934.6000      8.0712      2.8755      0.0353    -13.6660     29.5890    108.1403
  1934.7000      8.0712      2.8613     -0.0630    -12.8042     30.4728    104.4403
  1934.8000      8.0491      2.8560     -0.0298    -12.4861     31.3802    105.2422
  1934.9000      8.0491      2.8308     -0.0500    -10.9596     31.8037    109.3812
  1935.0000      8.0685      2.7880     -0.1602     -8.3633     31.5862    114.7985
  1935.1000      8.0685      2.7658     -0.0958     -7.0156     31.1845    120.5881
  1935.2000      8.0685      2.7582     -0.0333     -6.5606     30.7075    126.6293
  1935.3000      8.1153      2.7243     -0.0582     -4.5029     29.9207    132.5726
  1935.4000      8.1153      2.6700     -0.1039     -1.2150     28.9983    137.3969
  1935.5000      8.1505      2.6370     -0.0492      0.7904     28.5086    139.9485
  1935.6000      8.1505      2.6352     -0.0088      0.8999     28.5917    139.8128
  1935.7000      8.1505      2.6509     -0.0230     -0.0566     28.7083    138.7064
  1935.8000      8.1621      2.6675      0.0704     -1.0629     28.7968    135.8452
  1935.9000      8.1621      2.6668      0.0373     -1.0161     29.1557    131.7331
  1936.0000      8.1638      2.6492      0.0348      0.0507     29.5738    130.1330
  1936.1000      8.1638      2.6309      0.0128      1.1580     29.9606    131.8753
  1936.2000      8.1638      2.6283     -0.0145      1.3131     30.3004    134.0321
  1936.3000      8.1671      2.6471      0.0354      0.1776     30.3467    131.8764
  1936.4000      8.1671      2.6708      0.0294     -1.2585     30.0633    125.1170
  1936.5000      8.1811      2.6765      0.0521     -1.6073     29.4611    122.0359
  1936.6000      8.1811      2.6620      0.0409     -0.7282     28.5488    128.6144
  1936.7000      8.1811      2.6425      0.0015      0.4544     27.6374    138.7256
  1936.8000      8.2017      2.6326      0.0044      1.0575     26.9318    146.6736
  1936.9000      8.2017      2.6332      0.0415      1.0174     26.4295    152.4395
  1937.0000      8.2127      2.6289      0.1079      1.2802     26.4638    153.8330
  1937.1000      8.2127      2.6089     -0.0134      2.4885     27.0401    150.2704
  1937.2000      8.2127      2.5829      0.0230      4.0675     27.2926    148.4334
  1937.3000      8.2146      2.5551     -0.0086      5.7487     26.8788    154.9605
  1937.4000      8.2146      2.5315     -0.0199      7.1800     26.3232    165.8922
  1937.5000      8.2156      2.5301     -0.0517      7.2650     25.9265    169.3523
  1937.6000      8.2156      2.5475      0.0072      6.2128     25.5009    161.6665
  1937.7000      8.2156      2.5578      0.0249      5.5874     24.9979    152.6974
  1937.8000      8.2170      2.5555      0.0325      5.7285     24.6981    149.4734
  1937.9000      8.2170      2.5509      0.0712      6.0044     24.5977    147.7059
  1938.0000      8.2169      2.5476      0.0504      6.2054     24.3742    143.6982
  1938.1000      8.2169      2.5448      0.0757      6.3762     23.9267    142.7385
  1938.2000      8.2169      2.5329      0.0806      7.0960     23.5156    149.4303
  1938.3000      8.2171      2.5060      0.0538      8.7250     23.2360    160.2349
  1938.4000      8.2171      2.4751      0.0218     10.6016     22.9505    166.0789
  1938.5000      8.2194      2.4539      0.0443     11.8819     22.7762    163.6932
  1938.6000      8.2194      2.4538      0.0533     11.8929     22.8143    162.4473
  1938.7000      8.2194      2.4743      0.1215     10.6504     22.7677    164.6690
  1938.8000      8.2234      2.4969      0.1492      9.2816     22.4705    160.7807
  1938.9000      8.2234      2.5097      0.1012      8.5006     22.1332    152.3143
  1939.0000      8.2235      2.5200      0.1051      7.8769     22.1199    149.0010
  1939.1000      8.2235      2.5350      0.1069      6.9692     22.6573    149.3342
  1939.2000      8.2235      2.5554      0.1555      5.7352     23.3369    146.2392
  1939.3000      8.1879      2.5807      0.1657      4.2017     23.6936    139.1153
  1939.4000      8.1879      2.6058      0.1650      2.6766     23.8243    132.1418
  1939.5000      8.1068      2.6188      0.1704      1.8917     23.6939    127.7627
  1939.6000      8.1068      2.6121      0.1412      2.2989     23.2637    123.8473
  1939.7000      8.1068      2.5962      0.0548      3.2577     22.8818    118.8082
  1939.8000      8.0484      2.5962     -0.0158      3.2589     22.6916    112.3131
  1939.9000      8.0484      2.6213      0.0220      1.7377     22.4987    104.2525
  1940.0000      8.0312      2.6522      0.0613     -0.1313     22.1851     95.2656
  1940.1000      8.0312      2.6630      0.0436     -0.7884     21.9893     86.6672
  1940.2000      8.0312      2.6417      0.0542      0.5027     22.0468     81.6291
  1940.3000      8.0282      2.5984     -0.0216      3.1298     22.1344     80.7072
  1940.4000      8.0282      2.5629     -0.0407      5.2800     22.2147     80.7849
  1940.5000      8.0274      2.5555     -0.0301      5.7259     22.5027     81.2007
  1940.6000      8.0274      2.5707     -0.0119      4.8051     23.0386     82.8597
  1940.7000      8.0274      2.5926     -0.0199      3.4770     23.3923     83.0309
