~Version Information
VERS.                      2.0: CWLS Log ASCII Standard - VERSION 2.0
WRAP.                       NO: One line per depth step
~Well Information Block
STRT.FT                -6.5000: 
STOP.FT              2698.5000: 
STEP.FT                 0.2500: 
NULL.                -999.2500: 
COMP.          Pioneer Natural Resources: COMPANY
WELL.              Cluck 21-25: WELL
FLD.           Purgatorie River: FIELD
LOC.           91' FNL & 1834' FWL--: LOCATION
PROV.                       CO: PROVINCE
CNTY.               Las Animas: COUNTRY
SRVC.          Patterson Wireline: SERVICE COMPANY
DATE.          Mon Jun 13 14:54:35 2005: LOG DATE
UWI.           05 071 08397 00: UNIQUE WELL ID
~Curve Information Block
DEPT.FT            0 000 00 00: Depth
CCL.                          : Casing Collar Locator
TT3.usec                      : CBL 3' Travel Time
AMP3.mV                       : CBL 3' Amplitude
GR.GAPI                       : Gamma Ray
~Parameter Information Block
~A  Depth       CCL         TT3         AMP3         GR     
# ...
  2673.5000      0.0000    305.5878     35.7128     88.9238
  2673.7500      0.0000    305.6306     36.2012     88.0757
  2674.0000      0.0000    305.7078     36.0945     87.2600
  2674.2500      0.0000    305.8075     35.5953     86.8981
  2674.5000      0.0000    305.9140     34.9691     87.4967
  2674.7500      0.0000    306.0099     34.3845     88.7255
  2675.0000      0.0000    306.0800     33.8881     89.4732
  2675.2500      0.0000    306.1096     33.5217     88.9873
  2675.5000      0.0000    306.0513     33.4389     87.4333
  2675.7500      0.0000    305.7360     33.8864     85.4303
  2676.0000      0.0000    304.7397     35.0443     83.6650
  2676.2500      0.0000    302.3551     36.8461     82.9636
  2676.5000      0.0000    297.9560     38.9392     84.0179
  2676.7500      0.0000    291.7718     40.8387     86.5825
  2677.0000      0.0000    285.4139     42.1581     89.2486
  2677.2500      0.0000    281.3347     42.7511     90.5364
  2677.5000      0.0000    281.3599     42.7003     90.1882
  2677.7500      0.0000    285.4611     42.2022     89.0413
  2678.0000      0.0000    291.7876     41.4461     87.8131
  2678.2500      0.0000    297.9144     40.5651     86.4898
  2678.5000      0.0000    302.2665     39.6565     84.8298
  2678.7500      0.0000    304.6196     38.8085     82.8659
  2679.0000      0.0000    305.5823     38.0826     80.7329
  2679.2500      0.0000    305.8584     37.4609     78.5930
  2679.5000      0.0000    305.8995     36.8113     77.0396
  2679.7500      0.0000    305.9192     35.9430     76.9653
  2680.0000      0.0000    305.9959     34.7511     78.6272
  2680.2500      0.0000    306.1395     33.3262     81.2430
  2680.5000      0.0000    306.3292     31.9051     83.7007
  2680.7500      0.0000    306.5424     30.7095     85.3190
  2681.0000      0.0000    306.7733     29.8417     85.9472
  2681.2500      0.0000    307.0229     29.3049     85.9178
  2681.5000      0.0000    307.2773     29.0622     86.0990
  2681.7500      0.0000    307.5010     29.0443     87.3963
  2682.0000      0.0000    307.6543     29.1485     89.7993
  2682.2500      0.0000    307.7158     29.2786     92.3570
  2682.5000      0.0000    307.6904     29.3907     94.4258
  2682.7500      0.0000    307.6005     29.4853     96.3129
  2683.0000      0.0000    307.4725     29.5684     98.1977
  2683.2500      0.0000    307.3301     29.6400     99.0942
  2683.5000      0.0000    307.1928     29.7153     97.7312
  2683.7500      0.0000    307.0714     29.8301     94.1962
  2684.0000      0.0000    306.9608     30.0017     89.9121
  2684.2500      0.0000    306.8486     30.1926     85.7098
  2684.5000      0.0000    306.7323     30.3448     80.2338
  2684.7500      0.0000    306.6239     30.4367     70.7553
  2685.0000      0.0000    306.5342     30.4608     56.0098
  2685.2500      0.0000    306.4643     30.3561     38.2027
  2685.5000      0.0000    306.4180     30.0429     21.7882
  2685.7500      0.0000    306.4112     29.5483     10.1756
  2686.0000      0.0000    306.4570     29.0334      3.8357
  2686.2500      0.0000    306.5477     28.6435      1.1551
  2686.5000      0.0000    306.6628     28.3690      0.2757
  2686.7500      0.0000    306.7956     28.0926      0.0513
  2687.0000      0.0000    306.9577     27.7260      0.0070
  2687.2500      0.0000    307.1541     27.2328   -999.2500
  2687.5000      0.0000    307.3938     26.5415   -999.2500
  2687.7500      0.0000    307.7495     25.5380   -999.2500
  2688.0000      0.0000    308.6639     24.1851   -999.2500
  2688.2500      0.0000    311.5293     22.6096   -999.2500
  2688.5000      0.0000    319.5248     21.0414   -999.2500
  2688.7500      0.0000    337.5582     19.6861   -999.2500
  2689.0000      0.0000    369.9356     18.6506   -999.2500
  2689.2500      0.0000    416.3029     17.9219   -999.2500
  2689.5000      0.0000    468.9547     17.3483   -999.2500
  2689.7500      0.0000    512.5303     16.6298   -999.2500
  2690.0000      0.0000    525.5378     15.3778   -999.2500
  2690.2500      0.0000    487.7527     13.2920   -999.2500
  2690.5000      0.0000    395.6320     10.4145   -999.2500
  2690.7500      0.0000    272.2214      7.2428   -999.2500
  2691.0000      0.0000    155.2966      4.4835   -999.2500
  2691.2500      0.0000     72.2425      2.6006   -999.2500
  2691.5000      0.0000     27.0785      1.5960   -999.2500
  2691.7500      0.0000      8.1041      1.1778   -999.2500
  2692.0000      0.0000      1.9245      1.0421   -999.2500
  2692.2500      0.0000      0.3562      1.0078   -999.2500
  2692.5000      0.0000   -999.2500   -999.2500   -999.2500
  2692.7500      0.0000   -999.2500   -999.2500   -999.2500
  2693.0000      0.0000   -999.2500   -999.2500   -999.2500
  2693.2500      0.0000   -999.2500   -999.2500   -999.2500
  2693.5000      0.0000   -999.2500   -999.2500   -999.2500
  2693.7500      0.0000   -999.2500   -999.2500   -999.2500
  2694.0000      0.0000   -999.2500   -999.2500   -999.2500
  2694.2500      0.0000   -999.2500   -999.2500   -999.2500
  2694.5000      0.0000   -999.2500   -999.2500   -999.2500
  2694.7500      0.0000   -999.2500   -999.2500   -999.2500
  2695.0000      0.0000   -999.2500   -999.2500   -999.2500
  2695.2500      0.0000   -999.2500   -999.2500   -999.2500
  2695.5000      0.0000   -999.2500   -999.2500   -999.2500
  2695.7500      0.0000   -999.2500   -999.2500   -999.2500
  2696.0000      0.0000   -999.2500   -999.2500   -999.2500
  2696.2500      0.0000   -999.2500   -999.2500   -999.2500
  2696.5000      0.0000   -999.2500   -999.2500   -999.2500
  2696.7500      0.0000   -999.2500   -999.2500   -999.2500
  2697.0000      0.0000   -999.2500   -999.2500   -999.2500
  2697.2500      0.0000   -999.2500   -999.2500   -999.2500
  2697.5000      0.0000   -999.2500   -999.2500   -999.2500
  2697.7500      0.0000   -999.2500   -999.2500   -999.2500
  2698.0000      0.0000   -999.2500   -999.2500   -999.2500
  2698.2500   -999.2500   -999.2500   -999.2500   -999.2500
  2698.5000   -999.2500   -999.2500   -999.2500   -999.2500
