~Version Information
VERS.                      2.0: CWLS Log ASCII Standard - VERSION 2.0
WRAP.                       NO: One line per depth step
~Well Information Block
STRT.FT               491.0000: 
STOP.FT              1056.0000: 
STEP.FT                 0.2500: 
NULL.                -999.2500: 
COMP.          Evergreen Operating Corporation: COMPANY
WELL.              Sunset 24-3: WELL
FLD.           Purgatorie River: FIELD
LOC.           467' FSL & 2262' FWL: LOCATION
PROV.                 Colorado: PROVINCE
CNTY.               Las Animas: COUNTRY
SRVC.                         : SERVICE COMPANY
DATE.          Wed Sep 22 11:23:45 2004: LOG DATE
UWI.           05 071 08158 00: UNIQUE WELL ID
~Curve Information Block
DEPT.FT            0 000 00 00: Depth
SN.Ohm-m                      : IEL Short Normal
SP.mV                         : IEL Spontaneous Potential
DIR.Ohm-m                     : IEL Induction Resistivity
GR.GAPI                       : Gamma Ray
~Parameter Information Block
~A  Depth        SN          SP         DIR          GR     
# ...
  1027.0000     19.0803     17.8915     17.3602    123.5073
  1027.2500     18.9865     18.1355     17.3284    126.1447
  1027.5000     18.8786     18.3420     17.2713    129.9851
  1027.7500     18.7629     18.5013     17.1607    131.9757
  1028.0000     18.6510     18.6073     16.9845    133.3761
  1028.2500     18.5496     18.6580     16.7521    132.9312
  1028.5000     18.4535     18.6561     16.4870    130.4118
  1028.7500     18.3459     18.6077     16.2127    128.1936
  1029.0000     18.2063     18.5221     15.9435    125.4503
  1029.2500     18.0204     18.4106     15.6841    124.4196
  1029.5000     17.7851     18.2850     15.4344    124.0231
  1029.7500     17.5070     18.1570     15.1943    124.3606
  1030.0000     17.1985     18.0371     14.9675    125.4725
  1030.2500     16.8736     17.9336     14.7601    126.3477
  1030.5000     16.5472     17.8526     14.5763    127.3292
  1030.7500     16.2351     17.7973     14.4141    127.5598
  1031.0000     15.9530     17.7674     14.2647    127.1661
  1031.2500     15.7130     17.7601     14.1172    126.5501
  1031.5000     15.5203     17.7699     13.9641    125.9026
  1031.7500     15.3735     17.7899     13.8047    126.2255
  1032.0000     15.2677     17.8131     13.6441    127.9572
  1032.2500     15.1998     17.8338     13.4904    129.2578
  1032.5000     15.1679     17.8490     13.3524    129.7271
  1032.7500     15.1670     17.8593     13.2372    128.5486
  1033.0000     15.1838     17.8688     13.1489    125.4709
  1033.2500     15.1960     17.8849     13.0870    123.7413
  1033.5000     15.1808     17.9164     13.0455    122.7752
  1033.7500     15.1241     17.9719     13.0150    122.7755
  1034.0000     15.0255     18.0584     12.9854    122.2477
  1034.2500     14.8948     18.1791     12.9481    121.2869
  1034.5000     14.7442     18.3329     12.8965    119.9767
  1034.7500     14.5818     18.5146     12.8260    119.9745
  1035.0000     14.4116     18.7151     12.7351    121.5291
  1035.2500     14.2366     18.9229     12.6262    122.9659
  1035.5000     14.0624     19.1250     12.5059    123.9034
  1035.7500     13.8956     19.3081     12.3830    122.4749
  1036.0000     13.7416     19.4599     12.2676    114.6256
  1036.2500     13.6032     19.5696     12.1698    103.9799
  1036.5000     13.4805     19.6293     12.0990     79.3064
  1036.7500     13.3730     19.6340     12.0620     59.3352
  1037.0000     13.2809     19.5830     12.0619     31.3610
  1037.2500     13.2054     19.4794     12.0968     17.6138
  1037.5000     13.1494     19.3302     12.1601      5.7839
  1037.7500     13.1173     19.1453     12.2421      2.3128
  1038.0000     13.1141     18.9365     12.3310      0.4446
  1038.2500     13.1439     18.7158     12.4149      0.1219
  1038.5000     13.2076     18.4953     12.4819      0.0111
  1038.7500     13.3019     18.2853     12.5186      0.0000
  1039.0000     13.4187     18.0947     12.5083   -999.2500
  1039.2500     13.5459     17.9302     12.4339   -999.2500
  1039.5000     13.6675     17.7965     12.2862   -999.2500
  1039.7500     13.7636     17.6958     12.0735   -999.2500
  1040.0000     13.8111     17.6274     11.8219   -999.2500
  1040.2500     13.7869     17.5885     11.5650   -999.2500
  1040.5000     13.6742     17.5736     11.3288   -999.2500
  1040.7500     13.4678     17.5759     11.1248   -999.2500
  1041.0000     13.1761     17.5883     10.9501   -999.2500
  1041.2500     12.8180     17.6045     10.7938   -999.2500
  1041.5000     12.4191     17.6204     10.6433   -999.2500
  1041.7500     12.0065     17.6350     10.4890   -999.2500
  1042.0000     11.6052     17.6505     10.3270   -999.2500
  1042.2500     11.2354     17.6717     10.1597   -999.2500
  1042.5000     10.9105     17.7052      9.9840   -999.2500
  1042.7500     10.6373     17.7577      9.8344   -999.2500
  1043.0000     10.4183     17.8349      9.7087   -999.2500
  1043.2500     10.2532     17.9402      9.6118   -999.2500
  1043.5000     10.1394     18.0740      9.5439   -999.2500
  1043.7500     10.0697     18.2336      9.5031   -999.2500
  1044.0000     10.0322     18.4133      9.4884   -999.2500
  1044.2500     10.0126     18.6048      9.4980   -999.2500
  1044.5000      9.9997     18.7979      9.5300   -999.2500
  1044.7500      9.9892     18.9816      9.5887   -999.2500
  1045.0000      9.9834     19.1454      9.6996   -999.2500
  1045.2500      9.9864     19.2798      9.9305   -999.2500
  1045.5000      9.9994     19.3782     10.4135   -999.2500
  1045.7500     10.0189     19.4369     11.3689   -999.2500
  1046.0000     10.0384     19.4558     13.1813   -999.2500
  1046.2500     10.0520     19.4385     16.4445   -999.2500
  1046.5000     10.0561     19.3911     22.3553   -999.2500
  1046.7500     10.0495     19.3221     33.1831   -999.2500
  1047.0000     10.0335     19.2409     53.0894   -999.2500
  1047.2500     10.0111     19.1568     88.1200   -999.2500
  1047.5000      9.9877     19.0784    141.2773   -999.2500
  1047.7500      9.9699     19.0125    201.7638   -999.2500
  1048.0000      9.9648     18.9640    250.7256   -999.2500
  1048.2500      9.9781     18.9349    286.4709   -999.2500
  1048.5000     10.0119     18.9254    325.7896   -999.2500
  1048.7500     10.0636     18.9330    396.5101   -999.2500
  1049.0000     10.1252     18.9525 100000.0000   -999.2500
  1049.2500     10.1851     18.9752 100000.0000   -999.2500
  1049.5000     10.2317     18.9877 100000.0000   -999.2500
  1049.7500     10.2580     18.9697 100000.0000   -999.2500
  1050.0000     10.2641     18.8914 100000.0000   -999.2500
  1050.2500     10.2577     18.7116 100000.0000   -999.2500
  1050.5000     10.2500     18.3787 100000.0000   -999.2500
  1050.7500     10.2458     17.8353 100000.0000   -999.2500
  1051.0000     10.2288     17.0278 100000.0000   -999.2500
  1051.2500     10.1405     15.9200 100000.0000   -999.2500
  1051.5000      9.8609     14.5071 100000.0000   -999.2500
  1051.7500      9.2097     12.8252 100000.0000   -999.2500
  1052.0000      7.9975     10.9527 100000.0000   -999.2500
  1052.2500      6.1298      9.0003 100000.0000   -999.2500
  1052.5000      3.7116      7.0922 100000.0000   -999.2500
  1052.7500      1.0627      5.3430 100000.0000   -999.2500
  1053.0000     -1.4003      3.8386 100000.0000   -999.2500
  1053.2500     -3.3473      2.6242 100000.0000   -999.2500
  1053.5000     -4.6571      1.7040 100000.0000   -999.2500
  1053.7500     -5.4072      1.0493 100000.0000   -999.2500
  1054.0000     -5.7730      0.6120 100000.0000   -999.2500
  1054.2500     -5.9249      0.3376 100000.0000   -999.2500
  1054.5000     -5.9787      0.1760 100000.0000   -999.2500
  1054.7500     -5.9949      0.0866 100000.0000   -999.2500
  1055.0000     -5.9991      0.0401 100000.0000   -999.2500
  1055.2500   -999.2500      0.0174 100000.0000   -999.2500
  1055.5000   -999.2500      0.0070 100000.0000   -999.2500
  1055.7500   -999.2500      0.0025   -999.2500   -999.2500
  1056.0000   -999.2500      0.0007   -999.2500   -999.2500
