~Version Information
 VERS.                                  2.0 : CWLS LAS VERSION
 WRAP.                                   NO : WRAPING MODE
 SWARE .                 MController 2.5.0I : SOFTWARE VERSION
~Well Information
 WELL.                       Montoya 12-41v : WELL
 COMP.                       Petrogulf Corp : COMPANY
 FLD.                      Purgatoire River : FIELD
 LOC.                NE/NE Sec 12 T33S R68W : LOCATION
 DATE.                              8/10/04 : DATE(S) LOGGED
 SRVC.       Blanco Geological Services LLc : SERVICE COMPANY
 STAT.                                   CO : STATE
 CNTY.                           Las Animas : COUNTY
 CTRY.                                  USA : COUNTRY
 API.                       05-071-08139-00 : API NUMBER
 STRT.FT                            698.00 : START DEPTH
 STOP.FT                            2660.00 : STOP DEPTH
 STEP.FT                               1.00 : DEPTH INCREMENT
 NULL.                                 9999 : NULL VALUE
~Curve information
 DEPTH.FT                                   :
 ROP.MIN/FT                                 :
 GAS.UNITS                                  :
~ASCII Log data
# ...
      2090.0          0.4          6.9 
      2091.0          0.4          6.7 
      2092.0          0.4          5.8 
      2093.0          0.4          5.3 
      2094.0          0.3          5.3 
      2095.0          0.3          5.4 
      2096.0          0.3          5.4 
      2097.0          0.3          5.6 
      2098.0          0.3          5.2 
      2099.0          0.3          4.8 
      2100.0          0.4          5.3 
      2101.0          1.0         10.4 
      2102.0          0.5         12.3 
      2103.0          0.2          5.4 
      2104.0          0.1          2.8 
      2105.0          3.2        136.6 
      2106.0          0.5        102.2 
      2107.0          0.5          9.6 
      2108.0          0.3          0.8 
      2109.0          0.3          0.0 
      2120.0          0.4          0.0 
      2121.0          0.3          3.9 
      2122.0          0.4          8.5 
      2123.0          0.4          8.9 
      2124.0          0.4          6.4 
      2125.0          0.3          5.3 
      2126.0          0.4          5.6 
      2127.0          0.4          6.3 
      2128.0          0.4          6.8 
      2129.0          0.4          8.9 
      2120.0          0.3          9.2 
      2121.0          0.5          9.4 
      2122.0          0.4          7.6 
      2123.0          0.4          7.1 
      2124.0          0.4          7.5 
      2125.0          0.4          7.4 
      2126.0          0.4          6.9 
      2127.0          0.4          6.5 
      2128.0          0.4          6.6 
      2129.0          0.4          7.8 
      2130.0          0.4          7.2 
      2131.0          0.5          4.8 
      2132.0          0.4          3.7 
      2133.0          0.3          4.0 
      2134.0          0.4          4.6 
      2135.0          5.9        131.6 
      2136.0          0.2         30.8 
      2137.0          0.3          9.4 
      2138.0          0.6          1.2 
      2139.0          0.3          0.7 
      2140.0          0.3          0.7 
      2141.0          0.3          0.1 
      2142.0          0.3         18.5 
      2143.0          0.3         31.0 
      2144.0          0.3         26.7 
      2145.0          0.4         12.0 
      2146.0          0.3          5.1 
      2147.0          0.3          3.4 
      2148.0          0.3          3.6 
      2149.0          0.3          5.8 
      2150.0          0.3          7.9 
      2151.0          0.3          8.2 
      2152.0          0.3          7.5 
      2153.0          0.3          8.7 
      2154.0          0.4          7.8 
      2155.0          0.2          7.1 
      2156.0          0.2          7.0 
      2157.0          0.3          6.2 
      2158.0          0.4          5.9 
      2159.0          0.3          7.1 
      2160.0          0.4          9.7 
      2161.0          0.4          8.2 
      2162.0          0.4          7.4 
      2163.0          0.4          7.3 
      2164.0          0.4          6.4 
      2165.0          5.3        131.8 
      2166.0          0.4        146.7 
      2167.0          0.5         26.3 
      2168.0          0.4          1.0 
      2169.0          0.5          1.4 
      2170.0          0.4          0.4 
      2171.0          0.4          4.3 
      2172.0          0.3          6.5 
      2173.0          0.3          8.4 
      2174.0          0.2          8.8 
      2175.0          0.4          7.5 
      2176.0          0.6          6.0 
      2177.0          0.4          7.0 
      2178.0          0.3          7.0 
      2179.0          0.3          5.9 
      2180.0          0.3          7.4 
      2181.0          0.3          8.1 
      2182.0          0.2          7.9 
      2183.0          0.3          7.8 
      2184.0          0.4          7.1 
      2185.0          0.3          8.7 
      2186.0          0.4          7.8 
      2187.0          0.4          7.5 
      2188.0          0.4          9.3 
      2189.0          0.4          8.0 
      2190.0          0.4          1.6 
      2191.0          0.4          0.6 
      2192.0          0.4          0.6 
      2193.0          0.4          0.5 
      2194.0          0.4          0.0 
      2195.0          6.7        149.8 
      2196.0          0.6          3.2 
      2197.0          0.5         10.1 
      2198.0          0.5         12.0 
      2199.0          0.4          7.4 
      2200.0          0.5          0.2 
      2201.0          0.5          2.6 
      2202.0          0.5          1.3 
      2203.0          0.6          2.3 
      2204.0          0.5          8.0 
      2205.0          0.6         10.3 
      2206.0          0.3         10.4 
      2207.0          0.4         12.2 
      2208.0          0.5         12.3 
      2209.0          0.4         10.0 
      2210.0          0.4         12.0 
      2212.0          0.4         12.7 
      2212.0          0.5         12.4 
      2213.0          0.4         12.3 
      2214.0          0.5         10.7 
      2215.0          0.4         10.3 
      2216.0          0.5         10.9 
      2217.0          0.5         12.9 
      2218.0          0.6         10.6 
      2219.0          0.8         12.9 
      2220.0          0.6         10.4 
      2221.0          0.7         12.4 
      2222.0          0.7         12.1 
      2223.0          0.3          8.3 
      2224.0          0.4          8.7 
      2225.0          5.9        168.4 
      2226.0          0.4         49.5 
      2227.0          0.2          8.6 
      2228.0          0.2          5.9 
      2229.0          0.3          3.1 
      2230.0          0.3          2.2 
      2231.0          0.3          2.1 
      2232.0          0.3          2.9 
      2233.0          0.3          3.7 
      2234.0          0.2          8.5 
      2235.0          0.3         13.8 
      2236.0          0.3         16.8 
      2237.0          0.3         18.0 
      2238.0          0.4         14.9 
      2239.0          0.4         10.7 
      2240.0          0.3         10.1 
      2241.0          0.3          9.4 
      2242.0          0.3         12.1 
      2243.0          0.3         12.4 
      2244.0          0.4         10.7 
      2245.0          0.4         10.2 
      2246.0          0.4         10.7 
      2247.0          0.4         10.1 
      2248.0          0.3          9.2 
      2249.0          0.3          9.3 
      2250.0          0.2          9.2 
      2251.0          0.2          9.2 
      2252.0          0.2          9.5 
      2253.0          0.3          9.2 
      2254.0          0.3          7.9 
      2255.0          5.4        134.8 
      2256.0          0.5         74.5 
      2257.0          0.2          6.7 
      2258.0          0.2          3.9 
      2259.0          0.3          2.4 
      2260.0          0.3          1.6 
      2261.0          0.3          1.8 
      2262.0          0.3          2.2 
      2263.0          0.3          7.9 
      2264.0          0.3         12.4 
      2265.0          0.3         14.4 
      2266.0          0.3         13.6 
      2267.0          0.4         12.9 
      2268.0          0.4          9.5 
      2269.0          0.4         10.2 
      2270.0          0.4         10.2 
      2271.0          0.3         10.7 
      2272.0          0.3         10.1 
      2273.0          0.4          9.4 
      2274.0          0.4          9.2 
      2275.0          0.4          8.8 
      2276.0          0.5          9.9 
      2277.0          0.3          9.7 
      2278.0          0.3          9.8 
      2279.0          0.2          9.8 
      2280.0          0.3          8.8 
      2281.0          0.3          9.0 
      2282.0          0.3          9.5 
      2283.0          0.3         10.7 
      2284.0          0.3          8.7 
      2285.0          6.2        154.7 
      2286.0          0.2          3.5 
      2287.0          0.2          2.5 
      2288.0          0.3          1.6 
      2289.0          0.4          1.4 
