~Version Information
VERS.                      2.0: CWLS Log ASCII Standard - VERSION 2.0
WRAP.                       NO: One line per depth step
~Well Information Block
STRT.FT               350.0000: 
STOP.FT              1390.0000: 
STEP.FT                 0.1000: 
NULL.                -999.2500: 
COMP.          Petrogulf Corporation: COMPANY
WELL.             Leier 17-42R: WELL
FLD.           Purgatorie River: FIELD
LOC.           2398' FNL & 1109' FEL: LOCATION
PROV.                 Colorado: PROVINCE
CNTY.               Las Animas: COUNTRY
SRVC.                Patterson: SERVICE COMPANY
DATE.          Tue Oct 18 07:06:44 2005: LOG DATE
UWI.                          : UNIQUE WELL ID
~Curve Information Block
DEPT.FT            0 000 00 00: Depth
DCAL.in                       : CDL Caliper
RHOB.g/cc                     : CDL Bulk Density
RHOC.g/cc                     : CDL Density Correction
DPOR.pu                       : CDL Density Porosity
GR.GAPI                       : Gamma Ray
NPOR.pu                       : Neutron Porosity
~Parameter Information Block
~A  Depth       DCAL        RHOB        RHOC        DPOR         GR         NPOR    
# ...
  1098.8000      7.9087      2.6782      0.0888     -1.7121    109.6117     24.3479
  1098.9000      7.9087      2.6703      0.0400     -1.2273    111.3708     23.5910
  1099.0000      7.8947      2.6673      0.0433     -1.0466    112.6195     23.0301
  1099.1000      7.8947      2.6529      0.0497     -0.1727    114.5274     22.7948
  1099.2000      7.8947      2.6228     -0.0079      1.6466    111.6201     22.7557
  1099.3000      7.9065      2.6097      0.0086      2.4423    101.7860     22.5460
  1099.4000      7.9065      2.6276      0.0712      1.3602     92.8806     22.0239
  1099.5000      7.9035      2.6508      0.0681     -0.0507     90.2732     21.3903
  1099.6000      7.9035      2.6647      0.0549     -0.8928     90.5230     20.6955
  1099.7000      7.9035      2.6688      0.0972     -1.1372     91.0470     19.9417
  1099.8000      7.8849      2.6556      0.0579     -0.3400     94.1348     19.2337
  1099.9000      7.8849      2.6302      0.0785      1.2015     99.9898     18.7485
  1100.0000      7.8458      2.6128      0.0549      2.2539    104.1076     18.5686
  1100.1000      7.8458      2.6126      0.1148      2.2696    105.0672     18.4266
  1100.2000      7.8458      2.6159      0.0794      2.0647    107.3670     18.0233
  1100.3000      7.8277      2.6111      0.0895      2.3546    111.5272     17.5049
  1100.4000      7.8277      2.6019      0.0465      2.9163    112.5467     17.2139
  1100.5000      7.8485      2.5980      0.0676      3.1525    108.8321     17.1678
  1100.6000      7.8485      2.6029      0.0529      2.8570    103.8275     17.0790
  1100.7000      7.8485      2.6086      0.0534      2.5105    101.7865     16.9090
  1100.8000      7.9058      2.6034      0.0692      2.8263    103.1986     17.1951
  1100.9000      7.9058      2.5932      0.0504      3.4450    105.4505     17.9039
  1101.0000      7.9061      2.5995      0.0549      3.0625    107.6454     18.0328
  1101.1000      7.9061      2.6176      0.1477      1.9657    109.2053     17.5040
  1101.2000      7.9061      2.6215      0.0806      1.7247    109.4999     17.2797
  1101.3000      7.8289      2.6105      0.0819      2.3936    109.5628     17.6221
  1101.4000      7.8289      2.5963      0.0527      3.2543    110.1486     18.1564
  1101.5000      7.8033      2.5889      0.0806      3.7010    110.6033     18.7514
  1101.6000      7.8033      2.5984      0.0821      3.1246    109.6212     19.3821
  1101.7000      7.8033      2.6192      0.1103      1.8638    107.2401     19.8720
  1101.8000      7.8101      2.6369      0.0625      0.7949    105.6942     20.0797
  1101.9000      7.8101      2.6479      0.0616      0.1245    106.7682     19.9289
  1102.0000      7.8718      2.6544      0.0524     -0.2677    109.7853     19.4290
  1102.1000      7.8718      2.6588      0.0464     -0.5319    112.9694     18.8303
  1102.2000      7.8718      2.6592      0.0858     -0.5546    113.9530     18.6776
  1102.3000      7.9046      2.6514      0.0344     -0.0848    112.3202     19.1817
  1102.4000      7.9046      2.6403      0.0774      0.5854    112.2136     19.8634
  1102.5000      7.8890      2.6295      0.0519      1.2423    115.3983     20.0319
  1102.6000      7.8890      2.6222      0.0068      1.6821    117.5104     19.5662
  1102.7000      7.8890      2.6204      0.0686      1.7953    115.9043     18.8841
  1102.8000      7.8600      2.6186      0.0175      1.9049    113.6506     18.3069
  1102.9000      7.8600      2.6157      0.0419      2.0791    111.8131     17.9638
  1103.0000      7.9151      2.6091      0.0358      2.4769    108.7146     17.7445
  1103.1000      7.9151      2.5997     -0.0089      3.0460    106.9997     17.5219
  1103.2000      7.9151      2.6001      0.0138      3.0238    108.8455     17.3366
  1103.3000      7.9201      2.6148      0.0068      2.1357    110.7664     17.1406
  1103.4000      7.9201      2.6312      0.0496      1.1390    111.3934     16.9766
  1103.5000      7.9032      2.6380      0.0666      0.7245    113.8069     17.1530
  1103.6000      7.9032      2.6415      0.0465      0.5139    119.2358     17.7421
  1103.7000      7.9032      2.6439      0.0958      0.3683    124.4058     18.1811
  1103.8000      7.8941      2.6309      0.0878      1.1569    126.9202     18.0888
  1103.9000      7.8941      2.6022      0.0430      2.8980    127.6216     17.8326
  1104.0000      7.9123      2.5725      0.0219      4.6947    127.4479     17.8095
  1104.1000      7.9123      2.5495      0.0101      6.0886    127.9048     18.1937
  1104.2000      7.9123      2.5353     -0.0009      6.9529    129.0764     18.9654
  1104.3000      7.9280      2.5346     -0.0383      6.9911    127.0844     19.7985
  1104.4000      7.9280      2.5423      0.0427      6.5285    122.2312     20.5112
  1104.5000      7.9281      2.5445     -0.0079      6.3912    120.4331     21.3004
  1104.6000      7.9281      2.5509      0.0116      6.0053    122.6207     22.1870
  1104.7000      7.9281      2.5770      0.0441      4.4258    121.5973     22.9136
  1104.8000      7.9223      2.6127      0.0832      2.2594    114.8587     23.4485
  1104.9000      7.9223      2.6348      0.0807      0.9214    108.8753     23.7580
  1105.0000      7.9192      2.6318      0.0675      1.1011    106.3921     23.6183
  1105.1000      7.9192      2.6163      0.0317      2.0441    103.8942     23.0085
  1105.2000      7.9192      2.6130     -0.0055      2.2418    101.1611     22.0748
  1105.3000      7.9230      2.6249      0.0530      1.5206    100.3941     21.0569
  1105.4000      7.9230      2.6309      0.0166      1.1591    100.5594     20.4942
  1105.5000      7.9162      2.6304     -0.0097      1.1854     99.6723     20.7075
  1105.6000      7.9162      2.6386      0.0183      0.6884     96.6434     21.1232
  1105.7000      7.9162      2.6555      0.0496     -0.3349     91.9896     21.0657
  1105.8000      7.9074      2.6780      0.0584     -1.6954     88.4104     20.7005
  1105.9000      7.9074      2.7062      0.0400     -3.4036     85.6693     20.4495
  1106.0000      7.8598      2.7293      0.1123     -4.8081     82.5197     20.4660
  1106.1000      7.8598      2.7343      0.0753     -5.1073     82.3616     20.5961
  1106.2000      7.8598      2.7272      0.0678     -4.6817     85.8268     20.5542
  1106.3000      7.8178      2.7248      0.0380     -4.5305     88.1321     20.2120
  1106.4000      7.8178      2.7349      0.0729     -5.1471     88.0521     19.5329
  1106.5000      7.8153      2.7485      0.0837     -5.9672     88.1750     18.5430
  1106.6000      7.8153      2.7475      0.0833     -5.9112     89.1510     17.5798
  1106.7000      7.8153      2.7224      0.0542     -4.3880     91.3311     17.0368
  1106.8000      7.8330      2.6811      0.0163     -1.8825     97.7093     16.9197
  1106.9000      7.8330      2.6482     -0.0218      0.1091    107.7518     17.2424
  1107.0000      7.8363      2.6377      0.0410      0.7475    115.8700     17.9798
  1107.1000      7.8363      2.6351      0.0397      0.9010    120.2752     18.6929
  1107.2000      7.8363      2.6288      0.0148      1.2822    122.8688     19.1861
  1107.3000      7.8347      2.6256      0.0038      1.4768    122.4991     19.6630
  1107.4000      7.8347      2.6311      0.0463      1.1481    117.7656     20.0969
  1107.5000      7.8274      2.6385      0.0561      0.6943    111.3599     20.2796
  1107.6000      7.8274      2.6383      0.0379      0.7110    109.1283     20.1455
  1107.7000      7.8274      2.6343      0.0259      0.9520    112.0617     19.7426
  1107.8000      7.8142      2.6406      0.0334      0.5691    114.7708     19.1458
  1107.9000      7.8142      2.6471      0.0900      0.1779    114.9542     18.6936
  1108.0000      7.8342      2.6359      0.0192      0.8560    114.7119     18.6649
  1108.1000      7.8342      2.6230      0.0040      1.6377    114.4242     18.7525
  1108.2000      7.8342      2.6218      0.0550      1.7111    114.1489     18.6343
  1108.3000      7.8901      2.6256      0.0014      1.4808    114.6780     18.3289
