~Version Information
VERS.                      2.0: CWLS Log ASCII Standard - VERSION 2.0
WRAP.                       NO: One line per depth step
~Well Information Block
STRT.FT               630.0000: 
STOP.FT              1156.0000: 
STEP.FT                 0.2500: 
NULL.                -999.2500: 
COMP.          Pioneer Natural Resources: COMPANY
WELL.          Drewmeister 34-34: WELL
FLD.           Purgatoire River: FIELD
LOC.           958' FSL & 1857' FEL: LOCATION
STAT.                 Colorado: State
CNTY.               Las Animas: COUNTY
CTRY. USA : Country
SECT. 34 : Section
TOWN. 32S : Township
RANG. 65W : Range
SRVC.                Patterson: SERVICE COMPANY
DATE.          Mon Oct 03 23:24:37 2005: LOG DATE
API.           05 071 08131 00: UNIQUE WELL ID
~Curve Information Block
DEPT.FT            0 000 00 00: Depth
SN.Ohm-m                      : IEL Short Normal
SP.mV                         : IEL Spontaneous Potential
DIR.Ohm-m                     : IEL Induction Resistivity
GR.GAPI                       : Gamma Ray
~Parameter Information Block
~A  Depth        SN          SP         DIR          GR     
# ...
   730.5000    631.8991    331.1161     12.6177    139.5927
   730.7500    553.6617    366.7282     12.3684    135.5635
   731.0000    526.7415    398.2064     12.2165    129.0031
   731.2500    509.7560    419.5904     12.1769    125.5169
   731.5000    481.9237    429.3391     12.2516    122.7747
   731.7500    480.5164    432.0619     12.4271    122.5339
   732.0000    515.0833    437.2301     12.6767    123.5633
   732.2500    545.6803    455.1989     12.9679    124.3384
   732.5000    527.9708    492.0627     13.2698    124.4982
   732.7500    435.8595    546.3683     13.5612    123.9179
   733.0000    292.6351    609.9283     13.8345    123.0020
   733.2500    162.0780    671.8945     14.0917    122.8190
   733.5000     81.6188    723.2830     14.3346    122.7393
   733.7500     43.4518    759.7242     14.5558    122.1440
   734.0000     27.5020    781.7241     14.7394    119.9866
   734.2500     20.7833    792.9272     14.8707    118.1480
   734.5000     17.5834    797.6882     14.9469    115.9891
   734.7500     15.8302    799.3599     14.9791    115.4005
   735.0000     14.7867    799.8406     14.9834    115.9993
   735.2500     14.3965    799.9526     14.9678    117.3707
   735.5000     14.6540    799.9733     14.9279    120.6827
   735.7500     15.2002    799.9760     14.8562    123.3157
   736.0000     15.5990    799.9761     14.7579    126.6371
   736.2500     15.6654    799.9761     14.6553    127.7659
   736.5000     15.4838    799.9760     14.5784    127.8783
   736.7500     15.2263    799.9747     14.5498    127.7249
   737.0000     15.0381    799.9659     14.5783    128.5823
   737.2500     15.0275    799.9233     14.6612    129.7457
   737.5000     15.2311    799.7533     14.7891    130.4518
   737.7500     15.6067    799.1823     14.9497    129.2925
   738.0000     16.0538    797.5504     15.1328    125.7361
   738.2500     16.4881    793.5531     15.3414    123.4413
   738.5000     16.9278    785.1142     15.6041    121.3237
   738.7500     17.3765    769.6187     15.9763    120.0740
   739.0000     17.9989    744.5089     16.5218    116.0245
   739.2500     20.4754    707.9327     17.2872    111.2927
   739.5000     30.4382    659.2003     18.2828    102.7085
   739.7500     59.6141    599.1071     19.4827     97.4777
   740.0000    125.0405    530.1551     20.8390     91.4844
   740.2500    239.1845    456.5600     22.2950     88.2280
   740.5000    391.8533    384.1272     23.7820     82.9653
   740.7500    546.0170    320.1204     25.2090     78.8452
   741.0000    660.6007    272.6909     26.4738     72.4262
   741.2500    720.2007    249.1960     27.5124     68.6894
   741.5000    743.5065    253.6471     28.3521     64.7375
   741.7500    760.6094    284.6982     29.1040     63.3961
   742.0000    777.9496    335.5842     29.8959     63.2477
   742.2500    763.6296    396.2246     30.8041     64.1631
   742.5000    675.8431    456.3058     31.8454     66.6682
   742.7500    512.5976    507.3721     33.0148     69.0394
   743.0000    328.9957    542.6816     34.3124     73.5915
   743.2500    192.2788    555.9899     35.7219     77.0033
   743.5000    124.6942    542.0461     37.1741     81.7303
   743.7500    107.7277    499.6183     38.5550     84.0635
   744.0000    130.0620    434.1914     39.7678     85.9438
   744.2500    211.4213    356.9780     40.7817     86.2910
   744.5000    369.5303    280.4506     41.6104     86.0198
   744.7500    566.7755    213.8396     42.2499     85.4465
   745.0000    727.1869    161.4476     42.6463     83.5728
   745.2500    812.8568    123.7267     42.7476     81.1570
   745.5000    843.1115     99.2640     42.6039     75.1565
   745.7500    850.2278     86.1967     42.4081     69.6021
   746.0000    851.3505     82.8258     42.4141     59.6269
   746.2500    851.4693     87.8416     42.8025     52.4262
   746.5000    851.4747    100.4446     43.5939     41.7135
   746.7500    851.4747    120.3465     44.6578     35.1592
   747.0000    851.4537    147.5832     45.8028     27.1127
   747.2500    851.1908    182.1330     46.9016     23.3040
   747.5000    849.1400    223.3623     47.9846     19.8887
   747.7500    838.6339    269.4835     49.2459     18.7350
   748.0000    802.6423    317.6395     50.9579     17.8341
   748.2500    718.5554    365.3514     53.3579     17.4683
   748.5000    582.0698    412.8010     56.5470     17.0617
   748.7500    428.2736    463.5021     60.4244     16.8297
   749.0000    316.3394    521.3950     64.6792     16.4502
   749.2500    279.7088    586.2132     68.8545     16.1553
   749.5000    288.5031    651.6727     72.4080     15.7073
   749.7500    280.5907    708.5139     74.6568     15.5378
   750.0000    233.7661    749.5942     74.7875     15.9911
   750.2500    178.7915    772.8791     72.3176     17.1679
   750.5000    148.7929    780.9763     67.7251     20.7041
   750.7500    151.2395    778.8245     62.2977     24.2214
   751.0000    178.2750    771.4329     57.2459     30.9461
   751.2500    211.6732    762.2653     53.1309     36.3163
   751.5000    225.8211    752.4270     49.9292     45.7183
   751.7500    208.3331    741.1884     47.3353     52.6911
   752.0000    169.3431    727.8817     45.0070     63.2193
   752.2500    127.6953    713.7183     42.6863     69.5594
   752.5000    101.5434    701.5230     40.2230     77.1612
   752.7500    100.5961    693.0706     37.5581     80.6346
   753.0000    113.2239    686.4102     34.7128     82.8927
   753.2500    114.6238    676.2275     31.7844     82.1713
   753.5000     96.6217    657.7303     28.9181     78.0389
   753.7500     73.2495    631.3909     26.2596     81.4992
   754.0000     56.1084    604.9317     23.9131     75.8063
   754.2500     45.3940    590.3426     21.9279     74.4771
   754.5000     40.5364    597.0164     20.3063     78.4489
   754.7500     41.1905    625.7493     19.0180     92.6714
   755.0000     41.7076    668.3815     18.0126    106.3944
   755.2500     36.2977    712.9831     17.2313    115.0160
   755.5000     27.0127    749.9882     16.6155    124.2740
   755.7500     19.8277    775.2621     16.1151    127.8482
   756.0000     16.9339    789.5967     15.6930    130.4989
   756.2500     16.7070    796.3045     15.3271    131.1384
   756.5000     17.2000    798.7955     15.0070    131.2857
   756.7500     17.4764    799.2349     14.7295    131.2609
   757.0000     17.3737    798.3016     14.4936    131.0556
   757.2500     17.1884    795.4861     14.2995    130.3281
   757.5000     17.4156    789.6120     14.1513    127.6476
   757.7500     18.7520    779.7023     14.0593    124.8342
   758.0000     23.1825    766.1130     14.0393    119.4828
   758.2500     36.6668    751.1558     14.1075    115.4792
   758.5000     69.6454    738.2870     14.2754    110.1203
   758.7500    124.0033    730.0570     14.5467    108.1695
   759.0000    173.2374    726.5005     14.9164    108.8727
   759.2500    178.0276    725.5728     15.3686    111.1689
   759.5000    134.7541    725.2216     15.8745    114.8851
   759.7500     81.0497    725.0369     16.3954    116.4631
   760.0000     48.4071    726.1134     16.8942    117.3205
   760.2500     37.0205    729.7415     17.3512    117.3132
   760.5000     33.4016    736.3933     17.7738    116.9282
   760.7500     29.7880    745.6780     18.1935    116.4924
   761.0000     25.8246    756.8104     18.6529    115.6112
   761.2500     22.9725    768.7664     19.1918    114.8914
   761.5000     21.7236    780.0884     19.8427    113.5685
   761.7500     21.5438    789.1602     20.6329    112.4801
   762.0000     21.4799    795.0888     21.5889    110.4767
   762.2500     21.0795    798.1770     22.7353    108.8367
   762.5000     20.6548    799.4440     24.0894    105.6829
   762.7500     20.6321    799.8513     25.6561    102.8767
   763.0000     21.1399    799.9531     27.4262     97.2587
   763.2500     22.1126    799.9731     29.3803     92.7244
   763.5000     23.3773    799.9761     31.4972     86.0361
   763.7500     24.7509    799.9761     33.7628     82.7139
