~Version Information
VERS.                      2.0: CWLS Log ASCII Standard - VERSION 2.0
WRAP.                       NO: One line per depth step
~Well Information Block
STRT.FT               235.0000: 
STOP.FT              1634.5000: 
STEP.FT                 0.2500: 
NULL.                -999.2500: 
COMP.          Petrogulf Corporation: COMPANY
WELL.             State 16-41R: WELL
FLD.           Purgatorie River: FIELD
LOC.           280' FNL & 907' FEL: LOCATION
SECT.                       16: SECTION
TOWN.                      33S: TOWNSHIP
RANG.                      67W: RANGE
STAT.                 Colorado: STATE
CNTY.               Las Animas: COUNTY
CTRY.                      USA: COUNTRY
SRVC.                Patterson: SERVICE COMPANY
DATE.         Tue Oct 18 15:59:41 2005: LOG DATE
API.              05-071-08345: UNIQUE WELL ID
~Curve Information Block
DEPT.FT            0 000 00 00: Depth
SP.mV                         : DIL Spontaneous Potential
RILD.Ohm-m                    : DIL Deep Resistivity
RILM.Ohm-m                    : DIL Medium Resistivity
RLL3.Ohm-m                    : DIL Shallow Resistivity
GR.GAPI                       : Gamma Ray
~Parameter Information Block
~A  Depth        SP         RILD        RILM        RLL3         GR     
   235.0000   2000.0000      8.7455 100000.0000   2000.0000     57.8938
   235.2500   2000.0000      8.8278 100000.0000   2000.0000     57.5195
   235.5000   2000.0000      8.8953 100000.0000   2000.0000     58.7009
   235.7500   2000.0000      8.9493 100000.0000   2000.0000     60.1774
   236.0000   2000.0000      8.9900 100000.0000   2000.0000     61.9228
   236.2500   2000.0000      9.0165 100000.0000   2000.0000     62.1104
   236.5000   2000.0000      9.0254 100000.0000   2000.0000     60.9316
   236.7500   2000.0000      9.0088 100000.0000   2000.0000     59.6947
   237.0000   2000.0000      8.9575 100000.0000   2000.0000     58.1968
   237.2500   2000.0000      8.8702 100000.0000   2000.0000     57.8120
   237.5000   2000.0000      8.7661 100000.0000   2000.0000     58.1452
   237.7500   2000.0000      8.6906 100000.0000   2000.0000     58.5884
   238.0000   2000.0000      8.7035 100000.0000   2000.0000     58.7134
   238.2500   2000.0000      8.8531 100000.0000   2000.0000     58.1977
   238.5000   2000.0000      9.1470 100000.0000   2000.0000     56.9848
   238.7500   2000.0000      9.5314 100000.0000   2000.0000     56.4652
   239.0000   2000.0000      9.8958 100000.0000   2000.0000     56.8788
   239.2500   2000.0000     10.1210 100000.0000   2000.0000     57.9683
   239.5000   2000.0000     10.1513 100000.0000   2000.0000     60.2161
   239.7500   2000.0000     10.0289 100000.0000   2000.0000     61.6854
   240.0000   2000.0000      9.8666 100000.0000   2000.0000     63.4629
   240.2500   2000.0000      9.8025 100000.0000   2000.0000     64.3698
   240.5000   2000.0000      9.9754 100000.0000   2000.0000     65.3262
   240.7500   2000.0000     10.5139 100000.0000   2000.0000     65.6369
   241.0000   2000.0000     11.5039 100000.0000   2000.0000     65.6423
   241.2500   2000.0000     12.8761 100000.0000   2000.0000     65.3584
   241.5000   2000.0000     14.1953 100000.0000   2000.0000     64.2222
   241.7500   2000.0000     14.6679 100000.0000   2000.0000     62.8719
   242.0000   2000.0000     13.8695 100000.0000   2000.0000     60.6072
   242.2500   2000.0000     12.3151 100000.0000   2000.0000     59.7142
   242.5000   2000.0000     10.7817 100000.0000   2000.0000     60.2474
   242.7500   2000.0000      9.6542 100000.0000   2000.0000     61.8816
   243.0000   2000.0000      8.9983 100000.0000   2000.0000     65.7887
   243.2500   2000.0000      8.8025 100000.0000   2000.0000     69.0400
   243.5000   2000.0000      9.1307 100000.0000   2000.0000     74.3669
   243.7500   2000.0000     10.2289 100000.0000   2000.0000     77.9683
   244.0000   2000.0000     12.6777 100000.0000   2000.0000     83.0531
   244.2500   2000.0000     17.5599 100000.0000   2000.0000     85.8520
   244.5000   2000.0000     25.1431 100000.0000   2000.0000     88.1848
   244.7500   2000.0000     27.7992 100000.0000   2000.0000     88.0282
   245.0000   2000.0000     19.7918 100000.0000   2000.0000     85.2075
   245.2500   2000.0000     12.3112 100000.0000   2000.0000     82.1745
   245.5000   2000.0000      8.4799 100000.0000   2000.0000     77.7295
   245.7500   2000.0000      6.8104 100000.0000   2000.0000     76.1105
   246.0000   2000.0000      6.3313 100000.0000   2000.0000     77.2149
   246.2500   2000.0000      6.6675 100000.0000   2000.0000     80.3148
   246.5000   2000.0000      7.6830 100000.0000   2000.0000     87.2055
   246.7500   2000.0000      9.0124 100000.0000   2000.0000     92.4713
   247.0000   2000.0000      9.3559 100000.0000   2000.0000    100.9386
   247.2500   2000.0000      7.6181 100000.0000   2000.0000    107.0598
   247.5000   2000.0000      5.2244 100000.0000   2000.0000    116.4292
   247.7500   2000.0000      3.5581 100000.0000   2000.0000    121.9544
   248.0000   2000.0000      2.6652 100000.0000   2000.0000    128.1051
   248.2500   2000.0000      2.2862 100000.0000   2000.0000    130.9646
   248.5000   2000.0000      2.2722     29.4757   2000.0000    134.2910
   248.7500   2000.0000      2.6131     12.2098   2000.0000    135.9710
   249.0000   2000.0000      3.4561      8.8151   2000.0000    136.9194
   249.2500   2000.0000      5.2572      7.7935   2000.0000    135.9788
   249.5000   2000.0000      9.5292      7.7509   2000.0000    132.0730
   249.7500   2000.0000     25.4053      8.3479   2000.0000    128.3976
   250.0000   2000.0000 100000.0000      9.5068   2000.0000    123.0855
   250.2500   2000.0000 100000.0000     11.2424   2000.0000    120.5743
   250.5000   2000.0000 100000.0000     13.6031   2000.0000    118.8002
   250.7500   2000.0000 100000.0000     16.6172   2000.0000    118.7990
   251.0000   2000.0000 100000.0000     20.1644   2000.0000    120.6122
   251.2500   2000.0000 100000.0000     23.7151   2000.0000    123.3164
   251.5000   2000.0000     65.7175     26.1510   2000.0000    129.6627
   251.7500   2000.0000     23.9777     26.3424   2000.0000    134.7717
   252.0000   2000.0000     16.6733     24.3117   2000.0000    141.8567
   252.2500   2000.0000     14.2810     21.2211   2000.0000    145.3505
   252.5000   2000.0000     13.4536     18.1888   2000.0000    148.6388
   252.7500   2000.0000     13.2373     15.7096   2000.0000    149.9967
   253.0000   2000.0000     13.2524     13.8462   2000.0000    151.4825
   253.2500   2000.0000     13.3154     12.4988   2000.0000    152.2464
   253.5000   2000.0000     13.3090     11.5448   2000.0000    152.9544
   253.7500   2000.0000     13.1551     10.8830   2000.0000    153.0036
   254.0000   2000.0000     12.8378     10.4407   2000.0000    152.7435
   254.2500   2000.0000     12.4178     10.1671   2000.0000    153.1900
   254.5000   2000.0000     11.9908     10.0251   2000.0000    156.5976
   254.7500   2000.0000     11.6327      9.9841   2000.0000    160.8123
   255.0000   2000.0000     11.3735     10.0160   2000.0000    167.6310
   255.2500   2000.0000     11.2051     10.0935   2000.0000    170.3242
   255.5000   2000.0000     11.1011     10.1913   2000.0000    168.9896
   255.7500   2000.0000     11.0338     10.2884   2000.0000    164.4237
   256.0000   2000.0000     10.9840     10.3696   2000.0000    153.9634
   256.2500   2000.0000     10.9423     10.4275   2000.0000    146.0938
   256.5000   2000.0000     10.9051     10.4612   2000.0000    134.9355
   256.7500   2000.0000     10.8713     10.4750   2000.0000    128.6029
   257.0000   2000.0000     10.8397     10.4765   2000.0000    121.5257
   257.2500   2000.0000     10.8095     10.4735   2000.0000    118.7123
   257.5000   2000.0000     10.7813     10.4728   2000.0000    117.3239
   257.7500   2000.0000     10.7572     10.4777   2000.0000    118.0154
   258.0000   2000.0000     10.7400     10.4882   2000.0000    121.0548
   258.2500   2000.0000     10.7318     10.5013   2000.0000    124.1640
   258.5000   2000.0000     10.7340     10.5122   2000.0000    129.2868
   258.7500   2000.0000     10.7482     10.5164   2000.0000    131.8229
   259.0000   2000.0000     10.7769     10.5111   2000.0000    132.6239
   259.2500   2000.0000     10.8221     10.4958   2000.0000    131.1635
   259.5000   2000.0000     10.8852     10.4731   2000.0000    127.8195
   259.7500   2000.0000     10.9680     10.4484   2000.0000    126.3498
   260.0000   2000.0000     11.0750     10.4305   2000.0000    127.1529
   260.2500   2000.0000     11.2150     10.4313   2000.0000    129.6740
   260.5000   2000.0000     11.4009     10.4661   2000.0000    134.3870
   260.7500   2000.0000     11.6492     10.5530   2000.0000    136.6723
   261.0000   2000.0000     11.9766     10.7128   2000.0000    137.8493
   261.2500   2000.0000     12.3965     10.9683   2000.0000    137.6063
   261.5000   2000.0000     12.9151     11.3448   2000.0000    136.7227
   261.7500   2000.0000     13.5300     11.8703   2000.0000    135.9082
   262.0000   2000.0000     14.2333     12.5755   2000.0000    134.0927
   262.2500   2000.0000     15.0168     13.4949   2000.0000    132.2410
   262.5000   2000.0000     15.8765     14.6649   2000.0000    127.4367
   262.7500   2000.0000     16.8133     16.1219   2000.0000    121.9251
