~Version Information
VERS.                      2.0: CWLS Log ASCII Standard - VERSION 2.0
WRAP.                       NO: One line per depth step
~Well Information Block
STRT.FT                -7.5000: 
STOP.FT              1702.2500: 
STEP.FT                 0.2500: 
NULL.                -999.2500: 
COMP.          Pioneer Natural Resources: COMPANY
WELL.          Warrior 33-1 Tr: WELL
FLD.           Purgatoire River: FIELD
LOC.           2648' FSL & 2341' FEL--: LOCATION
PROV.                 Colorado: PROVINCE
CNTY.               Las Animas: COUNTRY
SRVC.                Patterson: SERVICE COMPANY
DATE.          Wed Jun 22 12:18:08 2005: LOG DATE
UWI.           05 071 08412 00: UNIQUE WELL ID
~Curve Information Block
DEPT.FT            0 000 00 00: Depth
CCL.                          : Casing Collar Locator
TT3.usec                      : CBL 3' Travel Time
AMP3.mV                       : CBL 3' Amplitude
GR.GAPI                       : Gamma Ray
~Parameter Information Block
~A  Depth       CCL         TT3         AMP3         GR     
# ...
   562.0000      0.0000    781.5240      6.1843    126.1312
   562.2500      0.0000    787.0469      6.2584    122.3706
   562.5000      0.0000    790.2030      6.3342    117.1827
   562.7500      0.0000    793.1074      6.4173    111.3980
   563.0000      0.0000    795.3627      6.5188    106.4536
   563.2500      0.0000    794.8672      6.6495    103.1458
   563.5000      0.0000    790.6278      6.8128    101.0768
   563.7500      0.0000    784.1176      7.0032     98.9702
   564.0000      0.0000    778.1573      7.2123     95.6783
   564.2500      0.0000    774.9119      7.4330     91.1331
   564.5000      0.0000    774.7466      7.6534     86.2669
   564.7500      0.0000    776.4454      7.8511     82.0999
   565.0000      0.0000    778.3837      8.0023     79.1188
   565.2500      0.0000    779.8138      8.0986     77.4023
   565.5000      0.0000    780.9544      8.1511     77.0452
   565.7500      0.0000    781.7173      8.1780     78.3928
   566.0000      0.0000    780.9629      8.1944     81.9675
   566.2500      0.0000    777.7626      8.2083     88.0599
   566.5000      0.0000    772.9104      8.2220     96.0249
   566.7500      0.0000    768.3133      8.2320    104.0703
   567.0000      0.0000    765.1389      8.2280    110.3277
   567.2500      0.0000    763.1748      8.1910    114.3349
   567.5000      0.0000    761.5227      8.0988    117.0010
   567.7500      0.0000    759.2977      7.9420    119.1680
   568.0000      0.0000    756.2222      7.7366    120.8247
   568.2500      0.0000    753.2486      7.5171    121.6505
   568.5000      0.0000    752.3970      7.3177    121.7634
   568.7500      0.0000    755.2844      7.1595    121.9827
   569.0000      0.0000    761.3701      7.0481    123.5870
   569.2500      0.0000    767.6698      6.9806    127.5099
   569.5000      0.0000    770.5741      6.9542    133.1788
   569.7500      0.0000    768.5024      6.9710    138.1381
   570.0000      0.0000    763.2034      7.0332    139.3829
   570.2500      0.0000    758.5143      7.1335    135.5252
   570.5000      0.0000    757.4814      7.2526    127.7788
   570.7500      0.0000    760.3498      7.3672    118.9272
   571.0000      0.0000    765.2103      7.4581    111.5886
   571.2500      0.0000    770.3018      7.5124    107.4201
   571.5000      0.0000    775.2439      7.5236    107.1813
   571.7500      0.0000    780.1146      7.4927    110.7742
   572.0000      0.0000    784.0129      7.4260    117.1227
   572.2500      0.0000    784.9637      7.3303    124.2566
   572.5000      0.0000    781.2964      7.2107    129.9393
   572.7500      0.0000    773.4746      7.0752    132.8201
   573.0000      0.0000    765.0222      6.9443    133.1863
   573.2500      0.0000    760.9864      6.8477    132.3629
   573.5000      0.0000    764.1369      6.8074    131.3752
   573.7500      0.0000    772.5110      6.8224    130.4557
   574.0000      0.0000    781.4474      6.8725    129.6224
   574.2500      0.0000    787.6879      6.9343    129.2368
   574.5000      0.0000    790.6423      6.9929    129.7635
   574.7500      0.0000    790.4365      7.0445    131.1136
   575.0000      0.0000    786.5437      7.0915    132.5374
   575.2500      0.0000    778.6018      7.1350    133.3755
   575.5000      0.0000    767.4708      7.1719    133.7435
   575.7500      0.0000    754.9802      7.1990    134.2196
   576.0000      0.0000    743.1127      7.2170    135.0158
   576.2500      0.0000    733.4301      7.2273    135.7894
   576.5000      0.0000    726.6066      7.2320    136.2602
   576.7500      0.0000    722.3150      7.2385    136.4320
   577.0000      0.0000    719.9792      7.2595    135.8988
   577.2500      0.0000    719.5176      7.2989    133.5624
   577.5000      0.0000    720.9111      7.3424    128.8394
   577.7500      0.0000    723.4103      7.3674    122.9832
   578.0000      0.0000    725.8055      7.3598    118.4569
   578.2500      0.0000    727.3506      7.3204    116.8767
   578.5000      0.0000    728.1081      7.2637    117.9418
   578.7500      0.0000    728.6055      7.2117    120.3470
   579.0000      0.0000    729.5301      7.1853    123.2650
   579.2500      0.0000    731.7502      7.1905    126.7943
   579.5000      0.0000    736.3087      7.2122    131.2826
   579.7500      0.0000    743.8259      7.2250    136.5914
   580.0000      0.0000    753.4641      7.2141    142.1073
   580.2500      0.0000    762.6998      7.1848    147.1393
   580.5000      0.0000    768.7542      7.1530    151.0834
   580.7500      0.0000    770.4785      7.1290    153.6388
   581.0000      0.0000    768.9112      7.1146    155.3147
   581.2500      0.0000    766.4152      7.1102    157.1077
   581.5000      0.0000    765.2207      7.1197    159.1543
   581.7500      0.0000    765.9030      7.1443    160.1920
   582.0000      0.0000    766.5064      7.1674    158.8607
   582.2500      0.0000    763.6362      7.1497    155.2929
   582.5000      0.0000    755.8465      7.0461    151.0650
   582.7500      0.0000    746.8083      6.8363    147.6988
   583.0000      0.0000    743.7386      6.5448    145.5480
   583.2500      0.0000    750.8234      6.2310    143.8389
   583.5000      0.0000    764.8251      5.9614    140.9189
   583.7500      0.0000    778.3690      5.7866    134.6552
   584.0000      0.0000    786.0740      5.7343    123.9388
   584.2500      0.0000    786.3823      5.8115    110.2235
   584.5000      0.0000    779.9158      5.9985     96.8769
   584.7500      0.0000    769.0154      6.2425     86.9111
   585.0000      0.0000    758.4362      6.4702     81.6802
   585.2500      0.0000    753.9823      6.6204     81.2670
   585.5000      0.0000    758.7350      6.6707     85.1771
   585.7500      0.0000    770.4783      6.6367     92.4068
   586.0000      0.0000    783.3630      6.5560    101.3245
   586.2500      0.0000    792.2601      6.4811    109.9949
   586.5000      0.0000    795.1494      6.4751    116.8262
   586.7500      0.0000    791.9698      6.5896    120.8919
   587.0000      0.0000    782.9982      6.8288    121.6923
   587.2500      0.0000    769.1820      7.1350    118.9019
   587.5000      0.0000    752.9750      7.4175    112.6496
   587.7500      0.0000    737.6653      7.6013    103.9797
   588.0000      0.0000    725.9548      7.6558     94.8246
   588.2500      0.0000    719.5284      7.5918     87.5983
   588.5000      0.0000    719.4667      7.4418     84.7089
   588.7500      0.0000    726.2170      7.2453     87.7768
   589.0000      0.0000    738.7571      7.0432     96.6037
   589.2500      0.0000    753.9658      6.8772    108.8880
   589.5000      0.0000    767.3940      6.7790    121.3210
   589.7500      0.0000    775.3863      6.7567    131.1709
   590.0000      0.0000    777.0510      6.7940    137.0559
   590.2500      0.0000    774.1798      6.8660    139.0850
   590.5000      0.0000    768.8854      6.9532    138.9336
   590.7500      0.0000    761.4379      7.0404    139.0825
   591.0000      0.0000    750.8159      7.1092    140.7247
   591.2500      0.0000    737.0470      7.1452    142.4108
   591.5000      0.0000    722.4890      7.1555    141.6616
   591.7500      0.0000    710.9121      7.1716    137.9568
   592.0000      0.0000    705.3950      7.2271    133.3803
   592.2500      0.0000    706.5241      7.3275    130.4778
   592.5000      0.0000    712.1715      7.4423    130.1175
   592.7500      0.0000    719.2027      7.5316    131.1960
   593.0000      0.0000    725.6941      7.5871    131.8739
   593.2500      0.0000    731.5179      7.6429    131.2097
   593.5000      0.0000    736.7654      7.7384    129.8162
   593.7500      0.0000    740.0715      7.8627    128.9279
   594.0000      0.0000    739.7648      7.9311    129.0239
   594.2500      0.0000    737.3586      7.8253    129.4095
   594.5000      0.0000    738.2548      7.4961    128.6491
   594.7500      0.0000    747.1480      7.0480    125.2552
   595.0000      0.0000    763.4547      6.6876    118.5486
   595.2500      0.0000    781.7902      6.5576    109.4341
