~Version Information
VERS.                      2.0: CWLS Log ASCII Standard - VERSION 2.0
WRAP.                       NO: One line per depth step
~Well Information Block
STRT.FT               577.8000: 
STOP.FT              2445.8000: 
STEP.FT                 0.1000: 
NULL.                -999.2500: 
COMP.          Petrogulf Corporation: COMPANY
WELL.             State 16-32V: WELL
FLD.           Purgatorie River: FIELD
LOC.           1599' FNL & 1783' FEL: LOCATION
CNTY.               Las Animas: COUNTY
SRVC.                         : SERVICE COMPANY
DATE.          Thu Jun 05 16:36:04 2003: LOG DATE
UWI.           05 071 07726 00: UNIQUE WELL ID
STAT.                 Colorado: STATE
~Curve Information Block
DEPT.FT            0 000 00 00: Depth
DCAL.in                       : Caliper from Density Tool
RHOB.g/cc                     : Bulk Density
RHOC.g/cc                     : Density Correction
DPOR.pu                       : Density Porosity
GR.GAPI                       : Gamma Ray
NPOR.pu                       : Neutron Porosity
~Parameter Information Block
~A  Depth       DCAL        RHOB        RHOC        DPOR         GR         NPOR    
# ...
  2065.8000      8.0790      2.6059      0.0941      2.6755     92.9879     25.5677
  2065.9000      8.0790      2.6059      0.0941      2.6755     91.7069     25.6414
  2066.0000      8.1328      2.6117      0.0969      2.3234     90.3621     25.6937
  2066.1000      8.1328      2.6117      0.0969      2.3234     89.0066     25.7282
  2066.2000      8.1328      2.6117      0.0969      2.3234     87.6901     25.7479
  2066.3000      8.1448      2.6178      0.1000      1.9519     86.4627     25.7558
  2066.4000      8.1448      2.6178      0.1000      1.9519     85.3706     25.7536
  2066.5000      8.0393      2.6177      0.1001      1.9546     84.4518     25.7421
  2066.6000      8.0393      2.6177      0.1001      1.9546     83.7348     25.7210
  2066.7000      8.0393      2.6177      0.1001      1.9546     83.2319     25.6895
  2066.8000      8.0001      2.6110      0.0972      2.3626     82.9362     25.6463
  2066.9000      8.0001      2.6110      0.0972      2.3626     82.8208     25.5901
  2067.0000      8.0679      2.6040      0.0942      2.7867     82.8396     25.5200
  2067.1000      8.0679      2.6040      0.0942      2.7867     82.9336     25.4353
  2067.2000      8.0679      2.6040      0.0942      2.7867     83.0368     25.3356
  2067.3000      8.1085      2.5943      0.0896      3.3761     83.0859     25.2206
  2067.4000      8.1085      2.5943      0.0896      3.3761     83.0278     25.0897
  2067.5000      8.1096      2.5900      0.0866      3.6359     82.8259     24.9425
  2067.6000      8.1096      2.5900      0.0866      3.6359     82.4627     24.7782
  2067.7000      8.1096      2.5900      0.0866      3.6359     81.9393     24.5958
  2067.8000      8.1783      2.5869      0.0811      3.8255     81.2749     24.3942
  2067.9000      8.1783      2.5869      0.0811      3.8255     80.4972     24.1722
  2068.0000      8.2654      2.5860      0.0761      3.8806     79.6415     23.9287
  2068.1000      8.2654      2.5860      0.0761      3.8806     78.7415     23.6622
  2068.2000      8.2654      2.5860      0.0761      3.8806     77.8275     23.3714
  2068.3000      8.2058      2.5850      0.0674      3.9388     76.9208     23.0549
  2068.4000      8.2058      2.5850      0.0674      3.9388     76.0347     22.7115
  2068.5000      8.0627      2.5847      0.0622      3.9579     75.1745     22.3406
  2068.6000      8.0627      2.5847      0.0622      3.9579     74.3387     21.9430
  2068.7000      8.0627      2.5847      0.0622      3.9579     73.5239     21.5210
  2068.8000      8.0855      2.5855      0.0577      3.9111     72.7257     21.0793
  2068.9000      8.0855      2.5855      0.0577      3.9111     71.9403     20.6245
  2069.0000      8.2069      2.5867      0.0570      3.8348     71.1677     20.1657
  2069.1000      8.2069      2.5867      0.0570      3.8348     70.4105     19.7130
  2069.2000      8.2069      2.5867      0.0570      3.8348     69.6733     19.2770
  2069.3000      8.2036      2.5883      0.0575      3.7410     68.9617     18.8674
  2069.4000      8.2036      2.5883      0.0575      3.7410     68.2805     18.4924
  2069.5000      8.1484      2.5882      0.0573      3.7455     67.6322     18.1576
  2069.6000      8.1484      2.5882      0.0573      3.7455     67.0187     17.8654
  2069.7000      8.1484      2.5882      0.0573      3.7455     66.4403     17.6155
  2069.8000      8.1355      2.5865      0.0549      3.8510     65.8956     17.4050
  2069.9000      8.1355      2.5865      0.0549      3.8510     65.3838     17.2292
  2070.0000      8.1263      2.5851      0.0522      3.9305     64.9044     17.0823
  2070.1000      8.1263      2.5851      0.0522      3.9305     64.4580     16.9583
  2070.2000      8.1263      2.5851      0.0522      3.9305     64.0444     16.8516
  2070.3000      8.0801      2.5847      0.0480      3.9593     63.6640     16.7576
  2070.4000      8.0801      2.5847      0.0480      3.9593     63.3156     16.6734
  2070.5000      8.0888      2.5856      0.0457      3.9036     63.0013     16.5975
  2070.6000      8.0888      2.5856      0.0457      3.9036     62.7261     16.5304
  2070.7000      8.0888      2.5856      0.0457      3.9036     62.4979     16.4738
  2070.8000      8.1823      2.5877      0.0427      3.7743     62.3297     16.4308
  2070.9000      8.1823      2.5877      0.0427      3.7743     62.2389     16.4047
  2071.0000      8.2509      2.5887      0.0408      3.7163     62.2442     16.3986
  2071.1000      8.2509      2.5887      0.0408      3.7163     62.3633     16.4146
  2071.2000      8.2509      2.5887      0.0408      3.7163     62.6059     16.4536
  2071.3000      8.2172      2.5881      0.0377      3.7519     62.9716     16.5146
  2071.4000      8.2172      2.5881      0.0377      3.7519     63.4478     16.5957
  2071.5000      8.2028      2.5856      0.0362      3.9055     64.0095     16.6944
  2071.6000      8.2028      2.5856      0.0362      3.9055     64.6227     16.8080
  2071.7000      8.2028      2.5856      0.0362      3.9055     65.2483     16.9346
  2071.8000      8.2235      2.5752      0.0369      4.5353     65.8476     17.0741
  2071.9000      8.2235      2.5752      0.0369      4.5353     66.3885     17.2280
  2072.0000      8.1997      2.5594      0.0403      5.4929     66.8501     17.4001
  2072.1000      8.1997      2.5594      0.0403      5.4929     67.2240     17.5962
  2072.2000      8.1997      2.5594      0.0403      5.4929     67.5166     17.8241
  2072.3000      8.1356      2.5106      0.0495      8.4488     67.7437     18.0932
  2072.4000      8.1356      2.5106      0.0495      8.4488     67.9308     18.4137
  2072.5000      8.1140      2.4552      0.0568     11.8037     68.1067     18.7960
  2072.6000      8.1140      2.4552      0.0568     11.8037     68.2976     19.2492
  2072.7000      8.1140      2.4552      0.0568     11.8037     68.5259     19.7804
  2072.8000      8.1355      2.3378      0.0651     18.9210     68.8064     20.3930
  2072.9000      8.1355      2.3378      0.0651     18.9210     69.1462     21.0861
  2073.0000      8.1694      2.2444      0.0667     24.5836     69.5451     21.8540
  2073.1000      8.1694      2.2444      0.0667     24.5836     69.9967     22.6859
  2073.2000      8.1694      2.2444      0.0667     24.5836     70.4901     23.5671
  2073.3000      8.1723      2.1021      0.0606     33.2037     71.0112     24.4790
  2073.4000      8.1723      2.1021      0.0606     33.2037     71.5423     25.4009
  2073.5000      8.1265      2.0176      0.0502     38.3263     72.0644     26.3107
  2073.6000      8.1265      2.0176      0.0502     38.3263     72.5574     27.1858
  2073.7000      8.1265      2.0176      0.0502     38.3263     73.0015     28.0041
  2073.8000      8.1295      1.9220      0.0256     44.1242     73.3832     28.7446
  2073.9000      8.1295      1.9220      0.0256     44.1242     73.6974     29.3882
  2074.0000      8.1975      1.8857      0.0053     46.3195     73.9525     29.9188
  2074.1000      8.1975      1.8857      0.0053     46.3195     74.1715     30.3244
  2074.2000      8.1975      1.8857      0.0053     46.3195     74.3941     30.5984
  2074.3000      8.2651      1.8814     -0.0241     46.5805     74.6724     30.7394
  2074.4000      8.2651      1.8814     -0.0241     46.5805     75.0646     30.7527
  2074.5000      8.3255      1.9146     -0.0379     44.5677     75.6276     30.6489
  2074.6000      8.3255      1.9146     -0.0379     44.5677     76.4083     30.4436
  2074.7000      8.3255      1.9146     -0.0379     44.5677     77.4377     30.1554
  2074.8000      8.3203      2.0150     -0.0426     38.4836     78.7261     29.8046
  2074.9000      8.3203      2.0150     -0.0426     38.4836     80.2632     29.4110
  2075.0000      8.2447      2.1062     -0.0345     32.9584     82.0175     28.9929
  2075.1000      8.2447      2.1062     -0.0345     32.9584     83.9427     28.5660
  2075.2000      8.2447      2.1062     -0.0345     32.9584     85.9819     28.1427
  2075.3000      8.2121      2.2510     -0.0122     24.1848     88.0746     27.7328
