~Version Information
VERS.                      2.0: CWLS Log ASCII Standard - VERSION 2.0
WRAP.                       NO: One line per depth step
~Well Information Block
STRT.FT               240.0000: 
STOP.FT              1452.5000: 
STEP.FT                 0.1000: 
NULL.                -999.2500: 
COMP.          Petrogulf Corporation: COMPANY
WELL.          Robinson 15-12R: WELL
FLD.           Purgatorie River: FIELD
LOC.           1752' FNL & 561' FWL: LOCATION
PROV.                 Colorado: PROVINCE
CNTY.               Las Animas: COUNTRY
SRVC.                Patterson: SERVICE COMPANY
DATE.          Tue Sep 13 15:07:52 2005: LOG DATE
UWI.                          : UNIQUE WELL ID
~Curve Information Block
DEPT.FT            0 000 00 00: Depth
DCAL.in                       : CDL Caliper
RHOB.g/cc                     : CDL Bulk Density
RHOC.g/cc                     : CDL Density Correction
DPOR.pu                       : CDL Density Porosity
GR.GAPI                       : Gamma Ray
NPOR.pu                       : Neutron Porosity
~Parameter Information Block
~A  Depth       DCAL        RHOB        RHOC        DPOR         GR         NPOR    
# ...
  1036.8000      7.9855      2.5799      0.1079      4.2479    188.1924     28.9982
  1036.9000      7.9855      2.5966      0.1110      3.2352    183.6298     28.4136
  1037.0000      7.9448      2.5813      0.0880      4.1645    178.2514     27.4473
  1037.1000      7.9448      2.5551      0.0243      5.7519    172.4937     26.7308
  1037.2000      7.9448      2.5427      0.0539      6.5057    168.7959     26.7216
  1037.3000      7.9454      2.5392      0.0710      6.7169    169.5504     27.0985
  1037.4000      7.9454      2.5361      0.0348      6.9038    172.8821     27.3533
  1037.5000      7.9312      2.5359      0.0539      6.9160    175.0824     27.4517
  1037.6000      7.9312      2.5347      0.0608      6.9858    170.8301     27.5261
  1037.7000      7.9312      2.5302      0.0081      7.2613    161.7776     27.4732
  1037.8000      7.9255      2.5314      0.0106      7.1866    156.6380     27.1705
  1037.9000      7.9255      2.5423      0.0227      6.5301    159.0341     26.7425
  1038.0000      7.9355      2.5530      0.0459      5.8797    163.8774     26.5062
  1038.1000      7.9355      2.5501      0.0653      6.0529    165.1853     26.6017
  1038.2000      7.9355      2.5370      0.0518      6.8475    165.9018     26.9546
  1038.3000      7.9381      2.5337      0.0348      7.0497    171.2004     27.3375
  1038.4000      7.9381      2.5451      0.0738      6.3603    176.1784     27.5478
  1038.5000      7.9230      2.5573      0.0909      5.6168    175.7603     27.5574
  1038.6000      7.9230      2.5639      0.1355      5.2158    173.3694     27.5024
  1038.7000      7.9230      2.5645      0.1339      5.1836    171.3975     27.6063
  1038.8000      7.9124      2.5672      0.0598      5.0202    170.2498     27.7980
  1038.9000      7.9124      2.5913      0.1127      3.5596    172.5879     27.8271
  1039.0000      7.9017      2.6329      0.1616      1.0375    177.4794     27.5863
  1039.1000      7.9017      2.6640      0.1660     -0.8462    182.2031     27.2025
  1039.2000      7.9017      2.6674      0.1670     -1.0527    185.7549     26.9627
  1039.3000      7.9057      2.6461      0.1204      0.2345    184.4771     26.8167
  1039.4000      7.9057      2.6161      0.0841      2.0547    176.1052     26.5910
  1039.5000      7.9134      2.5935      0.0905      3.4243    165.3978     26.4124
  1039.6000      7.9134      2.5846      0.0793      3.9615    159.7582     26.5460
  1039.7000      7.9134      2.5882      0.0763      3.7475    160.5203     27.0816
  1039.8000      7.9031      2.5994      0.0697      3.0688    162.6290     27.7207
  1039.9000      7.9031      2.6125      0.0660      2.2708    161.3060     28.1725
  1040.0000      7.9333      2.6189      0.0723      1.8843    157.1406     28.1131
  1040.1000      7.9333      2.6121      0.0233      2.2989    154.2873     27.5944
  1040.2000      7.9333      2.5990      0.0182      3.0879    156.0766     27.2475
  1040.3000      7.9639      2.5893     -0.0109      3.6789    159.3338     27.3837
  1040.4000      7.9639      2.5807      0.0347      4.1989    160.0123     27.8766
  1040.5000      7.9785      2.5686     -0.0242      4.9337    160.8678     28.3924
  1040.6000      7.9785      2.5567     -0.0097      5.6524    163.5498     28.6027
  1040.7000      7.9785      2.5517     -0.0161      5.9563    165.8546     28.3501
  1040.8000      7.9628      2.5621     -0.0385      5.3254    167.7587     27.7164
  1040.9000      7.9628      2.5817      0.0453      4.1364    170.1622     27.1924
  1041.0000      7.9543      2.5867      0.0088      3.8349    172.0932     27.2307
  1041.1000      7.9543      2.5750     -0.0091      4.5429    173.4112     27.6399
  1041.2000      7.9543      2.5669      0.0134      5.0377    175.1992     27.7548
  1041.3000      7.9602      2.5756      0.0170      4.5119    177.1597     27.4519
  1041.4000      7.9602      2.6013      0.0374      2.9510    176.9688     27.2129
  1041.5000      7.9592      2.6296      0.0993      1.2351    172.9488     27.0886
  1041.6000      7.9592      2.6425      0.0857      0.4526    169.5125     26.8376
  1041.7000      7.9592      2.6369      0.0623      0.7966    169.2199     26.5591
  1041.8000      7.9587      2.6174      0.0528      1.9780    168.1929     26.4316
  1041.9000      7.9587      2.5909      0.0536      3.5833    165.1790     26.4039
  1042.0000      7.9587      2.5707      0.0212      4.8036    161.7268     26.5119
  1042.1000      7.9587      2.5638      0.0132      5.2230    160.5181     26.7388
  1042.2000      7.9587      2.5583      0.0530      5.5602    162.2384     26.8814
  1042.3000      7.9641      2.5466      0.0267      6.2688    165.3197     26.7467
  1042.4000      7.9641      2.5411      0.0320      6.5997    168.5326     26.2791
  1042.5000      7.9521      2.5545      0.0543      5.7894    170.1550     25.7759
  1042.6000      7.9521      2.5858      0.0593      3.8889    169.3748     25.5333
  1042.7000      7.9521      2.6153      0.0990      2.1034    165.6947     25.6434
  1042.8000      7.9466      2.6203      0.1030      1.7996    161.1117     26.1240
  1042.9000      7.9466      2.5980      0.1025      3.1512    161.1806     26.8089
  1043.0000      7.9433      2.5601      0.0701      5.4489    168.0784     27.3750
  1043.1000      7.9433      2.5283      0.0311      7.3775    176.0087     27.5216
  1043.2000      7.9433      2.5205      0.0411      7.8488    176.9136     27.2095
  1043.3000      7.9112      2.5340      0.0313      7.0275    171.6088     26.7245
  1043.4000      7.9112      2.5583      0.0358      5.5552    169.1929     26.4734
  1043.5000      7.9288      2.5870      0.0699      3.8190    171.8820     26.8203
  1043.6000      7.9288      2.6096      0.1361      2.4505    173.8815     27.6193
  1043.7000      7.9288      2.6139      0.1005      2.1864    173.4514     28.1745
  1043.8000      7.9447      2.6001      0.1329      3.0243    172.9321     28.1143
  1043.9000      7.9447      2.5777      0.0850      4.3844    172.8219     27.7883
  1044.0000      7.9499      2.5586      0.0428      5.5376    173.4314     27.7712
  1044.1000      7.9499      2.5439      0.0795      6.4289    173.0500     28.1673
  1044.2000      7.9499      2.5276      0.0307      7.4188    168.4378     28.4917
  1044.3000      7.9390      2.5219      0.0015      7.7625    163.3020     28.2592
  1044.4000      7.9390      2.5429      0.0518      6.4937    161.6064     27.5043
  1044.5000      7.9420      2.5803      0.1019      4.2270    158.6949     26.7806
  1044.6000      7.9420      2.6064      0.1493      2.6430    151.0823     26.4801
  1044.7000      7.9420      2.6148      0.1146      2.1325    143.8497     26.4493
  1044.8000      7.9332      2.6239      0.1085      1.5829    140.7422     26.4010
  1044.9000      7.9332      2.6390      0.1197      0.6661    140.3182     26.3561
  1045.0000      7.9398      2.6477      0.1479      0.1412    140.4136     26.3502
  1045.1000      7.9398      2.6465      0.1153      0.2133    140.5423     26.2009
  1045.2000      7.9398      2.6403      0.1168      0.5858    139.4476     25.9365
  1045.3000      7.9126      2.6266      0.1154      1.4168    137.1949     25.7372
  1045.4000      7.9126      2.6106      0.0283      2.3907    136.8046     25.5473
  1045.5000      7.9257      2.6046      0.0727      2.7532    137.7392     25.4090
  1045.6000      7.9257      2.6071      0.0592      2.5982    136.6396     25.6314
  1045.7000      7.9257      2.6088      0.0788      2.4972    132.9178     26.0357
  1045.8000      7.9390      2.6015      0.0918      2.9410    130.7797     25.9398
  1045.9000      7.9390      2.5876      0.0149      3.7834    132.9021     25.2269
  1046.0000      7.9239      2.5836      0.0336      4.0221    134.7836     24.4126
  1046.1000      7.9239      2.5921      0.0739      3.5093    134.1089     23.9407
  1046.2000      7.9239      2.5960      0.1147      3.2736    133.6976     23.9201
  1046.3000      7.9208      2.5971     -0.0002      3.2077    132.4660     24.0978
