~Version Information
VERS.                      2.0: CWLS Log ASCII Standard - VERSION 2.0
WRAP.                       NO: One line per depth step
~Well Information Block
STRT.FT               250.0000: 
STOP.FT              1573.7000: 
STEP.FT                 0.1000: 
NULL.                -999.2500: 
COMP.          Pioneer Natural Resources: COMPANY
WELL.          Big Cat Federal 44-1: WELL
FLD.           Purgatoire River: FIELD
LOC.           197' FSL & 973' FEL--: LOCATION
CNTY.               Las Animas: COUNTY
SRVC.                Patterson: SERVICE COMPANY
DATE.          Mon Apr 24 08:33:37 2006: LOG DATE
UWI.           05 071 08042 00: UNIQUE WELL ID
STAT.                 Colorado: STATE
~Curve Information Block
DEPT.FT            0 000 00 00: Depth
DCAL.in                       : CDL Caliper
RHOB.g/cc                     : CDL Bulk Density
RHOC.g/cc                     : CDL Density Correction
DPOR.pu                       : CDL Density Porosity
NPOR.pu                       : Neutron Porosity
GR.GAPI                       : Gamma Ray
~Parameter Information Block
~A  Depth       DCAL        RHOB        RHOC        DPOR        NPOR         GR     
# ...
   768.4000      7.8630      2.5631      0.0194      5.2678     23.3428    119.4659
   768.5000      7.8611      2.5482      0.0320      6.1689     23.2002    125.8183
   768.6000      7.8611      2.5242      0.0455      7.6247     23.3055    130.0571
   768.7000      7.8611      2.4988      0.0099      9.1609     23.7189    125.8125
   768.8000      7.8597      2.4860     -0.0233      9.9405     24.4967    117.8504
   768.9000      7.8597      2.4927     -0.0028      9.5357     25.4167    114.1316
   769.0000      7.8607      2.5077      0.0193      8.6230     26.1176    116.6711
   769.1000      7.8607      2.5130      0.0348      8.3042     26.4113    121.3262
   769.2000      7.8607      2.5026      0.0514      8.9342     26.1991    123.7310
   769.3000      7.8627      2.4837      0.0462     10.0785     25.5024    123.9957
   769.4000      7.8627      2.4642      0.0393     11.2582     24.6414    125.5145
   769.5000      7.8634      2.4519      0.0607     12.0034     24.1819    128.7167
   769.6000      7.8634      2.4583      0.0692     11.6190     24.3482    132.1125
   769.7000      7.8634      2.4856      0.1261      9.9638     24.5864    134.9080
   769.8000      7.8631      2.5127      0.1114      8.3241     24.4622    137.9072
   769.9000      7.8631      2.5201      0.1220      7.8705     24.0408    141.5412
   770.0000      7.8635      2.5185      0.0567      7.9691     23.4219    142.5976
   770.1000      7.8635      2.5174      0.1673      8.0381     22.9151    141.2642
   770.2000      7.8635      2.5005      0.1610      9.0587     22.8820    141.0766
   770.3000      7.8657      2.4731      0.0449     10.7198     23.1338    141.2193
   770.4000      7.8657      2.4649      0.0836     11.2176     23.1957    139.9141
   770.5000      7.8690      2.4894      0.0771      9.7313     23.0165    139.9485
   770.6000      7.8690      2.5454      0.1243      6.3378     22.8859    143.4591
   770.7000      7.8690      2.6138      0.1532      2.1935     23.0118    147.0448
   770.8000      7.8761      2.6625      0.2022     -0.7579     23.4698    146.5186
   770.9000      7.8761      2.6882      0.1308     -2.3177     24.0919    139.6599
   771.0000      7.8868      2.7148      0.1533     -3.9260     24.4367    128.9825
   771.1000      7.8868      2.7438      0.1743     -5.6825     24.4580    122.9777
   771.2000      7.8868      2.7603      0.1825     -6.6875     24.7250    125.8570
   771.3000      7.8932      2.7598      0.1743     -6.6546     25.3840    132.3843
   771.4000      7.8932      2.7460      0.1070     -5.8164     26.0667    135.0483
   771.5000      7.8965      2.7231      0.0701     -4.4314     26.6209    131.7597
   771.6000      7.8965      2.6905     -0.0145     -2.4544     26.8221    129.2497
   771.7000      7.8965      2.6532     -0.0333     -0.1915     26.3560    133.3746
   771.8000      7.8984      2.6302     -0.0767      1.2011     25.4171    139.3846
   771.9000      7.8984      2.6271      0.0674      1.3893     24.6536    138.9225
   772.0000      7.8986      2.6241      0.0891      1.5678     24.1325    132.7528
   772.1000      7.8986      2.6109      0.0868      2.3680     23.5219    128.7109
   772.2000      7.8986      2.5856      0.1159      3.9031     22.9635    128.6350
   772.3000      7.8986      2.5467      0.0302      6.2628     22.7896    129.9276
   772.4000      7.8986      2.5153      0.0039      8.1637     23.1268    131.5988
   772.5000      7.8972      2.5123      0.0456      8.3440     23.4893    132.6640
   772.6000      7.8972      2.5261      0.0498      7.5062     23.1357    134.1244
   772.7000      7.8972      2.5349      0.0595      6.9728     22.3063    139.2713
   772.8000      7.8950      2.5310      0.0778      7.2111     21.6186    147.0810
   772.9000      7.8950      2.5193      0.0388      7.9187     21.1057    151.8951
   773.0000      7.8955      2.5081      0.0594      8.6027     20.8924    150.2496
   773.1000      7.8955      2.4999      0.0544      9.0967     20.8397    145.2103
   773.2000      7.8955      2.5029      0.0534      8.9126     20.5800    141.9023
   773.3000      7.8962      2.5380      0.0522      6.7879     20.2852    141.6821
   773.4000      7.8962      2.6135      0.0895      2.2091     20.1439    143.9606
   773.5000      7.8940      2.7072      0.1288     -3.4671     19.8507    144.6839
   773.6000      7.8940      2.7822      0.1793     -8.0092     19.4421    138.5363
   773.7000      7.8940      2.8121      0.2066     -9.8246     19.3937    128.7509
   773.8000      7.8909      2.8062      0.1590     -9.4647     19.6951    121.7993
   773.9000      7.8909      2.7840      0.1858     -8.1206     20.0648    118.8106
   774.0000      7.8925      2.7436      0.1116     -5.6720     20.5795    116.5800
   774.1000      7.8925      2.6945     -0.0163     -2.6984     21.1523    111.8962
   774.2000      7.8925      2.6529      0.0181     -0.1730     21.5229    107.4697
   774.3000      7.9034      2.6156     -0.0769      2.0830     21.8218    104.4753
   774.4000      7.9034      2.5804     -0.1165      4.2163     22.1773     99.6182
   774.5000      7.9165      2.5501     -0.1111      6.0537     22.4702     94.8209
   774.6000      7.9165      2.5368     -0.1270      6.8588     22.7811     93.5966
   774.7000      7.9165      2.5543     -0.0399      5.8005     23.0499     93.2261
   774.8000      7.9210      2.5918      0.0404      3.5294     22.9702     92.3739
   774.9000      7.9210      2.6229      0.0707      1.6453     22.7941     93.1097
   775.0000      7.9221      2.6371      0.0599      0.7811     23.0577     92.3887
   775.1000      7.9221      2.6390      0.0814      0.6662     23.7129     86.6782
   775.2000      7.9221      2.6250      0.1163      1.5173     24.4925     79.0075
   775.3000      7.9244      2.5950      0.0739      3.3352     25.2504     75.5279
   775.4000      7.9244      2.5672      0.0356      5.0190     25.7542     79.7764
   775.5000      7.9252      2.5549      0.0470      5.7640     25.9022     89.5700
   775.6000      7.9252      2.5552      0.0577      5.7451     25.8277     97.9446
   775.7000      7.9252      2.5603      0.0399      5.4371     25.6114    101.6551
   775.8000      7.9246      2.5645      0.0671      5.1823     25.3318    104.1013
   775.9000      7.9246      2.5705      0.0472      4.8210     25.0555    109.3203
   776.0000      7.9254      2.5800      0.1149      4.2397     24.6055    117.0972
   776.1000      7.9254      2.5751      0.0898      4.5369     23.9270    122.9184
   776.2000      7.9254      2.5404      0.0343      6.6432     23.6048    126.0648
   776.3000      7.9262      2.4986     -0.0266      9.1762     23.8481    129.6705
   776.4000      7.9262      2.4880     -0.0135      9.8196     23.9713    132.9840
   776.5000      7.9253      2.5115      0.0412      8.3925     23.6693    133.2043
   776.6000      7.9253      2.5431      0.0516      6.4767     23.4851    129.8731
   776.7000      7.9253      2.5785      0.0149      4.3326     23.7900    122.9136
   776.8000      7.9251      2.6279      0.0874      1.3395     24.1384    115.4303
   776.9000      7.9251      2.6713      0.1127     -1.2880     24.0186    110.4651
   777.0000      7.9261      2.6792      0.1109     -1.7707     23.4455    107.2736
   777.1000      7.9261      2.6497      0.1047      0.0157     22.9519    109.0189
   777.2000      7.9261      2.6122      0.0188      2.2909     23.1186    116.3398
   777.3000      7.9268      2.6025      0.0314      2.8761     23.7983    122.0368
   777.4000      7.9268      2.6204      0.0647      1.7969     24.4847    123.5762
   777.5000      7.9283      2.6323      0.0842      1.0743     24.9068    124.7147
   777.6000      7.9283      2.6198      0.0655      1.8303     25.1680    128.0092
   777.7000      7.9283      2.5960      0.0501      3.2742     25.5343    134.4710
   777.8000      7.9293      2.5765      0.0324      4.4544     25.8446    140.7057
   777.9000      7.9293      2.5648      0.0539      5.1640     25.6164    140.2817
