~Version Information
VERS.                      2.0: CWLS Log ASCII Standard - VERSION 2.0
WRAP.                       NO: One line per depth step
~Well Information Block
STRT.FT               -11.2500: 
STOP.FT              1767.0000: 
STEP.FT                 0.2500: 
NULL.                -999.2500: 
COMP.          Petrogulf Corporation: COMPANY
WELL.             McLeod 9-42R: WELL
FLD.           Purgatoire River: FIELD
LOC.           1748' FNL & 372' FEL--: LOCATION
PROV.                 Colorado: PROVINCE
CNTY.               Las Animas: COUNTRY
SRVC.                         : SERVICE COMPANY
DATE.          Thu Sep 29 13:28:07 2005: LOG DATE
UWI.                          : UNIQUE WELL ID
~Curve Information Block
DEPT.FT            0 000 00 00: Depth
GR.GAPI                       : Gamma Ray
CCL.                          : Casing Collar Locator
AMP3.mV                       : CBL 3' Amplitude
AMP5.mV                       : CBL 5' Amplitude
~Parameter Information Block
~A  Depth        GR         CCL         AMP3        AMP5    
# ...
   223.2500     81.0686      0.0000      2.5881      0.1736
   223.5000     80.3496      0.0000      2.4663      0.1692
   223.7500     80.7909      0.0000      2.3734      0.1598
   224.0000     82.6555      0.0000      2.3056      0.1512
   224.2500     85.4138      0.0000      2.2386      0.1505
   224.5000     88.1575      0.0000      2.1487      0.1620
   224.7500     90.2944      0.0000      2.0303      0.1834
   225.0000     91.6197      0.0000      1.9008      0.2061
   225.2500     91.9641      0.0000      1.7937      0.2224
   225.5000     91.3371      0.0000      1.7346      0.2304
   225.7500     90.3303      0.0000      1.7151      0.2321
   226.0000     89.7309      0.0000      1.6920      0.2306
   226.2500     89.6206      0.0000      1.6249      0.2306
   226.5000     89.3202      0.0000      1.5157      0.2358
   226.7500     88.2544      0.0000      1.4066      0.2418
   227.0000     86.5135      0.0000      1.3386      0.2370
   227.2500     84.5801      0.0000      1.3187      0.2130
   227.5000     82.7729      0.0000      1.3201      0.1734
   227.7500     81.0339      0.0000      1.3042      0.1311
   228.0000     79.1876      0.0000      1.2428      0.0983
   228.2500     77.3325      0.0000      1.1312      0.0802
   228.5000     75.8462      0.0000      0.9896      0.0741
   228.7500     75.0002      0.0000      0.8556      0.0708
   229.0000     74.7086      0.0000      0.7683      0.0603
   229.2500     74.6786      0.0000      0.7459      0.0394
   229.5000     74.6908      0.0000      0.7703      0.0196
   229.7500     74.6343      0.0000      0.8047      0.0216
   230.0000     74.3773      0.0000      0.8298      0.0576
   230.2500     73.7587      0.0000      0.8558      0.1175
   230.5000     72.7458      0.0000      0.8990      0.1742
   230.7500     71.4611      0.0000      0.9603      0.2068
   231.0000     69.9750      0.0000      1.0320      0.2141
   231.2500     68.2721      0.0000      1.1110      0.2076
   231.5000     66.5152      0.0000      1.1973      0.1968
   231.7500     65.0247      0.0000      1.2903      0.1860
   232.0000     63.8995      0.0000      1.3923      0.1790
   232.2500     63.0051      0.0000      1.5136      0.1786
   232.5000     62.3260      0.0000      1.6643      0.1817
   232.7500     61.9304      0.0000      1.8390      0.1802
   233.0000     61.5198      0.0000      2.0109      0.1690
   233.2500     60.3609      0.0000      2.1421      0.1529
   233.5000     57.8685      0.0000      2.2060      0.1422
   233.7500     54.2972      0.0000      2.2081      0.1417
   234.0000     50.8296      0.0000      2.1836      0.1471
   234.2500     48.8559      0.0000      2.1694      0.1511
   234.5000     49.0756      0.0000      2.1751      0.1504
   234.7500     51.2512      0.0000      2.1814      0.1466
   235.0000     54.4669      0.0000      2.1626      0.1455
   235.2500     57.2968      0.0000      2.1096      0.1557
   235.5000     58.1133      0.0000      2.0375      0.1839
   235.7500     56.0140      0.0000      1.9757      0.2276
   236.0000     51.7334      0.0000      1.9473      0.2719
   236.2500     47.3805      0.0000      1.9558      0.2979
   236.5000     45.0021      0.0000      1.9885      0.2960
   236.7500     45.1827      0.0000      2.0269      0.2724
   237.0000     46.8279      0.0000      2.0533      0.2407
   237.2500     48.2705      0.0000      2.0546      0.2113
   237.5000     48.7006      0.0000      2.0282      0.1887
   237.7500     48.6734      0.0000      1.9840      0.1737
   238.0000     49.5591      0.0000      1.9369      0.1641
   238.2500     52.6987      0.0000      1.8939      0.1540
   238.5000     58.6613      0.0000      1.8489      0.1383
   238.7500     66.7407      0.0000      1.7902      0.1163
   239.0000     75.2667      0.0000      1.7130      0.0917
   239.2500     82.8129      0.0000      1.6244      0.0683
   239.5000     89.1122      0.0000      1.5404      0.0498
   239.7500     94.6070      0.0000      1.4812      0.0402
   240.0000     99.2895      0.0000      1.4704      0.0404
   240.2500    102.3730      0.0000      1.5305      0.0456
   240.5000    103.0154      0.0000      1.6697      0.0523
   240.7500    100.8795      0.0000      1.8699      0.0687
   241.0000     96.0247      0.0000      2.0905      0.1090
   241.2500     88.9491      0.0000      2.2910      0.1764
   241.5000     81.1210      0.0000      2.4522      0.2535
   241.7500     74.9842      0.0000      2.5760      0.3132
   242.0000     72.7725      0.0000      2.6688      0.3390
   242.2500     75.0680      0.0000      2.7266      0.3340
   242.5000     80.4485      0.0000      2.7390      0.3156
   242.7500     86.4133      0.0000      2.7059      0.3045
   243.0000     90.8171      0.0000      2.6506      0.3127
   243.2500     92.8881      0.0000      2.6097      0.3370
   243.5000     93.2979      0.0000      2.6041      0.3610
   243.7500     93.3293      0.0000      2.6180      0.3683
   244.0000     93.7815      0.0000      2.6129      0.3540
   244.2500     94.3927      0.0000      2.5723      0.3246
   244.5000     94.2204      0.0000      2.5270      0.2895
   244.7500     92.5725      0.0000      2.5352      0.2541
   245.0000     89.5670      0.0000      2.6360      0.2214
   245.2500     86.0547      0.0000      2.8221      0.1944
   245.5000     83.2640      0.0000      3.0519      0.1769
   245.7500     82.2092      0.0000      3.2833      0.1729
   246.0000     83.0201      0.0000      3.4950      0.1853
   246.2500     84.9079      0.0000      3.6805      0.2147
   246.5000     86.8941      0.0000      3.8369      0.2558
   246.7500     88.4789      0.0000      3.9643      0.2962
   247.0000     89.7152      0.0000      4.0678      0.3208
   247.2500     90.9487      0.0000      4.1484      0.3219
   247.5000     92.4732      0.0000      4.1917      0.3041
   247.7500     94.1487      0.0000      4.1794      0.2818
   248.0000     95.2925      0.0000      4.1229      0.2711
   248.2500     95.1542      0.0000      4.0732      0.2829
   248.5000     93.6168      0.0000      4.0710      0.3182
   248.7500     91.3517      0.0000      4.0968      0.3694
   249.0000     89.2212      0.0000      4.1058      0.4241
   249.2500     87.6811      0.0000      4.0958      0.4686
   249.5000     86.9075      0.0000      4.1020      0.4923
   249.7500     87.3144      0.0000      4.1437      0.4932
   250.0000     89.5177      0.0000      4.2138      0.4780
   250.2500     93.5231      1.9379      4.3111      0.4559
   250.5000     97.9644      0.0000      4.4638      0.4313
   250.7500    100.6224      0.0000      4.7293      0.4029
   251.0000    100.3298      0.0000      5.1677      0.3691
   251.2500     98.2814      0.0000      5.7838      0.3328
   251.5000     96.9069      0.0000      6.4807      0.3042
   251.7500     97.5390      0.0000      7.0966      0.3002
   252.0000     99.5558      0.0000      7.5064      0.3375
   252.2500    101.5082      0.0000      7.6883      0.4183
   252.5000    102.4326      0.0000      7.7044      0.5206
   252.7500    102.1762      0.0000      7.6364      0.6071
   253.0000    101.1042      0.0000      7.5395      0.6499
   253.2500     99.7453      0.0000      7.4359      0.6471
   253.5000     98.6101      0.0000      7.3253      0.6193
   253.7500     98.2504      0.0000      7.1961      0.5900
   254.0000     99.1359      0.0000      7.0326      0.5691
   254.2500    101.0931      0.0000      6.8263      0.5522
   254.5000    102.9544      0.0000      6.5868      0.5306
   254.7500    103.0719      0.0000      6.3372      0.4996
   255.0000    100.4183      0.0000      6.0975      0.4608
   255.2500     95.4119      0.0000      5.8787      0.4215
   255.5000     89.6846      0.0000      5.6965      0.3915
   255.7500     84.7240      0.0000      5.5779      0.3777
   256.0000     80.5863      0.0000      5.5471      0.3802
   256.2500     76.2096      0.0000      5.6045      0.3970
   256.5000     71.0251      0.0000      5.7210      0.4292
