~Version Information
VERS.                      2.0: CWLS Log ASCII Standard - VERSION 2.0
WRAP.                       NO: One line per depth step
~Well Information Block
STRT.FT               577.8000: 
STOP.FT              2445.8000: 
STEP.FT                 0.1000: 
NULL.                -999.2500: 
COMP.          Petrogulf Corporation: COMPANY
WELL.             State 16-32V: WELL
FLD.           Purgatorie River: FIELD
LOC.           1599' FNL & 1783' FEL: LOCATION
CNTY.               Las Animas: COUNTY
SRVC.                         : SERVICE COMPANY
DATE.          Thu Jun 05 16:36:04 2003: LOG DATE
UWI.           05 071 07726 00: UNIQUE WELL ID
STAT.                 Colorado: STATE
~Curve Information Block
DEPT.FT            0 000 00 00: Depth
DCAL.in                       : Caliper from Density Tool
RHOB.g/cc                     : Bulk Density
RHOC.g/cc                     : Density Correction
DPOR.pu                       : Density Porosity
GR.GAPI                       : Gamma Ray
NPOR.pu                       : Neutron Porosity
~Parameter Information Block
~A  Depth       DCAL        RHOB        RHOC        DPOR         GR         NPOR    
# ...
  1816.2000      8.2673      2.3893      0.0359     15.8000     39.6565     11.7947
  1816.3000      8.3476      2.3858      0.0339     16.0140     39.2706     11.6949
  1816.4000      8.3476      2.3858      0.0339     16.0140     38.8776     11.6053
  1816.5000      8.3560      2.3819      0.0315     16.2503     38.4576     11.5311
  1816.6000      8.3560      2.3819      0.0315     16.2503     37.9925     11.4767
  1816.7000      8.3560      2.3819      0.0315     16.2503     37.4710     11.4456
  1816.8000      8.3142      2.3759      0.0285     16.6151     36.8907     11.4399
  1816.9000      8.3142      2.3759      0.0285     16.6151     36.2599     11.4603
  1817.0000      8.2819      2.3730      0.0285     16.7899     35.5982     11.5054
  1817.1000      8.2819      2.3730      0.0285     16.7899     34.9326     11.5731
  1817.2000      8.2819      2.3730      0.0285     16.7899     34.2944     11.6600
  1817.3000      8.2831      2.3713      0.0324     16.8932     33.7135     11.7625
  1817.4000      8.2831      2.3713      0.0324     16.8932     33.2135     11.8773
  1817.5000      8.2734      2.3714      0.0372     16.8852     32.8082     12.0020
  1817.6000      8.2734      2.3714      0.0372     16.8852     32.4994     12.1349
  1817.7000      8.2734      2.3714      0.0372     16.8852     32.2779     12.2759
  1817.8000      8.2657      2.3716      0.0459     16.8727     32.1265     12.4254
  1817.9000      8.2657      2.3716      0.0459     16.8727     32.0232     12.5839
  1818.0000      8.2645      2.3709      0.0517     16.9149     31.9465     12.7516
  1818.1000      8.2645      2.3709      0.0517     16.9149     31.8796     12.9275
  1818.2000      8.2645      2.3709      0.0517     16.9149     31.8122     13.1092
  1818.3000      8.2640      2.3689      0.0602     17.0386     31.7417     13.2922
  1818.4000      8.2640      2.3689      0.0602     17.0386     31.6732     13.4709
  1818.5000      8.2697      2.3678      0.0661     17.1032     31.6167     13.6389
  1818.6000      8.2697      2.3678      0.0661     17.1032     31.5858     13.7896
  1818.7000      8.2697      2.3678      0.0661     17.1032     31.5928     13.9170
  1818.8000      8.2502      2.3679      0.0755     17.0965     31.6488     14.0167
  1818.9000      8.2502      2.3679      0.0755     17.0965     31.7587     14.0860
  1819.0000      8.2469      2.3689      0.0814     17.0391     31.9221     14.1241
  1819.1000      8.2469      2.3689      0.0814     17.0391     32.1312     14.1318
  1819.2000      8.2469      2.3689      0.0814     17.0391     32.3717     14.1114
  1819.3000      8.2097      2.3698      0.0873     16.9847     32.6244     14.0660
  1819.4000      8.2097      2.3698      0.0873     16.9847     32.8651     13.9994
  1819.5000      8.1662      2.3691      0.0881     17.0258     33.0691     13.9154
  1819.6000      8.1662      2.3691      0.0881     17.0258     33.2127     13.8178
  1819.7000      8.1662      2.3691      0.0881     17.0258     33.2785     13.7099
  1819.8000      8.1706      2.3663      0.0842     17.1953     33.2560     13.5945
  1819.9000      8.1706      2.3663      0.0842     17.1953     33.1453     13.4740
  1820.0000      8.1854      2.3643      0.0790     17.3172     32.9563     13.3500
  1820.1000      8.1854      2.3643      0.0790     17.3172     32.7071     13.2230
  1820.2000      8.1854      2.3643      0.0790     17.3172     32.4205     13.0933
  1820.3000      8.2414      2.3631      0.0689     17.3886     32.1211     12.9601
  1820.4000      8.2414      2.3631      0.0689     17.3886     31.8308     12.8217
  1820.5000      8.2867      2.3642      0.0612     17.3223     31.5659     12.6758
  1820.6000      8.2867      2.3642      0.0612     17.3223     31.3357     12.5192
  1820.7000      8.2867      2.3642      0.0612     17.3223     31.1420     12.3492
  1820.8000      8.2736      2.3685      0.0492     17.0577     30.9801     12.1626
  1820.9000      8.2736      2.3685      0.0492     17.0577     30.8412     11.9574
  1821.0000      8.2691      2.3729      0.0413     16.7948     30.7144     11.7328
  1821.1000      8.2691      2.3729      0.0413     16.7948     30.5888     11.4901
  1821.2000      8.2691      2.3729      0.0413     16.7948     30.4540     11.2326
  1821.3000      8.2636      2.3810      0.0309     16.3052     30.3034     10.9663
  1821.4000      8.2636      2.3810      0.0309     16.3052     30.1331     10.6996
  1821.5000      8.2762      2.3872      0.0259     15.9268     29.9439     10.4429
  1821.6000      8.2762      2.3872      0.0259     15.9268     29.7410     10.2088
  1821.7000      8.2762      2.3872      0.0259     15.9268     29.5342     10.0111
  1821.8000      8.2703      2.3976      0.0222     15.2953     29.3374      9.8635
  1821.9000      8.2703      2.3976      0.0222     15.2953     29.1660      9.7796
  1822.0000      8.2466      2.4052      0.0222     14.8387     29.0366      9.7713
  1822.1000      8.2466      2.4052      0.0222     14.8387     28.9641      9.8474
  1822.2000      8.2466      2.4052      0.0222     14.8387     28.9582     10.0140
  1822.3000      8.2782      2.4175      0.0254     14.0934     29.0248     10.2729
  1822.4000      8.2782      2.4175      0.0254     14.0934     29.1633     10.6227
  1822.5000      8.3094      2.4267      0.0289     13.5309     29.3681     11.0587
  1822.6000      8.3094      2.4267      0.0289     13.5309     29.6311     11.5734
  1822.7000      8.3094      2.4267      0.0289     13.5309     29.9426     12.1585
  1822.8000      8.3195      2.4436      0.0347     12.5091     30.2958     12.8048
  1822.9000      8.3195      2.4436      0.0347     12.5091     30.6893     13.5035
  1823.0000      8.3024      2.4578      0.0385     11.6513     31.1307     14.2466
  1823.1000      8.3024      2.4578      0.0385     11.6513     31.6373     15.0268
  1823.2000      8.3024      2.4578      0.0385     11.6513     32.2366     15.8368
  1823.3000      8.2904      2.4846      0.0440     10.0254     32.9674     16.6680
  1823.4000      8.2904      2.4846      0.0440     10.0254     33.8769     17.5106
  1823.5000      8.3020      2.5061      0.0480      8.7242     35.0152     18.3539
  1823.6000      8.3020      2.5061      0.0480      8.7242     36.4348     19.1862
  1823.7000      8.3020      2.5061      0.0480      8.7242     38.1829     19.9956
  1823.8000      8.2958      2.5407      0.0553      6.6239     40.2967     20.7707
  1823.9000      8.2958      2.5407      0.0553      6.6239     42.8036     21.5018
  1824.0000      8.3763      2.5620      0.0610      5.3342     45.7174     22.1818
  1824.1000      8.3763      2.5620      0.0610      5.3342     49.0392     22.8066
  1824.2000      8.3763      2.5620      0.0610      5.3342     52.7595     23.3754
  1824.3000      8.4950      2.5841      0.0687      3.9936     56.8597     23.8898
  1824.4000      8.4950      2.5841      0.0687      3.9936     61.3117     24.3524
  1824.5000      8.5679      2.5896      0.0722      3.6596     66.0806     24.7664
  1824.6000      8.5679      2.5896      0.0722      3.6596     71.1191     25.1337
  1824.7000      8.5679      2.5896      0.0722      3.6596     76.3679     25.4550
  1824.8000      8.5927      2.5848      0.0739      3.9495     81.7525     25.7293
  1824.9000      8.5927      2.5848      0.0739      3.9495     87.1840     25.9546
  1825.0000      8.5644      2.5763      0.0734      4.4658     92.5590     26.1287
  1825.1000      8.5644      2.5763      0.0734      4.4658     97.7666     26.2495
  1825.2000      8.5644      2.5763      0.0734      4.4658    102.6954     26.3167
  1825.3000      8.4551      2.5626      0.0726      5.2945    107.2413     26.3321
  1825.4000      8.4551      2.5626      0.0726      5.2945    111.3199     26.2998
  1825.5000      8.3391      2.5557      0.0728      5.7141    114.8710     26.2266
  1825.6000      8.3391      2.5557      0.0728      5.7141    117.8680     26.1219
  1825.7000      8.3391      2.5557      0.0728      5.7141    120.3186     25.9964
