~Version Information
VERS.                      2.0: CWLS Log ASCII Standard - VERSION 2.0
WRAP.                       NO: One line per depth step
~Well Information Block
STRT.FT               664.0000: 
STOP.FT              1615.5000: 
STEP.FT                 0.2500: 
NULL.                -999.2500: 
COMP.          Petrogulf Corporation: COMPANY
WELL.          Great Plains 22-21R: WELL
FLD.           Purgatorie River: FIELD
LOC.           73' FNL & 1992' FWL: LOCATION
PROV.                 Colorado: PROVINCE
CNTY.               Las Animas: COUNTRY
SRVC.                Patterson: SERVICE COMPANY
DATE.          Thu Sep 08 08:05:26 2005: LOG DATE
UWI.                          : UNIQUE WELL ID
~Curve Information Block
DEPT.FT            0 000 00 00: Depth
SP.mV                         : DIL Spontaneous Potential
RILD.Ohm-m                    : DIL Deep Resistivity
RILM.Ohm-m                    : DIL Medium Resistivity
RLL3.Ohm-m                    : DIL Shallow Resistivity
GR.GAPI                       : Gamma Ray
~Parameter Information Block
~A  Depth        SP         RILD        RILM        RLL3         GR     
   664.0000     40.2021      5.4331 100000.0000      1.6810    110.9150
   664.2500     38.0732      5.7197 100000.0000      2.8550    115.3288
   664.5000     35.0983      5.9404 100000.0000      5.5927    106.0609
   664.7500     32.3229      6.0384 100000.0000     10.8548    102.2225
   665.0000     31.0963      5.8670 100000.0000     10.0507    104.0708
   665.2500     31.1071      5.4759 100000.0000      7.8966    107.4632
   665.5000     30.3866      5.3820 100000.0000      8.5412    102.9271
   665.7500     28.8353      5.8220 100000.0000     12.0285    105.3399
   666.0000     27.6193      6.5685 100000.0000      9.8812    103.7207
   666.2500     26.6344      7.4396 100000.0000      8.7373    102.6724
   666.5000     25.8900      8.0157 100000.0000      1.9386    111.9371
   666.7500     24.9160      8.3983 100000.0000      1.3999    115.9135
   667.0000     24.0125      8.6677 100000.0000      0.6926    111.8968
   667.2500     23.2320      8.9078 100000.0000     -0.1318    103.0938
   667.5000     22.9214      8.9000 100000.0000     -0.1078    101.0426
   667.7500     23.0735      8.0577 100000.0000      0.3108    106.4852
   668.0000     23.9206      6.9462 100000.0000      1.2396    103.7265
   668.2500     25.4815      5.8838 100000.0000      5.2976    100.3386
   668.5000     26.4095      5.3530 100000.0000      1.8549     95.2373
   668.7500     26.5750      5.3297 100000.0000      1.6665     95.9344
   669.0000     26.7612      5.6981 100000.0000      2.6263    103.8603
   669.2500     25.5468      6.5030 100000.0000      1.9384    109.4694
   669.5000     24.6491      7.8541 100000.0000      1.6227    103.0566
   669.7500     24.5576      9.4950 100000.0000      0.6449    101.6065
   670.0000     25.3142     11.3789 100000.0000      0.4890     89.3278
   670.2500     26.3350     12.8928 100000.0000      0.3828     91.5980
   670.5000     27.4516     13.9580 100000.0000      0.8225     91.8721
   670.7500     28.5068     14.4536 100000.0000      0.1318     93.0792
   671.0000     29.0501     14.4272 100000.0000      1.3512    105.8103
   671.2500     28.7186     14.3064 100000.0000      0.7075    108.5945
   671.5000     26.9190     14.0662 100000.0000     -0.0848    109.5991
   671.7500     24.2290     13.3093 100000.0000     -0.1696    108.5487
   672.0000     21.3696     12.6907 100000.0000     -0.8281    110.6280
   672.2500     19.0392     12.8338 100000.0000     -0.2719    112.8171
   672.5000     16.8603     13.4659 100000.0000      0.7827    115.2844
   672.7500     15.1616     13.4570 100000.0000      0.7651    113.2836
   673.0000     13.6490     12.8591 100000.0000      0.7685    113.7115
   673.2500     12.3997     12.1525 100000.0000      1.1797    106.8763
   673.5000     11.2703     12.0998 100000.0000      1.0168     99.0873
   673.7500      9.9632     11.8023 100000.0000      0.9767     95.5393
   674.0000      8.6849     10.6200 100000.0000      0.9328     94.9936
   674.2500      7.3845      9.1310 100000.0000      1.2922     96.0295
   674.5000      6.1974      8.7664 100000.0000      2.4872     90.2377
   674.7500      4.9103     10.2790 100000.0000      3.3457     90.6745
   675.0000      3.2541     13.0738 100000.0000      3.7599     95.0703
   675.2500      1.4179     15.3601 100000.0000      1.7831     96.9839
   675.5000     -0.1435     16.0341 100000.0000      0.8690     95.3352
   675.7500     -1.5099     15.3114 100000.0000      0.7616    104.9601
   676.0000     -2.4755     14.3118 100000.0000      1.3507     96.3704
   676.2500     -3.0356     13.5112 100000.0000      1.0029    104.1435
   676.5000     -3.2818     12.5983 100000.0000      1.2727    101.5967
   676.7500     -2.9805     11.0330 100000.0000      1.3931     95.4764
   677.0000     -2.1230      9.6202 100000.0000      1.8202    103.0791
   677.2500     -0.7848      9.3463 100000.0000      0.8480    101.0206
   677.5000      0.2694     11.2043 100000.0000      0.2225     97.7555
   677.7500      0.5536     17.6647 100000.0000      0.8104     95.7270
   678.0000      0.6069     26.5749 100000.0000      0.4082     84.9622
   678.2500      1.1163     21.7468 100000.0000      0.7523     87.9338
   678.5000      2.2041     15.1002 100000.0000      0.8920    101.5500
   678.7500      4.0477     13.0345 100000.0000      1.0018    109.9009
   679.0000      6.9284     11.5722 100000.0000      1.1879    107.5712
   679.2500     11.0667     10.2341 100000.0000      1.1538    106.7736
   679.5000     16.0754      9.0989 100000.0000      1.2653    107.0957
   679.7500     22.8498      8.3844 100000.0000      1.2894    106.8472
   680.0000     29.8292      7.9350 100000.0000      0.8158    119.0010
   680.2500     36.1179      8.5406 100000.0000      0.7707    122.6133
   680.5000     40.0152     17.6818 100000.0000      0.9901    115.9813
   680.7500     43.1332 100000.0000 100000.0000      1.6067    116.0199
   681.0000     47.0982 100000.0000 100000.0000      2.2650    107.5250
   681.2500     52.4654 100000.0000 100000.0000      2.3575     98.0748
   681.5000     58.3445      8.0876 100000.0000      0.8525     88.2584
   681.7500     62.9084      4.4496 100000.0000      0.6321     88.7985
   682.0000     64.3858      4.0942 100000.0000      1.0380    103.0441
   682.2500     60.5645      4.8538 100000.0000      0.9714    104.6612
   682.5000     52.8189      5.5197 100000.0000      1.8656    115.4994
   682.7500     43.4706      5.8448 100000.0000      3.9042    127.5890
   683.0000     37.3852      6.1422 100000.0000      6.9483    133.1738
   683.2500     33.5199      7.7649 100000.0000      9.5469    140.6580
   683.5000     29.8943     24.3864 100000.0000     10.3368    137.3298
   683.7500     27.1048     18.3997 100000.0000     10.7939    138.2404
   684.0000     25.5064      3.7511 100000.0000     11.5325    125.6596
   684.2500     24.6832      1.5782 100000.0000     13.3964    117.8932
   684.5000     24.8290      1.2125 100000.0000     13.6531    128.6953
   684.7500     26.0871      1.8958      9.9112     15.8193    134.1286
   685.0000     27.6429      4.1791      2.4568     23.6417    141.8156
   685.2500     29.0619      9.9577      3.0756     24.4268    138.0253
   685.5000     30.2456     19.3573      6.5524     19.8963    128.5786
   685.7500     31.3101     34.3719     22.2360     14.8268    126.3625
   686.0000     32.5174     67.7475     16.1124     11.0667    147.2300
   686.2500     33.6157 100000.0000     12.0465     10.5649    133.0900
   686.5000     34.4678 100000.0000     10.6577     10.3211    127.8270
   686.7500     35.0124 100000.0000     10.1581     10.4725    135.5271
   687.0000     35.3138 100000.0000     10.0994     13.0829    129.3226
   687.2500     35.0909 100000.0000     11.7509     16.5472    128.8430
   687.5000     33.7659     11.7051     26.1604     14.5429    134.2580
   687.7500     32.1238     10.2013 100000.0000     11.6125    132.0568
   688.0000     31.0896     10.8188     66.5279     11.0577    142.2677
   688.2500     30.5782     11.2694     19.6676     11.8549    144.5972
   688.5000     30.5774     11.4605     14.3974     13.1441    127.7122
   688.7500     31.1539     11.5885     12.9962     14.8028    140.7684
   689.0000     32.4387     11.7116     12.5752     13.6640    148.8625
   689.2500     33.9149     12.1059     12.4278     11.5080    139.0881
   689.5000     35.6147     12.7742     12.4499     11.8133    130.3958
   689.7500     37.4393     14.2550     11.8677     10.5359    130.3631
   690.0000     39.6789     15.0087     11.2201     12.3657    121.2255
   690.2500     42.4613     13.2934     11.3382     12.4965    126.9685
   690.5000     46.4471     12.6049     10.9726     15.1431    131.2546
   690.7500     51.5687     12.4636     10.9531     17.9748    130.7209
   691.0000     57.1210     12.6890     12.1584     20.4865    128.3382
   691.2500     63.8855     12.8536     12.8377     17.8990    125.7364
   691.5000     70.6001     12.8476     12.8966     14.4996    131.4772
   691.7500     78.2560     13.0949     13.0793     11.8755    128.2295
