~Version Information
VERS.                      2.0: CWLS Log ASCII Standard - VERSION 2.0
WRAP.                       NO: One line per depth step
~Well Information Block
STRT.FT               395.0000: 
STOP.FT              1998.0000: 
STEP.FT                 0.1000: 
NULL.                -999.2500: 
COMP.          Pioneer Natural Resources: COMPANY
WELL.          Easton 12-30 Tr: WELL
FLD.           Purgatoire River: FIELD
LOC.           549' FWL & 2416' FNL--: LOCATION
PROV.                 Colorado: PROVINCE
CNTY.               Las Animas: COUNTRY
SRVC.                Patterson: SERVICE COMPANY
DATE.          Thu Jun 02 09:14:44 2005: LOG DATE
UWI.           05 071 08379 00: UNIQUE WELL ID
~Curve Information Block
DEPT.FT            0 000 00 00: Depth
DCAL.in                       : CDL Caliper
RHOB.g/cc                     : CDL Bulk Density
RHOC.g/cc                     : CDL Density Correction
DPOR.pu                       : CDL Density Porosity
NPOR.pu                       : Neutron Porosity
GR.GAPI                       : Gamma Ray
~Parameter Information Block
~A  Depth       DCAL        RHOB        RHOC        DPOR        NPOR         GR     
# ...
  1441.4000      7.9810      2.5801      0.0632      4.2334     28.0871    137.5028
  1441.5000      7.9815      2.5735      0.0389      4.6382     28.4490    139.0846
  1441.6000      7.9815      2.5856      0.0431      3.9057     28.7590    135.7356
  1441.7000      7.9815      2.6074      0.1108      2.5815     28.8686    132.4671
  1441.8000      7.9815      2.6195      0.1024      1.8486     28.6147    131.8363
  1441.9000      7.9815      2.6192      0.1063      1.8651     28.1792    132.9051
  1442.0000      7.9813      2.6112      0.0875      2.3522     28.0049    130.0419
  1442.1000      7.9813      2.5976      0.0897      3.1745     28.2737    121.9333
  1442.2000      7.9813      2.5874      0.0567      3.7920     28.6140    118.4315
  1442.3000      7.9814      2.5911      0.0403      3.5720     28.5161    125.2726
  1442.4000      7.9814      2.6048      0.0683      2.7367     28.0408    137.0380
  1442.5000      7.9798      2.6199      0.0627      1.8237     27.7750    142.8844
  1442.6000      7.9798      2.6289      0.1280      1.2764     27.9891    139.0654
  1442.7000      7.9798      2.6244      0.0893      1.5517     28.2882    133.2689
  1442.8000      7.9756      2.6142      0.0761      2.1674     28.2000    130.0410
  1442.9000      7.9756      2.6125      0.0640      2.2716     28.0116    127.1312
  1443.0000      7.9722      2.6149      0.1112      2.1250     28.1435    125.0471
  1443.1000      7.9722      2.6076      0.0823      2.5676     28.3563    128.4193
  1443.2000      7.9722      2.5902      0.0361      3.6247     28.3653    135.5759
  1443.3000      7.9706      2.5748      0.0128      4.5581     28.2145    138.4839
  1443.4000      7.9706      2.5681      0.0249      4.9618     28.2666    138.4565
  1443.5000      7.9696      2.5631      0.0187      5.2643     28.7431    142.3207
  1443.6000      7.9696      2.5592      0.0074      5.5017     29.2660    145.1648
  1443.7000      7.9696      2.5684      0.0151      4.9432     29.3440    138.0640
  1443.8000      7.9683      2.5904      0.0555      3.6124     29.0559    124.7031
  1443.9000      7.9683      2.6076      0.0503      2.5694     28.6060    115.5053
  1444.0000      7.9644      2.6108      0.0713      2.3734     27.8535    114.5256
  1444.1000      7.9644      2.6114      0.0341      2.3393     26.7395    117.1615
  1444.2000      7.9644      2.6243      0.0340      1.5586     25.6764    117.5375
  1444.3000      7.9594      2.6415      0.0611      0.5124     25.2821    115.5654
  1444.4000      7.9594      2.6426      0.0477      0.4492     25.6457    113.4839
  1444.5000      7.9563      2.6261      0.0543      1.4514     26.1593    112.6452
  1444.6000      7.9563      2.6089      0.0599      2.4892     26.2027    114.9645
  1444.7000      7.9563      2.6047      0.0525      2.7436     25.6995    118.1734
  1444.8000      7.9555      2.6103      0.0790      2.4036     25.1502    119.0831
  1444.9000      7.9555      2.6089      0.0390      2.4899     25.1533    118.4278
  1445.0000      7.9562      2.5831      0.0717      4.0528     25.4784    116.0732
  1445.1000      7.9562      2.5245      0.0157      7.6079     25.3432    112.8467
  1445.2000      7.9562      2.4417      0.0273     12.6271     24.4767    112.0265
  1445.3000      7.9568      2.3586     -0.0593     17.6579     23.1652    114.9501
  1445.4000      7.9568      2.2953     -0.0342     21.4985     21.7949    118.0249
  1445.5000      7.9554      2.2492     -0.0362     24.2885     20.5595    116.9279
  1445.6000      7.9554      2.2193     -0.0552     26.1008     19.4359    111.7455
  1445.7000      7.9554      2.2150     -0.0095     26.3632     18.4971    105.1360
  1445.8000      7.9487      2.2261      0.0543     25.6927     17.7428     97.6743
  1445.9000      7.9487      2.2277      0.1104     25.5941     17.0718     88.5439
  1446.0000      7.9286      2.2224      0.0824     25.9155     16.6216     81.7132
  1446.1000      7.9286      2.2375      0.1504     25.0000     16.5973     79.6090
  1446.2000      7.9286      2.2787      0.1928     22.5059     16.9834     77.7753
  1446.3000      7.8980      2.3273      0.1985     19.5591     17.5443     74.1082
  1446.4000      7.8980      2.3650      0.1712     17.2745     18.2380     68.7754
  1446.5000      7.8785      2.3850      0.1049     16.0584     19.0225     61.8336
  1446.6000      7.8785      2.3930      0.0610     15.5786     19.7716     56.6411
  1446.7000      7.8785      2.3882      0.0894     15.8641     20.4631     56.0264
  1446.8000      7.8755      2.3622     -0.0064     17.4443     20.7084     57.4276
  1446.9000      7.8755      2.3148     -0.0399     20.3170     20.3789     57.4233
  1447.0000      7.8870      2.2528     -0.0352     24.0746     19.9653     56.3926
  1447.1000      7.8870      2.1906     -0.0737     27.8440     19.6681     54.7923
  1447.2000      7.8870      2.1425     -0.0663     30.7584     19.2097     53.9901
  1447.3000      7.9036      2.1033     -0.0225     33.1344     18.2633     55.3432
  1447.4000      7.9036      2.0661     -0.0586     35.3865     16.9458     54.9837
  1447.5000      7.9066      2.0342     -0.0165     37.3233     15.8202     51.3445
  1447.6000      7.9066      1.9978     -0.0008     39.5260     15.1731     48.0378
  1447.7000      7.9066      1.9424      0.0228     42.8824     14.7311     47.0155
  1447.8000      7.9014      1.8792      0.0327     46.7129     14.2918     48.9478
  1447.9000      7.9014      1.8335      0.0703     49.4845     13.9328     52.3686
  1448.0000      7.9050      1.8118      0.0835     50.8023     13.6089     53.0775
  1448.1000      7.9050      1.8088      0.0942     50.9814     13.4703     50.3062
  1448.2000      7.9050      1.8350      0.0881     49.3948     13.7261     46.1461
  1448.3000      7.9167      1.9087      0.1076     44.9280     14.1912     42.0280
  1448.4000      7.9167      2.0141      0.1909     38.5373     14.6965     39.4379
  1448.5000      7.9250      2.0990      0.2367     33.3912     15.2857     39.5188
  1448.6000      7.9250      2.1321      0.2470     31.3856     15.9756     41.5834
  1448.7000      7.9250      2.1279      0.1964     31.6414     16.5828     43.3797
  1448.8000      7.9284      2.1084      0.1965     32.8217     17.1519     43.5469
  1448.9000      7.9284      2.0800      0.1065     34.5479     17.8820     42.5754
  1449.0000      7.9279      2.0521      0.0224     36.2374     18.6177     41.3158
  1449.1000      7.9279      2.0335     -0.0141     37.3665     18.8661     41.2708
  1449.2000      7.9279      2.0157     -0.0535     38.4417     18.2898     43.7728
  1449.3000      7.9252      1.9969     -0.1117     39.5810     17.3748     46.0706
  1449.4000      7.9252      1.9894      0.0399     40.0375     16.6910     44.9384
  1449.5000      7.9256      2.0034      0.1183     39.1867     16.0630     43.6379
  1449.6000      7.9256      2.0486      0.1938     36.4491     15.5020     45.8532
  1449.7000      7.9256      2.1251      0.2368     31.8137     15.4173     50.4248
  1449.8000      7.9278      2.2156      0.2632     26.3258     15.9122     52.6749
  1449.9000      7.9278      2.2857      0.2959     22.0767     16.8417     49.6428
  1450.0000      7.9288      2.3074      0.2464     20.7617     18.0126     44.7055
  1450.1000      7.9288      2.2916      0.1641     21.7190     19.2694     42.1201
  1450.2000      7.9288      2.2688      0.1417     23.1037     20.5584     43.4223
  1450.3000      7.9262      2.2489      0.1137     24.3064     21.5716     46.8287
  1450.4000      7.9262      2.2183      0.0282     26.1641     21.8415     48.6082
  1450.5000      7.9236      2.1622      0.0135     29.5664     21.4430     48.3445
  1450.6000      7.9236      2.0888     -0.0456     34.0105     20.8376     48.6148
  1450.7000      7.9236      2.0291     -0.0687     37.6329     20.2253     50.4282
  1450.8000      7.9226      2.0009     -0.0525     39.3404     19.5561     54.4700
  1450.9000      7.9226      1.9994     -0.0033     39.4289     18.7593     62.9215
