~Version Information
VERS.                      2.0: CWLS Log ASCII Standard - VERSION 2.0
WRAP.                       NO: One line per depth step
~Well Information Block
STRT.FT               395.0000: 
STOP.FT              1998.0000: 
STEP.FT                 0.2500: 
NULL.                -999.2500: 
COMP.          Pioneer Natural Resources: COMPANY
WELL.          Easton 12-30 Tr: WELL
FLD.           Purgatoire River: FIELD
LOC.           549' FWL & 2416' FNL--: LOCATION
PROV.                 Colorado: PROVINCE
CNTY.               Las Animas: COUNTRY
SRVC.                Patterson: SERVICE COMPANY
DATE.          Wed Jun 01 17:36:02 2005: LOG DATE
UWI.           05 071 08379 00: UNIQUE WELL ID
~Curve Information Block
DEPT.FT            0 000 00 00: Depth
SN.Ohm-m                      : IEL Short Normal
SP.mV                         : IEL Spontaneous Potential
DIR.Ohm-m                     : IEL Induction Resistivity
GR.GAPI                       : Gamma Ray
~Parameter Information Block
~A  Depth        SN          SP         DIR          GR     
# ...
  1534.0000   2000.0000   -999.2500 100000.0000     57.9860
  1534.2500   2000.0000   -999.2500 100000.0000     59.4679
  1534.5000   2000.0000   -999.2500 100000.0000     60.8246
  1534.7500   2000.0000   -999.2500 100000.0000     61.0414
  1535.0000   2000.0000   -999.2500 100000.0000     60.4669
  1535.2500   2000.0000   -999.2500 100000.0000     59.8156
  1535.5000   2000.0000   -999.2500 100000.0000     59.1646
  1535.7500   2000.0000   -999.2500 100000.0000     59.1438
  1536.0000   2000.0000   -999.2500 100000.0000     59.4433
  1536.2500   2000.0000   -999.2500 100000.0000     59.6009
  1536.5000   2000.0000   -999.2500 100000.0000     59.8391
  1536.7500   2000.0000   -999.2500 100000.0000     60.4064
  1537.0000   2000.0000   -999.2500 100000.0000     62.7270
  1537.2500   2000.0000   -999.2500 100000.0000     65.5578
  1537.5000   2000.0000   -999.2500 100000.0000     71.7969
  1537.7500   2000.0000   -999.2500 100000.0000     77.1315
  1538.0000   2000.0000   -999.2500 100000.0000     86.2910
  1538.2500   2000.0000   -999.2500 100000.0000     92.5377
  1538.5000   2000.0000   -999.2500 100000.0000    100.7765
  1538.7500   2000.0000   -999.2500 100000.0000    104.9861
  1539.0000   2000.0000   -999.2500      4.0661    109.5044
  1539.2500   2000.0000   -999.2500      1.4797    111.8516
  1539.5000   2000.0000   -999.2500      0.7477    115.0603
  1539.7500   2000.0000   -999.2500      0.4344    116.8844
  1540.0000   2000.0000   -999.2500      0.2765    118.5574
  1540.2500   2000.0000   -999.2500      0.1952    118.9193
  1540.5000   2000.0000   -999.2500      0.1584    118.7638
  1540.7500   2000.0000   -999.2500      0.1513    118.0744
  1541.0000   2000.0000   -999.2500      0.1708    114.6841
  1541.2500   2000.0000   -999.2500      0.2252    109.9248
  1541.5000   2000.0000   -999.2500      0.3388     99.1673
  1541.7500   2000.0000   -999.2500      0.5725     90.7789
  1542.0000   2000.0000   -999.2500      1.1381     78.7527
  1542.2500   2000.0000   -999.2500      3.3775     71.8891
  1542.5000   2000.0000   -999.2500 100000.0000     63.5152
  1542.7500   2000.0000   -999.2500 100000.0000     59.0506
  1543.0000   2000.0000   -999.2500 100000.0000     53.8763
  1543.2500   2000.0000   -999.2500 100000.0000     51.4807
  1543.5000   2000.0000   -999.2500 100000.0000     49.5498
  1543.7500   2000.0000   -999.2500 100000.0000     49.3404
  1544.0000   2000.0000   -999.2500 100000.0000     50.5952
  1544.2500   2000.0000   -999.2500 100000.0000     52.5285
  1544.5000   2000.0000   -999.2500 100000.0000     57.0898
  1544.7500   2000.0000   -999.2500 100000.0000     61.0538
  1545.0000   2000.0000   -999.2500 100000.0000     67.7776
  1545.2500   2000.0000   -999.2500 100000.0000     72.4347
  1545.5000   2000.0000   -999.2500 100000.0000     79.4275
  1545.7500   2000.0000   -999.2500 100000.0000     84.1629
  1546.0000   2000.0000   -999.2500      5.5459     91.6126
  1546.2500   2000.0000   -999.2500      1.4176     96.8031
  1546.5000   2000.0000   -999.2500      0.6398    104.4369
  1546.7500   2000.0000   -999.2500      0.3595    108.9403
  1547.0000   2000.0000   -999.2500      0.2395    114.1825
  1547.2500   2000.0000   -999.2500      0.1961    116.7212
  1547.5000   2000.0000   -999.2500      0.2026    119.8938
  1547.7500   2000.0000   -999.2500      0.2599    122.0230
  1548.0000   2000.0000   -999.2500      0.3953    125.0330
  1548.2500   2000.0000   -999.2500      0.6941    126.2553
  1548.5000   2000.0000   -999.2500      1.5153    125.9078
  1548.7500   2000.0000   -999.2500      6.6510    124.2784
  1549.0000   2000.0000   -999.2500 100000.0000    120.9816
  1549.2500   2000.0000   -999.2500 100000.0000    119.1544
  1549.5000   2000.0000   -999.2500 100000.0000    118.0206
  1549.7500   2000.0000   -999.2500 100000.0000    118.3998
  1550.0000   2000.0000   -999.2500 100000.0000    119.9594
  1550.2500   2000.0000   -999.2500 100000.0000    120.9736
  1550.5000   2000.0000   -999.2500 100000.0000    121.4149
  1550.7500   2000.0000   -999.2500 100000.0000    120.8839
  1551.0000   2000.0000   -999.2500     43.3711    119.7585
  1551.2500   2000.0000   -999.2500     19.8564    119.4838
  1551.5000   2000.0000   -999.2500     15.9577    120.1279
  1551.7500   2000.0000   -999.2500     15.2752    120.8962
  1552.0000   2000.0000   -999.2500     15.9662    121.7373
  1552.2500   2000.0000   -999.2500     18.1453    121.8759
  1552.5000   2000.0000   -999.2500     23.6471    121.5971
  1552.7500   2000.0000   -999.2500     40.9785    121.2317
  1553.0000   2000.0000   -999.2500    242.1925    120.3489
  1553.2500   2000.0000   -999.2500 100000.0000    119.4144
  1553.5000   2000.0000   -999.2500 100000.0000    117.7569
  1553.7500   2000.0000   -999.2500 100000.0000    117.0173
  1554.0000   2000.0000   -999.2500 100000.0000    117.4717
  1554.2500   2000.0000   -999.2500    317.7174    119.1170
  1554.5000   2000.0000   -999.2500     31.9368    123.4939
  1554.7500   2000.0000   -999.2500     15.7424    127.3630
  1555.0000   2000.0000   -999.2500     10.5138    133.5515
  1555.2500   2000.0000   -999.2500      8.1831    137.0374
  1555.5000   2000.0000   -999.2500      7.0163    139.8986
  1555.7500   2000.0000   -999.2500      6.4258    139.9474
  1556.0000   2000.0000   -999.2500      6.1588    137.8104
  1556.2500   2000.0000   -999.2500      6.0897    135.5475
  1556.5000   2000.0000   -999.2500      6.1496    131.9525
  1556.7500   2000.0000   -999.2500      6.2954    129.8810
  1557.0000   2000.0000   -999.2500      6.4917    127.6632
  1557.2500   2000.0000   -999.2500      6.7036    126.7683
  1557.5000   2000.0000   -999.2500      6.8987    125.8518
  1557.7500   2000.0000   -999.2500      7.0540    125.0270
  1558.0000   2000.0000   -999.2500      7.1605    122.6808
  1558.2500   2000.0000   -999.2500      7.2229    120.4093
  1558.5000   2000.0000   -999.2500      7.2537    117.1479
  1558.7500   2000.0000   -999.2500      7.2672    115.9462
  1559.0000   2000.0000   -999.2500      7.2747    116.1167
  1559.2500   2000.0000   -999.2500      7.2820    117.1629
  1559.5000   2000.0000   -999.2500      7.2895    119.2283
  1559.7500   2000.0000   -999.2500      7.2931    120.6842
  1560.0000   2000.0000   -999.2500      7.2872    123.0475
  1560.2500   2000.0000   -999.2500      7.2669    124.8844
  1560.5000   2000.0000   -999.2500      7.2313    128.0395
  1560.7500   2000.0000   -999.2500      7.1842    130.0790
  1561.0000   2000.0000   -999.2500      7.1347    132.0667
  1561.2500   2000.0000   -999.2500      7.0945    132.2888
  1561.5000   2000.0000   -999.2500      7.0755    131.2367
  1561.7500   2000.0000   -999.2500      7.0867    130.2419
  1562.0000   2000.0000   -999.2500      7.1330    129.4619
  1562.2500   2000.0000   -999.2500      7.2155    129.7405
  1562.5000   2000.0000   -999.2500      7.3335    131.0912
  1562.7500   2000.0000   -999.2500      7.4872    132.1555
  1563.0000   2000.0000   -999.2500      7.6781    133.1996
  1563.2500   2000.0000   -999.2500      7.9087    133.2127
  1563.5000   2000.0000   -999.2500      8.1795    131.9087
  1563.7500   2000.0000   -999.2500      8.4863    130.0814
  1564.0000   2000.0000   -999.2500      8.8181    126.1654
  1564.2500   2000.0000   -999.2500      9.1578    123.3080
  1564.5000   2000.0000   -999.2500      9.4835    119.8353
  1564.7500   2000.0000   -999.2500      9.7712    118.3825
  1565.0000   2000.0000   -999.2500      9.9976    116.9971
  1565.2500   2000.0000   -999.2500     10.1441    116.0492
  1565.5000   2000.0000   -999.2500     10.2005    114.0817
  1565.7500   2000.0000   -999.2500     10.1674    112.5123
  1566.0000   2000.0000   -999.2500     10.0566    110.3678
  1566.2500   2000.0000   -999.2500      9.8890    109.4894
  1566.5000   2000.0000   -999.2500      9.6877    109.5499
  1566.7500   2000.0000   -999.2500      9.4725    110.5782
  1567.0000   2000.0000   -999.2500      9.2547    113.0774
  1567.2500   2000.0000   -999.2500      9.0375    114.8185
