~Version Information
VERS.                      2.0: CWLS Log ASCII Standard - VERSION 2.0
WRAP.                       NO: One line per depth step
~Well Information Block
STRT.FT               819.0000: 
STOP.FT              2497.0000: 
STEP.FT                 0.2500: 
NULL.                -999.2500: 
COMP.          Petrogulf Corporation: COMPANY
WELL.             State 16-21V: WELL
FLD.           Purgatorie River: FIELD
LOC.           1738' FWL & 332' FNL: LOCATION
PROV.                 Colorado: PROVINCE
CNTY.               Las Animas: COUNTRY
SRVC.          Patterson Wireline: SERVICE COMPANY
DATE.          Sun Jul 13 13:45:48 2003: LOG DATE
UWI.              05-071-07884: UNIQUE WELL ID 05 071 08829 00
~Curve Information Block
DEPT.FT            0 000 00 00: Depth
DCAL.in                       : CDL Caliper
RHOB.g/cc                     : CDL Bulk Density
RHOC.g/cc                     : CDL Density Correction
DPOR.pu                       : CDL Density Porosity
GR.GAPI                       : Gamma Ray
NPOR.pu                       : Neutron Porosity
~Parameter Information Block
~A  Depth       DCAL        RHOB        RHOC        DPOR         GR         NPOR    
# ...
  1611.0000      7.9796      2.6126      0.0837      2.2693     82.4494     16.8312
  1611.2500      7.9990      2.6121      0.0891      2.2991     88.0279     18.1976
  1611.5000      8.0046      2.6159      0.0979      2.0693     96.4275     19.7907
  1611.7500      8.0016      2.6214      0.1033      1.7319    101.1978     20.4850
  1612.0000      7.9996      2.6324      0.1085      1.0688    105.8344     20.9988
  1612.2500      8.0025      2.6393      0.1084      0.6466    106.9290     21.0340
  1612.5000      8.0034      2.6457      0.0999      0.2615    106.0304     20.7688
  1612.7500      7.9960      2.6460      0.0890      0.2428    104.5257     20.4978
  1613.0000      7.9975      2.6411      0.0711      0.5417    102.3724     20.1154
  1613.2500      8.0132      2.6357      0.0629      0.8637    101.3699     19.9205
  1613.5000      8.0258      2.6282      0.0603      1.3235    100.2282     19.7556
  1613.7500      8.0277      2.6249      0.0636      1.5239     99.4647     19.7639
  1614.0000      8.0219      2.6232      0.0713      1.6235     98.2430     19.9635
  1614.2500      8.0131      2.6237      0.0753      1.5956     97.3538     20.1347
  1614.5000      8.0092      2.6247      0.0752      1.5311     95.5759     20.1871
  1614.7500      8.0081      2.6247      0.0707      1.5304     93.8557     20.0000
  1615.0000      8.0107      2.6233      0.0614      1.6191     90.5715     19.5173
  1615.2500      8.0222      2.6217      0.0584      1.7140     88.4922     19.2454
  1615.5000      8.0302      2.6195      0.0630      1.8508     87.1577     19.2155
  1615.7500      8.0285      2.6183      0.0705      1.9220     88.2413     19.5617
  1616.0000      8.0246      2.6167      0.0821      2.0212     92.8772     20.6552
  1616.2500      8.0237      2.6151      0.0869      2.1121     97.1187     21.6408
  1616.5000      8.0297      2.6116      0.0876      2.3276    103.1167     23.0971
  1616.7500      8.0432      2.6083      0.0844      2.5275    106.1659     23.8421
  1617.0000      8.0560      2.6025      0.0769      2.8795    110.0126     24.5380
  1617.2500      8.0554      2.5986      0.0715      3.1172    113.1998     24.8189
  1617.5000      8.0481      2.5935      0.0634      3.4253    119.8895     25.1702
  1617.7500      8.0438      2.5910      0.0578      3.5773    124.9649     25.4144
  1618.0000      8.0500      2.5888      0.0492      3.7071    131.2435     25.7771
  1618.2500      8.0679      2.5886      0.0443      3.7225    133.5930     25.9694
  1618.5000      8.0871      2.5901      0.0404      3.6302    134.1601     26.1071
  1618.7500      8.1032      2.5924      0.0406      3.4886    133.0113     26.0880
  1619.0000      8.1095      2.5976      0.0442      3.1734    130.0317     25.9534
  1619.2500      8.1090      2.6016      0.0470      2.9311    127.7357     25.8429
  1619.5000      8.1092      2.6065      0.0488      2.6338    124.4293     25.6991
  1619.7500      8.1024      2.6077      0.0462      2.5627    122.5778     25.6319
  1620.0000      8.0939      2.6045      0.0349      2.7564    120.9921     25.5940
  1620.2500      8.0978      2.5989      0.0238      3.0960    121.2655     25.6155
  1620.5000      8.1133      2.5869      0.0090      3.8215    124.2090     25.7155
  1620.7500      8.1263      2.5784      0.0047      4.3401    127.4741     25.8345
  1621.0000      8.1376      2.5680      0.0082      4.9699    132.4270     26.1080
  1621.2500      8.1491      2.5641      0.0148      5.2042    134.6158     26.3358
  1621.5000      8.1477      2.5639      0.0266      5.2179    135.6946     26.6656
  1621.7500      8.1347      2.5671      0.0350      5.0229    135.5669     26.8476
  1622.0000      8.1261      2.5751      0.0492      4.5401    135.4890     27.0881
  1622.2500      8.1248      2.5809      0.0585      4.1902    135.8135     27.2492
  1622.5000      8.1247      2.5873      0.0666      3.7971    136.5679     27.4750
  1622.7500      8.1238      2.5890      0.0654      3.6957    137.0034     27.5908
  1623.0000      8.1258      2.5869      0.0540      3.8220    137.1304     27.7068
  1623.2500      8.1354      2.5829      0.0439      4.0644    136.4797     27.7524
  1623.5000      8.1512      2.5745      0.0318      4.5739    133.9745     27.7528
  1623.7500      8.1640      2.5682      0.0278      4.9550    131.6048     27.6920
  1624.0000      8.1693      2.5591      0.0276      5.5092    128.4895     27.5204
  1624.2500      8.1701      2.5538      0.0308      5.8296    127.5785     27.3818
  1624.5000      8.1702      2.5479      0.0420      6.1908    128.4541     27.2247
  1624.7500      8.1705      2.5453      0.0550      6.3452    130.1303     27.2332
  1625.0000      8.1714      2.5428      0.0799      6.4953    133.1904     27.5484
  1625.2500      8.1784      2.5410      0.0956      6.6077    135.2873     27.9594
  1625.5000      8.1951      2.5351      0.1105      6.9621    138.7771     28.6759
  1625.7500      8.2187      2.5273      0.1141      7.4368    141.5249     29.0658
  1626.0000      8.2494      2.5065      0.1137      8.6963    145.8256     29.4329
  1626.2500      8.2693      2.4855      0.1118      9.9720    148.0550     29.6177
  1626.5000      8.2609      2.4438      0.1074     12.4957    148.8147     29.9960
  1626.7500      8.2572      2.4122      0.1035     14.4133    146.8878     30.3465
  1627.0000      8.2813      2.3679      0.0996     17.0964    140.5050     30.9002
  1627.2500      8.3197      2.3470      0.1007     18.3658    135.0711     31.1578
  1627.5000      8.3604      2.3376      0.1079     18.9350    128.0346     31.1691
  1627.7500      8.3717      2.3482      0.1132     18.2898    125.3772     30.8784
  1628.0000      8.3206      2.3863      0.1157     15.9788    125.0013     30.0741
  1628.2500      8.2563      2.4213      0.1114     13.8636    126.6834     29.3879
  1628.5000      8.2257      2.4762      0.0966     10.5327    130.5729     28.3121
  1628.7500      8.2182      2.5084      0.0833      8.5812    132.9879     27.6797
  1629.0000      8.2161      2.5431      0.0642      6.4796    134.8153     27.0592
  1629.2500      8.2147      2.5556      0.0544      5.7226    134.7678     26.9337
  1629.5000      8.2138      2.5594      0.0433      5.4928    134.4134     27.1349
  1629.7500      8.2141      2.5540      0.0371      5.8180    135.1446     27.4193
  1630.0000      8.2158      2.5391      0.0296      6.7194    138.0702     27.8611
  1630.2500      8.2195      2.5279      0.0276      7.3980    140.3122     28.1135
  1630.5000      8.2309      2.5143      0.0323      8.2215    141.9777     28.5031
  1630.7500      8.2498      2.5096      0.0405      8.5119    141.2962     28.8324
  1631.0000      8.2668      2.5101      0.0559      8.4793    138.0662     29.3855
  1631.2500      8.2855      2.5149      0.0644      8.1906    135.3811     29.6685
  1631.5000      8.3025      2.5252      0.0690      7.5628    132.2024     29.7572
  1631.7500      8.2975      2.5317      0.0658      7.1704    131.1241     29.5735
  1632.0000      8.2833      2.5369      0.0545      6.8564    130.8927     29.0643
  1632.2500      8.2675      2.5361      0.0460      6.9017    131.2609     28.6674
  1632.5000      8.2512      2.5294      0.0372      7.3083    131.7436     28.1187
  1632.7500      8.2474      2.5232      0.0373      7.6864    131.3699     27.8542
  1633.0000      8.2483      2.5159      0.0515      8.1287    128.6807     27.7323
  1633.2500      8.2492      2.5148      0.0721      8.1968    125.3480     27.8716
  1633.5000      8.2636      2.5200      0.1153      7.8786    119.1651     28.3314
  1633.7500      8.2868      2.5269      0.1435      7.4592    115.2605     28.6839
  1634.0000      8.3072      2.5382      0.1664      6.7770    110.8009     29.0902
  1634.2500      8.3203      2.5438      0.1623      6.4347    108.7885     29.2408
  1634.5000      8.3080      2.5474      0.1312      6.2175    106.9180     29.3239
  1634.7500      8.2602      2.5467      0.1043      6.2599    106.4907     29.3259
