~Version Information
VERS.                      2.0: CWLS Log ASCII Standard - VERSION 2.0
WRAP.                       NO: One line per depth step
~Well Information Block
STRT.FT               430.0000: 
STOP.FT              1910.2500: 
STEP.FT                 0.2500: 
NULL.                -999.2500: 
COMP.          Pioneer Natural Resources: COMPANY
WELL.          Formula 23-11 Tr: WELL
FLD.           Purgatoire River: FIELD
LOC.           1976' FSL & 1935' FWL--: LOCATION
PROV.                 Colorado: PROVINCE
CNTY.               Las Animas: COUNTRY
SRVC.                Patterson: SERVICE COMPANY
DATE.          Fri Jun 10 22:41:39 2005: LOG DATE
UWI.           05 071 08399 00: UNIQUE WELL ID
~Curve Information Block
DEPT.FT            0 000 00 00: Depth
SN.Ohm-m                      : IEL Short Normal
SP.mV                         : IEL Spontaneous Potential
DIR.Ohm-m                     : IEL Induction Resistivity
GR.GAPI                       : Gamma Ray
~Parameter Information Block
~A  Depth        SN          SP         DIR          GR     
# ...
   530.5000   2000.0000   2000.0000     27.5420     70.7234
   530.7500   2000.0000   2000.0000     26.8587     78.2488
   531.0000   2000.0000   2000.0000     25.9988     91.7991
   531.2500   2000.0000   2000.0000     25.0193    101.1168
   531.5000   2000.0000   2000.0000     23.9798    113.4690
   531.7500   2000.0000   2000.0000     22.9284    119.9582
   532.0000   2000.0000   2000.0000     21.8977    126.9764
   532.2500   2000.0000   2000.0000     20.9115    130.1789
   532.5000   2000.0000   2000.0000     19.9927    133.6215
   532.7500   2000.0000   2000.0000     19.1653    135.4298
   533.0000   2000.0000   2000.0000     18.4511    137.6918
   533.2500   2000.0000   2000.0000     17.8623    138.9086
   533.5000   2000.0000   2000.0000     17.3980    140.4125
   533.7500   2000.0000   2000.0000     17.0470    141.2918
   534.0000   2000.0000   2000.0000     16.7944    142.2628
   534.2500   2000.0000   2000.0000     16.6256    142.4055
   534.5000   2000.0000   2000.0000     16.5265    141.4644
   534.7500   2000.0000   2000.0000     16.4803    139.9785
   535.0000   2000.0000   2000.0000     16.4675    136.4919
   535.2500   2000.0000   2000.0000     16.4712    133.5874
   535.5000   2000.0000   2000.0000     16.4836    129.3762
   535.7500   2000.0000   2000.0000     16.5086    127.2014
   536.0000   2000.0000   2000.0000     16.5558    124.8545
   536.2500   2000.0000   2000.0000     16.6306    123.5917
   536.5000   2000.0000   2000.0000     16.7292    122.1667
   536.7500   2000.0000   2000.0000     16.8411    121.7647
   537.0000   2000.0000   2000.0000     16.9582    121.7619
   537.2500   2000.0000   2000.0000     17.0800    121.6576
   537.5000   2000.0000   2000.0000     17.2123    120.8065
   537.7500   2000.0000   2000.0000     17.3600    119.8879
   538.0000   2000.0000   2000.0000     17.5221    118.3437
   538.2500   2000.0000   2000.0000     17.6922    117.1818
   538.5000   2000.0000   2000.0000     17.8615    114.8646
   538.7500   2000.0000   2000.0000     18.0215    112.8003
   539.0000   2000.0000   2000.0000     18.1633    109.2280
   539.2500   2000.0000   2000.0000     18.2759    107.0270
   539.5000   2000.0000   2000.0000     18.3483    105.0598
   539.7500   2000.0000   2000.0000     18.3783    105.0964
   540.0000   2000.0000   2000.0000     18.3796    107.2641
   540.2500   2000.0000   2000.0000     18.3796    109.7872
   540.5000   2000.0000   2000.0000     18.4068    114.3618
   540.7500   2000.0000   2000.0000     18.4772    117.4391
   541.0000   2000.0000   2000.0000     18.5898    121.2205
   541.2500   2000.0000   2000.0000     18.7316    122.7087
   541.5000   2000.0000   2000.0000     18.8867    122.8840
   541.7500   2000.0000   2000.0000     19.0439    121.6394
   542.0000   2000.0000   2000.0000     19.1997    118.3958
   542.2500   2000.0000   2000.0000     19.3597    115.9541
   542.5000   2000.0000   2000.0000     19.5361    112.7806
   542.7500   2000.0000   2000.0000     19.7422    111.2097
   543.0000   2000.0000   2000.0000     19.9857    109.7277
   543.2500   2000.0000   2000.0000     20.2639    109.3500
   543.5000   2000.0000   2000.0000     20.5652    109.6064
   543.7500   2000.0000   2000.0000     20.8742    109.9727
   544.0000   2000.0000   2000.0000     21.1792    109.8860
   544.2500   2000.0000   2000.0000     21.4755    109.1881
   544.5000   2000.0000   2000.0000     21.7633    107.9632
   544.7500   2000.0000   2000.0000     22.0470    107.6879
   545.0000   2000.0000   2000.0000     22.3356    108.1177
   545.2500   2000.0000   2000.0000     22.6442    108.2439
   545.5000   2000.0000   2000.0000     22.9899    106.9920
   545.7500   2000.0000   2000.0000     23.3837    105.1612
   546.0000   2000.0000   2000.0000     23.8258    101.8785
   546.2500   2000.0000   2000.0000     24.3071     99.9284
   546.5000   2000.0000   2000.0000     24.8169     97.5863
   546.7500   2000.0000   2000.0000     25.3491     96.0161
   547.0000   2000.0000   2000.0000     25.8996     92.7964
   547.2500   2000.0000   2000.0000     26.4525     89.9969
   547.5000   2000.0000   2000.0000     26.9639     85.6382
   547.7500   2000.0000   2000.0000     27.3553     83.2976
   548.0000   2000.0000   2000.0000     27.5285     81.3939
   548.2500   2000.0000   2000.0000     27.3981     81.3533
   548.5000   2000.0000   2000.0000     26.9265     83.2687
   548.7500   2000.0000   2000.0000     26.1403     86.0404
   549.0000   2000.0000   2000.0000     25.1164     92.7813
   549.2500   2000.0000   2000.0000     23.9491     98.9218
   549.5000   2000.0000   2000.0000     22.7230    109.5824
   549.7500   2000.0000   2000.0000     21.5024    116.6476
   550.0000   2000.0000   2000.0000     20.3358    125.6138
   550.2500   2000.0000   2000.0000     19.2602    130.1999
   550.5000   2000.0000   2000.0000     18.3008    135.6506
   550.7500   2000.0000   2000.0000     17.4681    138.8927
   551.0000   2000.0000   2000.0000     16.7583    143.3503
   551.2500   2000.0000   2000.0000     16.1571    145.6064
   551.5000   2000.0000   2000.0000     15.6471    146.9648
   551.7500   2000.0000   2000.0000     15.2137    146.3745
   552.0000   2000.0000   2000.0000     14.8486    144.0624
   552.2500   2000.0000   2000.0000     14.5484    142.3535
   552.5000   2000.0000   2000.0000     14.3096    140.4843
   552.7500   2000.0000   2000.0000     14.1252    139.7862
   553.0000   2000.0000   2000.0000     13.9842    139.0770
   553.2500   2000.0000   2000.0000     13.8762    138.3899
   553.5000   2000.0000   2000.0000     13.7951    136.5485
   553.7500   2000.0000   2000.0000     13.7395    134.9119
   554.0000   2000.0000   2000.0000     13.7105    132.5458
   554.2500   2000.0000   2000.0000     13.7088    131.2973
   554.5000   2000.0000   2000.0000     13.7337    129.8206
   554.7500   2000.0000   2000.0000     13.7836    128.9512
   555.0000   2000.0000   2000.0000     13.8567    127.7625
   555.2500   2000.0000   2000.0000     13.9507    127.0435
   555.5000   2000.0000   2000.0000     14.0632    125.9705
   555.7500   2000.0000   2000.0000     14.1927    125.2484
   556.0000   2000.0000   2000.0000     14.3396    124.3563
   556.2500   2000.0000   2000.0000     14.5064    123.9543
   556.5000   2000.0000   2000.0000     14.6971    123.3486
   556.7500   2000.0000   2000.0000     14.9146    122.7588
   557.0000   2000.0000   2000.0000     15.1598    121.8382
   557.2500   2000.0000   2000.0000     15.4311    121.5162
   557.5000   2000.0000   2000.0000     15.7238    121.4992
   557.7500   2000.0000   2000.0000     16.0304    121.4153
   558.0000   2000.0000   2000.0000     16.3408    120.4842
   558.2500   2000.0000   2000.0000     16.6461    119.2849
   558.5000   2000.0000   2000.0000     16.9434    117.4368
   558.7500   2000.0000   2000.0000     17.2433    116.9194
   559.0000   2000.0000   2000.0000     17.5729    117.7928
   559.2500   2000.0000   2000.0000     17.9717    118.9178
   559.5000   2000.0000   2000.0000     18.4798    119.5147
   559.7500   2000.0000   2000.0000     19.1250    118.4427
   560.0000   2000.0000   2000.0000     19.9128    114.9625
   560.2500   2000.0000   2000.0000     20.8260    112.1399
   560.5000   2000.0000   2000.0000     21.8310    108.0422
   560.7500   2000.0000   2000.0000     22.8903    105.4181
   561.0000   2000.0000   2000.0000     23.9710    101.2815
   561.2500   2000.0000   2000.0000     25.0479     98.3465
   561.5000   2000.0000   2000.0000     26.1005     94.2655
   561.7500   2000.0000   2000.0000     27.1122     92.3845
   562.0000   2000.0000   2000.0000     28.0750     91.5910
   562.2500   2000.0000   2000.0000     28.9899     92.2611
   562.5000   2000.0000   2000.0000     29.8551     93.8063
   562.7500   2000.0000   2000.0000     30.6482     94.3971
   563.0000   2000.0000   2000.0000     31.3230     94.0390
   563.2500   2000.0000   2000.0000     31.8340     93.0533
   563.5000   2000.0000   2000.0000     32.1748     90.6133
   563.7500   2000.0000   2000.0000     32.3981     88.2831
