~Version Information
 VERS.                      2.0: CWLS Log ASCII Standard - VERSION 2.0
 WRAP.                       NO: One line per depth step
 ~Well Information Block
 STRT.FT               763.7500: 
 STOP.FT              2577.0000: 
 STEP.FT                 0.2500: 
 NULL.                -999.2500: 
 COMP.          Petrogulf Corporation: COMPANY
 WELL.               J&P 12-33V: WELL
 FLD.           Purgatorie River: FIELD
 LOC.           2005' FSL & 1928' FEL: LOCATION
 CNTY.               Las Animas: COUNTY
 SRVC.                         : SERVICE COMPANY
 DATE.          Sat Aug 28 09:00:36 2004: LOG DATE
 UWI.           05 071 08092 00: UNIQUE WELL ID
 STAT.                 Colorado: STATE
 PROV.                         :Province
 ~Curve Information Block
 DEPT.FT            0 000 00 00: Depth
 SP.mV                         : DIL Spontaneous Potential
 RILD.Ohm-m                    : DIL Deep Resistivity
 RILM.Ohm-m                    : DIL Medium Resistivity
 RLL3.Ohm-m                    : DIL Shallow Resistivity
 GR.GAPI                       : Gamma Ray
 ~Parameter Information Block
 ~A  Depth        SP         RILD        RILM        RLL3         GR     
# ...
  2443.7500      2.4781     23.3809     21.6767     29.6664     67.9695
  2444.0000      2.4027     23.5299     21.7533     29.9713     66.3622
  2444.2500      2.3072     23.5407     21.7343     29.9991     64.5305
  2444.5000      2.1960     23.4371     21.6237     29.6923     61.3214
  2444.7500      2.0719     23.2506     21.4310     29.0333     59.7403
  2445.0000      1.9368     23.0139     21.1704     28.0411     59.2677
  2445.2500      1.7919     22.7576     20.8593     26.7717     60.0933
  2445.5000      1.6386     22.5090     20.5168     25.3150     62.0371
  2445.7500      1.4787     22.2890     20.1619     23.7867     63.3664
  2446.0000      1.3147     22.1094     19.8123     22.3101     65.2954
  2446.2500      1.1497     21.9709     19.4830     20.9923     66.5356
  2446.5000      0.9884     21.8638     19.1856     19.9016     67.9527
  2446.7500      0.8372     21.7730     18.9283     19.0600     68.3570
  2447.0000      0.7045     21.6844     18.7160     18.4543     68.4029
  2447.2500      0.6011     21.5901     18.5508     18.0561     68.5523
  2447.5000      0.5394     21.4916     18.4325     17.8368     69.4551
  2447.7500      0.5320     21.3967     18.3593     17.7692     70.2629
  2448.0000      0.5902     21.3142     18.3276     17.8222     70.8134
  2448.2500      0.7215     21.2490     18.3329     17.9580     70.2765
  2448.5000      0.9273     21.2004     18.3689     18.1343     67.9197
  2448.7500      1.2017     21.1649     18.4281     18.3118     65.5488
  2449.0000      1.5315     21.1393     18.5016     18.4639     61.6088
  2449.2500      1.8978     21.1237     18.5800     18.5862     59.3014
  2449.5000      2.2783     21.1201     18.6534     18.6979     57.0191
  2449.7500      2.6500     21.1297     18.7132     18.8316     56.3110
  2450.0000      2.9921     21.1492     18.7518     19.0106     56.0562
  2450.2500      3.2873     21.1693     18.7643     19.2291     56.2512
  2450.5000      3.5236     21.1770     18.7484     19.4496     57.1394
  2450.7500      3.6943     21.1598     18.7041     19.6214     58.2143
  2451.0000      3.7983     21.1100     18.6335     19.7047     60.5329
  2451.2500      3.8393     21.0254     18.5401     19.6843     62.4126
  2451.5000      3.8250     20.9061     18.4273     19.5674     65.1827
  2451.7500      3.7655     20.7521     18.2984     19.3752     66.4936
  2452.0000      3.6721     20.5627     18.1560     19.1373     66.9296
  2452.2500      3.5554     20.3404     18.0023     18.8865     66.1824
  2452.5000      3.4244     20.0946     17.8396     18.6489     64.1687
  2452.7500      3.2861     19.8423     17.6711     18.4315     62.6827
  2453.0000      3.1448     19.6038     17.5008     18.2201     60.6274
  2453.2500      3.0034     19.3961     17.3342     17.9921     59.4321
  2453.5000      2.8638     19.2283     17.1771     17.7382     58.1300
  2453.7500      2.7276     19.0992     17.0350     17.4758     57.8558
  2454.0000      2.5970     18.9998     16.9121     17.2428     58.5487
  2454.2500      2.4740     18.9172     16.8110     17.0773     59.4453
  2454.5000      2.3598     18.8401     16.7322     16.9962     60.4582
  2454.7500      2.2539     18.7623     16.6748     16.9883     60.5201
  2455.0000      2.1540     18.6845     16.6366     17.0246     59.8010
  2455.2500      2.0567     18.6123     16.6153     17.0791     59.1243
  2455.5000      1.9592     18.5536     16.6081     17.1444     58.2823
  2455.7500      1.8610     18.5161     16.6126     17.2341     57.8769
  2456.0000      1.7648     18.5046     16.6266     17.3689     57.3210
  2456.2500      1.6765     18.5190     16.6478     17.5571     56.8968
  2456.5000      1.6040     18.5527     16.6737     17.7807     56.2582
  2456.7500      1.5553     18.5934     16.7018     17.9973     55.9775
  2457.0000      1.5370     18.6258     16.7294     18.1570     55.9130
  2457.2500      1.5521     18.6370     16.7543     18.2262     55.9901
  2457.5000      1.5991     18.6227     16.7751     18.2011     55.8796
  2457.7500      1.6719     18.5905     16.7908     18.1032     55.5182
  2458.0000      1.7598     18.5572     16.8015     17.9621     54.7626
  2458.2500      1.8490     18.5422     16.8075     17.8017     54.4721
  2458.5000      1.9247     18.5589     16.8093     17.6356     54.9191
  2458.7500      1.9732     18.6080     16.8070     17.4712     55.8558
  2459.0000      1.9840     18.6773     16.8008     17.3135     57.8929
  2459.2500      1.9514     18.7456     16.7910     17.1675     59.5114
  2459.5000      1.8758     18.7902     16.7783     17.0415     62.1453
  2459.7500      1.7631     18.7943     16.7641     16.9476     63.7229
  2460.0000      1.6241     18.7522     16.7507     16.8980     64.9427
  2460.2500      1.4720     18.6711     16.7405     16.8974     64.7510
  2460.5000      1.3203     18.5693     16.7360     16.9389     63.5357
  2460.7500      1.1804     18.4709     16.7382     17.0084     62.7037
  2461.0000      1.0598     18.3988     16.7469     17.0952     61.9257
  2461.2500      0.9621     18.3684     16.7605     17.2006     61.5833
  2461.5000      0.8872     18.3843     16.7764     17.3376     60.9220
  2461.7500      0.8327     18.4407     16.7920     17.5205     60.4083
  2462.0000      0.7950     18.5246     16.8059     17.7492     60.1353
  2462.2500      0.7700     18.6213     16.8187     17.9955     60.6816
  2462.5000      0.7542     18.7194     16.8330     18.2055     62.6748
  2462.7500      0.7450     18.8137     16.8535     18.3209     64.3855
  2463.0000      0.7412     18.9058     16.8856     18.3111     66.4748
  2463.2500      0.7434     19.0010     16.9351     18.1942     67.0521
  2463.5000      0.7540     19.1046     17.0062     18.0329     66.3921
  2463.7500      0.7771     19.2187     17.1014     17.9086     65.0994
  2464.0000      0.8173     19.3409     17.2201     17.8899     62.6166
  2464.2500      0.8787     19.4656     17.3588     18.0106     61.1063
  2464.5000      0.9638     19.5855     17.5113     18.2594     59.5696
  2464.7500      1.0720     19.6940     17.6693     18.5822     59.0026
  2465.0000      1.1999     19.7871     17.8242     18.8964     58.5830
  2465.2500      1.3411     19.8646     17.9679     19.1172     58.5443
  2465.5000      1.4877     19.9316     18.0946     19.1876     58.8346
  2465.7500      1.6307     19.9971     18.2011     19.0973     59.1107
  2466.0000      1.7618     20.0712     18.2872     18.8820     59.2302
  2466.2500      1.8736     20.1609     18.3544     18.6076     59.0050
  2466.5000      1.9598     20.2680     18.4056     18.3470     58.4628
  2466.7500      2.0151     20.3891     18.4441     18.1596     58.2022
  2467.0000      2.0348     20.5160     18.4730     18.0758     58.0920
  2467.2500      2.0155     20.6368     18.4953     18.0913     58.0669
  2467.5000      1.9550     20.7365     18.5134     18.1773     57.7030
  2467.7500      1.8535     20.7991     18.5290     18.3025     57.0019
  2468.0000      1.7144     20.8118     18.5429     18.4558     55.0092
  2468.2500      1.5446     20.7705     18.5544     18.6509     53.2032
  2468.5000      1.3542     20.6824     18.5620     18.9098     50.6944
  2468.7500      1.1555     20.5647     18.5630     19.2336     49.8064
  2469.0000      0.9611     20.4391     18.5545     19.5864     50.2209
  2469.2500      0.7827     20.3265     18.5341     19.9019     51.4647
  2469.5000      0.6295     20.2427     18.5005     20.1120     53.6616
  2469.7500      0.5075     20.1948     18.4535     20.1786     54.6059
  2470.0000      0.4191     20.1814     18.3948     20.1070     54.6730
  2470.2500      0.3630     20.1934     18.3272     19.9342     54.0198
  2470.5000      0.3344     20.2185     18.2550     19.7032     52.7727
  2470.7500      0.3258     20.2457     18.1838     19.4448     52.2251
  2471.0000      0.3282     20.2689     18.1199     19.1787     52.4777
  2471.2500      0.3322     20.2873     18.0704     18.9248     53.5652
  2471.5000      0.3304     20.3029     18.0415     18.7101     56.2911
