~Version Information
VERS.                      2.0: CWLS Log ASCII Standard - VERSION 2.0
WRAP.                       NO: One line per depth step
~Well Information Block
STRT.FT               768.0000: 
STOP.FT              2637.5000: 
STEP.FT                 0.2500: 
NULL.                -999.2500: 
COMP.          Pioneer Natural Resources: COMPANY
WELL.               Zink 44-10: WELL
FLD.           Purgatoire River: FIELD
LOC.           548' FSL & 473' FEL: LOCATION
PROV.                 Colorado: PROVINCE
CNTY.               Las Animas: COUNTRY
SRVC.                Patterson: SERVICE COMPANY
DATE.          Mon May 30 05:59:42 2005: LOG DATE
UWI.           05 071 08380 00: UNIQUE WELL ID
~Curve Information Block
DEPT.FT            0 000 00 00: Depth
SN.Ohm-m                      : IEL Short Normal
SP.mV                         : IEL Spontaneous Potential
DIR.Ohm-m                     : IEL Induction Resistivity
GR.GAPI                       : Gamma Ray
~Parameter Information Block
~A  Depth        SN          SP         DIR          GR     
# ...
  2108.0000      8.4447    -53.7227      8.7412    117.8265
  2108.2500      8.2355    -53.4800      8.8360    113.2262
  2108.5000      7.9880    -53.1058      8.9316    109.0695
  2108.7500      7.8834    -52.5645      9.0401    108.4321
  2109.0000      8.1074    -51.8760      9.1693    110.2658
  2109.2500      8.7043    -51.1339      9.3192    112.8177
  2109.5000      9.5158    -50.4683      9.4799    117.6066
  2109.7500     10.2945    -49.9823      9.6332    120.7114
  2110.0000     10.8691    -49.7185      9.7575    123.7995
  2110.2500     11.1903    -49.6714      9.8344    124.2572
  2110.5000     11.2945    -49.8175      9.8550    122.8928
  2110.7500     11.2595    -50.1260      9.8227    121.5013
  2111.0000     11.1449    -50.5546      9.7505    120.2327
  2111.2500     10.9608    -51.0504      9.6538    120.2748
  2111.5000     10.6961    -51.5654      9.5442    121.1994
  2111.7500     10.3469    -52.0750      9.4279    121.8654
  2112.0000      9.9374    -52.5833      9.3102    122.3327
  2112.2500      9.5382    -53.1099      9.1996    122.2100
  2112.5000      9.2339    -53.6669      9.1065    121.3565
  2112.7500      9.0722    -54.2434      9.0372    120.2796
  2113.0000      9.0438    -54.8127      8.9886    118.1529
  2113.2500      9.0898    -55.3558      8.9477    116.9890
  2113.5000      9.1335    -55.8805      8.8983    116.7587
  2113.7500      9.1356    -56.4110      8.8298    117.6886
  2114.0000      9.1168    -56.9579      8.7426    119.6385
  2114.2500      9.1136    -57.4989      8.6459    120.5769
  2114.5000      9.1335    -57.9945      8.5516    121.0330
  2114.7500      9.1625    -58.4176      8.4678    121.0259
  2115.0000      9.1885    -58.7707      8.3979    121.6033
  2115.2500      9.2022    -59.0814      8.3441    122.9431
  2115.5000      9.1954    -59.3812      8.3105    126.7869
  2115.7500      9.1699    -59.6852      8.3033    130.4265
  2116.0000      9.1365    -59.9868      8.3288    136.7828
  2116.2500      9.1018    -60.2675      8.3911    141.0783
  2116.5000      9.0714    -60.5112      8.4918    146.7201
  2116.7500      9.0666    -60.7085      8.6304    149.5151
  2117.0000      9.1056    -60.8539      8.8053    151.6713
  2117.2500      9.1764    -60.9401      9.0150    151.5185
  2117.5000      9.2677    -60.9567      9.2599    148.8371
  2117.7500      9.4115    -60.8952      9.5440    145.5787
  2118.0000      9.6794    -60.7535      9.8741    138.7938
  2118.2500     10.1546    -60.5379     10.2570    133.0549
  2118.5000     10.9023    -60.2581     10.6967    122.7698
  2118.7500     11.9638    -59.9236     11.1912    115.2124
  2119.0000     13.3717    -59.5433     11.7325    104.0009
  2119.2500     15.1290    -59.1278     12.3078     97.2825
  2119.5000     17.1449    -58.6869     12.9031     89.3347
  2119.7500     19.2124    -58.2244     13.5081     85.9707
  2120.0000     21.0911    -57.7351     14.1193     84.2263
  2120.2500     22.6063    -57.2121     14.7354     85.0042
  2120.5000     23.6420    -56.6613     15.3471     88.0136
  2120.7500     24.0986    -56.1110     15.9275     90.6445
  2121.0000     23.9748    -55.5997     16.4283     95.0565
  2121.2500     23.4722    -55.1509     16.7861     98.2931
  2121.5000     22.8773    -54.7628     16.9402    103.4465
  2121.7500     22.3158    -54.4250     16.8549    106.8024
  2122.0000     21.6871    -54.1398     16.5389    111.2438
  2122.2500     20.8011    -53.9219     16.0453    113.6964
  2122.5000     19.5933    -53.7834     15.4503    116.6726
  2122.7500     18.2394    -53.7275     14.8231    118.3857
  2123.0000     16.9963    -53.7546     14.2082    121.1507
  2123.2500     15.9966    -53.8685     13.6243    123.3495
  2123.5000     15.2281    -54.0742     13.0760    126.7619
  2123.7500     14.6033    -54.3673     12.5649    128.4706
  2124.0000     14.0290    -54.7266     12.0944    129.2435
  2124.2500     13.4575    -55.1143     11.6682    128.5582
  2124.5000     12.8933    -55.4851     11.2867    126.8851
  2124.7500     12.3639    -55.8048     10.9465    126.3658
  2125.0000     11.8843    -56.0672     10.6412    127.4851
  2125.2500     11.4623    -56.2932     10.3642    129.0438
  2125.5000     11.1274    -56.5127     10.1088    130.4501
  2125.7500     10.8895    -56.7455      9.8705    129.7584
  2126.0000     10.7017    -56.9993      9.6484    126.6762
  2126.2500     10.5308    -57.2752      9.4482    124.5971
  2126.5000     10.3998    -57.5689      9.2823    123.6297
  2126.7500     10.3333    -57.8713      9.1654    124.6062
  2127.0000     10.3213    -58.1742      9.1098    126.8796
  2127.2500     10.3369    -58.4738      9.1208    127.7103
  2127.5000     10.3571    -58.7678      9.1961    126.9709
  2127.7500     10.3781    -59.0492      9.3287    125.4480
  2128.0000     10.4251    -59.3064      9.5103    122.8024
  2128.2500     10.5394    -59.5270      9.7322    121.4119
  2128.5000     10.7517    -59.6993      9.9816    120.4155
  2128.7500     11.0645    -59.8077     10.2384    120.4108
  2129.0000     11.4463    -59.8271     10.4750    120.6296
  2129.2500     11.8489    -59.7232     10.6636    120.2995
  2129.5000     12.2489    -59.4590     10.7845    118.4018
  2129.7500     12.6543    -58.9985     10.8327    116.2339
  2130.0000     13.0338    -58.3060     10.8177    112.2646
  2130.2500     13.2760    -57.3495     10.7581    109.6759
  2130.5000     13.2803    -56.1198     10.6749    106.7977
  2130.7500     13.0422    -54.6546     10.5858    105.9470
  2131.0000     12.6168    -53.0455     10.5010    106.6002
  2131.2500     12.0901    -51.4166     10.4222    108.3157
  2131.5000     11.5878    -49.8898     10.3442    112.2335
  2131.7500     11.2176    -48.5550     10.2574    114.9967
  2132.0000     10.9893    -47.4553     10.1521    118.0398
  2132.2500     10.8166    -46.5855     10.0210    119.1462
  2132.5000     10.5938    -45.9019      9.8618    120.2303
  2132.7500     10.2867    -45.3408      9.6786    121.0816
  2133.0000      9.9588    -44.8399      9.4819    122.6664
  2133.2500      9.6993    -44.3538      9.2863    123.7283
  2133.5000      9.5528    -43.8607      9.1073    124.9788
  2133.7500      9.5167    -43.3610      8.9577    125.3203
  2134.0000      9.5627    -42.8688      8.8469    124.5803
  2134.2500      9.6489    -42.4001      8.7804    123.2616
  2134.5000      9.7390    -41.9663      8.7601    121.0370
  2134.7500      9.8196    -41.5782      8.7846    120.2441
  2135.0000      9.8921    -41.2500      8.8486    120.9932
  2135.2500      9.9570    -40.9934      8.9421    122.7531
  2135.5000     10.0100    -40.8077      9.0504    126.8076
  2135.7500     10.0362    -40.6782      9.1569    130.2723
  2136.0000     10.0127    -40.5895      9.2476    136.4459
  2136.2500      9.9234    -40.5376      9.3152    140.9397
  2136.5000      9.7708    -40.5334      9.3592    147.1705
  2136.7500      9.5783    -40.5931      9.3814    150.1583
  2137.0000      9.3886    -40.7264      9.3827    152.0198
  2137.2500      9.2582    -40.9269      9.3627    151.7145
  2137.5000      9.2313    -41.1718      9.3216    150.1570
  2137.7500      9.3065    -41.4332      9.2623    148.9877
  2138.0000      9.4333    -41.6940      9.1901    147.3321
  2138.2500      9.5454    -41.9566      9.1119    146.3254
  2138.5000      9.6059    -42.2380      9.0355    145.2791
  2138.7500      9.6268    -42.5544      8.9703    144.9931
  2139.0000      9.6401    -42.9088      8.9265    144.6008
  2139.2500      9.6613    -43.2875      8.9120    143.8240
  2139.5000      9.6887    -43.6671      8.9296    141.7666
  2139.7500      9.7209    -44.0261      8.9767    140.3243
  2140.0000      9.7668    -44.3537      9.0473    138.9502
  2140.2500      9.8428    -44.6528      9.1357    138.6486
  2140.5000      9.9518    -44.9382      9.2390    138.8727
  2140.7500     10.0715    -45.2299      9.3577    139.3995
  2141.0000     10.1763    -45.5402      9.4944    140.5328
  2141.2500     10.2592    -45.8625      9.6517    141.1412
