~Version Information
 VERS.                      2.0: CWLS Log ASCII Standard - VERSION 2.0
 WRAP.                       NO: One line per depth step
 ~Well Information Block
 STRT.FT               115.0000: 
 STOP.FT              1768.2500: 
 STEP.FT                 0.2500: 
 NULL.                -999.2500: 
 COMP.          Petrogulf Corporation: COMPANY
 WELL.           Parsons 23-15V: WELL
 FLD.           Purgatorie River: FIELD
 LOC.           2095' FSL & 1817' FWL--API 05 071 07556 00----: LOCATION
 CNTY.               Las Animas: COUNTY
 SRVC.                         : SERVICE COMPANY
 DATE.          Fri Apr 19 16:58:41 2002: LOG DATE
 UWI.                          : UNIQUE WELL ID
 STAT.                       CO: STATE
 PROV.                         :Province
 ~Curve Information Block
 DEPT.FT            0 000 00 00: Depth
 SP.mV                         : DIL Spontaneous Potential
 RILD.Ohm-m                    : DIL Deep Resistivity
 RILM.Ohm-m                    : DIL Medium Resistivity
 RLL3.Ohm-m                    : DIL Shallow Resistivity
 GR.GAPI                       : Gamma Ray
 ~Parameter Information Block
 ~A  Depth        SP         RILD        RILM        RLL3         GR     
# ...
  1319.0000   -160.7547     11.8402     11.0068     12.4182    162.0394
  1319.2500   -160.5251     11.9192     11.0199     12.3670    160.0820
  1319.5000   -160.4061     12.0584     11.0960     12.3691    155.4761
  1319.7500   -160.4092     12.2563     11.2402     12.4562    148.9598
  1320.0000   -160.5228     12.5116     11.4579     12.6380    142.4194
  1320.2500   -160.7199     12.8229     11.7547     12.9077    137.0672
  1320.5000   -160.9738     13.1891     12.1369     13.2736    132.5983
  1320.7500   -161.2704     13.6085     12.6121     13.7984    127.8126
  1321.0000   -161.6099     14.0786     13.1901     14.6124    121.5405
  1321.2500   -162.0007     14.5955     13.8816     15.8963    113.0928
  1321.5000   -162.4495     15.1551     14.6938     17.8422    102.3799
  1321.7500   -162.9550     15.7529     15.6245     20.5483     89.9062
  1322.0000   -163.5045     16.3854     16.6572     23.8271     76.6595
  1322.2500   -164.0766     17.0497     17.7585     27.0997     63.9300
  1322.5000   -164.6490     17.7441     18.8828     29.6410     53.0065
  1322.7500   -165.2086     18.4666     19.9817     31.0808     44.6125
  1323.0000   -165.7536     19.2129     21.0151     31.6417     38.4779
  1323.2500   -166.2894     19.9737     21.9579     31.8220     33.7708
  1323.5000   -166.8194     20.7336     22.7989     31.9074     30.1118
  1323.7500   -167.3425     21.4731     23.5360     31.8442     27.8873
  1324.0000   -167.8564     22.1711     24.1714     31.4775     27.4652
  1324.2500   -168.3612     22.8076     24.7106     30.7789     28.4352
  1324.5000   -168.8580     23.3650     25.1638     29.8841     29.7785
  1324.7500   -169.3472     23.8320     25.5461     29.0390     30.5861
  1325.0000   -169.8259     24.2102     25.8747     28.5279     30.5990
  1325.2500   -170.2890     24.5198     26.1643     28.5604     30.3242
  1325.5000   -170.7286     24.7943     26.4235     29.1559     30.6750
  1325.7500   -171.1378     25.0642     26.6556     30.1119     32.1722
  1326.0000   -171.5153     25.3400     26.8638     31.0947     34.2825
  1326.2500   -171.8660     25.6097     27.0584     31.8276     35.7023
  1326.5000   -172.1983     25.8542     27.2602     32.2763     35.4154
  1326.7500   -172.5200     26.0695     27.4965     32.6648     33.4523
  1327.0000   -172.8359     26.2746     27.7908     33.2540     30.7594
  1327.2500   -173.1442     26.4981     28.1541     34.0805     28.5077
  1327.5000   -173.4338     26.7548     28.5847     34.9514     27.3795
  1327.7500   -173.6901     27.0364     29.0784     35.7216     27.2574
  1328.0000   -173.9061     27.3202     29.6389     36.5552     27.5220
  1328.2500   -174.0832     27.5871     30.2765     37.8875     27.6145
  1328.5000   -174.2179     27.8310     30.9920     40.1088     27.3223
  1328.7500   -174.2874     28.0582     31.7579     43.2282     26.7637
  1329.0000   -174.2530     28.2806     32.5131     46.7610     26.2796
  1329.2500   -174.0749     28.5119     33.1789     49.9008     26.2481
  1329.5000   -173.7265     28.7661     33.6943     51.8496     26.8447
  1329.7500   -173.1985     29.0556     34.0485     52.1124     27.8867
  1330.0000   -172.5003     29.3885     34.2886     50.6797     28.8599
  1330.2500   -171.6590     29.7613     34.4924     48.1199     29.1931
  1330.5000   -170.7159     30.1560     34.7304     45.5177     28.7060
  1330.7500   -169.7172     30.5459     35.0379     44.1570     27.8354
  1331.0000   -168.7037     30.9088     35.4083     45.0295     27.3285
  1331.2500   -167.7034     31.2356     35.8005     48.3951     27.6898
  1331.5000   -166.7263     31.5222     36.1559     53.5518     29.0512
  1331.7500   -165.7606     31.7562     36.4197     58.9411     31.6553
  1332.0000   -164.7798     31.9213     36.5609     62.7008     36.2737
  1332.2500   -163.7566     32.0190     36.5822     63.5081     43.7715
  1332.5000   -162.6799     32.0845     36.5172     61.2025     54.0820
  1332.7500   -161.5669     32.1720     36.4194     56.7572     65.7946
  1333.0000   -160.4634     32.3224     36.3518     51.6417     76.9404
  1333.2500   -159.4282     32.5416     36.3764     47.0860     86.0340
  1333.5000   -158.5105     32.8036     36.5479     43.8046     92.2288
  1333.7500   -157.7353     33.0702     36.9044     42.2463     94.9081
  1334.0000   -157.1083     33.3082     37.4580     42.8143     93.7827
  1334.2500   -156.6276     33.4944     38.1869     45.5630     89.5622
  1334.5000   -156.2898     33.6096     39.0342     49.6936     84.1928
  1334.7500   -156.0879     33.6331     39.9199     53.7096     80.0194
  1335.0000   -156.0091     33.5431     40.7617     56.4172     78.3764
  1335.2500   -156.0354     33.3207     41.4957     57.7802     78.8888
  1335.5000   -156.1433     32.9521     42.0780     58.6229     80.1481
  1335.7500   -156.3033     32.4259     42.4611     59.5401     80.9364
  1336.0000   -156.4870     31.7305     42.5634     60.2904     80.8643
  1336.2500   -156.6793     30.8545     42.2582     60.2200     80.2658
  1336.5000   -156.8832     29.7936     41.4046     59.0396     79.7645
  1336.7500   -157.1120     28.5623     39.9061     57.0601     79.8952
  1337.0000   -157.3745     27.2033     37.7674     54.7083     81.0777
  1337.2500   -157.6654     25.7829     35.1154     51.9001     83.9846
  1337.5000   -157.9677     24.3727     32.1719     48.0194     89.7398
  1337.7500   -158.2598     23.0299     29.1887     42.6203     99.1346
  1338.0000   -158.5255     21.7881     26.3801     36.1031    111.2760
  1338.2500   -158.7583     20.6587     23.8830     29.5831    123.4121
  1338.5000   -158.9594     19.6378     21.7529     24.1236    132.7034
  1338.7500   -159.1330     18.7132     19.9849     20.1610    138.2458
  1339.0000   -159.2840     17.8705     18.5402     17.5529    141.2255
  1339.2500   -159.4174     17.0968     17.3673     15.9540    143.4150
  1339.5000   -159.5357     16.3837     16.4139     15.0788    145.8932
  1339.7500   -159.6377     15.7289     15.6322     14.7283    148.9414
  1340.0000   -159.7200     15.1365     14.9803     14.7176    152.4598
  1340.2500   -159.7802     14.6153     14.4238     14.8462    156.0635
  1340.5000   -159.8197     14.1753     13.9379     14.9381    158.9742
  1340.7500   -159.8477     13.8243     13.5104     14.8932    160.3447
  1341.0000   -159.8801     13.5646     13.1409     14.6961    159.9431
  1341.2500   -159.9332     13.3933     12.8378     14.3883    158.3302
  1341.5000   -160.0125     13.3027     12.6128     14.0399    156.1353
  1341.7500   -160.1064     13.2806     12.4757     13.7340    153.3044
  1342.0000   -160.1917     13.3115     12.4320     13.5460    149.4114
  1342.2500   -160.2473     13.3762     12.4818     13.5133    144.6878
  1342.5000   -160.2657     13.4533     12.6214     13.6256    140.2030
  1342.7500   -160.2563     13.5205     12.8444     13.8677    136.7398
  1343.0000   -160.2377     13.5588     13.1408     14.3047    133.8819
  1343.2500   -160.2283     13.5559     13.4930     15.1281    130.4363
  1343.5000   -160.2370     13.5095     13.8689     16.5506    125.5166
  1343.7500   -160.2623     13.4253     14.2179     18.5269    119.2678
  1344.0000   -160.2943     13.3137     14.4761     20.5305    112.9333
  1344.2500   -160.3215     13.1839     14.5846     21.7271    108.3724
  1344.5000   -160.3346     13.0411     14.5131     21.5369    107.1943
  1344.7500   -160.3290     12.8859     14.2730     20.0667    109.8191
  1345.0000   -160.3071     12.7167     13.9095     17.9741    115.1376
  1345.2500   -160.2811     12.5310     13.4791     15.9615    121.2940
  1345.5000   -160.2701     12.3263     13.0281     14.4117    126.9272
  1345.7500   -160.2921     12.1011     12.5836     13.3738    131.6504
  1346.0000   -160.3546     11.8556     12.1559     12.7298    135.6562
  1346.2500   -160.4522     11.5934     11.7460     12.3356    139.3224
  1346.5000   -160.5711     11.3224     11.3531     12.0787    143.1736
  1346.7500   -160.6956     11.0541     10.9795     11.8848    147.8038
