~Version Information
 VERS.                      2.0: CWLS Log ASCII Standard - VERSION 2.0
 WRAP.                       NO: One line per depth step
 ~Well Information Block
 STRT.FT               115.0000: 
 STOP.FT              1768.2500: 
 STEP.FT                 0.2500: 
 NULL.                -999.2500: 
 COMP.          Petrogulf Corporation: COMPANY
 WELL.           Parsons 23-15V: WELL
 FLD.           Purgatorie River: FIELD
 LOC.           2095' FSL & 1817' FWL--API 05 071 07556 00----: LOCATION
 CNTY.               Las Animas: COUNTY
 SRVC.                         : SERVICE COMPANY
 DATE.          Fri Apr 19 16:58:41 2002: LOG DATE
 UWI.                          : UNIQUE WELL ID
 STAT.                       CO: STATE
 PROV.                         :Province
 ~Curve Information Block
 DEPT.FT            0 000 00 00: Depth
 SP.mV                         : DIL Spontaneous Potential
 RILD.Ohm-m                    : DIL Deep Resistivity
 RILM.Ohm-m                    : DIL Medium Resistivity
 RLL3.Ohm-m                    : DIL Shallow Resistivity
 GR.GAPI                       : Gamma Ray
 ~Parameter Information Block
 ~A  Depth        SP         RILD        RILM        RLL3         GR     
# ...
  1515.0000   -123.3204     16.9181     18.2027     17.1546     49.4794
  1515.2500   -122.8422     16.9169     18.3693     18.4733     48.2155
  1515.5000   -122.3555     16.9329     18.5712     21.6168     47.8766
  1515.7500   -121.8709     16.9521     18.7759     27.4007     47.9772
  1516.0000   -121.3984     16.9686     18.9335     35.6661     47.9847
  1516.2500   -120.9485     16.9859     18.9904     44.4943     47.9289
  1516.5000   -120.5328     17.0140     18.9107     50.5942     48.4734
  1516.7500   -120.1644     17.0619     18.6950     51.1802     50.4285
  1517.0000   -119.8552     17.1336     18.3826     45.9777     54.0952
  1517.2500   -119.6127     17.2280     18.0364     37.4424     58.8985
  1517.5000   -119.4349     17.3429     17.7206     28.9573     63.5875
  1517.7500   -119.3109     17.4775     17.4840     22.7685     66.8448
  1518.0000   -119.2272     17.6336     17.3542     19.3068     67.9133
  1518.2500   -119.1732     17.8182     17.3415     17.8600     66.9477
  1518.5000   -119.1451     18.0452     17.4480     17.5156     64.9070
  1518.7500   -119.1487     18.3359     17.6783     17.6490     62.9120
  1519.0000   -119.2004     18.7151     18.0469     17.9828     61.3089
  1519.2500   -119.3253     19.2041     18.5820     18.5867     59.2838
  1519.5000   -119.5536     19.8132     19.3264     20.1613     55.7401
  1519.7500   -119.9141     20.5378     20.3361     24.7899     50.6493
  1520.0000   -120.4241     21.3572     21.6766     36.9804     45.2544
  1520.2500   -121.0769     22.2360     23.4106     64.0398     40.9548
  1520.5000   -121.8401     23.1245     25.5754    114.0333     38.2997
  1520.7500   -122.6687     23.9615     28.1493    190.2946     37.0289
  1521.0000   -123.5260     24.6790     31.0189    284.9503     36.7630
  1521.2500   -124.3924     25.2081     33.9619    377.7342     37.4981
  1521.5000   -125.2556     25.4843     36.6474    444.3986     39.4480
  1521.7500   -126.0951     25.4552     38.6419    469.8911     42.3925
  1522.0000   -126.8811     25.0957     39.4387    455.0315     45.3747
  1522.2500   -127.5856     24.4233     38.5974    411.5285     47.4896
  1522.5000   -128.1933     23.4981     36.0259    352.1345     49.1949
  1522.7500   -128.7007     22.4033     32.1758    285.4723     52.5303
  1523.0000   -129.1121     21.2242     27.8551    217.2581     59.5651
  1523.2500   -129.4344     20.0381     23.8004    153.1066     70.4634
  1523.5000   -129.6763     18.9114     20.4166     98.9144     83.2176
  1523.7500   -129.8480     17.8941     17.8009     58.8797     95.3394
  1524.0000   -129.9637     17.0136     15.8790     33.6189    105.5978
  1524.2500   -130.0414     16.2715     14.5183     20.3236    114.0100
  1524.5000   -130.1019     15.6481     13.5842     14.7063    120.5816
  1524.7500   -130.1638     15.1135     12.9627     13.0120    124.6705
  1525.0000   -130.2450     14.6425     12.5654     12.8910    125.7077
  1525.2500   -130.3620     14.2256     12.3300     13.2339    124.0991
  1525.5000   -130.5244     13.8704     12.2183     13.6559    121.1408
  1525.7500   -130.7265     13.5923     12.2115     14.0810    118.2493
  1526.0000   -130.9463     13.4030     12.3015     14.5160    116.3794
  1526.2500   -131.1541     13.3033     12.4806     14.9570    115.7965
  1526.5000   -131.3236     13.2832     12.7303     15.3740    116.0388
  1526.7500   -131.4389     13.3259     13.0181     15.7372    116.2218
  1527.0000   -131.4983     13.4138     13.3028     16.0462    115.6777
  1527.2500   -131.5152     13.5317     13.5498     16.3367    114.3700
  1527.5000   -131.5111     13.6680     13.7423     16.6568    112.6886
  1527.7500   -131.5034     13.8129     13.8839     17.0198    111.1519
  1528.0000   -131.4995     13.9577     13.9876     17.3629    110.4184
  1528.2500   -131.4974     14.0963     14.0632     17.5485    110.9858
  1528.5000   -131.4888     14.2260     14.1108     17.4257    112.4581
  1528.7500   -131.4600     14.3467     14.1274     16.9304    113.5714
  1529.0000   -131.3969     14.4581     14.1186     16.1577    113.3708
  1529.2500   -131.2948     14.5575     14.1065     15.3421    112.0882
  1529.5000   -131.1610     14.6408     14.1223     14.7515    110.5761
  1529.7500   -131.0047     14.7044     14.1907     14.5767    109.1323
  1530.0000   -130.8262     14.7465     14.3183     14.8768    107.2290
  1530.2500   -130.6177     14.7692     14.4905     15.5696    104.3296
  1530.5000   -130.3693     14.7787     14.6801     16.4486    100.7076
  1530.7500   -130.0735     14.7846     14.8597     17.2463     97.3044
  1531.0000   -129.7261     14.7984     15.0134     17.7494     94.8189
  1531.2500   -129.3308     14.8314     15.1402     17.8980     93.2656
  1531.5000   -128.9018     14.8922     15.2508     17.7843     92.4206
  1531.7500   -128.4584     14.9849     15.3601     17.5537     92.1997
  1532.0000   -128.0177     15.1064     15.4800     17.3042     92.4796
  1532.2500   -127.5936     15.2462     15.6139     17.0618     93.0282
  1532.5000   -127.1980     15.3888     15.7546     16.8147     93.7724
  1532.7500   -126.8386     15.5186     15.8860     16.5540     94.7439
  1533.0000   -126.5194     15.6265     15.9902     16.2914     95.5108
  1533.2500   -126.2470     15.7144     16.0572     16.0593     95.0309
  1533.5000   -126.0333     15.7941     16.0916     15.8958     92.5516
  1533.7500   -125.8858     15.8806     16.1124     15.8250     88.7005
  1534.0000   -125.7982     15.9864     16.1457     15.8425     85.4614
  1534.2500   -125.7510     16.1189     16.2156     15.9224     84.9588
  1534.5000   -125.7208     16.2798     16.3385     16.0460     88.0074
  1534.7500   -125.6849     16.4647     16.5220     16.2234     93.3108
  1535.0000   -125.6213     16.6610     16.7685     16.4810     97.8993
  1535.2500   -125.5117     16.8492     17.0803     16.8315     98.8421
  1535.5000   -125.3464     17.0074     17.4596     17.2771     95.0920
  1535.7500   -125.1281     17.1187     17.9037     17.8752     87.9627
  1536.0000   -124.8690     17.1750     18.3964     18.8297     79.9823
  1536.2500   -124.5823     17.1768     18.8984     20.4973     73.3211
  1536.5000   -124.2778     17.1294     19.3438     23.1576     69.0641
  1536.7500   -123.9624     17.0412     19.6497     26.5699     67.4198
  1537.0000   -123.6436     16.9235     19.7403     29.7119     68.1094
  1537.2500   -123.3292     16.7911     19.5768     31.1933     70.5009
  1537.5000   -123.0246     16.6598     19.1757     30.2042     73.7194
  1537.7500   -122.7281     16.5423     18.6043     27.1242     76.9765
  1538.0000   -122.4290     16.4428     17.9567     23.1787     79.9648
  1538.2500   -122.1092     16.3551     17.3240     19.5622     82.8650
  1538.5000   -121.7499     16.2636     16.7724     16.8796     85.8513
  1538.7500   -121.3365     16.1495     16.3350     15.1848     88.7234
  1539.0000   -120.8640     15.9989     16.0161     14.2826     91.1334
  1539.2500   -120.3379     15.8104     15.8017     13.9495     92.9165
  1539.5000   -119.7710     15.5969     15.6688     13.9986     94.0738
  1539.7500   -119.1752     15.3818     15.5931     14.2672     94.7035
  1540.0000   -118.5564     15.1926     15.5525     14.6017     94.9729
  1540.2500   -117.9170     15.0545     15.5301     14.8743     94.8439
  1540.5000   -117.2595     14.9863     15.5173     15.0190     93.8790
  1540.7500   -116.5856     14.9981     15.5150     15.0554     91.6529
  1541.0000   -115.8965     15.0922     15.5320     15.0750     88.3257
  1541.2500   -115.1951     15.2648     15.5799     15.1857     84.5604
  1541.5000   -114.4916     15.5082     15.6704     15.4399     80.9290
  1541.7500   -113.8062     15.8115     15.8153     15.7897     77.6222
  1542.0000   -113.1660     16.1598     16.0289     16.1192     74.7199
  1542.2500   -112.5961     16.5341     16.3281     16.3430     72.4716
  1542.5000   -112.1122     16.9122     16.7291     16.4945     71.1013
  1542.7500   -111.7226     17.2749     17.2413     16.7157     70.4054
