~Version Information
VERS.                      2.0: CWLS Log ASCII Standard - VERSION 2.0
WRAP.                       NO: One line per depth step
~Well Information Block
STRT.FT                -8.0000: 
STOP.FT              1357.5000: 
STEP.FT                 0.2500: 
NULL.                -999.2500: 
COMP.          Pioneer Natural Resources: COMPANY
WELL.          Lorencito 6-3-34-66: WELL
FLD.           Purgatorie River: FIELD
LOC.           2545' FNL & 1914' FWL: LOCATION
STAT.                       CO: State
CNTY.               Las Animas: COUNTY
CTRY. USA : Country
SECT. 3 : Section
TOWN. 34S : Township
RANG. 66W : Range
SRVC.          Patterson Wireline: SERVICE COMPANY
DATE.          Tue Sep 27 11:36:13 2005: LOG DATE
API.           05 071 08369 00: UNIQUE WELL ID
~Curve Information Block
DEPT.FT            0 000 00 00: Depth
CCL.                          : Casing Collar Locator
TT3.usec                      : CBL 3' Travel Time
AMP3.mV                       : CBL 3' Amplitude
GR.GAPI                       : Gamma Ray
~Parameter Information Block
~A  Depth       CCL         TT3         AMP3         GR     
# ...
  1231.5000      0.0000    720.1865      3.3060     79.7844
  1231.7500      0.0000    736.9630      3.1590     66.8490
  1232.0000      0.0000    756.7501      3.0696     55.7780
  1232.2500      0.0000    773.6813      3.0361     48.8023
  1232.5000      0.0000    783.7602      3.0433     47.0944
  1232.7500      0.0000    786.3575      3.0640     50.0530
  1233.0000      0.0000    783.3618      3.0776     55.7816
  1233.2500      0.0000    776.9434      3.0883     62.5902
  1233.5000      0.0000    768.0232      3.1230     69.9067
  1233.7500      0.0000    756.9128      3.2081     77.7481
  1234.0000      0.0000    744.9415      3.3459     85.6999
  1234.2500      0.0000    734.4733      3.5094     92.7352
  1234.5000      0.0000    727.3156      3.6621     97.8649
  1234.7500      0.0000    723.8450      3.7875    100.7178
  1235.0000      0.0000    723.4289      3.8961    101.5321
  1235.2500      0.0000    724.8550      4.0046    100.8192
  1235.5000      0.0000    726.7698      4.1110     99.1282
  1235.7500      0.0000    728.1449      4.1998     96.9697
  1236.0000      0.0000    727.7933      4.2627     94.6919
  1236.2500      0.0000    723.7939      4.3057     92.2120
  1236.5000      0.0000    714.8044      4.3402     88.7888
  1236.7500      0.0000    701.9750      4.3730     83.2861
  1237.0000      0.0000    688.5490      4.4056     75.2167
  1237.2500      0.0000    677.8112      4.4360     65.8810
  1237.5000      0.0000    672.0425      4.4574     58.1968
  1237.7500      0.0000    672.7489      4.4604     54.9381
  1238.0000      0.0000    680.4142      4.4379     56.9572
  1238.2500      0.0000    693.4341      4.3904     63.0096
  1238.5000      0.0000    708.1000      4.3275     70.9867
  1238.7500      0.0000    720.8174      4.2646     79.0439
  1239.0000      0.0000    730.4647      4.2169     85.7286
  1239.2500      0.0000    737.9861      4.1919     89.7281
  1239.5000      0.0000    744.1307      4.1871     90.1731
  1239.7500      0.0000    748.3757      4.1937     87.2547
  1240.0000      0.0000    749.3535      4.2033     82.2668
  1240.2500      0.0000    744.9178      4.2139     76.9461
  1240.5000      0.0000    731.5673      4.2287     72.7010
  1240.7500      0.0000    705.0382      4.2514     70.1636
  1241.0000      0.0000    663.3689      4.2807     69.1427
  1241.2500      0.0000    610.8907      4.3099     68.9763
  1241.5000      0.0000    559.0967      4.3308     69.0748
  1241.7500      0.0000    521.7332      4.3404     69.1503
  1242.0000      0.0000    506.3984      4.3444     68.9976
  1242.2500      0.0000    508.8547      4.3493     68.4310
  1242.5000      0.0000    515.4639      4.3491     67.6113
  1242.7500      0.0000    513.4006      4.3293     67.1666
  1243.0000      0.0000    500.2520      4.2945     67.7643
  1243.2500      0.0000    483.5492      4.2742     69.5956
  1243.5000      0.0000    471.6784      4.2914     72.2284
  1243.7500     -2.0000    467.1819      4.3328     74.8234
  1244.0000      2.0000    468.2604      4.3613     76.5556
  1244.2500      0.0000    473.9281      4.3517     77.0470
  1244.5000      0.0000    486.2804      4.3200     76.5165
  1244.7500      0.0000    507.9272      4.3182     75.6292
  1245.0000      0.0000    536.9315      4.3919     75.3746
  1245.2500      0.0000    564.7093      4.5306     76.9836
  1245.5000      0.0000    581.4527      4.6672     81.4177
  1245.7500      0.0000    585.4656      4.7377     88.3788
  1246.0000      0.0000    585.5846      4.7326     95.7507
  1246.2500      0.0000    592.1932      4.6863    100.4243
  1246.5000      0.0000    606.4717      4.6331    100.1511
  1246.7500      0.0000    619.8922      4.5851     94.9476
  1247.0000      0.0000    622.7933      4.5445     87.0007
  1247.2500      0.0000    611.5286      4.5164     79.2691
  1247.5000      0.0000    588.9833      4.5053     73.7512
  1247.7500      0.0000    561.4612      4.5073     70.5918
  1248.0000      0.0000    535.6446      4.5130     68.6604
  1248.2500      0.0000    516.5693      4.5171     66.8802
  1248.5000      0.0000    506.6952      4.5225     64.9332
  1248.7500      0.0000    506.2856      4.5358     63.0441
  1249.0000      0.0000    514.1693      4.5582     61.4140
  1249.2500      0.0000    527.6102      4.5824     59.7118
  1249.5000      0.0000    541.8193      4.5957     57.0254
  1249.7500      0.0000    550.9576      4.5884     52.5672
  1250.0000      0.0000    550.8961      4.5596     46.6652
  1250.2500      0.0000    541.6451      4.5179     41.0560
  1250.5000      0.0000    527.2693      4.4761     38.0275
  1250.7500      0.0000    513.1890      4.4452     38.8200
  1251.0000      0.0000    503.0085      4.4317     42.4144
  1251.2500      0.0000    497.4287      4.4372     45.9528
  1251.5000      0.0000    495.5766      4.4605     46.8564
  1251.7500      0.0000    496.9254      4.4994     44.8046
  1252.0000      0.0000    502.0173      4.5495     41.6217
  1252.2500      0.0000    511.4592      4.6007     39.4453
  1252.5000      0.0000    523.9119      4.6371     39.2414
  1252.7500      0.0000    535.0356      4.6438     40.7441
  1253.0000      0.0000    539.2976      4.6149     43.1329
  1253.2500      0.0000    533.7167      4.5569     45.5695
  1253.5000      0.0000    519.8996      4.4839     47.4337
  1253.7500      0.0000    502.4047      4.4097     48.3677
  1254.0000      0.0000    485.6353      4.3438     48.2814
  1254.2500      0.0000    472.3442      4.2920     47.5314
  1254.5000      0.0000    463.9460      4.2607     47.0399
  1254.7500      0.0000    461.0179      4.2560     47.8182
  1255.0000      0.0000    463.2570      4.2808     50.2260
  1255.2500      0.0000    469.2323      4.3301     53.7695
  1255.5000      0.0000    476.5296      4.3931     57.3992
  1255.7500      0.0000    482.8097      4.4587     59.8101
  1256.0000      0.0000    487.4376      4.5197     59.9286
  1256.2500      0.0000    491.9989      4.5711     57.7378
  1256.5000      0.0000    498.2986      4.6083     54.5999
  1256.7500      0.0000    505.3477      4.6287     52.3424
  1257.0000      0.0000    509.1107      4.6335     51.8989
  1257.2500      0.0000    506.0603      4.6265     52.8888
  1257.5000      0.0000    496.4921      4.6104     54.4372
  1257.7500      0.0000    483.9502      4.5859     56.1461
  1258.0000      0.0000    472.4621      4.5525     58.0519
  1258.2500      0.0000    464.9093      4.5111     59.8116
  1258.5000      0.0000    463.1071      4.4649     60.5267
  1258.7500      0.0000    467.9525      4.4194     59.6170
  1259.0000      0.0000    478.3704      4.3813     57.4838
  1259.2500      0.0000    490.1481      4.3548     55.0605
  1259.5000      0.0000    497.6897      4.3398     53.0824
  1259.7500      0.0000    498.6298      4.3336     51.9789
  1260.0000      0.0000    495.9668      4.3341     52.0378
  1260.2500      0.0000    494.5742      4.3402     53.3743
  1260.5000      0.0000    496.7792      4.3501     55.8627
  1260.7500      0.0000    501.8894      4.3622     59.0796
  1261.0000      0.0000    507.9350      4.3770     62.2394
  1261.2500      0.0000    512.3281      4.3953     64.4034
  1261.5000      0.0000    512.1569      4.4159     64.9926
  1261.7500      0.0000    505.7985      4.4333     64.0527
  1262.0000      0.0000    494.4268      4.4395     62.0303
  1262.2500      0.0000    481.1146      4.4295     59.5273
  1262.5000      0.0000    468.3702      4.4076     57.4826
  1262.7500      0.0000    456.8120      4.3868     57.2862
  1263.0000      0.0000    446.0775      4.3774     60.0234
  1263.2500      0.0000    436.4278      4.3799     65.2375
  1263.5000      0.0000    429.2570      4.3871     70.6740
  1263.7500      0.0000    426.5997      4.3920     73.6033
  1264.0000      0.0000    430.8575      4.3922     72.5477
  1264.2500      0.0000    444.4188      4.3900     67.9447
  1264.5000      0.0000    467.5057      4.3897     61.5861
  1264.7500      0.0000    495.0944      4.3937     55.6103
