~Version Information
VERS.                      2.0: CWLS Log ASCII Standard - VERSION 2.0
WRAP.                       NO: One line per depth step
~Well Information Block
STRT.FT                -7.6500: 
STOP.FT              3097.2500: 
STEP.FT                 0.0500: 
NULL.                -999.2500: 
COMP.          Pioneer Natural Resources: COMPANY
WELL.            Paradise 13-8: WELL
FLD.           Purgatoire River: FIELD
LOC.           1896' FSL & 1120' FWL--: LOCATION
PROV.                 Colorado: PROVINCE
CNTY.               Las Animas: COUNTRY
SRVC.                Patterson: SERVICE COMPANY
DATE.          Fri Feb 04 16:52:25 2005: LOG DATE
UWI.           05 071 07946 00: UNIQUE WELL ID
~Curve Information Block
DEPT.FT            0 000 00 00: Depth
CCL.                          : Casing Collar Locator
TT3.usec                      : CBL 3' Travel Time
AMP3.mV                       : CBL 3' Amplitude
GR.GAPI                       : Gamma Ray
~Parameter Information Block
~A  Depth       CCL         TT3         AMP3         GR     
# ...
  1231.8500      0.0000    808.7859      1.9301     91.4616
  1231.9000      2.0000    808.7859      1.9301     91.4616
  1231.9500      2.0000    808.7859      1.9301     91.4616
  1232.0000     -2.0000    804.9191      2.0395    101.1814
  1232.0500     -2.0000    804.9191      2.0395    101.1814
  1232.1000      0.0000    804.9191      2.0395    101.1814
  1232.1500      2.0000    804.9191      2.0395    101.1814
  1232.2000      0.0000    804.9191      2.0395    101.1814
  1232.2500     -2.0000    794.3882      2.1613    110.3515
  1232.3000      0.0000    794.3882      2.1613    110.3515
  1232.3500      2.0000    794.3882      2.1613    110.3515
  1232.4000      0.0000    794.3882      2.1613    110.3515
  1232.4500     -2.0000    794.3882      2.1613    110.3515
  1232.5000      0.0000    776.2930      2.3268    118.3112
  1232.5500      2.0000    776.2930      2.3268    118.3112
  1232.6000      0.0000    776.2930      2.3268    118.3112
  1232.6500      0.0000    776.2930      2.3268    118.3112
  1232.7000      0.0000    776.2930      2.3268    118.3112
  1232.7500      0.0000    752.5936      2.5508    124.2712
  1232.8000      0.0000    752.5936      2.5508    124.2712
  1232.8500      0.0000    752.5936      2.5508    124.2712
  1232.9000      0.0000    752.5936      2.5508    124.2712
  1232.9500      0.0000    752.5936      2.5508    124.2712
  1233.0000      0.0000    729.1403      2.8096    127.5785
  1233.0500      0.0000    729.1403      2.8096    127.5785
  1233.1000      0.0000    729.1403      2.8096    127.5785
  1233.1500      0.0000    729.1403      2.8096    127.5785
  1233.2000      0.0000    729.1403      2.8096    127.5785
  1233.2500      0.0000    711.7410      3.0469    128.2352
  1233.3000      0.0000    711.7410      3.0469    128.2352
  1233.3500      0.0000    711.7410      3.0469    128.2352
  1233.4000      0.0000    711.7410      3.0469    128.2352
  1233.4500      0.0000    711.7410      3.0469    128.2352
  1233.5000      0.0000    702.0147      3.2210    126.8722
  1233.5500      0.0000    702.0147      3.2210    126.8722
  1233.6000      0.0000    702.0147      3.2210    126.8722
  1233.6500      0.0000    702.0147      3.2210    126.8722
  1233.7000      0.0000    702.0147      3.2210    126.8722
  1233.7500      0.0000    697.3593      3.3399    124.0784
  1233.8000      0.0000    697.3593      3.3399    124.0784
  1233.8500      0.0000    697.3593      3.3399    124.0784
  1233.9000      0.0000    697.3593      3.3399    124.0784
  1233.9500      0.0000    697.3593      3.3399    124.0784
  1234.0000      0.0000    694.3002      3.4344    120.1720
  1234.0500      0.0000    694.3002      3.4344    120.1720
  1234.1000      0.0000    694.3002      3.4344    120.1720
  1234.1500      0.0000    694.3002      3.4344    120.1720
  1234.2000      0.0000    694.3002      3.4344    120.1720
  1234.2500      0.0000    691.2774      3.5137    115.8229
  1234.3000      0.0000    691.2774      3.5137    115.8229
  1234.3500      0.0000    691.2774      3.5137    115.8229
  1234.4000      0.0000    691.2774      3.5137    115.8229
  1234.4500      0.0000    691.2774      3.5137    115.8229
  1234.5000      0.0000    688.5995      3.5660    112.2899
  1234.5500      0.0000    688.5995      3.5660    112.2899
  1234.6000      0.0000    688.5995      3.5660    112.2899
  1234.6500      0.0000    688.5995      3.5660    112.2899
  1234.7000      0.0000    688.5995      3.5660    112.2899
  1234.7500      0.0000    686.8755      3.5879    110.5260
  1234.8000      0.0000    686.8755      3.5879    110.5260
  1234.8500      0.0000    686.8755      3.5879    110.5260
  1234.9000      0.0000    686.8755      3.5879    110.5260
  1234.9500      0.0000    686.8755      3.5879    110.5260
  1235.0000      0.0000    686.1213      3.5914    110.3981
  1235.0500      0.0000    686.1213      3.5914    110.3981
  1235.1000      0.0000    686.1213      3.5914    110.3981
  1235.1500      0.0000    686.1213      3.5914    110.3981
  1235.2000      0.0000    686.1213      3.5914    110.3981
  1235.2500      0.0000    685.9509      3.5885    111.0215
  1235.3000      0.0000    685.9509      3.5885    111.0215
  1235.3500      0.0000    685.9509      3.5885    111.0215
  1235.4000      0.0000    685.9509      3.5885    111.0215
  1235.4500      0.0000    685.9509      3.5885    111.0215
  1235.5000      0.0000    686.0221      3.5827    111.2815
  1235.5500      0.0000    686.0221      3.5827    111.2815
  1235.6000      0.0000    686.0221      3.5827    111.2815
  1235.6500      0.0000    686.0221      3.5827    111.2815
  1235.7000      0.0000    686.0221      3.5827    111.2815
  1235.7500      0.0000    686.2652      3.5723    109.8752
  1235.8000      0.0000    686.2652      3.5723    109.8752
  1235.8500      0.0000    686.2652      3.5723    109.8752
  1235.9000      0.0000    686.2652      3.5723    109.8752
  1235.9500      0.0000    686.2652      3.5723    109.8752
  1236.0000      0.0000    686.9249      3.5562    105.7790
  1236.0500      0.0000    686.9249      3.5562    105.7790
  1236.1000      0.0000    686.9249      3.5562    105.7790
  1236.1500      0.0000    686.9249      3.5562    105.7790
  1236.2000      0.0000    686.9249      3.5562    105.7790
  1236.2500      0.0000    688.5031      3.5367     99.4206
  1236.3000      0.0000    688.5031      3.5367     99.4206
  1236.3500      0.0000    688.5031      3.5367     99.4206
  1236.4000      0.0000    688.5031      3.5367     99.4206
  1236.4500      0.0000    688.5031      3.5367     99.4206
  1236.5000      0.0000    691.4749      3.5188     92.9454
  1236.5500      0.0000    691.4749      3.5188     92.9454
  1236.6000      0.0000    691.4749      3.5188     92.9454
  1236.6500      0.0000    691.4749      3.5188     92.9454
  1236.7000      0.0000    691.4749      3.5188     92.9454
  1236.7500      0.0000    695.8048      3.5067     88.7057
  1236.8000      0.0000    695.8048      3.5067     88.7057
  1236.8500      0.0000    695.8048      3.5067     88.7057
  1236.9000      0.0000    695.8048      3.5067     88.7057
  1236.9500      0.0000    695.8048      3.5067     88.7057
  1237.0000      0.0000    700.6964      3.4990     87.5517
  1237.0500      0.0000    700.6964      3.4990     87.5517
  1237.1000      0.0000    700.6964      3.4990     87.5517
  1237.1500      0.0000    700.6964      3.4990     87.5517
  1237.2000      0.0000    700.6964      3.4990     87.5517
  1237.2500      0.0000    705.0146      3.4873     88.6413
  1237.3000      0.0000    705.0146      3.4873     88.6413
  1237.3500      0.0000    705.0146      3.4873     88.6413
  1237.4000      0.0000    705.0146      3.4873     88.6413
  1237.4500      0.0000    705.0146      3.4873     88.6413
  1237.5000      0.0000    708.1853      3.4626     90.4305
  1237.5500      0.0000    708.1853      3.4626     90.4305
  1237.6000      0.0000    708.1853      3.4626     90.4305
  1237.6500      0.0000    708.1853      3.4626     90.4305
  1237.7000      0.0000    708.1853      3.4626     90.4305
  1237.7500      0.0000    710.8439      3.4234     91.5184
  1237.8000      0.0000    710.8439      3.4234     91.5184
  1237.8500      0.0000    710.8439      3.4234     91.5184
  1237.9000      0.0000    710.8439      3.4234     91.5184
  1237.9500      0.0000    710.8439      3.4234     91.5184
  1238.0000      0.0000    714.8865      3.3791     91.1362
  1238.0500      0.0000    714.8865      3.3791     91.1362
  1238.1000      0.0000    714.8865      3.3791     91.1362
  1238.1500      0.0000    714.8865      3.3791     91.1362
  1238.2000      0.0000    714.8865      3.3791     91.1362
  1238.2500      0.0000    722.7122      3.3433     89.5651
  1238.3000      0.0000    722.7122      3.3433     89.5651
  1238.3500      0.0000    722.7122      3.3433     89.5651
  1238.4000      0.0000    722.7122      3.3433     89.5651
  1238.4500      0.0000    722.7122      3.3433     89.5651
  1238.5000      0.0000    735.3336      3.3237     88.0480
