~Version Information
VERS.                      2.0: CWLS Log ASCII Standard - VERSION 2.0
WRAP.                       NO: One line per depth step
~Well Information Block
STRT.FT               840.0000: 
STOP.FT              2450.0000: 
STEP.FT                 0.1000: 
NULL.                -999.2500: 
COMP.          Petrogulf Corporation: COMPANY
WELL.             Leier 17-42V: WELL
FLD.           Purgatorie River: FIELD
LOC.           2309' FNL & 1062' FEL SENE 17 33S 67W: LOCATION
PROV.                 Colorado: PROVINCE
CNTY.               Las Animas: COUNTRY
SRVC.                Patterson: SERVICE COMPANY
DATE.          Thu Sep 22 09:35:36 2005: LOG DATE
UWI.           071 08409 : UNIQUE WELL ID
~Curve Information Block
DEPT.FT            0 000 00 00: Depth
DCAL.in                       : CDL Caliper
RHOB.g/cc                     : CDL Bulk Density
RHOC.g/cc                     : CDL Density Correction
DPOR.pu                       : CDL Density Porosity
GR.GAPI                       : Gamma Ray
NPOR.pu                       : Neutron Porosity
~Parameter Information Block
~A  Depth       DCAL        RHOB        RHOC        DPOR         GR         NPOR    
# ...
  1579.2000      7.9994      2.6043      0.0601      2.7677    128.7843     27.4968
  1579.3000      7.9811      2.5970      0.0658      3.2106    131.1572     27.3933
  1579.4000      7.9811      2.5753      0.0249      4.5270    134.5546     27.6582
  1579.5000      7.9794      2.5469     -0.0376      6.2500    137.1526     27.8246
  1579.6000      7.9794      2.5330     -0.0113      7.0898    136.5250     27.7922
  1579.7000      7.9794      2.5332      0.0312      7.0775    134.4091     27.9942
  1579.8000      7.9693      2.5341      0.0088      7.0235    134.2805     28.3409
  1579.9000      7.9693      2.5330      0.0470      7.0879    135.8247     28.3870
  1580.0000      7.9726      2.5332      0.0186      7.0779    138.1799     28.2248
  1580.1000      7.9726      2.5367      0.0404      6.8655    139.9970     28.2279
  1580.2000      7.9726      2.5444      0.0401      6.3993    137.7537     28.2232
  1580.3000      7.9567      2.5605      0.0299      5.4234    132.3896     27.9078
  1580.4000      7.9567      2.5839      0.0740      4.0032    128.0333     27.4564
  1580.5000      7.9578      2.6055      0.0736      2.6960    125.9442     27.1398
  1580.6000      7.9578      2.6200      0.0932      1.8166    125.3244     27.0375
  1580.7000      7.9578      2.6240      0.0968      1.5751    124.6885     27.0957
  1580.8000      7.9455      2.6196      0.0709      1.8426    122.6729     27.1238
  1580.9000      7.9455      2.6136      0.1114      2.2081    121.2949     27.0085
  1581.0000      7.9438      2.6042      0.0772      2.7777    122.6931     26.9604
  1581.1000      7.9438      2.5862      0.0909      3.8685    123.7467     27.1932
  1581.2000      7.9438      2.5677      0.0083      4.9895    121.8183     27.4633
  1581.3000      7.9753      2.5695      0.0004      4.8812    118.2915     27.5492
  1581.4000      7.9753      2.5898      0.0817      3.6481    116.3820     27.5454
  1581.5000      7.9910      2.6073      0.0381      2.5866    119.2176     27.4139
  1581.6000      7.9910      2.6128      0.0698      2.2571    123.5794     27.1664
  1581.7000      7.9910      2.5983      0.0900      3.1355    123.8357     27.2159
  1581.8000      7.9648      2.5634      0.0192      5.2503    122.4442     27.4683
  1581.9000      7.9648      2.5407     -0.0249      6.6253    123.1388     27.3365
  1582.0000      7.9665      2.5573      0.0306      5.6171    125.6080     27.0685
  1582.1000      7.9665      2.5885      0.0898      3.7289    129.0233     27.1527
  1582.2000      7.9665      2.5987      0.0619      3.1094    130.7587     27.3733
  1582.3000      7.9716      2.5904      0.0576      3.6121    128.4068     27.3921
  1582.4000      7.9716      2.5840      0.0328      3.9976    125.1961     27.3537
  1582.5000      7.9830      2.5834      0.0619      4.0353    124.8697     27.3337
  1582.6000      7.9830      2.5743      0.0647      4.5903    125.9019     27.2079
  1582.7000      7.9830      2.5550      0.0227      5.7597    125.3306     27.2721
  1582.8000      7.9943      2.5457      0.0146      6.3220    124.9080     27.5208
  1582.9000      7.9943      2.5570     -0.0031      5.6368    128.3823     27.4271
  1583.0000      7.9830      2.5772      0.0572      4.4151    132.3864     27.0658
  1583.1000      7.9830      2.5867      0.0857      3.8384    131.5226     26.9660
  1583.2000      7.9830      2.5760      0.0641      4.4858    130.2292     27.1549
  1583.3000      8.0159      2.5549     -0.0007      5.7640    133.8690     27.2786
  1583.4000      8.0159      2.5407      0.0079      6.6262    140.3760     27.4370
  1583.5000      8.0307      2.5335      0.0204      7.0621    145.9788     28.0678
  1583.6000      8.0307      2.5193      0.0451      7.9190    148.9092     28.9314
  1583.7000      8.0307      2.4964      0.0169      9.3078    149.7208     29.3660
  1583.8000      8.0454      2.4807     -0.0011     10.2594    150.1919     29.3843
  1583.9000      8.0454      2.4801      0.0383     10.2960    153.9108     29.4889
  1584.0000      8.0446      2.4781      0.0598     10.4198    160.6622     29.7656
  1584.1000      8.0446      2.4540      0.0524     11.8776    163.8544     30.0642
  1584.2000      8.0446      2.4039      0.0599     14.9136    162.6561     30.3176
  1584.3000      8.0777      2.3468     -0.0297     18.3730    164.2113     30.5540
  1584.4000      8.0777      2.3066      0.0138     20.8100    169.9859     31.0186
  1584.5000      8.0847      2.2785      0.0580     22.5128    175.1544     31.6470
  1584.6000      8.0847      2.2523     -0.0106     24.1002    177.8012     32.0442
  1584.7000      8.0847      2.2422      0.0412     24.7128    178.8598     32.0987
  1584.8000      8.0439      2.2670      0.0392     23.2126    180.4123     31.9067
  1584.9000      8.0439      2.3335      0.1087     19.1844    184.0178     31.6721
  1585.0000      7.9872      2.4228      0.1944     13.7679    185.4046     31.7683
  1585.1000      7.9872      2.5008      0.2280      9.0399    181.3213     32.1346
  1585.2000      7.9872      2.5545      0.2598      5.7877    176.8172     32.3742
  1585.3000      8.0275      2.5905      0.2940      3.6091    176.2825     32.4155
  1585.4000      8.0275      2.6134      0.3032      2.2203    178.6378     32.2575
  1585.5000      8.1144      2.6220      0.2761      1.6969    181.4102     31.9667
  1585.6000      8.1144      2.6201      0.1831      1.8148    181.0453     31.7084
  1585.7000      8.1144      2.6163      0.1581      2.0411    176.7533     31.4376
  1585.8000      8.0305      2.6149      0.1378      2.1295    173.1304     31.1170
  1585.9000      8.0305      2.6179      0.1253      1.9470    174.2270     31.1283
  1586.0000      8.0132      2.6213      0.1430      1.7367    177.0963     31.6388
  1586.1000      8.0132      2.6149      0.1540      2.1246    177.7094     31.9514
  1586.2000      8.0132      2.5992      0.0729      3.0762    177.3154     31.6156
  1586.3000      8.0090      2.5841      0.0709      3.9931    177.6486     31.0886
  1586.4000      8.0090      2.5672      0.0699      5.0164    180.2749     30.9545
  1586.5000      7.9890      2.5401      0.0466      6.6581    184.6981     31.2073
  1586.6000      7.9890      2.5069      0.0322      8.6749    188.1476     31.3230
  1586.7000      7.9890      2.4832     -0.0079     10.1098    188.2313     31.2454
  1586.8000      7.9869      2.4814      0.0366     10.2163    185.7888     31.3052
  1586.9000      7.9869      2.4886      0.0601      9.7793    184.3933     31.3449
  1587.0000      7.9992      2.4892      0.0215      9.7477    184.8486     31.1701
  1587.1000      7.9992      2.4922      0.0410      9.5661    185.4495     31.0620
  1587.2000      7.9992      2.5057      0.1003      8.7471    183.9550     31.0992
  1587.3000      8.0114      2.5204      0.0851      7.8568    179.5963     31.0566
  1587.4000      8.0114      2.5267      0.1050      7.4705    176.6323     30.9143
  1587.5000      8.0400      2.5316      0.0882      7.1728    176.6008     30.8744
  1587.6000      8.0400      2.5470      0.1572      6.2446    175.8898     31.2490
  1587.7000      8.0400      2.5662      0.1571      5.0807    173.6037     31.8478
  1587.8000      8.1156      2.5798      0.1408      4.2530    169.4429     32.1035
  1587.9000      8.1156      2.5878      0.1650      3.7674    164.8578     31.8689
  1588.0000      8.1170      2.5859      0.1518      3.8854    164.0969     31.4268
  1588.1000      8.1170      2.5730      0.1119      4.6668    167.4242     31.0336
  1588.2000      8.1170      2.5593      0.0624      5.4955    172.5528     30.7023
  1588.3000      8.0094      2.5501      0.0889      6.0574    178.3855     30.4486
  1588.4000      8.0094      2.5421      0.0596      6.5391    182.6305     30.4735
  1588.5000      7.9890      2.5336      0.0709      7.0549    183.3661     30.6985
  1588.6000      7.9890      2.5246      0.0914      7.6006    180.7596     30.8004
  1588.7000      7.9890      2.5166      0.0561      8.0874    176.1763     30.8601
