~Version Information
VERS.                      2.0: CWLS Log ASCII Standard - VERSION 2.0
WRAP.                       NO: One line per depth step
~Well Information Block
STRT.FT                -7.5000: 
STOP.FT               872.5000: 
STEP.FT                 0.5000: 
NULL.                -999.2500: 
COMP.          Pioneer Natural Resources: COMPANY
WELL.          New Mexico 21-5: WELL
FLD.           Purgatorie River: FIELD
LOC.           175' FNL & 1700' FWL: LOCATION
PROV.                 Colorado: PROVINCE
CNTY.               Las Animas: COUNTRY
SRVC.          Patterson Wireline: SERVICE COMPANY
DATE.          Fri Dec 17 09:32:01 2004: LOG DATE
UWI.           05-071-08234-00: UNIQUE WELL ID
~Curve Information Block
DEPT.FT            0 000 00 00: Depth
CCL.                          : Casing Collar Locator
TT3.usec                      : CBL 3' Travel Time
AMP3.mV                       : CBL 3' Amplitude
GR.GAPI                       : Gamma Ray
~Parameter Information Block
~A  Depth       CCL         TT3         AMP3         GR     
# ...
   394.5000      0.0000    768.9870      7.7470    125.7628
   395.0000      0.0000    756.9263      7.5925    140.8345
   395.5000      0.0000    750.6082      7.4436    154.7542
   396.0000      0.0000    751.0398      7.4245    159.7510
   396.5000      0.0000    755.6239      7.6511    151.1784
   397.0000      0.0000    758.9254      7.9003    133.0411
   397.5000      0.0000    756.8572      8.1074    118.0138
   398.0000      0.0000    761.9822      8.3754    110.0969
   398.5000      0.0000    777.2583      8.6245    103.5820
   399.0000      0.0000    785.1032      8.7543    101.6451
   399.5000      0.0000    787.6832      8.7336    107.4127
   400.0000      0.0000    798.6485      8.5522    109.3312
   400.5000      0.0000    817.8434      8.3527    106.6767
   401.0000      0.0000    828.2735      8.2546    107.1477
   401.5000      0.0000    823.0194      8.1933    113.3834
   402.0000      0.0000    822.8253      8.1665    127.5273
   402.5000      0.0000    831.1343      8.1808    145.4251
   403.0000      0.0000    827.1569      8.1355    157.4217
   403.5000      0.0000    798.1107      7.9777    166.7354
   404.0000      0.0000    762.3759      7.8462    176.0798
   404.5000      0.0000    756.3083      7.8363    174.0452
   405.0000      0.0000    778.1444      7.8017    168.2279
   405.5000      0.0000    798.4244      7.7159    161.6096
   406.0000      0.0000    797.9259      7.6275    161.0238
   406.5000      0.0000    789.9552      7.4986    170.2964
   407.0000      0.0000    796.1745      7.3458    170.7712
   407.5000      0.0000    815.8489      7.2317    160.1554
   408.0000      0.0000    832.3702      7.1740    151.8938
   408.5000      0.0000    836.5932      7.1574    151.1580
   409.0000      0.0000    830.2753      7.0550    157.4190
   409.5000      0.0000    817.8722      6.8172    162.2816
   410.0000      0.0000    810.8978      6.6811    162.5370
   410.5000      0.0000    809.1169      6.8468    164.5698
   411.0000      0.0000    811.5319      7.1610    160.9332
   411.5000      0.0000    820.2654      7.4071    151.6251
   412.0000      0.0000    820.2085      7.5510    145.6318
   412.5000      0.0000    811.7397      7.6253    148.3193
   413.0000      0.0000    809.4305      7.7620    158.9782
   413.5000      0.0000    806.2023      7.9244    167.4749
   414.0000      0.0000    794.8274      7.8923    172.8316
   414.5000      0.0000    784.2394      7.7200    176.9344
   415.0000      0.0000    786.9578      7.5334    174.7259
   415.5000      0.0000    794.9448      7.3929    160.0666
   416.0000      0.0000    794.7748      7.3660    137.7752
   416.5000      0.0000    784.8197      7.3909    120.6324
   417.0000      0.0000    776.7310      7.3922    115.3805
   417.5000      0.0000    783.0427      7.3664    110.9110
   418.0000      0.0000    788.9955      7.2570    107.1849
   418.5000      0.0000    779.2135      7.1022    114.3671
   419.0000      0.0000    763.1362      6.9806    117.9985
   419.5000      0.0000    755.2392      6.8762    113.3931
   420.0000      0.0000    753.6680      6.7532    109.3518
   420.5000      0.0000    753.1872      6.6713    112.9474
   421.0000      0.0000    753.4444      6.6117    118.9733
   421.5000      0.0000    755.0732      6.5078    112.9963
   422.0000      0.0000    760.0239      6.4414    103.0680
   422.5000      0.0000    771.1216      6.5155    112.1094
   423.0000      0.0000    783.3234      6.6613    130.9849
   423.5000      0.0000    795.1270      6.7959    134.8198
   424.0000      0.0000    805.6859      6.9363    133.7394
   424.5000      0.0000    808.0331      7.0125    137.7724
   425.0000      0.0000    807.8094      7.1979    137.7344
   425.5000      0.0000    803.3120      7.4136    137.0746
   426.0000      0.0000    799.2232      7.3947    139.5061
   426.5000      0.0000    801.9474      7.1574    147.3612
   427.0000      0.0000    803.7653      6.8592    154.1220
   427.5000      0.0000    790.2651      6.4990    157.9483
   428.0000      0.0000    761.6004      6.0901    161.4327
   428.5000      0.0000    761.2352      5.9955    155.8797
   429.0000      0.0000    786.8841      6.1289    145.3716
   429.5000      0.0000    799.3383      6.2377    147.9088
   430.0000      0.0000    801.8826      6.4419    157.8563
   430.5000      0.0000    807.2580      6.6625    157.0875
   431.0000      0.0000    812.3282      6.8754    143.0442
   431.5000      0.0000    798.8937      7.0244    131.0169
   432.0000      0.0000    773.7563      6.8927    125.1843
   432.5000      0.0000    762.2872      6.7884    116.0774
   433.0000      0.0000    765.0630      6.6958    111.2860
   433.5000      0.0000    775.9679      6.5921    111.9888
   434.0000      0.0000    790.7465      6.9556    106.9972
   434.5000      0.0000    801.9853      7.6430    104.2373
   435.0000      0.0000    801.0596      7.6848    106.3699
   435.5000      0.0000    801.2589      7.3885    103.9557
   436.0000      0.0000    814.3417      7.2644     99.6006
   436.5000      0.0000    832.7278      7.0528    101.1639
   437.0000      0.0000    840.6464      6.8090    103.1322
   437.5000      0.0000    840.8823      6.6180    110.0381
   438.0000      0.0000    832.5953      6.5345    125.5546
   438.5000      0.0000    805.7593      6.4499    129.7053
   439.0000      0.0000    768.9982      6.3688    112.6585
   439.5000      0.0000    743.6930      6.3150     88.3729
   440.0000      0.0000    740.3655      6.3638     70.4418
   440.5000      0.0000    760.0536      6.5064     63.4842
   441.0000      0.0000    776.0194      6.7043     62.2463
   441.5000      0.0000    772.0240      6.8578     63.7857
   442.0000      0.0000    769.1013      6.9672     68.8469
   442.5000      0.0000    762.0087      7.1607     71.6124
   443.0000      0.0000    752.3078      7.4834     71.4749
   443.5000      0.0000    752.3907      7.8054     76.3556
   444.0000      0.0000    760.7275      8.0273     84.8101
   444.5000      0.0000    759.9576      8.2133     87.1600
   445.0000      0.0000    749.4012      8.2650     78.3533
   445.5000      0.0000    743.1836      8.0904     76.4041
   446.0000      0.0000    744.4131      7.7834     95.3574
   446.5000      0.0000    741.7791      7.5681    124.8362
   447.0000      0.0000    734.4547      7.5053    146.6408
   447.5000      0.0000    733.7001      7.5197    145.7261
   448.0000      0.0000    729.5746      7.5195    129.0670
   448.5000      0.0000    718.6721      7.5014    124.7532
   449.0000      0.0000    718.8604      7.3848    137.9313
   449.5000      0.0000    732.5343      7.1401    142.7282
   450.0000      0.0000    744.3223      6.9092    127.8669
   450.5000      0.0000    748.1358      6.8146    103.9470
   451.0000      0.0000    749.3245      6.9213     89.7745
   451.5000      0.0000    749.9969      7.0684     94.7628
   452.0000      0.0000    749.7980      7.0839    109.0505
   452.5000      0.0000    748.0970      7.0548    123.4310
   453.0000      0.0000    743.4604      7.0530    131.9835
   453.5000      0.0000    737.9618      7.0807    138.5691
   454.0000      0.0000    736.5590      7.0735    148.9471
   454.5000      0.0000    736.6304      7.0029    153.0353
   455.0000      0.0000    729.9834      6.9895    152.3273
   455.5000      0.0000    719.5632      7.1130    161.0981
   456.0000      0.0000    722.1556      7.2242    166.0950
   456.5000      0.0000    734.1508      7.2382    164.3802
   457.0000      0.0000    738.5833      7.2240    166.6510
   457.5000      0.0000    738.7238      7.1913    155.6794
   458.0000      0.0000    739.9299      7.2170    129.8668
   458.5000      0.0000    732.8707      7.3232    111.9228
   459.0000      0.0000    722.8322      7.5048    101.9526
   459.5000      0.0000    727.4342      7.8649     92.2822
   460.0000      0.0000    740.6335      8.2741     85.6967
   460.5000      0.0000    747.3049      8.6838     79.6947
   461.0000      0.0000    748.2102      9.0538     74.6832
