~Version Information
VERS.                      2.0: CWLS Log ASCII Standard - VERSION 2.0
WRAP.                       NO: One line per depth step
~Well Information Block
STRT.FT               460.0000: 
STOP.FT               961.2000: 
STEP.FT                 0.1000: 
NULL.                -999.2500: 
COMP.          Pioneer Natural Resources: COMPANY
WELL.                Pug 33-19: WELL
FLD.           Purgatoire River: FIELD
LOC.           1381' FSL & 2140' FEL: LOCATION
PROV.                 Colorado: PROVINCE
CNTY.               Las Animas: COUNTRY
SRVC.                Patterson: SERVICE COMPANY
DATE.          Wed Dec 15 07:19:20 2004: LOG DATE
UWI.           05 071 08193 00: UNIQUE WELL ID
~Curve Information Block
DEPT.FT            0 000 00 00: Depth
DCAL.in                       : CDL Caliper
RHOB.g/cc                     : CDL Bulk Density
RHOC.g/cc                     : CDL Density Correction
DPOR.pu                       : CDL Density Porosity
NPOR.pu                       : Neutron Porosity
GR.GAPI                       : Gamma Ray
~Parameter Information Block
~A  Depth       DCAL        RHOB        RHOC        DPOR        NPOR         GR     
# ...
   776.8000      7.9158      2.5609      0.0708      5.4026     16.0440     69.5953
   776.9000      7.9158      2.5479      0.0359      6.1861     15.4724     69.3141
   777.0000      7.9150      2.5413      0.0607      6.5900     14.3949     67.7508
   777.1000      7.9150      2.5408      0.0323      6.6198     13.9361     72.1734
   777.2000      7.9150      2.5475      0.0434      6.2117     14.0932     75.2769
   777.3000      7.9138      2.5528      0.0736      5.8897     14.2386     67.4109
   777.4000      7.9138      2.5445      0.0552      6.3954     14.2981     54.9941
   777.5000      7.9134      2.5297      0.0387      7.2930     14.2032     50.9665
   777.6000      7.9134      2.5266      0.0443      7.4799     13.9462     57.3062
   777.7000      7.9134      2.5383      0.0669      6.7677     13.9943     66.3688
   777.8000      7.9134      2.5444      0.0634      6.4024     14.3116     71.9140
   777.9000      7.9134      2.5342      0.0264      7.0211     14.3445     73.5975
   778.0000      7.9128      2.5301      0.0062      7.2669     14.1035     74.3637
   778.1000      7.9128      2.5450      0.0557      6.3653     13.9520     77.4694
   778.2000      7.9128      2.5548      0.0730      5.7685     14.0250     82.6092
   778.3000      7.9124      2.5436      0.0426      6.4486     14.3204     87.2204
   778.4000      7.9124      2.5288      0.0387      7.3431     14.8140     88.0116
   778.5000      7.9124      2.5295      0.0291      7.3047     15.1800     81.7258
   778.6000      7.9124      2.5451      0.0237      6.3547     15.1581     72.6091
   778.7000      7.9124      2.5621      0.0387      5.3300     15.0981     68.7067
   778.8000      7.9125      2.5674      0.0745      5.0082     15.1973     68.9754
   778.9000      7.9125      2.5638      0.0236      5.2266     15.3552     69.2291
   779.0000      7.9131      2.5573      0.0612      5.6162     15.4896     72.3718
   779.1000      7.9131      2.5506      0.0257      6.0258     15.6229     80.5433
   779.2000      7.9131      2.5551      0.0381      5.7541     16.0860     87.9033
   779.3000      7.9139      2.5709      0.0961      4.7956     16.9215     87.2040
   779.4000      7.9139      2.5801      0.0876      4.2362     17.7815     80.3274
   779.5000      7.9151      2.5713      0.0728      4.7669     18.2020     76.7370
   779.6000      7.9151      2.5455      0.0372      6.3326     17.8435     79.7176
   779.7000      7.9151      2.5122      0.0427      8.3510     17.1070     84.1926
   779.8000      7.9159      2.4895     -0.0093      9.7298     16.6914     86.7672
   779.9000      7.9159      2.4940      0.0075      9.4548     16.6812     89.4688
   780.0000      7.9163      2.5168      0.0909      8.0741     16.4793     90.6549
   780.1000      7.9163      2.5328      0.0661      7.1043     15.6653     85.3983
   780.2000      7.9163      2.5375      0.0447      6.8200     14.5678     76.8936
   780.3000      7.9153      2.5420      0.0712      6.5440     13.6485     71.9815
   780.4000      7.9153      2.5436      0.0924      6.4515     13.0667     67.9001
   780.5000      7.9141      2.5285      0.0597      7.3627     12.8362     62.2237
   780.6000      7.9141      2.5045      0.0026      8.8188     12.9212     58.9179
   780.7000      7.9141      2.4982      0.0196      9.2008     13.1269     58.3198
   780.8000      7.9134      2.5127      0.0618      8.3184     13.1622     58.9165
   780.9000      7.9134      2.5259      0.0543      7.5192     13.0609     59.2666
   781.0000      7.9131      2.5289      0.0397      7.3393     13.3953     57.3619
   781.1000      7.9131      2.5259      0.0409      7.5218     14.3309     54.0632
   781.2000      7.9131      2.5172      0.0691      8.0468     15.2744     53.4011
   781.3000      7.9141      2.5068      0.0467      8.6804     15.8738     57.3484
   781.4000      7.9141      2.5018      0.0331      8.9809     16.4623     63.3431
   781.5000      7.9145      2.5035      0.0587      8.8814     17.1412     68.0290
   781.6000      7.9145      2.5076      0.0607      8.6292     17.2768     67.4595
   781.7000      7.9145      2.4987      0.0846      9.1723     16.5921     62.7630
   781.8000      7.9123      2.4625      0.0379     11.3621     15.8142     60.2885
   781.9000      7.9123      2.4195     -0.0235     13.9669     15.7117     61.7927
   782.0000      7.9106      2.4022      0.0379     15.0178     16.2102     61.7540
   782.1000      7.9106      2.4076      0.0366     14.6913     16.6953     55.4794
   782.2000      7.9106      2.4124      0.0555     14.4024     17.0268     49.0885
   782.3000      7.9118      2.4100      0.0510     14.5480     17.2554     52.9719
   782.4000      7.9118      2.4139      0.0327     14.3113     17.0529     63.9830
   782.5000      7.9123      2.4344      0.0816     13.0645     16.4319     69.9052
   782.6000      7.9123      2.4680      0.1284     11.0315     15.6391     66.0911
   782.7000      7.9123      2.5063      0.1693      8.7120     15.1028     57.0528
   782.8000      7.9129      2.5413      0.1831      6.5852     15.3307     52.2517
   782.9000      7.9129      2.5739      0.1535      4.6120     16.1177     54.9829
   783.0000      7.9195      2.6020      0.2147      2.9115     16.6363     58.2957
   783.1000      7.9195      2.6146      0.1749      2.1483     16.4851     58.8438
   783.2000      7.9195      2.6162      0.1113      2.0474     15.9283     61.0824
   783.3000      7.9315      2.6170      0.1182      2.0017     15.5671     66.6071
   783.4000      7.9315      2.6119      0.0628      2.3118     15.9709     70.0985
   783.5000      7.9392      2.6003      0.0478      3.0132     17.0627     67.1639
   783.6000      7.9392      2.5869      0.0804      3.8264     18.1802     62.3186
   783.7000      7.9392      2.5700      0.0685      4.8496     18.8127     60.7201
   783.8000      7.9424      2.5598      0.0200      5.4683     19.2254     61.8237
   783.9000      7.9424      2.5688      0.0464      4.9199     20.0227     64.4401
   784.0000      7.9446      2.5821      0.0879      4.1125     21.2661     65.9389
   784.1000      7.9446      2.5794      0.0611      4.2810     22.4714     64.1657
   784.2000      7.9446      2.5670      0.0504      5.0326     22.9729     62.3002
   784.3000      7.9450      2.5591      0.0400      5.5082     22.8852     63.8903
   784.4000      7.9450      2.5611      0.0494      5.3880     22.6990     66.4607
   784.5000      7.9449      2.5732      0.0544      4.6536     22.0675     66.9492
   784.6000      7.9449      2.5886      0.0506      3.7241     20.9284     67.1375
   784.7000      7.9449      2.5930      0.0883      3.4523     19.8164     67.6628
   784.8000      7.9455      2.5815      0.0403      4.1541     18.7148     66.3955
   784.9000      7.9455      2.5688      0.0294      4.9183     17.7055     64.4702
   785.0000      7.9457      2.5675      0.0449      5.0011     17.6287     62.6574
   785.1000      7.9457      2.5683      0.0794      4.9515     18.7684     59.5618
   785.2000      7.9457      2.5572      0.0691      5.6271     19.8745     57.2475
   785.3000      7.9450      2.5353      0.0511      6.9516     20.0169     58.7564
   785.4000      7.9450      2.5158      0.0165      8.1320     19.4299     62.7957
   785.5000      7.9453      2.5054      0.0688      8.7661     18.2776     66.6012
   785.6000      7.9453      2.5008      0.0198      9.0413     17.3048     69.8872
   785.7000      7.9453      2.5023      0.0463      8.9520     17.3984     71.9355
   785.8000      7.9465      2.5092      0.0585      8.5345     17.9365     72.3192
   785.9000      7.9465      2.5181      0.0433      7.9967     18.0192     73.8099
   786.0000      7.9464      2.5269      0.0753      7.4591     17.8588     80.5049
   786.1000      7.9464      2.5382      0.0707      6.7728     17.5803     88.5347
   786.2000      7.9464      2.5508      0.1159      6.0130     17.0434     88.6309
   786.3000      7.9456      2.5481      0.0787      6.1767     16.5265     80.2527
