~Version Information
VERS.                      2.0: CWLS Log ASCII Standard - VERSION 2.0
WRAP.                       NO: One line per depth step
~Well Information Block
STRT.FT               546.0000: 
STOP.FT              1771.5000: 
STEP.FT                 0.2500: 
NULL.                -999.2500: 
COMP.          Petrogulf Corporation: COMPANY
WELL.             McLeod 9-42R: WELL
FLD.           Purgatorie River: FIELD
LOC.           1748' FNL & 372' FEL: LOCATION
PROV.                 Colorado: PROVINCE
CNTY.               Las Animas: COUNTRY
SRVC.                Patterson: SERVICE COMPANY
DATE.          Tue Aug 16 11:11:38 2005: LOG DATE
UWI.           071 08092  : UNIQUE WELL ID
~Curve Information Block
DEPT.FT            0 000 00 00: Depth
SP.mV                         : DIL Spontaneous Potential
RILD.Ohm-m                    : DIL Deep Resistivity
RILM.Ohm-m                    : DIL Medium Resistivity
RLL3.Ohm-m                    : DIL Shallow Resistivity
GR.GAPI                       : Gamma Ray
~Parameter Information Block
~A  Depth        SP         RILD        RILM        RLL3         GR     
# ...
   854.0000   -117.6005     17.4407     22.3555     38.3279     94.3834
   854.2500   -122.3558     19.5385     21.9594     45.2452     94.8323
   854.5000   -125.6716     19.4310     23.3994     50.7118     91.3029
   854.7500   -128.3111     21.4787     24.0808     47.7861     97.7199
   855.0000   -131.0969     21.7468     24.7118     40.6076    110.5904
   855.2500   -133.9087     23.2939     25.1127     33.0944    106.1220
   855.5000   -136.1234     25.3899     26.3258     28.2231     97.6380
   855.7500   -138.6727     29.5612     26.6456     27.3595     95.6793
   856.0000   -142.1533     30.2124     27.9291     33.5999     97.5173
   856.2500   -145.0548     28.0684     29.8110     41.0176    101.4248
   856.5000   -148.1825     25.8038     30.6233     41.2971    110.6703
   856.7500   -151.7263     28.6522     29.2429     35.2607    104.9530
   857.0000   -154.4720     30.1317     30.3592     33.6393    100.1426
   857.2500   -157.3723     29.8691     27.4047     37.9181     96.2227
   857.5000   -160.1744     29.3432     29.5396     41.4100     95.9077
   857.7500   -163.1591     33.3928     35.0959     43.9443     94.8983
   858.0000   -165.0362     30.1342     30.4213     46.3071     94.1337
   858.2500   -166.5868     33.0133     31.3784     47.5055     91.4128
   858.5000   -168.6676     35.4315     33.6763     48.1865     92.3490
   858.7500   -170.5416     39.7326     35.0197     49.0816     90.0454
   859.0000   -168.3276     38.6300     36.4586     50.9244     94.4305
   859.2500   -169.0771     42.9080     36.9608     54.3073     95.5445
   859.5000   -170.7834     41.2530     34.6142     55.3882     89.4506
   859.7500   -171.5133     46.6809     36.6417     52.6895     84.7242
   860.0000   -173.2231     50.1571     38.1532     49.5416     86.3780
   860.2500   -175.5578     42.8465     43.3913     51.4844     82.6540
   860.5000   -177.4326     46.7526     41.6359     55.8523     72.1566
   860.7500   -180.3687     57.0766     39.7323     57.0628     69.5639
   861.0000   -182.8516     54.5975     42.7949     56.1315     68.7965
   861.2500   -185.0905     48.6742     43.0052     54.1699     63.0488
   861.5000   -186.7578     50.8923     45.2508     51.8555     58.0820
   861.7500   -186.9554     44.2876     43.5541     49.7796     59.9070
   862.0000   -187.9647     45.3744     39.7376     49.2675     56.3553
   862.2500   -189.4265     40.1535     40.0967     50.1369     51.8810
   862.5000   -190.8610     42.2329     40.7783     50.6855     53.9592
   862.7500   -191.5882     35.8386     40.3398     50.6386     53.0915
   863.0000   -192.3380     34.1385     39.0401     49.6623     61.5136
   863.2500   -192.6585     32.0511     39.1685     48.1465     63.4266
   863.5000   -192.3639     33.3868     37.4797     48.3913     62.8407
   863.7500   -192.0325     32.7896     37.3438     48.5885     57.0903
   864.0000   -191.2957     31.3363     38.4293     49.0425     56.9337
   864.2500   -189.8942     33.3704     37.7898     49.7708     58.6562
   864.5000   -188.5796     33.1994     34.5126     52.0396     63.4908
   864.7500   -187.7531     33.7053     34.7709     52.8324     62.4878
   865.0000   -186.6758     32.6877     35.0735     51.1362     64.3178
   865.2500   -186.3118     34.9522     38.5576     50.0170     64.8306
   865.5000   -185.8968     35.8498     36.5710     49.2813     66.5309
   865.7500   -186.0765     38.1443     35.4927     48.3278     64.3910
   866.0000   -185.6909     36.2125     38.2430     47.4040     55.8681
   866.2500   -186.0296     31.7384     36.8591     47.1194     51.2852
   866.5000   -186.4168     31.7901     42.3394     48.2318     51.7887
   866.7500   -186.7471     33.9637     42.8502     50.4214     51.3530
   867.0000   -187.7874     35.1913     47.3706     52.8013     51.1221
   867.2500   -188.3965     34.8630     47.3884     55.5873     49.2876
   867.5000   -188.1906     32.9515     46.1492     59.7251     42.9159
   867.7500   -187.2956     31.0708     52.8618     61.4326     42.4457
   868.0000   -186.3062     30.2339     52.2713     62.8565     44.2123
   868.2500   -186.2606     38.6409     51.3473     65.9830     40.6046
   868.5000   -185.6709     38.2425     49.4353     68.6608     47.3971
   868.7500   -184.5989     37.8504     49.0943     71.1577     44.6560
   869.0000   -183.3304     40.6263     49.0035     75.6737     55.6533
   869.2500   -181.2977     48.1393     51.8575     81.0127     59.4923
   869.5000   -178.3730     37.9747     52.3519     78.7464     61.8581
   869.7500   -175.9927     35.8458     51.1648     70.5639     64.7528
   870.0000   -173.2450     46.7625     53.6052     55.9946     64.1803
   870.2500   -171.4473     53.9664     70.6985     43.8724     62.0576
   870.5000   -169.9471     44.9722     67.2147     40.8036     49.2415
   870.7500   -168.4424     48.9004     75.1970     47.5312     45.9380
   871.0000   -167.2569     54.0517     81.4604     57.4413     49.4300
   871.2500   -165.4275     40.9745     73.3757     66.3397     49.3852
   871.5000   -163.7567     36.9414     75.1755     74.0982     48.4287
   871.7500   -161.4716     35.5464     89.0029     77.4182     49.9195
   872.0000   -158.9597     32.1521     75.1690     76.8152     47.2669
   872.2500   -156.8645     33.2127     75.3625     72.7983     47.1982
   872.5000   -154.7220     31.2241     65.0114     68.7283     56.1272
   872.7500   -151.9737     35.5315     64.1041     68.9415     54.5650
   873.0000   -149.6532     32.3920     43.6898     70.4127     58.0585
   873.2500   -146.4506     28.3096     46.6204     70.3613     69.6878
   873.5000   -142.7693     29.0746     42.3553     69.1713     96.1686
   873.7500   -138.2039     28.7590     32.3774     62.1976    103.6175
   874.0000   -133.0758     27.6939     28.5245     43.8183    111.8936
   874.2500   -127.7082     27.2599     29.0042     27.1350    106.6991
   874.5000   -122.2207     26.6776     27.6241     20.5789    111.8411
   874.7500   -116.5585     22.1672     25.8169     21.9879    109.3779
   875.0000   -111.8906     20.4253     26.1827     23.9149    111.9831
   875.2500   -108.3514     21.0677     25.6957     24.5197    112.6741
   875.5000   -104.8151     18.5429     24.3969     25.4216    117.1954
   875.7500   -101.9879     18.3174     22.8894     25.1776    117.3494
   876.0000   -100.4650     18.0128     21.5285     24.6148    109.1264
   876.2500    -99.2843     17.5048     19.8567     24.1462    107.9253
   876.5000    -97.9008     17.5674     19.7445     23.6440    107.4963
   876.7500    -97.4221     17.5734     19.3997     23.5183    113.4795
   877.0000    -96.5816     16.3890     19.9577     24.4480    105.5866
   877.2500    -96.2986     16.3454     18.3090     25.8963    101.7925
   877.5000    -95.3045     17.3693     18.5860     26.4407    107.2692
   877.7500    -95.1707     17.6297     17.8343     26.5144    114.8239
   878.0000    -96.4059     18.1391     16.6722     25.4166    114.2739
   878.2500    -96.6695     18.0945     16.2222     24.9031    114.8109
   878.5000    -97.1283     17.8926     16.9617     24.1463    115.8163
   878.7500    -97.7882     17.4806     17.1415     22.1055    115.1982
   879.0000    -98.0827     18.4080     17.4355     20.2597    114.9649
   879.2500    -98.2494     21.1356     17.4637     19.3574    108.2020
   879.5000   -100.9919     20.8589     18.4297     19.2613    109.6723
   879.7500   -103.0308     22.3265     20.6011     19.6577     96.0479
   880.0000   -105.5811     23.3993     21.3334     20.6754     89.5692
   880.2500   -109.2354     23.4896     22.3923     23.5786     84.6888
   880.5000   -112.5838     26.2567     26.4367     32.6171     86.6423
   880.7500   -115.8688     25.9642     29.1155     42.9247     81.3028
   881.0000   -119.4242     27.6391     31.7205     48.1305     78.2845
   881.2500   -122.0146     34.6584     35.0602     53.1901     69.8417
   881.5000   -123.6625     36.2227     34.1884     55.3298     68.7866
   881.7500   -124.3372     35.7187     34.0465     57.3249     67.2794
