~Version Information
VERS.                      2.0: CWLS Log ASCII Standard - VERSION 2.0
WRAP.                       NO: One line per depth step
~Well Information Block
STRT.FT                -9.7500: 
STOP.FT              2158.2500: 
STEP.FT                 0.2500: 
NULL.                -999.2500: 
COMP.          Petrogulf Corporation: COMPANY
WELL.             State 16-41V: WELL
FLD.           Purgatoire River: FIELD
LOC.           335' FNL & 823' FEL--: LOCATION
PROV.                 Colorado: PROVINCE
CNTY.               Las Animas: COUNTRY
SRVC.                Patterson: SERVICE COMPANY
DATE.          Wed Aug 17 12:15:10 2005: LOG DATE
UWI.           05 071 08344 00: UNIQUE WELL ID
~Curve Information Block
DEPT.FT            0 000 00 00: Depth
CCL.                          : Casing Collar Locator
TT3.usec                      : CBL 3' Travel Time
AMP3.mV                       : CBL 3' Amplitude
GR.GAPI                       : Gamma Ray
~Parameter Information Block
~A  Depth       CCL         TT3         AMP3         GR     
# ...
  1129.2500      0.0000    632.1094     19.9673    124.7832
  1129.5000      0.0000    681.6371     18.3060    122.2976
  1129.7500      0.0000    714.5147     16.7919    121.6400
  1130.0000      0.0000    730.5876     15.5503    121.9412
  1130.2500      0.0000    736.4979     14.6655    123.2174
  1130.5000      0.0000    739.4919     14.1203    126.6944
  1130.7500      0.0000    743.8904     13.7889    133.2271
  1131.0000      0.0000    750.6243     13.5152    141.9052
  1131.2500      0.0000    758.6050     13.2023    150.4840
  1131.5000      0.0000    766.3626     12.8341    156.9772
  1131.7500      0.0000    772.8133     12.4334    160.8450
  1132.0000      0.0000    777.0579     12.0133    162.6360
  1132.2500      0.0000    778.2221     11.5582    162.5027
  1132.5000      0.0000    775.9446     11.0348    159.5718
  1132.7500      0.0000    770.8231     10.4195    152.9729
  1133.0000      0.0000    764.1167      9.7332    142.8307
  1133.2500      0.0000    757.2211      9.0653    130.1212
  1133.5000      0.0000    751.2547      8.5660    116.4434
  1133.7500      0.0000    746.2244      8.4086    104.2090
  1134.0000      0.0000    740.0928      8.7462     96.1128
  1134.2500      0.0000    728.8698      9.6942     93.6834
  1134.5000      0.0000    707.7322     11.3412     96.3771
  1134.7500      0.0000    672.3532     13.7597    102.1337
  1135.0000      0.0000    620.8273     16.9988    108.5700
  1135.2500      0.0000    556.0856     21.0967    113.6413
  1135.5000      0.0000    486.0999     26.1283    115.7642
  1135.7500      0.0000    420.3322     32.1953    114.1753
  1136.0000      0.0000    365.4965     39.2835    109.4789
  1136.2500      0.0000    324.1554     47.0834    103.4233
  1136.5000      0.0000    295.8446     54.9534     97.7517
  1136.7500      0.0000    278.4881     62.0658     93.4480
  1137.0000      0.0000    269.2137     67.6542     91.0512
  1137.2500      0.0000    265.0215     71.2644     90.9851
  1137.5000      0.0000    263.4704     72.8838     93.2506
  1137.7500      0.0000    263.0286     72.8593     97.3811
  1138.0000      0.0000    262.9697     71.6835    102.9834
  1138.2500      0.0000    263.0326     69.8249    109.7857
  1138.5000      0.0000    263.1497     67.6650    117.0022
  1138.7500      0.0000    263.3048     65.4889    123.4415
  1139.0000      0.0000    263.4828     63.4910    128.5583
  1139.2500      0.0000    263.6620     61.7921    132.7912
  1139.5000      0.0000    263.8196     60.4421    136.6032
  1139.7500      0.0000    263.9450     59.4049    139.5058
  1140.0000      0.0000    264.0533     58.5659    140.1426
  1140.2500      0.0000    264.1910     57.7928    137.3739
  1140.5000      0.0000    264.4526     57.0113    131.4113
  1140.7500      0.0000    265.0356     56.2217    123.8404
  1141.0000      0.0000    266.3402     55.4492    116.5372
  1141.2500      0.0000    268.9931     54.6958    110.6844
  1141.5000      0.0000    273.5618     53.9320    106.5811
  1141.7500      0.0000    279.9549     53.1098    103.9447
  1142.0000      0.0000    287.0761     52.1715    102.3226
  1142.2500      0.0000    293.3403     51.0548    101.3675
  1142.5000      0.0000    297.7047     49.7017    100.8169
  1142.7500      0.0000    300.1725     48.0732    100.3959
  1143.0000      0.0000    301.4074     46.1754     99.9502
  1143.2500      0.0000    302.0838     44.0901     99.7221
  1143.5000      0.0000    302.5767     41.9799    100.5274
  1143.7500      0.0000    303.0031     40.0338    103.4587
  1144.0000      0.0000    303.3690     38.3745    108.8601
  1144.2500      0.0000    303.7087     37.0037    115.4247
  1144.5000      0.0000    304.1739     35.8327    120.9532
  1144.7500      0.0000    305.3594     34.7590    124.1919
  1145.0000      0.0000    308.9966     33.7173    125.2172
  1145.2500      0.0000    318.7573     32.6669    123.9145
  1145.5000      0.0000    339.3122     31.5472    119.1924
  1145.7500      0.0000    371.8013     30.2757    110.4003
  1146.0000      0.0000    408.8268     28.8140     99.1478
  1146.2500      0.0000    437.4244     27.2143     89.2790
  1146.5000      0.0000    451.1625     25.5775     84.7919
  1146.7500      0.0000    457.8513     23.9818     87.3258
  1147.0000      0.0000    471.8821     22.4790     95.3387
  1147.2500      0.0000    500.5407     21.1367    105.5004
  1147.5000      0.0000    540.2098     20.0393    114.7240
  1147.7500      0.0000    583.1837     19.2308    121.2238
  1148.0000      0.0000    624.0984     18.6595    124.4524
  1148.2500      0.0000    660.1022     18.1835    124.6643
  1148.5000      0.0000    688.4943     17.6476    122.6489
  1148.7500      0.0000    706.3591     16.9900    119.5320
  1149.0000      0.0000    712.4135     16.2855    116.3415
  1149.2500      0.0000    709.7311     15.6761    113.4212
  1149.5000      0.0000    706.5597     15.2532    110.3746
  1149.7500      0.0000    711.4658     15.0040    106.7885
  1150.0000      0.0000    725.1677     14.8509    102.9364
  1150.2500      0.0000    739.0704     14.7162     99.7656
  1150.5000      0.0000    743.8217     14.5521     98.3062
  1150.7500      0.0000    737.8826     14.3307     98.9163
  1151.0000      0.0000    726.6656     14.0285    100.8513
  1151.2500      0.0000    715.9119     13.6313    102.6852
  1151.5000      0.0000    708.2881     13.1537    103.5166
  1151.7500      0.0000    704.6111     12.6436    103.7927
  1152.0000      0.0000    704.7250     12.1628    104.6404
  1152.2500      0.0000    706.7838     11.7623    106.3026
  1152.5000      0.0000    708.1920     11.4716    107.6159
  1152.7500      0.0000    708.5204     11.3038    107.4490
  1153.0000      0.0000    710.7637     11.2730    106.5474
  1153.2500      0.0000    719.0206     11.4106    107.3029
  1153.5000      0.0000    734.7344     11.7581    111.2089
  1153.7500      0.0000    755.3840     12.3222    116.9712
  1154.0000      0.0000    777.1117     13.0284    121.7509
  1154.2500      0.0000    797.8591     13.7392    123.8710
  1154.5000      0.0000    816.3165     14.3446    123.7118
  1154.7500      0.0000    828.6074     14.8417    122.4992
  1155.0000      0.0000    829.7867     15.3092    121.1132
  1155.2500      0.0000    820.2454     15.7968    120.0996
  1155.5000      0.0000    807.9900     16.2444    120.2371
  1155.7500      0.0000    802.3563     16.5065    122.6260
  1156.0000      0.0000    805.9986     16.4447    128.0184
  1156.2500      0.0000    813.2191     16.0023    136.0025
  1156.5000      0.0000    815.2773     15.2220    144.9207
  1156.7500      0.0000    807.6470     14.2291    152.6998
  1157.0000      0.0000    793.1495     13.2035    157.7760
  1157.2500      0.0000    778.7424     12.3364    159.4591
  1157.5000      0.0000    769.7242     11.7727    157.9818
  1157.7500      0.0000    766.8761     11.5691    154.5825
  1158.0000      0.0000    767.4257     11.6961    151.1485
  1158.2500      0.0000    767.0385     12.0793    149.2824
  1158.5000      0.0000    760.9265     12.6431    149.6174
  1158.7500      0.0000    744.3625     13.3331    151.8568
  1159.0000      0.0000    713.3610     14.1108    154.9543
  1159.2500      0.0000    666.8261     14.9205    157.4008
  1159.5000      0.0000    610.0150     15.6497    158.2913
  1159.7500      0.0000    554.5222     16.1610    158.3533
  1160.0000      0.0000    511.6038     16.4181    158.9399
  1160.2500      0.0000    486.7575     16.5417    159.6653
  1160.5000      0.0000    483.6154     16.6397    158.0992
  1160.7500      0.0000    507.9750     16.6158    152.3458
  1161.0000      0.0000    559.6536     16.2756    143.0374
  1161.2500      0.0000    622.5908     15.5943    132.4697
  1161.5000      0.0000    672.0582     14.7558    122.8338
  1161.7500     -2.0000    693.6193     13.9610    115.8003
  1162.0000      0.0000    690.9231     13.3029    112.8272
  1162.2500      2.0000    675.4744     12.8000    114.6872
  1162.5000      0.0000    653.4833     12.4699    120.4951
