~Version Information
 VERS.                                  2.0 : CWLS LAS VERSION
 WRAP.                                   NO : WRAPING MODE
 SWARE .                 MController 2.5.0J : SOFTWARE VERSION
~Well Information
 WELL.                       Montoya 01-41V : WELL
 COMP.                Petrogulf Corporation : COMPANY
 FLD.                      Purgatoire River : FIELD
 LOC.                NE/NE Sec 01 T33S R68W : LOCATION
 DATE.                             08/21/05 : DATE(S) LOGGED
 SRVC.       BLANCO Geological Services LLC : SERVICE COMPANY
 STAT.                                   CO : STATE
 CNTY.                           Las Animas : COUNTY
 CTRY.                                  USA : COUNTRY
 API.                       05-071-08144-00 : API NUMBER
 STRT.FT                             719.00 : START DEPTH
 STOP.FT                            2945.00 : STOP DEPTH
 STEP.FT                               1.00 : DEPTH INCREMENT
 NULL.                                -9999 : NULL VALUE
~Curve information
 DEPTH.FT                                   :
 ROP.MIN/FT                                 :
 GAS.UNITS                                  :
~ASCII Log data
# ...
      2519.0         0.17          8.5 
      2520.0         0.42          7.4 
      2521.0         0.63          7.2 
      2522.0         0.60          8.7 
      2523.0         0.40         13.6 
      2524.0         2.85         30.2 
      2525.0         0.50         22.8 
      2526.0         0.37         17.7 
      2527.0         0.33         14.0 
      2528.0         0.13         12.4 
      2529.0         0.17         12.4 
      2530.0         0.27         12.7 
      2531.0         0.35         11.2 
      2532.0         0.40         11.7 
      2533.0         0.37         11.5 
      2534.0         0.40         10.3 
      2535.0         0.37         11.0 
      2536.0         0.40         11.1 
      2537.0         0.40         10.9 
      2538.0         0.40         11.5 
      2539.0         0.27         11.4 
      2540.0         0.32         11.3 
      2541.0         0.33         10.6 
      2542.0         0.37         10.6 
      2543.0         0.33         11.2 
      2544.0         0.37         11.1 
      2545.0         0.30         10.2 
      2546.0         0.30         10.3 
      2547.0         0.37         10.8 
      2548.0         0.33          8.4 
      2549.0         0.33          7.4 
      2550.0         0.28          7.3 
      2551.0         0.30          7.4 
      2552.0         0.30          7.9 
      2553.0         0.33         10.8 
      2554.0         2.92         30.3 
      2555.0         0.43         15.9 
      2556.0         0.37         14.3 
      2557.0         0.40         11.7 
      2558.0         0.30         10.3 
      2559.0         0.27         11.2 
      2560.0         0.27         10.1 
      2561.0         0.27         10.0 
      2562.0         0.28         10.1 
      2563.0         0.27         10.4 
      2564.0         0.33          9.3 
      2565.0         0.40          9.5 
      2566.0         0.37          9.3 
      2567.0         0.33          8.8 
      2568.0         0.30          8.5 
      2569.0         0.33          8.5 
      2570.0         0.30          8.4 
      2571.0         0.37          9.0 
      2572.0         0.38          9.7 
      2573.0         0.30         13.9 
      2574.0         0.30         12.9 
      2575.0         0.33         10.7 
      2576.0         0.33         10.1 
      2577.0         0.27          7.2 
      2578.0         0.13          7.2 
      2579.0         0.17          7.0 
      2580.0         0.35          6.6 
      2581.0         0.23          6.5 
      2582.0         0.23          7.7 
      2583.0         0.27          7.8 
      2584.0         2.98         36.8 
      2585.0         0.37         16.1 
      2586.0         0.33         13.0 
      2587.0         0.40         12.1 
      2588.0         0.37         10.5 
      2589.0         0.37          9.5 
      2590.0         0.40         10.2 
      2591.0         0.33         10.5 
      2592.0         0.38          9.8 
      2593.0         0.37          9.0 
      2594.0         0.33          8.3 
      2595.0         0.43          8.1 
      2596.0         0.43          8.6 
      2597.0         0.40          8.2 
      2598.0         0.40          8.1 
      2599.0         0.37          8.2 
      2600.0         0.33          8.1 
      2601.0         0.18          8.4 
      2602.0         0.23          7.8 
      2603.0         0.27          7.4 
      2604.0         0.33          7.8 
      2605.0         0.30          7.1 
      2606.0         0.33          7.1 
      2607.0         0.37          7.9 
      2608.0         0.30          5.6 
      2609.0         0.30          5.4 
      2610.0         0.33          5.7 
      2611.0         0.30          6.4 
      2612.0         0.32          7.7 
      2613.0         0.30         12.4 
      2614.0         3.68         34.4 
      2615.0         0.47         11.4 
      2616.0         0.47         10.0 
      2617.0         0.37          8.8 
      2618.0         0.27          8.8 
      2619.0         0.50          8.8 
      2620.0         0.37          7.7 
      2621.0         0.42          7.9 
      2622.0         0.43          7.2 
      2623.0         0.47          7.8 
      2624.0         0.33          7.2 
      2625.0         0.33          7.1 
      2626.0         0.40          7.0 
      2627.0         0.33          7.5 
      2628.0         0.37          7.1 
      2629.0         0.45          6.5 
      2630.0         0.37          6.5 
      2631.0         0.33          6.4 
      2632.0         0.33          5.8 
      2633.0         0.33          6.4 
      2634.0         0.37          6.2 
      2635.0         0.30          5.9 
      2636.0         0.33          5.6 
      2637.0         0.33          4.9 
      2638.0         0.35          4.5 
      2639.0         0.33          4.1 
      2640.0         0.33          4.9 
      2641.0         0.37          5.0 
      2642.0         0.37          5.8 
      2643.0         0.53         10.3 
      2644.0         3.35         20.6 
      2645.0         0.43          9.4 
      2646.0         0.43          9.2 
      2647.0         0.35          8.0 
      2648.0         0.37          7.6 
      2649.0         0.37          7.4 
      2650.0         0.33          8.1 
      2651.0         0.40          8.5 
      2652.0         0.40          8.3 
      2653.0         0.47          8.6 
      2654.0         0.40          8.1 
      2655.0         0.43          7.7 
      2656.0         0.42          6.9 
      2657.0         0.40          7.2 
      2658.0         0.37          7.7 
      2659.0         0.37         13.8 
      2660.0         0.33         14.2 
      2661.0         0.37         14.2 
      2662.0         0.20         14.0 
      2663.0         0.23         12.6 
      2664.0         0.27         10.2 
      2665.0         0.13         10.2 
      2666.0         0.10         10.9 
      2667.0         0.20          8.4 
      2668.0         0.22          8.1 
      2669.0         0.27          8.2 
      2670.0         0.23          8.7 
      2671.0         0.23         13.3 
      2672.0         0.37         21.0 
      2673.0         0.53         31.3 
      2674.0         2.25         48.7 
      2675.0         0.27         20.2 
      2676.0         0.40         15.9 
      2677.0         0.50         13.8 
      2678.0         0.40         11.1 
      2679.0         0.33         10.0 
      2680.0         0.40          9.7 
      2681.0         0.42          9.4 
      2682.0         0.33          8.8 
      2683.0         0.33          9.6 
      2684.0         0.40         11.4 
      2685.0         0.43          9.7 
      2686.0         0.40          7.2 
      2687.0         0.23          7.1 
      2688.0         0.20          7.5 
      2689.0         0.47          7.4 
      2690.0         1.22          8.2 
      2691.0         0.73          8.6 
      2692.0         0.33          7.7 
      2693.0         0.27          7.3 
      2694.0         0.30          6.8 
      2695.0         0.30          6.7 
      2696.0         0.30          6.2 
      2697.0         0.33          6.4 
      2698.0         0.32          4.7 
      2699.0         0.30          4.6 
      2700.0         0.30          4.0 
      2701.0         0.37          5.0 
      2702.0         0.37          5.8 
      2703.0         0.37          8.6 
      2704.0         4.05         25.3 
      2705.0         0.50          9.7 
      2706.0         0.45          8.6 
      2707.0         0.43          8.4 
      2708.0         0.40          7.8 
      2709.0         0.37          7.3 
      2710.0         0.43          6.7 
      2711.0         0.47          6.9 
      2712.0         0.43          5.8 
      2713.0         0.40          5.7 
      2714.0         0.42          5.5 
      2715.0         0.37          5.3 
      2716.0         0.37          5.1 
      2717.0         0.40          8.4 
      2718.0         0.40         22.0 
