~Version Information
VERS.                      2.0: CWLS Log ASCII Standard - VERSION 2.0
WRAP.                       NO: One line per depth step
~Well Information Block
STRT.FT               902.0000: 
STOP.FT              2428.2000: 
STEP.FT                 0.1000: 
NULL.                -999.2500: 
COMP.          Pioneer Natural Resources: COMPANY
WELL.            Victory 12-14: WELL
FLD.           Purgatoire River: FIELD
LOC.           2434' FNL & 188' FWL: LOCATION
PROV.                 Colorado: PROVINCE
CNTY.               Las Animas: COUNTRY
SRVC.                Patterson: SERVICE COMPANY
DATE.          Mon Apr 18 07:24:17 2005: LOG DATE
UWI.           05 071 08332 00: UNIQUE WELL ID
~Curve Information Block
DEPT.FT            0 000 00 00: Depth
DCAL.in                       : CDL Caliper
RHOB.g/cc                     : CDL Bulk Density
RHOC.g/cc                     : CDL Density Correction
DPOR.pu                       : CDL Density Porosity
GR.GAPI                       : Gamma Ray
NPOR.pu                       : Neutron Porosity
~Parameter Information Block
~A  Depth       DCAL        RHOB        RHOC        DPOR         GR         NPOR    
# ...
  1103.6000      8.1904      2.3774      0.2685     16.5186    135.7305     19.1107
  1103.7000      8.1904      2.3545      0.2683     17.9070    133.0956     18.9413
  1103.8000      8.3049      2.3232      0.1932     19.8089    135.5778     18.8956
  1103.9000      8.3049      2.3014      0.1526     21.1281    140.3951     19.1570
  1104.0000      8.2652      2.2985      0.1458     21.3057    146.5097     19.3690
  1104.1000      8.2652      2.3154      0.1170     20.2781    155.4924     19.1610
  1104.2000      8.2652      2.3460      0.2263     18.4222    161.9657     18.9330
  1104.3000      8.2409      2.3616      0.2862     17.4772    159.6754     19.0880
  1104.4000      8.2409      2.3333      0.2239     19.1923    150.0645     19.3267
  1104.5000      8.2949      2.2565      0.2297     23.8498    137.7633     19.1696
  1104.6000      8.2949      2.1407      0.1187     30.8678    126.4963     18.8692
  1104.7000      8.2949      2.0043      0.0860     39.1346    118.6686     18.9588
  1104.8000      8.2617      1.8740      0.0113     47.0293    113.8229     19.4281
  1104.9000      8.2617      1.7800     -0.0973     52.7250    109.7134     20.1692
  1105.0000      8.2640      1.7401     -0.0575     55.1432    106.0532     21.2491
  1105.1000      8.2640      1.7547     -0.0633     54.2633    102.9068     22.7541
  1105.2000      8.2640      1.8131      0.0238     50.7193    101.4540     24.3165
  1105.3000      8.2425      1.8932      0.1156     45.8696    106.6031     25.2583
  1105.4000      8.2425      1.9821      0.1428     40.4810    117.7343     25.6211
  1105.5000      8.2186      2.0825      0.2239     34.3962    126.2478     25.7740
  1105.6000      8.2186      2.1955      0.2504     27.5465    128.0593     25.7486
  1105.7000      8.2186      2.3129      0.2490     20.4330    127.5586     25.5549
  1105.8000      8.2382      2.4035      0.2478     14.9367    127.0159     25.5818
  1105.9000      8.2382      2.4382      0.1294     12.8393    123.1251     25.8915
  1106.0000      8.2490      2.4342      0.0701     13.0764    116.4436     25.8001
  1106.1000      8.2490      2.4361      0.0925     12.9648    111.0774     25.0646
  1106.2000      8.2490      2.4601      0.1245     11.5093    110.6883     24.1354
  1106.3000      8.1415      2.4807      0.2022     10.2609    117.2881     23.3186
  1106.4000      8.1415      2.4663      0.2005     11.1328    125.1532     22.4725
  1106.5000      8.1170      2.4184      0.1067     14.0390    126.7391     21.6001
  1106.6000      8.1170      2.3597      0.0955     17.5952    124.6626     20.9433
  1106.7000      8.1170      2.3005      0.1141     21.1830    122.4701     20.5838
  1106.8000      8.1176      2.2456      0.0223     24.5100    119.3534     20.3838
  1106.9000      8.1176      2.2018      0.0581     27.1645    117.9466     20.3215
  1107.0000      8.1215      2.1681      0.0260     29.2056    120.6880     20.5823
  1107.1000      8.1215      2.1510      0.0292     30.2438    122.8390     20.9662
  1107.2000      8.1215      2.1590      0.0696     29.7549    121.6556     21.3536
  1107.3000      8.1221      2.1838      0.1177     28.2524    124.6287     22.0531
  1107.4000      8.1221      2.2174      0.1522     26.2156    134.7678     22.9944
  1107.5000      8.1471      2.2645      0.1881     23.3622    143.7987     23.8336
  1107.6000      8.1471      2.3241      0.2335     19.7526    145.8572     24.5844
  1107.7000      8.1471      2.3740      0.2876     16.7264    141.7273     25.3370
  1107.8000      8.3304      2.3975      0.2017     15.3021    136.6674     26.2649
  1107.9000      8.3304      2.4135      0.1342     14.3324    135.5971     27.2585
  1108.0000      8.3427      2.4418      0.1047     12.6184    136.6838     27.5251
  1108.1000      8.3427      2.4654      0.1206     11.1875    136.0759     26.6976
  1108.2000      8.3427      2.4589      0.1003     11.5830    135.0399     25.6160
  1108.3000      8.3347      2.4256      0.0128     13.6005    135.2781     25.0635
  1108.4000      8.3347      2.3865     -0.0156     15.9677    136.5272     24.7932
  1108.5000      8.3767      2.3496      0.0142     18.2049    136.7107     24.1997
  1108.6000      8.3767      2.3092      0.0081     20.6542    134.3411     23.3338
  1108.7000      8.3767      2.2715     -0.0386     22.9388    131.7755     22.8866
  1108.8000      8.4677      2.2460     -0.0055     24.4858    130.9164     23.1918
  1108.9000      8.4677      2.2265     -0.0148     25.6687    131.3553     23.7416
  1109.0000      8.4287      2.2127     -0.0664     26.5058    131.7189     24.0091
  1109.1000      8.4287      2.2173     -0.0066     26.2247    129.0616     24.3487
  1109.2000      8.4287      2.2454     -0.0066     24.5242    124.4690     24.9672
  1109.3000      8.3250      2.2909      0.0185     21.7637    123.6172     25.2899
  1109.4000      8.3250      2.3447      0.1345     18.5027    125.6778     25.4280
  1109.5000      8.3308      2.3931      0.1822     15.5714    125.3820     25.8493
  1109.6000      8.3308      2.4205      0.1384     13.9101    125.1449     26.0287
  1109.7000      8.3308      2.4242      0.0691     13.6854    129.0302     25.6392
  1109.8000      8.2612      2.4216      0.0014     13.8451    134.2542     25.3327
  1109.9000      8.2612      2.4301      0.0348     13.3259    140.0240     25.4604
  1110.0000      8.2952      2.4405      0.0664     12.6998    145.8518     25.5587
  1110.1000      8.2952      2.4301      0.0419     13.3279    146.8797     25.3424
  1110.2000      8.2952      2.4023      0.0261     15.0147    144.1879     24.9736
  1110.3000      8.2992      2.3774      0.0460     16.5187    142.4327     24.6585
  1110.4000      8.2992      2.3651     -0.0185     17.2694    141.8820     24.5168
  1110.5000      8.2643      2.3761     -0.0555     16.5971    140.2096     24.5737
  1110.6000      8.2643      2.4125      0.0611     14.3924    135.8949     24.8447
  1110.7000      8.2643      2.4512      0.0720     12.0499    131.7590     25.2016
  1110.8000      8.2142      2.4667      0.0761     11.1098    129.3753     25.3399
  1110.9000      8.2142      2.4518      0.0571     12.0135    125.4049     25.1337
  1111.0000      8.2333      2.4264     -0.0197     13.5544    120.3039     24.8736
  1111.1000      8.2333      2.4149      0.0266     14.2486    119.9155     24.7816
  1111.2000      8.2333      2.4162      0.0563     14.1691    126.1062     24.6775
  1111.3000      8.3049      2.4195      0.0219     13.9675    132.4408     24.5091
  1111.4000      8.3049      2.4235      0.0371     13.7297    134.6453     24.5895
  1111.5000      8.2731      2.4234      0.0673     13.7355    132.9482     25.0877
  1111.6000      8.2731      2.4130      0.0338     14.3627    126.1701     25.7646
  1111.7000      8.2731      2.4017     -0.0047     15.0496    117.0611     26.4745
  1111.8000      8.2524      2.4049      0.0400     14.8524    110.8249     27.2713
  1111.9000      8.2524      2.4267     -0.0012     13.5309    108.6199     27.8087
  1112.0000      8.1729      2.4536      0.0582     11.9046    108.4869     27.7152
  1112.1000      8.1729      2.4718      0.0542     10.8000    107.9417     27.5730
  1112.2000      8.1729      2.4897      0.0335      9.7155    106.4318     27.9907
  1112.3000      8.1512      2.5208      0.0324      7.8287    104.6608     28.4754
  1112.4000      8.1512      2.5663      0.0707      5.0757    102.0572     28.5264
  1112.5000      8.1402      2.6125      0.1208      2.2711     96.1542     28.1228
  1112.6000      8.1402      2.6414      0.1295      0.5210     88.9537     27.2258
  1112.7000      8.1402      2.6489      0.0965      0.0640     87.5000     26.3456
  1112.8000      8.1043      2.6374      0.1408      0.7664     92.9228     26.0296
  1112.9000      8.1043      2.6083      0.0978      2.5264     98.0129     25.7515
  1113.0000      8.0005      2.5752      0.1121      4.5315     96.3628     24.9485
  1113.1000      8.0005      2.5486      0.1467      6.1475     91.8900     24.2553
