~Version Information
VERS.                      2.0: CWLS Log ASCII Standard - VERSION 2.0
WRAP.                       NO: One line per depth step
~Well Information Block
STRT.FT                15.0000: 
STOP.FT              2409.7500: 
STEP.FT                 0.2500: 
NULL.                -999.2500: 
COMP.          Pioneer Natural Resources: COMPANY
WELL.          Oink Oink 14-36: WELL
FLD.           Purgatoire River: FIELD
LOC.           216' FSL & 263' FWL: LOCATION
PROV.                 Colorado: PROVINCE
CNTY.               Las Animas: COUNTRY
SRVC.                Patterson: SERVICE COMPANY
DATE.          Wed Jun 22 11:05:26 2005: LOG DATE
UWI.           05 071 08394 00: UNIQUE WELL ID
~Curve Information Block
DEPT.FT            0 000 00 00: Depth
GR.GAPI                       : Gamma Ray
CCL.                          : Casing Collar Locator
TT3.usec                      : CBL 3' Travel Time
AMP3.mV                       : CBL 3' Amplitude
~Parameter Information Block
~A  Depth        GR         CCL         TT3         AMP3    
# ...
  1891.0000    106.5273      0.0000    644.6247      2.7405
  1891.2500    109.9718      0.0000    644.7227      2.7713
  1891.5000    114.2445      0.0000    646.0144      2.8169
  1891.7500    117.6040      0.0000    649.0085      2.8811
  1892.0000    118.3504      0.0000    652.9882      2.9513
  1892.2500    117.0673      0.0000    656.6068      3.0071
  1892.5000    116.7264     -3.0000    659.0009      3.0356
  1892.7500    120.2698     -3.0000    659.6279      3.0393
  1893.0000    127.9833      0.0000    657.8922      3.0322
  1893.2500    137.0010      0.0000    654.1382      3.0305
  1893.5000    143.1969      0.0000    650.6542      3.0377
  1893.7500    143.9946      0.0000    650.4970      3.0419
  1894.0000    140.0820      0.0000    654.9185      3.0314
  1894.2500    134.7408      0.0000    662.1588      3.0081
  1894.5000    131.3688      0.0000    668.7118      2.9815
  1894.7500    131.2222      0.0000    671.5545      2.9591
  1895.0000    133.0954      0.0000    669.5057      2.9465
  1895.2500    134.9281      0.0000    663.3520      2.9462
  1895.5000    135.6243      0.0000    655.2252      2.9507
  1895.7500    135.4117      0.0000    647.5162      2.9440
  1896.0000    134.9692      0.0000    641.7319      2.9167
  1896.2500    134.6662      0.0000    638.0547      2.8770
  1896.5000    134.4652      0.0000    635.8181      2.8442
  1896.7500    134.1382      0.0000    634.2954      2.8292
  1897.0000    133.4422      0.0000    633.1953      2.8256
  1897.2500    132.2740      0.0000    632.7883      2.8189
  1897.5000    130.8118      0.0000    633.7621      2.8033
  1897.7500    129.3031      0.0000    636.7628      2.7870
  1898.0000    127.4875      0.0000    641.7180      2.7821
  1898.2500    124.4068      0.0000    647.4982      2.7903
  1898.5000    119.0301      0.0000    652.4401      2.8009
  1898.7500    111.0828      0.0000    655.2919      2.8010
  1899.0000    101.3956      0.0000    655.6562      2.7883
  1899.2500     91.6520      0.0000    653.8351      2.7741
  1899.5000     83.5264      0.0000    650.6941      2.7725
  1899.7500     77.5676      0.0000    647.5989      2.7871
  1900.0000     72.8801      0.0000    645.9737      2.8071
  1900.2500     68.1089      0.0000    646.5441      2.8182
  1900.5000     62.6666      0.0000    648.9052      2.8128
  1900.7500     56.9166      0.0000    651.8251      2.7906
  1901.0000     51.4859      0.0000    654.0450      2.7538
  1901.2500     46.7618      0.0000    654.8710      2.7068
  1901.5000     43.0227      0.0000    654.2116      2.6575
  1901.7500     40.6844      0.0000    652.4318      2.6144
  1902.0000     40.1553      0.0000    650.2918      2.5804
  1902.2500     41.5267      0.0000    648.5552      2.5522
  1902.5000     44.5840      0.0000    647.2139      2.5264
  1902.7500     49.0069      0.0000    645.3672      2.5054
  1903.0000     54.3011      0.0000    642.4261      2.4955
  1903.2500     59.6096      0.0000    639.3120      2.4997
  1903.5000     63.9515      0.0000    637.8906      2.5146
  1903.7500     66.8189      0.0000    638.9860      2.5340
  1904.0000     68.3757      0.0000    641.2156      2.5530
  1904.2500     69.0842      0.0000    642.0525      2.5670
  1904.5000     69.4681      0.0000    640.0686      2.5725
  1904.7500     70.4589      0.0000    636.0570      2.5708
  1905.0000     73.7007      0.0000    632.0364      2.5666
  1905.2500     80.8224      0.0000    629.4268      2.5620
  1905.5000     91.8970      0.0000    628.2976      2.5557
  1905.7500    104.7144      0.0000    627.9802      2.5465
  1906.0000    116.0766      0.0000    627.9191      2.5352
  1906.2500    123.9274      0.0000    627.9675      2.5226
  1906.5000    128.0090      0.0000    628.3109      2.5129
  1906.7500    128.8488      0.0000    629.3981      2.5152
  1907.0000    126.9740      0.0000    631.8505      2.5361
  1907.2500    123.2818      0.0000    636.1229      2.5684
  1907.5000    119.4053      0.0000    641.9802      2.5935
  1907.7500    116.9754      0.0000    648.2939      2.5960
  1908.0000    116.4213      0.0000    653.5936      2.5749
  1908.2500    116.7902      0.0000    656.9949      2.5420
  1908.5000    116.7872      0.0000    658.6078      2.5112
  1908.7500    115.8167      0.0000    659.1428      2.4899
  1909.0000    114.0980      0.0000    659.2555      2.4787
  1909.2500    112.1153      0.0000    659.1836      2.4770
  1909.5000    110.0817      0.0000    658.7423      2.4848
  1909.7500    107.8254      0.0000    657.5867      2.5004
  1910.0000    105.2069      0.0000    655.6626      2.5208
  1910.2500    102.5642      0.0000    653.5208      2.5445
  1910.5000    100.5020      0.0000    651.9302      2.5746
  1910.7500     99.2093      0.0000    650.9525      2.6197
  1911.0000     98.1801      0.0000    649.7278      2.6904
  1911.2500     96.5655      0.0000    647.6747      2.7903
  1911.5000     93.7278      0.0000    645.7615      2.9060
  1911.7500     89.7909      0.0000    646.0204      3.0116
  1912.0000     85.9024      0.0000    649.5864      3.0880
  1912.2500     83.5527      0.0000    655.4583      3.1407
  1912.5000     83.2483      0.0000    661.3339      3.1968
  1912.7500     84.0414      0.0000    665.4396      3.2859
  1913.0000     84.3680      0.0000    667.4229      3.4240
  1913.2500     82.9582      0.0000    667.8839      3.6121
  1913.5000     79.1641      0.0000    667.5704      3.8437
  1913.7500     73.2184      0.0000    667.0031      4.1083
  1914.0000     66.3367      0.0000    666.4277      4.3849
  1914.2500     60.0915      0.0000    665.8593      4.6368
  1914.5000     55.5176      0.0000    665.1964      4.8265
  1914.7500     52.8200      0.0000    664.3878      4.9443
  1915.0000     51.6307      0.0000    663.5105      5.0161
  1915.2500     51.3454      0.0000    662.7073      5.0741
  1915.5000     51.6263      0.0000    662.0650      5.1201
  1915.7500     53.0614      0.0000    661.5084      5.1248
  1916.0000     57.2394      0.0000    660.6888      5.0594
  1916.2500     65.6488      0.0000    658.9528      4.9223
  1916.5000     78.1035      0.0000    655.6513      4.7364
  1916.7500     92.1267      0.0000    650.8131      4.5292
  1917.0000    103.9691      0.0000    645.5278      4.3178
  1917.2500    110.5585      0.0000    641.3889      4.1095
  1917.5000    111.0543      0.0000    639.3737      3.9082
  1917.7500    106.9482      0.0000    639.1984      3.7166
  1918.0000    100.5471      0.0000    639.5995      3.5355
  1918.2500     93.1181      0.0000    639.2324      3.3647
  1918.5000     84.5017      0.0000    637.5845      3.2069
  1918.7500     74.4647      0.0000    635.1977      3.0676
  1919.0000     64.1015      0.0000    633.0074      2.9517
  1919.2500     55.5358      0.0000    631.5575      2.8612
  1919.5000     50.1937      0.0000    630.8353      2.7943
  1919.7500     47.6719      0.0000    630.5804      2.7457
  1920.0000     46.4281      0.0000    630.5438      2.7083
  1920.2500     45.2376      0.0000    630.5451      2.6767
  1920.5000     43.8002      0.0000    630.4650      2.6500
  1920.7500     42.4201      0.0000    630.2604      2.6301
  1921.0000     41.5686      0.0000    629.9677      2.6187
  1921.2500     41.4930      0.0000    629.6616      2.6156
  1921.5000     41.8049      0.0000    629.3841      2.6201
  1921.7500     41.5764      0.0000    629.1164      2.6300
  1922.0000     40.1695      0.0000    628.8084      2.6407
  1922.2500     37.9670      0.0000    628.4229      2.6488
  1922.5000     36.1575      0.0000    627.9645      2.6549
  1922.7500     35.8463      0.0000    627.4830      2.6628
  1923.0000     37.3487      0.0000    627.0397      2.6734
  1923.2500     40.0503      0.0000    626.6617      2.6837
  1923.5000     42.7857      0.0000    626.3311      2.6897
  1923.7500     44.6093      0.0000    626.0120      2.6917
  1924.0000     45.4083      0.0000    625.6791      2.6928
  1924.2500     45.6947      0.0000    625.3255      2.6960
