~Version Information
VERS.                      2.0: CWLS Log ASCII Standard - VERSION 2.0
WRAP.                       NO: One line per depth step
~Well Information Block
STRT.FT               430.0000: 
STOP.FT              2826.2500: 
STEP.FT                 0.2500: 
NULL.                -999.2500: 
COMP.          Pioneer Natural Resources: COMPANY
WELL.           Ei-ei-oh 31-24: WELL
FLD.           Purgatoire River: FIELD
LOC.           235' FNL & 2001' FEL--: LOCATION
PROV.                 Colorado: PROVINCE
CNTY.               Las Animas: COUNTRY
SRVC.                Patterson: SERVICE COMPANY
DATE.          Thu Jun 16 06:46:37 2005: LOG DATE
UWI.           05 071 08403 00: UNIQUE WELL ID
~Curve Information Block
DEPT.FT            0 000 00 00: Depth
DIR.Ohm-m                     : IEL Induction Resistivity
SN.Ohm-m                      : IEL Short Normal
SP.mV                         : IEL Spontaneous Potential
GR.GAPI                       : Gamma Ray
~Parameter Information Block
~A  Depth       DIR          SN          SP          GR     
# ...
  2808.5000     20.6493     20.9583    145.0425      0.2649
  2808.7500     20.6723     20.9442    145.0088      0.0725
  2809.0000     20.6935     20.9711    144.9935      0.0069
  2809.2500     20.7041     21.0194    144.9989      0.0000
  2809.5000     20.6873     21.0686    145.0248   -999.2500
  2809.7500     20.6191     21.1046    145.0679   -999.2500
  2810.0000     20.4772     21.1212    145.1237   -999.2500
  2810.2500     20.2573     21.1176    145.1891   -999.2500
  2810.5000     19.9845     21.0974    145.2657   -999.2500
  2810.7500     19.7082     21.0665    145.3615   -999.2500
  2811.0000     19.4796     21.0293    145.4906   -999.2500
  2811.2500     19.3299     20.9858    145.6714   -999.2500
  2811.5000     19.2597     20.9347    145.9217   -999.2500
  2811.7500     19.2454     20.8773    146.2549   -999.2500
  2812.0000     19.2537     20.8182    146.6749   -999.2500
  2812.2500     19.2583     20.7628    147.1734   -999.2500
  2812.5000     19.2510     20.7162    147.7295   -999.2500
  2812.7500     19.2427     20.6855    148.3117   -999.2500
  2813.0000     19.2555     20.6785    148.8808   -999.2500
  2813.2500     19.5337     20.7003    149.3942   -999.2500
  2813.5000     19.6480     20.7512    149.8096   -999.2500
  2813.7500     19.8173     20.8298    150.0870   -999.2500
  2814.0000     20.0241     20.9364    150.1895   -999.2500
  2814.2500     20.2432     21.0731    150.0838   -999.2500
  2814.5000     20.4547     21.2434    149.7393   -999.2500
  2814.7500     20.6563     21.4536    149.1290   -999.2500
  2815.0000     20.8652     21.7115    148.2296   -999.2500
  2815.2500     21.1194     22.0213    147.0245   -999.2500
  2815.5000     21.4844     22.3790    145.5067   -999.2500
  2815.7500     22.0800     22.7715    143.6826   -999.2500
  2816.0000     23.1334     23.1832    141.5763   -999.2500
  2816.2500     25.0742     23.6032    139.2330   -999.2500
  2816.5000     28.7334     24.0311    136.7195   -999.2500
  2816.7500     35.0293     24.4764    134.1225   -999.2500
  2817.0000     49.4902     24.9498    131.5424   -999.2500
  2817.2500     86.7062     25.4519    129.0840   -999.2500
  2817.5000    264.2534     25.9630    126.8416   -999.2500
  2817.7500 100000.0000     26.4425    124.8928   -999.2500
  2818.0000 100000.0000     26.8392    123.2818   -999.2500
  2818.2500 100000.0000     27.1118    122.0102   -999.2500
  2818.5000 100000.0000     27.2466    121.0269   -999.2500
  2818.7500 100000.0000     27.2596    120.2191   -999.2500
  2819.0000 100000.0000     27.1821    119.4044   -999.2500
  2819.2500 100000.0000     27.0432    118.3266   -999.2500
  2819.5000 100000.0000     26.8617    116.6604   -999.2500
  2819.7500 100000.0000     26.6493    114.0333   -999.2500
  2820.0000 100000.0000     26.4132    110.0686   -999.2500
  2820.2500 100000.0000     26.1517    104.4511   -999.2500
  2820.5000 100000.0000     25.8287     97.0050   -999.2500
  2820.7500 100000.0000     25.3158     87.7655   -999.2500
  2821.0000 100000.0000     24.3072     77.0186   -999.2500
  2821.2500 100000.0000     22.3058     65.2880   -999.2500
  2821.5000 100000.0000     18.8570     53.2628   -999.2500
  2821.7500 100000.0000     14.0223     41.6807   -999.2500
  2822.0000 100000.0000      8.6441     31.1969   -999.2500
  2822.2500 100000.0000      3.9439     22.2775   -999.2500
  2822.5000 100000.0000      0.7309     15.1450   -999.2500
  2822.7500 100000.0000     -0.9836      9.7842   -999.2500
  2823.0000 100000.0000     -1.6969      5.9971   -999.2500
  2823.2500 100000.0000     -1.9283      3.4828   -999.2500
  2823.5000 100000.0000     -1.9867      1.9140   -999.2500
  2823.7500 100000.0000     -1.9982      0.9941   -999.2500
  2824.0000 100000.0000   -999.2500      0.4873   -999.2500
  2824.2500   7523.0405   -999.2500      0.2248   -999.2500
  2824.5000   3000.6982   -999.2500      0.0972   -999.2500
  2824.7500   2234.8350   -999.2500      0.0389   -999.2500
  2825.0000   1988.1454   -999.2500      0.0139   -999.2500
  2825.2500   1901.1747   -999.2500      0.0038   -999.2500
  2825.5000   1872.2372   -999.2500   -999.2500   -999.2500
  2825.7500   1863.7002   -999.2500   -999.2500   -999.2500
  2826.0000   1861.5225   -999.2500   -999.2500   -999.2500
  2826.2500 100000.0000   -999.2500   -999.2500   -999.2500
