~Version Information
VERS.                      2.0: CWLS Log ASCII Standard - VERSION 2.0
WRAP.                       NO: One line per depth step
~Well Information Block
STRT.FT                -7.0000: 
STOP.FT               867.2500: 
STEP.FT                 0.2500: 
NULL.                -999.2500: 
COMP.          Pioneer Natural Resources: COMPANY
WELL.          Claim Jumper 41-22: WELL
FLD.           Purgatorie River: FIELD
LOC.           1120' FNL & 977' FEL--: LOCATION
PROV.                       CO: PROVINCE
CNTY.               Las Animas: COUNTRY
SRVC.          Patterson Wireline: SERVICE COMPANY
DATE.          Mon Jun 27 12:47:30 2005: LOG DATE
UWI.           05 071 08405 00: UNIQUE WELL ID
~Curve Information Block
DEPT.FT            0 000 00 00: Depth
CCL.                          : Casing Collar Locator
TT3.usec                      : CBL 3' Travel Time
AMP3.mV                       : CBL 3' Amplitude
GR.GAPI                       : Gamma Ray
~Parameter Information Block
~A  Depth       CCL         TT3         AMP3         GR     
# ...
   663.0000      0.0000    823.5036      8.2074     66.1457
   663.2500      0.0000    803.8745      8.2465     73.4409
   663.5000      0.0000    785.3415      8.2896     78.6719
   663.7500      0.0000    772.0861      8.3800     80.4567
   664.0000      0.0000    766.6467      8.5352     79.0853
   664.2500      0.0000    770.0380      8.7187     76.0196
   664.5000      0.0000    781.5430      8.8520     73.0584
   664.7500      0.0000    798.4949      8.8652     71.6539
   665.0000      0.0000    816.8511      8.7335     72.3241
   665.2500      0.0000    832.3188      8.4727     74.2974
   665.5000      0.0000    841.6787      8.1118     75.9084
   665.7500      0.0000    844.1224      7.6892     75.7309
   666.0000      0.0000    841.8174      7.2657     73.5174
   666.2500      0.0000    838.9299      6.9063     70.0743
   666.5000      0.0000    839.3641      6.6396     66.2936
   666.7500      0.0000    844.3494      6.4541     62.5017
   667.0000      2.0000    851.6763      6.3338     58.7523
   667.2500      2.0000    857.4873      6.2792     55.4079
   667.5000      0.0000    859.1218      6.3040     53.1131
   667.7500      0.0000    856.1783      6.4354     52.2070
   668.0000      0.0000    848.8848      6.7049     52.3200
   668.2500      0.0000    836.2963      7.0987     52.7533
   668.5000      0.0000    817.7208      7.5230     53.1985
   668.7500      0.0000    796.5029      7.8631     53.7784
   669.0000      0.0000    780.6746      8.0800     54.3788
   669.2500      0.0000    777.5822      8.2187     54.5037
   669.5000      0.0000    787.5130      8.3340     53.9263
   669.7500      0.0000    803.6892      8.4447     52.9917
   670.0000      0.0000    818.4352      8.5450     52.1465
   670.2500      0.0000    828.2807      8.6207     51.6567
   670.5000      0.0000    833.4845      8.6588     51.8683
   670.7500      0.0000    834.7039      8.6647     53.2759
   671.0000      0.0000    831.8361      8.6787     56.1484
   671.2500      0.0000    825.5356      8.7614     60.2037
   671.5000      0.0000    817.9656      8.9517     64.6174
   671.7500      0.0000    811.1363      9.2344     68.3456
   672.0000      0.0000    805.1884      9.5454     70.6537
   672.2500      0.0000    798.9612      9.8116     71.5438
   672.5000      0.0000    791.8137      9.9983     71.7123
   672.7500      0.0000    784.3342     10.1330     72.0705
   673.0000      0.0000    777.5814     10.2841     73.1918
   673.2500      0.0000    772.2261     10.5073     75.0534
   673.5000      0.0000    768.7181     10.7977     77.1297
   673.7500      0.0000    768.0632     11.0783     78.7685
   674.0000      0.0000    771.7610     11.2400     79.5988
   674.2500      0.0000    780.4871     11.2121     79.7261
   674.5000      0.0000    792.9135     11.0070     79.5588
   674.7500      0.0000    805.9070     10.6976     79.4207
   675.0000      0.0000    815.9353     10.3607     79.2877
   675.2500      0.0000    820.7701     10.0462     78.8032
   675.5000      0.0000    820.5753      9.7774     77.5370
   675.7500      0.0000    817.6563      9.5531     75.4992
   676.0000      0.0000    815.1596      9.3505     73.5002
   676.2500      0.0000    815.2505      9.1441     72.6989
   676.5000      0.0000    817.6694      8.9327     73.6620
   676.7500      0.0000    820.6260      8.7479     76.1876
   677.0000      0.0000    823.6474      8.6381     79.9815
   677.2500      0.0000    828.1912      8.6341     84.8556
   677.5000      0.0000    834.6886      8.7218     90.1326
   677.7500      0.0000    840.5996      8.8482     94.4342
   678.0000      0.0000    842.8073      8.9598     96.2408
   678.2500      0.0000    841.3623      9.0285     94.5066
   678.5000      0.0000    839.9949      9.0451     89.1529
   678.7500      0.0000    842.8345      9.0059     81.4885
   679.0000      0.0000    850.7820      8.9137     73.8671
   679.2500      0.0000    861.0220      8.7806     68.4254
   679.5000      0.0000    869.6022      8.6236     65.9115
   679.7500      0.0000    874.0812      8.4578     65.5076
   680.0000      0.0000    874.2665      8.2845     65.6138
   680.2500      0.0000    871.5261      8.0876     64.9833
   680.5000      0.0000    867.7665      7.8631     63.2737
   680.7500      0.0000    864.5023      7.6551     60.6700
   681.0000      0.0000    862.3381      7.5404     57.4665
   681.2500      0.0000    861.1050      7.5679     54.3523
   681.5000      0.0000    860.3458      7.7185     52.5895
   681.7500      0.0000    859.5759      7.9193     53.0688
   682.0000      0.0000    858.1988      8.0849     55.1957
   682.2500      0.0000    855.3251      8.1554     57.3896
   682.5000      0.0000    850.0895      8.1191     58.9769
   682.7500      0.0000    842.8251      8.0114     61.1047
   683.0000      0.0000    836.1528      7.8880     65.3416
   683.2500      0.0000    833.8875      7.8000     71.6698
   683.5000      0.0000    837.7784      7.7888     78.2981
   683.7500      0.0000    845.6783      7.8852     83.1811
   684.0000      0.0000    853.5680      8.0875     85.3776
   684.2500      0.0000    858.8258      8.3360     85.3235
   684.5000      0.0000    861.1508      8.5241     84.2076
   684.7500      0.0000    861.2211      8.5519     83.0050
   685.0000      0.0000    859.3531      8.3839     82.0114
   685.2500      0.0000    855.4440      8.0698     81.2255
   685.5000      0.0000    849.9542      7.7181     80.7805
   685.7500      0.0000    844.6894      7.4404     80.8905
   686.0000      0.0000    842.1334      7.2995     81.8485
   686.2500      0.0000    843.5882      7.2884     84.1074
   686.5000      0.0000    848.0948      7.3525     87.7761
   686.7500      0.0000    853.3482      7.4337     91.8593
   687.0000      0.0000    857.5126      7.5015     94.5994
   687.2500      0.0000    860.0776      7.5493     95.0406
   687.5000      0.0000    861.4114      7.5743     94.1471
   687.7500      0.0000    862.0173      7.5710     94.0564
   688.0000      0.0000    862.2223      7.5432     96.0545
   688.2500      0.0000    862.2073      7.5101     99.2450
   688.5000      0.0000    862.0952      7.4931    101.1443
   688.7500      0.0000    861.9939      7.4940     99.5375
   689.0000      0.0000    862.0015      7.4900     94.0285
   689.2500      0.0000    862.1615      7.4509     86.3307
   689.5000      0.0000    862.4204      7.3645     79.2075
   689.7500      0.0000    862.6594      7.2466     74.7169
   690.0000      0.0000    862.8085      7.1269     73.1127
   690.2500      0.0000    862.9271      7.0273     73.3597
   690.5000      0.0000    863.1477      6.9553     74.3604
   690.7500      0.0000    863.5396      6.9132     75.3483
   691.0000      0.0000    864.0443      6.9082     75.6489
   691.2500      0.0000    864.5088      6.9544     74.9050
   691.5000      0.0000    864.7269      7.0664     73.6830
   691.7500      0.0000    864.3898      7.2462     73.3821
   692.0000      0.0000    862.8950      7.4700     75.2954
   692.2500      0.0000    859.0658      7.6893     79.7937
   692.5000      0.0000    851.2390      7.8475     86.3077
   692.7500      0.0000    838.6290      7.9037     93.5910
   693.0000      0.0000    823.6239      7.8511     99.6770
   693.2500      0.0000    812.1205      7.7203    102.0824
   693.5000      0.0000    809.6977      7.5643     99.1273
   693.7500      0.0000    816.8010      7.4353     91.5838
   694.0000      0.0000    828.5081      7.3705     82.6218
   694.2500      0.0000    838.9556      7.3830     75.6487
   694.5000      0.0000    845.1710      7.4509     72.0005
   694.7500      0.0000    847.1201      7.5248     70.4839
   695.0000      0.0000    845.6771      7.5591     68.9840
   695.2500      0.0000    841.5589      7.5395     66.6680
   695.5000      0.0000    835.8260      7.4808     64.7118
   695.7500      0.0000    830.1745      7.4113     64.9026
   696.0000      0.0000    826.0536      7.3653     67.9181
   696.2500      0.0000    823.7911      7.3808     72.9560
