~Version Information
VERS.                      2.0: CWLS Log ASCII Standard - VERSION 2.0
WRAP.                       NO: One line per depth step
~Well Information Block
STRT.FT                 5.5000: 
STOP.FT              1635.7500: 
STEP.FT                 0.2500: 
NULL.                -999.2500: 
COMP.          Pioneer Natural Resources: COMPANY
WELL.                Mead 11-9: WELL
FLD.           Purgatoire River: FIELD
LOC.           1127' FNL & 668' FWL: LOCATION
PROV.                 Colorado: PROVINCE
CNTY.               Las Animas: COUNTRY
SRVC.                Patterson: SERVICE COMPANY
DATE.          Wed Mar 02 13:48:38 2005: LOG DATE
UWI.           05 071 08160 00: UNIQUE WELL ID
~Curve Information Block
DEPT.FT            0 000 00 00: Depth
CCL.                          : Casing Collar Locator
TT3.usec                      : CBL 3' Travel Time
AMP3.mV                       : CBL 3' Amplitude
GR.GAPI                       : Gamma Ray
~Parameter Information Block
~A  Depth       CCL         TT3         AMP3         GR     
# ...
   642.0000      0.0000   1150.5901      4.1847     91.6316
   642.2500      0.0000   1137.7233      4.1608     84.6091
   642.5000      0.0000   1116.3892      4.1433     77.4848
   642.7500      0.0000   1096.6132      4.1418     71.8519
   643.0000      0.0000   1089.4650      4.1516     67.5267
   643.2500      0.0000   1098.6660      4.1567     63.3991
   643.5000      0.0000   1120.9978      4.1427     59.2762
   643.7500      0.0000   1153.5428      4.1108     56.2455
   644.0000      0.0000   1197.0493      4.0779     55.4368
   644.2500      0.0000   1251.1379      4.0636     57.0472
   644.5000      0.0000   1308.5092      4.0758     60.4140
   644.7500      0.0000   1356.8090      4.1079     64.5960
   645.0000      0.0000   1386.1415      4.1463     69.1950
   645.2500      0.0000   1393.9106      4.1793     74.9133
   645.5000      0.0000   1384.0061      4.2000     82.8173
   645.7500      0.0000   1364.2567      4.2063     92.6639
   646.0000      0.0000   1343.7594      4.2029    102.3141
   646.2500      0.0000   1329.4635      4.2010    109.1151
   646.5000      0.0000   1324.1005      4.2122    111.8058
   646.7500      0.0000   1327.1047      4.2407    111.2451
   647.0000      0.0000   1335.4554      4.2813    109.6836
   647.2500      0.0000   1342.4907      4.3242    109.1890
   647.5000      0.0000   1339.3502      4.3621    110.4587
   647.7500      0.0000   1321.0461      4.3916    113.0640
   648.0000      0.0000   1289.6183      4.4119    116.4533
   648.2500      0.0000   1248.5118      4.4231    120.1436
   648.5000      0.0000   1197.2145      4.4254    123.3332
   648.7500      0.0000   1137.0470      4.4177    125.1347
   649.0000      0.0000   1080.1969      4.3970    124.9679
   649.2500      0.0000   1045.3448      4.3604    122.4258
   649.5000      0.0000   1041.5952      4.3082    117.4528
   649.7500      0.0000   1060.6239      4.2430    110.9485
   650.0000      0.0000   1085.8524      4.1661    104.3776
   650.2500      0.0000   1105.6985      4.0757     98.5660
   650.5000      0.0000   1117.4095      3.9700     93.4397
   650.7500      0.0000   1123.2814      3.8524     88.7782
   651.0000      0.0000   1126.5978      3.7317     84.5703
   651.2500      0.0000   1129.4974      3.6155     80.7001
   651.5000      0.0000   1132.3737      3.5039     76.9468
   651.7500      0.0000   1134.7023      3.3895     73.4739
   652.0000      0.0000   1136.3154      3.2658     70.9460
   652.2500      0.0000   1137.5553      3.1341     69.8566
   652.5000      0.0000   1139.0120      3.0014     69.8844
   652.7500      0.0000   1142.0361      2.8739     70.1022
   653.0000      0.0000   1149.9519      2.7557     69.7410
   653.2500      0.0000   1168.3792      2.6516     68.6228
   653.5000      0.0000   1202.6327      2.5670     67.0037
   653.7500      0.0000   1252.4263      2.5044     65.2353
   654.0000      0.0000   1308.8180      2.4631     63.5455
   654.2500      0.0000   1358.4872      2.4414     61.9736
   654.5000      0.0000   1392.1864      2.4395     60.4430
   654.7500      0.0000   1408.6119      2.4595     58.8831
   655.0000      0.0000   1410.9342      2.5043     57.2813
   655.2500      0.0000   1402.0476      2.5756     55.7758
   655.5000      0.0000   1384.2244      2.6725     54.7233
   655.7500      0.0000   1361.1597      2.7935     54.4284
   656.0000      0.0000   1336.5972      2.9380     54.7601
   656.2500      0.0000   1310.2275      3.1048     55.2817
   656.5000      0.0000   1278.7360      3.2873     55.8288
   656.7500      0.0000   1242.3602      3.4722     56.8365
   657.0000      0.0000   1205.9618      3.6455     59.0360
   657.2500      0.0000   1170.4359      3.8009     62.7377
   657.5000      0.0000   1126.3594      3.9416     67.2756
   657.7500      0.0000   1060.6434      4.0755     71.1656
   658.0000      0.0000    971.2019      4.2079     73.0175
   658.2500      0.0000    874.6959      4.3354     72.4116
   658.5000      0.0000    798.9896      4.4474     69.9480
   658.7500      0.0000    767.4293      4.5336     66.6931
   659.0000      0.0000    787.7115      4.5893     63.8213
   659.2500      0.0000    849.5021      4.6144     62.4872
   659.5000      0.0000    928.9440      4.6093     63.3444
   659.7500      0.0000    999.8612      4.5784     66.0494
   660.0000      0.0000   1046.9612      4.5332     69.7168
   660.2500      0.0000   1070.3052      4.4908     73.9945
   660.5000      0.0000   1077.8330      4.4638     79.3797
   660.7500      0.0000   1075.8954      4.4527     86.4856
   661.0000      0.0000   1067.6222      4.4463     95.1917
   661.2500      0.0000   1056.9484      4.4315    104.3271
   661.5000      0.0000   1049.3573      4.4043    111.9247
   661.7500      0.0000   1047.0658      4.3706    116.0621
   662.0000      0.0000   1046.3713      4.3383    115.9500
   662.2500      0.0000   1042.2004      4.3089    112.2961
   662.5000      0.0000   1034.3301      4.2789    106.5964
   662.7500      0.0000   1028.0419      4.2455    100.3312
   663.0000      0.0000   1029.7841      4.2100     94.7957
   663.2500      0.0000   1043.3336      4.1757     91.1024
   663.5000      0.0000   1068.8668      4.1454     89.8003
   663.7500      0.0000   1102.8977      4.1206     90.4426
   664.0000      0.0000   1138.6362      4.1023     91.8888
   664.2500      0.0000   1169.7953      4.0948     93.2406
   664.5000      0.0000   1195.1798      4.1120     94.3232
   664.7500      0.0000   1215.7948      4.1824     95.4453
   665.0000      0.0000   1227.0771      4.3375     97.2760
   665.2500      0.0000   1220.8330      4.5830    100.9083
   665.5000      0.0000   1197.1375      4.8773    107.2404
   665.7500      0.0000   1168.4542      5.1495    115.9850
   666.0000      0.0000   1148.9886      5.3476    125.6102
   666.2500      0.0000   1142.1616      5.4722    134.2788
   666.5000      0.0000   1138.5778      5.5676    140.7073
   666.7500      0.0000   1124.7477      5.6842    144.3848
   667.0000      0.0000   1093.5969      5.8465    145.3910
   667.2500      0.0000   1047.2889      6.0375    144.2749
   667.5000      0.0000    993.7759      6.1953    142.0057
   667.7500      0.0000    947.0084      6.2298    139.6374
   668.0000      0.0000    928.4432      6.0710    137.7117
   668.2500      0.0000    956.7799      5.7269    136.0035
   668.5000      0.0000   1029.1892      5.2849    133.8099
   668.7500      0.0000   1116.8696      4.8495    130.4398
   669.0000      0.0000   1184.8811      4.4847    125.6418
   669.2500      0.0000   1215.7577      4.2103    119.8997
   669.5000     -3.0000   1212.1273      4.0228    114.3292
   669.7500      0.0000   1183.2739      3.9081    110.2468
   670.0000      0.0000   1137.9288      3.8459    108.8494
   670.2500      0.0000   1087.3933      3.8142    111.0070
   670.5000      0.0000   1045.5515      3.7944    116.8280
   670.7500      0.0000   1022.7316      3.7838    125.2730
   671.0000      0.0000   1022.0542      3.8088    134.3165
   671.2500      0.0000   1040.4768      3.9047    141.5839
   671.5000      0.0000   1070.7722      4.0677    145.1661
   671.7500      0.0000   1106.2235      4.2407    144.4204
   672.0000      0.0000   1147.4663      4.3581    140.3229
   672.2500      0.0000   1200.7458      4.3962    134.8799
   672.5000      0.0000   1265.6213      4.3757    129.7623
   672.7500      0.0000   1329.3856      4.3314    125.2912
   673.0000      0.0000   1377.3535      4.2864    120.5587
   673.2500      0.0000   1404.7700      4.2443    114.3768
   673.5000      0.0000   1416.7277      4.1994    106.4752
   673.7500      0.0000   1420.7052      4.1517     98.4203
   674.0000      0.0000   1421.5752      4.1113     93.2588
   674.2500      0.0000   1420.9728      4.0872     93.5183
   674.5000      0.0000   1417.8007      4.0761     99.0512
   674.7500      0.0000   1407.9148      4.0663    106.6900
   675.0000      0.0000   1384.3396      4.0511    112.0902
   675.2500      0.0000   1341.1255      4.0373    112.4045
