~Version Information
VERS.                      2.0: CWLS Log ASCII Standard - VERSION 2.0
WRAP.                       NO: One line per depth step
~Well Information Block
STRT.FT               700.0000: 
STOP.FT              1869.5000: 
STEP.FT                 0.1000: 
NULL.                -999.2500: 
COMP.          Petrogulf Corporation: COMPANY
WELL.             State 16-24R: WELL
FLD.           Purgatorie River: FIELD
LOC.           541' FSL & 2371' FWL: LOCATION
PROV.                 Colorado: PROVINCE
CNTY.               Las Animas: COUNTRY
SRVC.                Patterson: SERVICE COMPANY
DATE.          Fri Aug 12 09:07:22 2005: LOG DATE
UWI.                071-08312 : UNIQUE WELL ID
~Curve Information Block
DEPT.FT            0 000 00 00: Depth
DCAL.in                       : CDL Caliper
RHOB.g/cc                     : CDL Bulk Density
RHOC.g/cc                     : CDL Density Correction
DPOR.pu                       : CDL Density Porosity
GR.GAPI                       : Gamma Ray
NPOR.pu                       : Neutron Porosity
~Parameter Information Block
~A  Depth       DCAL        RHOB        RHOC        DPOR         GR         NPOR    
# ...
  1756.0000      7.6618      2.5803      0.1971      4.2228     97.4790     22.7527
  1756.1000      7.6618      2.6048      0.1947      2.7380     90.8535     23.2376
  1756.2000      7.6618      2.6387      0.1479      0.6861     83.0491     23.5270
  1756.3000      7.7683      2.6690      0.2114     -1.1537     75.7160     23.1587
  1756.4000      7.7683      2.6721      0.2095     -1.3412     71.3243     22.1542
  1756.5000      7.8449      2.6462      0.1203      0.2282     70.3982     21.4443
  1756.6000      7.8449      2.6172      0.0991      1.9884     71.5588     21.5656
  1756.7000      7.8449      2.5979      0.0986      3.1556     72.3897     21.3372
  1756.8000      7.7679      2.5792      0.0540      4.2885     71.0401     19.9402
  1756.9000      7.7679      2.5637     -0.0054      5.2327     68.8491     18.4886
  1757.0000      7.8348      2.5647      0.0261      5.1711     68.7955     17.7785
  1757.1000      7.8348      2.5760      0.0967      4.4838     71.0636     17.3042
  1757.2000      7.8348      2.5787      0.0902      4.3190     72.4743     16.6646
  1757.3000      7.8340      2.5702      0.0669      4.8368     71.3187     16.0546
  1757.4000      7.8340      2.5635      0.0168      5.2409     70.3579     16.0265
  1757.5000      7.8160      2.5662      0.0588      5.0763     72.7421     16.5909
  1757.6000      7.8160      2.5751      0.0731      4.5403     77.6811     16.8819
  1757.7000      7.8160      2.5898      0.1053      3.6488     82.3971     16.5526
  1757.8000      7.8900      2.6145      0.0753      2.1540     86.5537     16.2025
  1757.9000      7.8900      2.6408      0.1256      0.5561     91.8260     16.4480
  1758.0000      7.8216      2.6506      0.1189     -0.0378     98.1987     17.2240
  1758.1000      7.8216      2.6446      0.1147      0.3250    104.5855     18.1403
  1758.2000      7.8216      2.6383      0.0901      0.7062    110.4238     18.9880
  1758.3000      7.7726      2.6342      0.1309      0.9567    114.9760     19.7303
  1758.4000      7.7726      2.6281      0.0582      1.3257    119.9822     20.3444
  1758.5000      7.8589      2.6211      0.0970      1.7500    124.6464     21.1205
  1758.6000      7.8589      2.6154      0.0492      2.0975    124.3463     22.5184
  1758.7000      7.8589      2.6182      0.0166      1.9281    121.2762     24.4707
  1758.8000      7.9100      2.6308      0.0697      1.1649    120.7369     26.0044
  1758.9000      7.9100      2.6475      0.0571      0.1495    123.6334     26.3414
  1759.0000      7.9774      2.6648      0.0643     -0.8944    128.4928     25.9010
  1759.1000      7.9774      2.6771      0.0715     -1.6421    131.8235     25.5065
  1759.2000      7.9774      2.6815      0.0882     -1.9068    131.5063     25.5357
  1759.3000      7.9672      2.6844      0.0498     -2.0829    130.4295     25.9292
  1759.4000      7.9672      2.6951      0.0706     -2.7317    131.0678     26.4732
  1759.5000      7.9350      2.7139      0.0872     -3.8712    132.9858     26.9865
  1759.6000      7.9350      2.7332      0.1298     -5.0454    133.9271     27.0926
  1759.7000      7.9350      2.7492      0.1188     -6.0134    132.3884     26.5467
  1759.8000      7.8187      2.7620      0.1276     -6.7856    129.3473     26.0633
  1759.9000      7.8187      2.7736      0.0996     -7.4901    126.7088     25.9947
  1760.0000      7.8063      2.7889      0.1013     -8.4207    125.0817     25.7124
  1760.1000      7.8063      2.8031      0.1274     -9.2797    124.1425     25.2938
  1760.2000      7.8063      2.8049      0.1552     -9.3883    123.7881     25.0611
  1760.3000      7.8546      2.7964      0.0891     -8.8732    124.2427     24.6840
  1760.4000      7.8546      2.7856      0.0800     -8.2185    124.9117     24.2670
  1760.5000      7.9037      2.7668      0.0916     -7.0788    124.3018     24.2360
  1760.6000      7.9037      2.7280      0.0517     -4.7250    123.7449     24.3983
  1760.7000      7.9037      2.6719      0.0103     -1.3247    127.0400     24.5492
  1760.8000      7.8674      2.6216     -0.0812      1.7219    134.3185     24.8379
  1760.9000      7.8674      2.5965     -0.0494      3.2444    141.8341     25.2368
  1761.0000      7.8917      2.5955     -0.0444      3.3005    148.1165     25.7065
  1761.1000      7.8917      2.6093     -0.0217      2.4687    152.6268     26.3875
  1761.2000      7.8917      2.6201      0.0583      1.8131    154.1866     27.2061
  1761.3000      7.9078      2.6094      0.0905      2.4604    152.6575     27.7404
  1761.4000      7.9078      2.5836      0.0295      4.0220    150.2298     27.9174
  1761.5000      7.9653      2.5672      0.0412      5.0163    150.7328     28.2511
  1761.6000      7.9653      2.5630      0.0808      5.2701    153.6730     29.2104
  1761.7000      7.9653      2.5577      0.0447      5.5917    155.4266     30.3883
  1761.8000      7.9489      2.5504      0.0534      6.0385    154.3769     30.9344
  1761.9000      7.9489      2.5408      0.0746      6.6211    150.2312     30.6852
  1762.0000      7.9477      2.5231      0.0601      7.6908    147.3559     30.0850
  1762.1000      7.9477      2.5024      0.0174      8.9450    150.5009     29.2523
  1762.2000      7.9477      2.4932     -0.0185      9.5032    156.4173     28.2475
  1762.3000      7.9405      2.4973      0.0384      9.2533    160.6731     27.5898
  1762.4000      7.9405      2.5020      0.0220      8.9703    161.4424     27.5208
  1762.5000      7.9097      2.5012      0.0232      9.0164    158.8527     27.7470
  1762.6000      7.9097      2.5008      0.0176      9.0404    156.2420     27.9483
  1762.7000      7.9097      2.5066      0.0290      8.6938    155.5247     28.1676
  1762.8000      7.8781      2.5177      0.0661      8.0182    154.2423     28.7068
  1762.9000      7.8781      2.5288      0.0812      7.3429    152.1045     29.5655
  1763.0000      7.8858      2.5282      0.1274      7.3814    151.0097     30.2595
  1763.1000      7.8858      2.5084      0.0669      8.5792    150.2518     30.2634
  1763.2000      7.8858      2.4821      0.0733     10.1757    148.6435     29.6318
  1763.3000      7.8609      2.4706      0.0272     10.8734    146.9288     28.9557
  1763.4000      7.8609      2.4866      0.0180      9.9024    144.8024     28.6318
  1763.5000      7.8738      2.5195      0.0679      7.9102    141.9258     28.5485
  1763.6000      7.8738      2.5459      0.0866      6.3111    140.5325     28.5702
  1763.7000      7.8738      2.5627      0.0685      5.2934    140.4842     28.4663
  1763.8000      7.8982      2.5822      0.0784      4.1121    139.4384     27.8525
  1763.9000      7.8982      2.6018      0.1315      2.9215    137.3779     27.0564
  1764.0000      7.8696      2.6108      0.1024      2.3773    135.4646     26.6776
  1764.1000      7.8696      2.6080      0.1261      2.5432    134.7684     26.6504
  1764.2000      7.8696      2.5966      0.0875      3.2354    134.1513     26.6304
  1764.3000      7.8983      2.5841      0.0137      3.9930    129.6551     26.3289
  1764.4000      7.8983      2.5796      0.0497      4.2663    121.2446     25.5138
  1764.5000      7.9061      2.5829      0.0202      4.0676    115.8632     24.5044
  1764.6000      7.9061      2.5944      0.0380      3.3680    116.9920     23.7744
  1764.7000      7.9061      2.6095      0.0856      2.4534    118.7175     23.4247
  1764.8000      7.8793      2.6097      0.0511      2.4411    114.5696     23.2146
  1764.9000      7.8793      2.5899      0.0546      3.6451    106.7775     23.0008
  1765.0000      7.8346      2.5630      0.0308      5.2748    101.2809     23.0795
  1765.1000      7.8346      2.5422      0.0288      6.5350     98.8871     23.4522
  1765.2000      7.8346      2.5335      0.0204      7.0633     95.9313     23.5388
  1765.3000      7.7509      2.5325      0.0542      7.1182     91.2440     23.0399
  1765.4000      7.7509      2.5365     -0.0097      6.8812     87.0950     22.1620
  1765.5000      7.7756      2.5500      0.0633      6.0614     83.3577     21.1038
