~Version Information
VERS.                      2.0: CWLS Log ASCII Standard - VERSION 2.0
WRAP.                       NO: One line per depth step
~Well Information Block
STRT.FT                -5.2500: 
STOP.FT               769.5000: 
STEP.FT                 0.2500: 
NULL.                -999.2500: 
COMP.          Pioneer Natural Resources: COMPANY
WELL.          HG Duran 34-27 Tr: WELL
FLD.           Purgatorie River: FIELD
LOC.           1076' FSL & 1465' FEL: LOCATION
PROV.                 Colorado: PROVINCE
CNTY.               Las Animas: COUNTRY
SRVC.          Patterson Wireline: SERVICE COMPANY
DATE.          Mon Apr 18 09:19:17 2005: LOG DATE
UWI.           05-071-08218-00: UNIQUE WELL ID
~Curve Information Block
DEPT.FT            0 000 00 00: Depth
CCL.                          : Casing Collar Locator
TT3.usec                      : CBL 3' Travel Time
AMP3.mV                       : CBL 3' Amplitude
GR.GAPI                       : Gamma Ray
~Parameter Information Block
~A  Depth       CCL         TT3         AMP3         GR     
# ...
   396.7500      0.0000    814.6656      8.1755    107.1149
   397.0000      0.0000    811.4706      8.0466    104.7216
   397.2500      0.0000    807.6358      8.1037    102.4834
   397.5000      0.0000    803.8668      8.2479    101.0895
   397.7500      0.0000    801.2501      8.4098    100.5595
   398.0000      0.0000    800.9902      8.5369    100.8786
   398.2500      0.0000    805.8572      8.5809    101.7018
   398.5000      0.0000    822.7081      8.5032    101.9442
   398.7500      0.0000    862.5457      8.2818    100.3588
   399.0000      0.0000    933.0475      7.9104     96.6006
   399.2500      0.0000   1025.4264      7.4062     91.6265
   399.5000      0.0000   1110.4912      6.8290     86.9918
   399.7500      0.0000   1156.3622      6.2829     83.5598
   400.0000      0.0000   1153.9811      5.8759     80.7998
   400.2500      0.0000   1122.0919      5.6650     77.3553
   400.5000      0.0000   1087.9811      5.6294     72.2687
   400.7500      0.0000   1068.5781      5.6865     65.7129
   401.0000      0.0000   1068.6456      5.7315     58.7239
   401.2500      0.0000   1088.5292      5.6799     52.3800
   401.5000      0.0000   1127.7654      5.5023     47.2403
   401.7500      0.0000   1181.5818      5.2411     43.4191
   402.0000      0.0000   1236.7017      4.9960     41.0335
   402.2500      0.0000   1274.5361      4.8785     40.4959
   402.5000      0.0000   1282.6224      4.9614     42.2497
   402.7500      0.0000   1263.2151      5.2603     46.1425
   403.0000      0.0000   1227.9197      5.7431     51.3824
   403.2500      0.0000   1185.3381      6.3338     57.4766
   403.5000      0.0000   1137.3700      6.9147     64.9282
   403.7500      0.0000   1084.0740      7.3630     74.5838
   404.0000      0.0000   1026.3219      7.6228     86.4013
   404.2500      0.0000    965.8705      7.7384     99.0205
   404.5000      0.0000    907.3857      7.8035    110.3423
   404.7500      0.0000    858.6546      7.8786    118.6253
   405.0000      0.0000    825.6727      7.9715    123.4506
   405.2500      0.0000    808.4813      8.0825    125.6880
   405.5000      0.0000    802.6962      8.2413    126.4401
   405.7500      0.0000    803.5776      8.4890    126.1744
   406.0000      0.0000    807.9961      8.8301    124.7701
   406.2500      0.0000    814.0817      9.2041    121.9150
   406.5000      0.0000    820.2190      9.5091    117.3271
   406.7500      0.0000    824.6640      9.6695    110.8318
   407.0000      0.0000    826.4427      9.7018    102.3309
   407.2500      0.0000    826.8736      9.7175     91.7785
   407.5000      0.0000    829.1436      9.8474     79.6010
   407.7500      0.0000    835.0807     10.1452     67.2925
   408.0000      0.0000    842.5395     10.5469     57.0640
   408.2500      0.0000    846.9889     10.9096     50.6161
   408.5000      0.0000    845.7424     11.0937     48.4298
   408.7500      0.0000    840.0029     11.0353     50.1995
   409.0000      0.0000    833.1453     10.7660     55.4431
   409.2500      0.0000    828.2263     10.3754     63.4480
   409.5000      0.0000    827.2168      9.9615     72.9304
   409.7500      0.0000    831.1268      9.6114     82.2161
   410.0000      0.0000    839.7239      9.4106     89.9054
   410.2500      0.0000    851.0319      9.4325     95.2743
   410.5000      0.0000    861.2236      9.6929     98.3292
   410.7500      0.0000    865.7183     10.1256     99.8798
   411.0000      0.0000    861.8105     10.6200    101.4435
   411.2500      0.0000    850.7863     11.0829    104.6120
   411.5000      0.0000    837.0740     11.4562    110.0031
   411.7500      0.0000    825.1151     11.6956    116.3372
   412.0000      0.0000    816.8340     11.7638    120.7697
   412.2500      0.0000    811.4862     11.6571    121.1022
   412.5000      0.0000    807.4296     11.4247    117.8934
   412.7500      0.0000    803.8428     11.1475    113.7641
   413.0000      0.0000    800.9078     10.8974    110.7211
   413.2500      0.0000    798.9434     10.7241    109.0288
   413.5000      0.0000    797.8770     10.6648    108.6425
   413.7500      0.0000    797.3892     10.7368    110.5281
   414.0000      0.0000    797.1971     10.9085    115.7655
   414.2500      0.0000    797.1490     11.0928    123.7353
   414.5000      0.0000    797.2029     11.1813    131.8705
   414.7500      0.0000    797.3938     11.0978    137.4150
   415.0000      0.0000    797.7966     10.8358    139.3178
   415.2500      0.0000    798.5334     10.4527    138.4690
   415.5000      0.0000    799.8383     10.0268    136.4572
   415.7500      0.0000    802.1503      9.6200    134.4092
   416.0000      0.0000    805.9476      9.2872    132.8995
   416.2500      0.0000    811.0464      9.1038    132.4617
   416.5000      0.0000    815.9415      9.1376    133.5473
   416.7500      0.0000    818.5056      9.3673    135.6736
   417.0000      0.0000    818.0841      9.6552    136.7870
   417.2500      0.0000    816.5152      9.8405    134.1387
   417.5000      0.0000    816.2084      9.8569    126.6555
   417.7500      0.0000    817.3331      9.7450    116.7111
   418.0000      0.0000    817.6983      9.5769    109.2652
   418.2500      0.0000    815.4564      9.4015    108.6860
   418.5000      0.0000    811.1422      9.2545    115.6433
   418.7500      0.0000    806.8138      9.1851    126.4269
   419.0000      0.0000    804.0290      9.2457    135.3921
   419.2500      0.0000    803.2476      9.4501    138.7191
   419.5000      0.0000    804.7902      9.7480    136.3472
   419.7500      0.0000    809.7196     10.0419    130.8841
   420.0000      0.0000    819.3203     10.2336    125.3406
   420.2500      0.0000    833.4261     10.2687    121.8993
   420.5000      0.0000    849.4195     10.1418    121.6567
   420.7500      0.0000    863.4718      9.8647    124.1200
   421.0000      0.0000    873.0467      9.4547    126.6086
   421.2500      0.0000    878.0748      8.9710    125.3054
   421.5000      0.0000    879.9625      8.5424    118.3259
   421.7500      0.0000    879.9081      8.3279    107.9947
   422.0000      0.0000    877.9351      8.4230     99.5116
   422.2500      0.0000    872.9178      8.7863     96.8906
   422.5000      0.0000    863.6152      9.2491    100.0392
   422.7500      0.0000    850.4322      9.6131    105.4973
   423.0000      0.0000    836.5607      9.7682    109.7207
   423.2500      0.0000    826.8337      9.7324    111.8596
   423.5000      0.0000    824.6935      9.5926    113.7334
   423.7500      0.0000    829.7913      9.4197    117.1755
   424.0000      0.0000    838.2543      9.2355    121.6706
   424.2500      0.0000    845.2308      9.0450    124.9887
   424.5000      0.0000    847.5096      8.8918    125.7083
   424.7500      0.0000    844.4056      8.8631    124.3642
   425.0000      0.0000    837.0465      9.0149    122.2483
   425.2500      0.0000    827.4098      9.2993    119.9047
   425.5000      0.0000    817.7886      9.5988    117.1026
   425.7500      0.0000    810.4523      9.8279    113.8291
   426.0000      0.0000    807.4784      9.9854    110.8299
   426.2500      0.0000    811.3671     10.1260    109.1441
   426.5000      0.0000    825.6300     10.3149    109.2697
   426.7500      0.0000    852.9958     10.6018    110.8201
   427.0000      0.0000    890.7294     10.9942    112.9745
   427.2500      0.0000    928.1971     11.4357    115.1855
   427.5000      0.0000    952.2304     11.8340    117.2602
   427.7500      0.0000    956.8519     12.1345    118.9208
   428.0000      0.0000    946.5621     12.3579    119.7510
   428.2500      0.0000    929.5561     12.5561    119.7026
   428.5000      0.0000    909.7319     12.7503    119.3755
   428.7500      0.0000    886.3508     12.9243    119.5968
   429.0000      0.0000    859.2682     13.0481    120.6894
   429.2500      0.0000    831.7081     13.0836    122.1464
   429.5000      0.0000    807.8217     12.9812    122.9538
   429.7500      0.0000    789.7380     12.6962    122.2034
   430.0000      0.0000    778.1884     12.2202    119.4700
