~Version Information
VERS.                      2.0: CWLS Log ASCII Standard - VERSION 2.0
WRAP.                       NO: One line per depth step
~Well Information Block
STRT.FT               780.0000: 
STOP.FT              2866.2000: 
STEP.FT                 0.1000: 
NULL.                -999.2500: 
COMP.          Pioneer Natural Resources: COMPANY
WELL.            Sebring 42-29: WELL
FLD.           Purgatoire River: FIELD
LOC.           1751' FNL & 584' FEL--: LOCATION
PROV.                 Colorado: PROVINCE
CNTY.               Las Animas: COUNTRY
SRVC.                Patterson: SERVICE COMPANY
DATE.          Mon Aug 15 07:11:37 2005: LOG DATE
UWI.           05 071 08293 00: UNIQUE WELL ID
~Curve Information Block
DEPT.FT            0 000 00 00: Depth
DCAL.in                       : CDL Caliper
RHOB.g/cc                     : CDL Bulk Density
RHOC.g/cc                     : CDL Density Correction
DPOR.pu                       : CDL Density Porosity
NPOR.pu                       : Neutron Porosity
GR.GAPI                       : Gamma Ray
~Parameter Information Block
~A  Depth       DCAL        RHOB        RHOC        DPOR        NPOR         GR     
# ...
  1192.8000      8.0834      2.4737      0.0039     10.6856     29.4237    115.5661
  1192.9000      8.0834      2.4734     -0.0386     10.7045     29.1161    115.8375
  1193.0000      8.0885      2.4972      0.0126      9.2622     28.6394    122.4201
  1193.1000      8.0885      2.5225      0.0933      7.7296     28.1716    128.3474
  1193.2000      8.0885      2.5114      0.1040      8.3986     27.7654    128.0472
  1193.3000      8.0950      2.4664      0.0297     11.1277     27.2965    127.0084
  1193.4000      8.0950      2.4302      0.0200     13.3189     26.7078    130.9737
  1193.5000      8.0996      2.4278      0.0855     13.4649     26.2970    137.2890
  1193.6000      8.0996      2.4247      0.2017     13.6552     26.0653    139.4748
  1193.7000      8.0996      2.3746      0.0770     16.6916     25.6626    137.8525
  1193.8000      8.1016      2.2978     -0.0483     21.3433     25.1853    136.7939
  1193.9000      8.1016      2.2470     -0.0068     24.4266     24.8664    135.4565
  1194.0000      8.1037      2.2336     -0.0398     25.2367     24.5754    133.1685
  1194.1000      8.1037      2.2398     -0.0476     24.8576     24.2952    132.2181
  1194.2000      8.1037      2.2491     -0.0190     24.2964     24.0321    133.0760
  1194.3000      8.1047      2.2506     -0.0044     24.2067     23.5141    134.3801
  1194.4000      8.1047      2.2310      0.0384     25.3952     22.6860    133.8207
  1194.5000      8.1036      2.1740      0.0645     28.8459     21.7425    131.1048
  1194.6000      8.1036      2.0847      0.0186     34.2632     20.7215    128.5450
  1194.7000      8.1036      1.9925      0.0007     39.8475     19.6108    126.3235
  1194.8000      8.1018      1.9221      0.0160     44.1132     18.5699    122.3982
  1194.9000      8.1018      1.8773      0.0440     46.8331     17.9000    117.0038
  1195.0000      8.0986      1.8575     -0.0424     48.0312     17.5815    112.9500
  1195.1000      8.0986      1.8695     -0.0513     47.3060     16.9433    111.5772
  1195.2000      8.0986      1.9126      0.0113     44.6932     15.6690    112.2472
  1195.3000      8.0969      1.9755      0.0888     40.8780     14.3001    112.8624
  1195.4000      8.0969      2.0530      0.1355     36.1834     13.3858    110.9823
  1195.5000      8.1000      2.1443      0.2672     30.6467     13.1694    109.5524
  1195.6000      8.1000      2.2387      0.3360     24.9245     13.5977    114.9169
  1195.7000      8.1000      2.3290      0.2974     19.4573     14.5430    125.0653
  1195.8000      8.1145      2.4255      0.2951     13.6048     15.8291    130.9562
  1195.9000      8.1145      2.5243      0.3212      7.6159     17.0475    130.6965
  1196.0000      8.1379      2.5865      0.2591      3.8469     17.9315    129.5349
  1196.1000      8.1379      2.5883      0.1733      3.7414     18.5473    129.9859
  1196.2000      8.1379      2.5577      0.0919      5.5930     19.0656    131.1982
  1196.3000      8.1528      2.5387      0.0738      6.7453     19.5397    132.7312
  1196.4000      8.1528      2.5488      0.1017      6.1322     20.1432    133.6498
  1196.5000      8.1578      2.5808      0.1357      4.1949     20.9341    132.5840
  1196.6000      8.1578      2.6164      0.1029      2.0359     21.7130    129.4925
  1196.7000      8.1578      2.6384      0.0832      0.7013     22.3085    126.6074
  1196.8000      8.1599      2.6459      0.0557      0.2468     22.7244    126.8182
  1196.9000      8.1599      2.6529      0.0347     -0.1733     23.3273    129.8799
  1197.0000      8.1614      2.6583      0.0735     -0.5050     24.2775    135.7271
  1197.1000      8.1614      2.6499      0.0569      0.0077     25.2531    142.4175
  1197.2000      8.1614      2.6341      0.0263      0.9649     25.8642    142.6131
  1197.3000      8.1617      2.6253     -0.0145      1.4957     26.0787    136.0587
  1197.4000      8.1617      2.6189      0.0488      1.8851     25.9615    129.6206
  1197.5000      8.1623      2.5945      0.0349      3.3648     25.7612    126.1693
  1197.6000      8.1623      2.5452      0.0079      6.3539     25.8022    125.5817
  1197.7000      8.1623      2.4868     -0.0228      9.8924     25.8967    127.5744
  1197.8000      8.1675      2.4375     -0.0179     12.8759     25.6626    129.4142
  1197.9000      8.1675      2.4024      0.0066     15.0031     25.0667    128.4436
  1198.0000      8.1744      2.3876     -0.0533     15.9041     24.4526    126.3048
  1198.1000      8.1744      2.4057     -0.0251     14.8042     24.2332    127.1055
  1198.2000      8.1744      2.4541      0.0057     11.8720     24.1209    130.3718
  1198.3000      8.1753      2.5141      0.0917      8.2392     23.5018    130.1369
  1198.4000      8.1753      2.5668      0.1230      5.0416     22.8754    123.8066
  1198.5000      8.1632      2.6044      0.1590      2.7633     23.1169    115.3388
  1198.6000      8.1632      2.6305      0.1468      1.1819     24.1483    112.6885
  1198.7000      8.1632      2.6513      0.2255     -0.0795     25.3743    118.0468
  1198.8000      8.1412      2.6639      0.2516     -0.8428     26.3655    123.5068
  1198.9000      8.1412      2.6681      0.1899     -1.0958     27.0891    123.4878
  1199.0000      8.1283      2.6729      0.1716     -1.3895     27.6629    120.8192
  1199.1000      8.1283      2.6666      0.1769     -1.0032     28.1328    120.4438
  1199.2000      8.1283      2.6262      0.0554      1.4413     28.5656    125.4878
  1199.3000      8.1271      2.5625      0.0082      5.3033     28.9405    134.4815
  1199.4000      8.1271      2.5058     -0.0319      8.7418     29.1354    139.0293
  1199.5000      8.1276      2.4791     -0.0656     10.3571     29.0577    135.4027
  1199.6000      8.1276      2.4840     -0.0288     10.0590     28.7171    132.3177
  1199.7000      8.1276      2.4913      0.0638      9.6154     28.2571    131.9960
  1199.8000      8.1269      2.4775      0.0213     10.4548     27.9182    129.0687
  1199.9000      8.1269      2.4602     -0.0208     11.5041     27.7579    123.7425
  1200.0000      8.1265      2.4668      0.0203     11.1028     27.3382    119.9985
  1200.1000      8.1265      2.4995      0.0604      9.1188     26.5888    121.1926
  1200.2000      8.1265      2.5450      0.0468      6.3653     26.1115    128.4488
  1200.3000      8.1253      2.5866      0.1025      3.8454     26.1320    136.8940
  1200.4000      8.1253      2.6104      0.0942      2.4009     26.2566    139.5784
  1200.5000      8.1207      2.6145      0.0912      2.1534     26.0392    137.9124
  1200.6000      8.1207      2.6060      0.0444      2.6671     25.8480    135.4884
  1200.7000      8.1207      2.5944      0.0125      3.3676     26.2419    131.6379
  1200.8000      8.1130      2.5824      0.0388      4.0946     26.9385    125.6417
  1200.9000      8.1130      2.5694     -0.0218      4.8875     27.4394    120.4279
  1201.0000      8.1060      2.5605      0.0099      5.4245     27.6905    120.0745
  1201.1000      8.1060      2.5599     -0.0232      5.4584     27.9450    124.3681
  1201.2000      8.1060      2.5682     -0.0047      4.9597     28.2682    128.9640
  1201.3000      8.1028      2.5818     -0.0221      4.1317     28.5104    131.2776
  1201.4000      8.1028      2.5926      0.0129      3.4816     28.6192    133.3900
  1201.5000      8.1022      2.5858      0.0225      3.8938     28.5961    135.3206
  1201.6000      8.1022      2.5611     -0.0084      5.3854     28.4829    138.3909
  1201.7000      8.1022      2.5314      0.0233      7.1860     28.2495    144.0930
  1201.8000      8.0997      2.5000     -0.0091      9.0904     27.7933    146.3302
  1201.9000      8.0997      2.4690     -0.0218     10.9714     27.1466    142.6179
  1202.0000      8.0972      2.4477     -0.0445     12.2626     26.5447    138.4797
  1202.1000      8.0972      2.4487     -0.0394     12.2001     26.2315    138.6165
  1202.2000      8.0972      2.4766     -0.0261     10.5085     26.2134    140.8818
  1202.3000      8.0954      2.5225      0.0384      7.7287     26.1077    139.5752
