~Version Information
VERS.                      2.0: CWLS Log ASCII Standard - VERSION 2.0
WRAP.                       NO: One line per depth step
~Well Information Block
STRT.FT               846.6000: 
STOP.FT              2609.1000: 
STEP.FT                 0.1000: 
NULL.                -999.2500: 
COMP.          Petrogulf Corporation: COMPANY
WELL.            Lavedure 7-44: WELL
FLD.           Purgatoire River: FIELD
LOC.           969' FSL & 501' FEL: LOCATION
PROV.                 Colorado: PROVINCE
CNTY.               Las Animas: COUNTRY
SRVC.                Patterson: SERVICE COMPANY
DATE.          Sun Dec 07 14:55:17 2003: LOG DATE
UWI.                          : UNIQUE WELL ID
~Curve Information Block
DEPT.FT            0 000 00 00: Depth
DCAL.in                       : CDL Caliper
RHOB.g/cc                     : CDL Bulk Density
RHOC.g/cc                     : CDL Density Correction
DPOR.pu                       : CDL Density Porosity
GR.GAPI                       : Gamma Ray
NPOR.pu                       : Neutron Porosity
~Parameter Information Block
~A  Depth       DCAL        RHOB        RHOC        DPOR         GR         NPOR    
# ...
   865.8000      3.3025      1.8473     -0.6135     48.6479     60.4428     55.0060
   865.9000      3.3025      1.8552     -0.6069     48.1712     61.4961     55.0463
   866.0000      3.3022      1.8647     -0.5994     47.5954     62.7045     55.0988
   866.1000      3.3022      1.8756     -0.5908     46.9351     63.9653     55.1573
   866.2000      3.3022      1.8876     -0.5809     46.2047     65.1947     55.2160
   866.3000      3.2999      1.9006     -0.5696     45.4187     66.3354     55.2705
   866.4000      3.2999      1.9142     -0.5570     44.5929     67.3604     55.3184
   866.5000      3.2957      1.9282     -0.5433     43.7451     68.2748     55.3592
   866.6000      3.2957      1.9422     -0.5289     42.8959     69.1159     55.3945
   866.7000      3.2957      1.9559     -0.5141     42.0689     69.9425     55.4271
   866.8000      3.2945      1.9687     -0.4997     41.2904     70.8271     55.4610
   866.9000      3.2945      1.9803     -0.4863     40.5886     71.8425     55.4996
   867.0000      3.2950      1.9901     -0.4745     39.9924     73.0512     55.5455
   867.1000      3.2950      1.9978     -0.4649     39.5300     74.4898     55.5993
   867.2000      3.2950      2.0028     -0.4579     39.2269     76.1624     55.6600
   867.3000      3.2968      2.0048     -0.4538     39.1045     78.0349     55.7244
   867.4000      3.2968      2.0036     -0.4530     39.1780     80.0404     55.7884
   867.5000      3.2989      1.9990     -0.4555     39.4552     82.0812     55.8474
   867.6000      3.2989      1.9911     -0.4614     39.9354     84.0428     55.8976
   867.7000      3.2989      1.9800     -0.4707     40.6083     85.8056     55.9363
   867.8000      3.3002      1.9660     -0.4834     41.4538     87.2570     55.9624
   867.9000      3.3002      1.9497     -0.4993     42.4421     88.3011     55.9758
   868.0000      3.3015      1.9317     -0.5181     43.5346     88.8705     55.9771
   868.1000      3.3015      1.9127     -0.5394     44.6848     88.9246     55.9668
   868.2000      3.3015      1.8936     -0.5625     45.8406     88.4549     55.9443
   868.3000      3.3024      1.8754     -0.5865     46.9463     87.4833     55.9079
   868.4000      3.3024      1.8589     -0.6101     47.9458     86.0605     55.8550
   868.5000      3.3008      1.8450     -0.6318     48.7861     84.2615     55.7828
   868.6000      3.3008      1.8346     -0.6501     49.4201     82.1850     55.6891
   868.7000      3.3008      1.8281     -0.6634     49.8104     79.9493     55.5733
   868.8000      3.2988      1.8261     -0.6704     49.9319     77.6914     55.4369
   868.9000      3.2988      1.8287     -0.6705     49.7737     75.5575     55.2842
   869.0000      3.2988      1.8359     -0.6637     49.3401     73.6982     55.1221
   869.1000      3.2988      1.8473     -0.6508     48.6501     72.2563     54.9587
   869.2000      3.2988      1.8624     -0.6334     47.7359     71.3545     54.8030
   869.3000      3.3002      1.8804     -0.6134     46.6398     71.0821     54.6628
   869.4000      3.3002      1.9007     -0.5929     45.4107     71.4844     54.5436
   869.5000      3.3020      1.9224     -0.5736     44.0995     72.5534     54.4477
   869.6000      3.3020      1.9445     -0.5567     42.7550     74.2291     54.3739
   869.7000      3.3020      1.9666     -0.5429     41.4200     76.4064     54.3173
   869.8000      3.3042      1.9879     -0.5321     40.1283     78.9441     54.2706
   869.9000      3.3042      2.0081     -0.5238     38.9035     81.6849     54.2250
   870.0000      3.3052      2.0270     -0.5169     37.7581     84.4759     54.1722
   870.1000      3.3052      2.0445     -0.5102     36.6948     87.1812     54.1050
   870.2000      3.3052      2.0608     -0.5028     35.7084     89.7000     54.0195
   870.3000      3.3038      2.0760     -0.4938     34.7887     91.9677     53.9146
   870.4000      3.3038      2.0903     -0.4828     33.9234     93.9576     53.7930
   870.5000      3.3040      2.1038     -0.4699     33.1008     95.6722     53.6602
   870.6000      3.3040      2.1169     -0.4554     32.3119     97.1334     53.5239
   870.7000      3.3040      2.1294     -0.4401     31.5524     98.3685     53.3928
   870.8000      3.3049      2.1414     -0.4249     30.8228     99.4022     53.2756
   870.9000      3.3049      2.1529     -0.4105     30.1281    100.2504     53.1794
   871.0000      3.3037      2.1636     -0.3980     29.4773    100.9154     53.1094
   871.1000      3.3037      2.1735     -0.3878     28.8814    101.3891     53.0678
   871.2000      3.3037      2.1822     -0.3805     28.3519    101.6645     53.0545
   871.3000      3.3028      2.1897     -0.3761     27.8991    101.7364     53.0666
   871.4000      3.3028      2.1957     -0.3747     27.5306    101.6110     53.0997
   871.5000      3.3020      2.2004     -0.3760     27.2502    101.3076     53.1483
   871.6000      3.3020      2.2036     -0.3796     27.0574    100.8597     53.2067
   871.7000      3.3020      2.2054     -0.3847     26.9471    100.3071     53.2702
   871.8000      3.2999      2.2060     -0.3910     26.9101     99.6913     53.3353
   871.9000      3.2999      2.2056     -0.3976     26.9335     99.0484     53.3995
   872.0000      3.2985      2.2045     -0.4040     27.0020     98.4010     53.4623
   872.1000      3.2985      2.2029     -0.4098     27.0989     97.7571     53.5236
   872.2000      3.2985      2.2011     -0.4146     27.2070     97.1116     53.5839
   872.3000      3.2977      2.1994     -0.4182     27.3101     96.4532     53.6429
   872.4000      3.2977      2.1980     -0.4206     27.3937     95.7697     53.6994
   872.5000      3.2918      2.1971     -0.4217     27.4459     95.0553     53.7505
   872.6000      3.2918      2.1969     -0.4217     27.4577     94.3196     53.7919
   872.7000      3.2918      2.1975     -0.4207     27.4236     93.5851     53.8186
   872.8000      3.2862      2.1989     -0.4190     27.3412     92.8845     53.8252
   872.9000      3.2862      2.2010     -0.4169     27.2109     92.2552     53.8076
   873.0000      3.2930      2.2039     -0.4146     27.0352     91.7311     53.7636
   873.1000      3.2930      2.2075     -0.4124     26.8184     91.3323     53.6935
   873.2000      3.2930      2.2117     -0.4107     26.5650     91.0607     53.6013
   873.3000      3.3009      2.2164     -0.4095     26.2797     90.8993     53.4936
   873.4000      3.3009      2.2216     -0.4089     25.9664     90.8135     53.3792
   873.5000      3.3023      2.2271     -0.4087     25.6278     90.7606     53.2682
   873.6000      3.3023      2.2331     -0.4085     25.2653     90.6991     53.1706
   873.7000      3.3023      2.2395     -0.4081     24.8797     90.5966     53.0952
   873.8000      3.3024      2.2462     -0.4070     24.4711     90.4335     53.0481
   873.9000      3.3024      2.2533     -0.4050     24.0402     90.2096     53.0326
   874.0000      3.3028      2.2608     -0.4020     23.5890     89.9352     53.0482
   874.1000      3.3028      2.2685     -0.3979     23.1214     89.6273     53.0918
   874.2000      3.3028      2.2764     -0.3929     22.6439     89.3053     53.1578
   874.3000      3.3014      2.2843     -0.3873     22.1659     88.9819     53.2389
   874.4000      3.3014      2.2920     -0.3814     21.6996     88.6660     53.3273
   874.5000      3.2997      2.2992     -0.3757     21.2591     88.3608     53.4154
   874.6000      3.2997      2.3058     -0.3704     20.8598     88.0722     53.4961
   874.7000      3.2997      2.3115     -0.3661     20.5170     87.8072     53.5635
   874.8000      3.3000      2.3160     -0.3628     20.2443     87.5817     53.6133
   874.9000      3.3000      2.3191     -0.3609     20.0524     87.4186     53.6431
   875.0000      3.3003      2.3209     -0.3604     19.9480     87.3443     53.6516
   875.1000      3.3003      2.3211     -0.3614     19.9329     87.3865     53.6399
   875.2000      3.3003      2.3199     -0.3636     20.0037     87.5689     53.6102
   875.3000      3.3002      2.3175     -0.3668     20.1521     87.9062     53.5660
