~Version Information
VERS.                      2.0: CWLS Log ASCII Standard - VERSION 2.0
WRAP.                       NO: One line per depth step
~Well Information Block
STRT.FT               -12.5000: 
STOP.FT              1647.5000: 
STEP.FT                 0.2500: 
NULL.                -999.2500: 
COMP.          Pioneer Natural Resources: COMPANY
WELL.            Harlee L 34-9: WELL
FLD.           Purgatorie River`: FIELD
LOC.           600' FSL & 2125' FEL----: LOCATION
PROV.                       CO: PROVINCE
CNTY.               Las Animas: COUNTRY
SRVC.                Patterson: SERVICE COMPANY
DATE.          Sat Feb 12 09:31:33 2005: LOG DATE
UWI.           05 071 08009 00: UNIQUE WELL ID
~Curve Information Block
DEPT.FT            0 000 00 00: Depth
CCL.                          : Casing Collar Locator
TT3.usec                      : CBL 3' Travel Time
AMP3.mV                       : CBL 3' Amplitude
AMP5.mV                       : CBL 5' Amplitude
GR.GAPI                       : Gamma Ray
~Parameter Information Block
~A  Depth       CCL         TT3         AMP3        AMP5         GR     
# ...
   519.5000      0.0000    286.3131     72.3862     66.2288    132.1077
   519.7500      0.0000    286.2950     72.3936     66.2288    128.8943
   520.0000      0.0000    286.2804     72.3718     66.4197    126.7173
   520.2500      0.0000    286.2658     72.3556     65.9233    125.7138
   520.5000      0.0000    286.2496     72.3518     66.1142    125.3346
   520.7500      0.0000    286.2316     72.3535     66.1142    125.2310
   521.0000      0.0000    286.2145     72.3515     66.0379    125.4180
   521.2500      0.0000    286.2023     72.3445     66.0760    125.8533
   521.5000      0.0000    286.1970     72.3416     65.6942    125.9664
   521.7500      0.0000    286.1964     72.3530     65.7324    124.8526
   522.0000      0.0000    286.1962     72.3778     65.8087    122.4637
   522.2500      0.0000    286.1943     72.4018     65.8851    120.5421
   522.5000      0.0000    286.1917     72.4086     65.9997    121.6553
   522.7500      0.0000    286.1905     72.3913     65.3887    126.8792
   523.0000      0.0000    286.1911     72.3548     65.5414    134.6758
   523.2500      0.0000    286.1919     72.3071     65.4269    142.2009
   523.5000      0.0000    286.1911     72.2509     65.7706    147.3365
   523.7500      0.0000    286.1889     72.1802     65.9233    149.3006
   524.0000      0.0000    286.1871     72.0856     65.5796    148.0261
   524.2500      0.0000    286.1872     71.9641     65.4269    143.6227
   524.5000      0.0000    286.1892     71.8256     65.5033    136.3367
   524.7500      0.0000    286.1921     71.6922     65.6178    126.8316
   525.0000      0.0000    286.1943     71.5910     65.8851    116.3630
   525.2500      0.0000    286.1946     71.5428     65.8851    106.1768
   525.5000      0.0000    286.1922     71.5517     65.5033     96.6729
   525.7500      0.0000    286.1874     71.6006     65.5033     87.6934
   526.0000      0.0000    286.1809     71.6600     65.7706     79.5848
   526.2500      0.0000    286.1730     71.7009     65.8469     73.4657
   526.5000      0.0000    286.1637     71.7000     65.3505     70.6099
   526.7500      0.0000    286.1539     71.6385     64.8923     71.8368
   527.0000      0.0000    286.1451     71.5071     65.1214     77.0281
   527.2500      0.0000    286.1384     71.3172     65.0832     84.8354
   527.5000      0.0000    286.1341     71.1061     65.1596     93.3113
   527.7500      0.0000    286.1317     70.9206     65.0068    101.1179
   528.0000      0.0000    286.1313     70.7875     64.2813    107.7081
   528.2500      0.0000    286.1331     70.6956     64.0904    112.4054
   528.5000      0.0000    286.1375     70.6097     64.4722    114.2724
   528.7500      0.0000    286.1441     70.5101     64.9305    113.1659
   529.0000      0.0000    286.1504     70.4216     65.1978    110.2077
   529.2500      0.0000    286.1516     70.3997     64.9687    107.0169
   529.5000      0.0000    286.1440     70.4826     65.0068    104.9830
   529.7500      0.0000    286.1278     70.6524     65.6942    105.0971
   530.0000      0.0000    286.1086     70.8435     65.7706    107.6100
   530.2500      0.0000    286.0929     70.9896     65.3887    111.5856
   530.5000      0.0000    286.0834     71.0646     65.3505    115.3709
   530.7500      0.0000    286.0791     71.0789     65.0450    118.0118
   531.0000      0.0000    286.0776     71.0493     65.5414    119.9778
   531.2500      0.0000    286.0790     70.9821     65.6178    122.0890
   531.5000      0.0000    286.0849     70.8841     65.5796    124.0539
   531.7500      0.0000    286.0948     70.7796     64.7777    124.7571
   532.0000      0.0000    286.1050     70.7102     64.7777    123.9064
   532.2500      0.0000    286.1100     70.7147     65.0832    122.6648
   532.5000      0.0000    286.1068     70.8056     64.8159    122.4858
   532.7500      0.0000    286.0972     70.9615     64.5104    123.7329
   533.0000      0.0000    286.0868     71.1426     64.5104    125.6010
   533.2500      0.0000    286.0808     71.3128     64.7777    127.1290
   533.5000      0.0000    286.0817     71.4499     64.8159    127.9953
   533.7500      0.0000    286.0895     71.5446     65.2741    128.3914
   534.0000      0.0000    286.1019     71.5995     65.6178    128.4301
   534.2500      0.0000    286.1155     71.6275     65.7324    127.7137
   534.5000      0.0000    286.1265     71.6441     65.8087    125.4107
   534.7500      0.0000    286.1320     71.6532     65.8851    121.0628
   535.0000      0.0000    286.1308     71.6460     65.3123    115.5289
   535.2500      0.0000    286.1245     71.6145     65.5796    110.8030
   535.5000      0.0000    286.1164     71.5700     65.5414    108.5823
   535.7500      0.0000    286.1101     71.5454     65.6942    109.0329
   536.0000      0.0000    286.1081     71.5744     65.3505    110.7971
   536.2500      0.0000    286.1103     71.6627     65.5033    111.9362
   536.5000      0.0000    286.1156     71.7807     65.8851    111.0400
   536.7500      0.0000    286.1223     71.8874     65.2741    108.0053
   537.0000      0.0000    286.1292     71.9592     65.3123    104.1821
   537.2500      0.0000    286.1360     71.9953     65.3123    101.6125
   537.5000      0.0000    286.1435     72.0019     65.9233    101.5802
   537.7500      0.0000    286.1530     71.9815     65.6560    103.7219
   538.0000      0.0000    286.1647     71.9369     65.6178    106.6355
   538.2500      0.0000    286.1775     71.8784     65.5414    109.1265
   538.5000      0.0000    286.1896     71.8251     65.8851    110.7501
   538.7500      0.0000    286.1998     71.7991     65.9615    111.7036
   539.0000      0.0000    286.2082     71.8138     65.6560    112.7863
   539.2500      0.0000    286.2155     71.8648     65.5414    115.3647
   539.5000      0.0000    286.2227     71.9321     65.8087    120.7376
   539.7500      0.0000    286.2300     71.9929     65.5414    128.9333
   540.0000      0.0000    286.2372     72.0325     65.3887    138.0045
   540.2500      0.0000    286.2431     72.0478     64.9305    144.8325
   540.5000      0.0000    286.2466     72.0431     65.1596    147.1012
   540.7500      0.0000    286.2471     72.0243     65.1214    144.8835
   541.0000      0.0000    286.2455     71.9935     64.8159    140.3854
   541.2500      0.0000    286.2436     71.9511     64.8923    135.9151
   541.5000      0.0000    286.2444     71.9003     65.2741    132.0066
   541.7500      0.0000    286.2496     71.8469     64.7777    127.5729
   542.0000      0.0000    286.2590     71.7973     64.9687    121.6257
   542.2500      0.0000    286.2700     71.7567     64.9687    114.5510
   542.5000      0.0000    286.2786     71.7273     65.3123    107.9970
   542.7500      0.0000    286.2824     71.7050     64.7777    103.9244
   543.0000      0.0000    286.2820     71.6789     65.1978    103.5297
   543.2500      0.0000    286.2792     71.6406     65.3505    106.7227
   543.5000      0.0000    286.2764     71.5951     65.3123    112.5112
   543.7500      0.0000    286.2743     71.5598     64.8541    119.6314
   544.0000      0.0000    286.2726     71.5478     65.0832    126.6260
   544.2500      0.0000    286.2707     71.5559     65.6178    131.7022
   544.5000      0.0000    286.2673     71.5728     65.7324    133.2083
   544.7500      0.0000    286.2620     71.5913     65.2360    130.5664
   545.0000      0.0000    286.2561     71.6100     65.2741    124.7054
   545.2500      0.0000    286.2516     71.6263     65.4651    117.5428
   545.5000      0.0000    286.2500     71.6366     65.1978    110.9567
   545.7500      0.0000    286.2502     71.6413     64.9687    106.0881
   546.0000      0.0000    286.2495     71.6442     65.1214    103.5789
   546.2500      0.0000    286.2459     71.6479     65.2360    104.1560
   546.5000      0.0000    286.2402     71.6527     64.9305    108.2617
   546.7500      0.0000    286.2345     71.6593     65.2741    114.8763
   547.0000      0.0000    286.2305     71.6708     65.4651    121.4236
   547.2500      0.0000    286.2278     71.6896     65.0832    125.5745
