~Version Information
 VERS.                                  2.0 : CWLS LAS VERSION
 WRAP.                                   NO : WRAPING MODE
 SWARE .                 MController 2.5.0J : SOFTWARE VERSION
~Well Information
 WELL.                       Costello 44-24 : WELL
 COMP.    Pioneer Natural Resources USA Inc : COMPANY
 FLD.                      Purgatoire River : FIELD
 LOC.                SE/SE Sec 24 T32S R67W : LOCATION
 DATE.                            7/10/2005 : DATE(S) LOGGED
 SRVC.       BLANCO Geological Services LLC : SERVICE COMPANY
 STAT.                                   CO : STATE
 CNTY.                           Las Animas : COUNTY
 CTRY.                                  USA : COUNTRY
 API.                       05-071-08413-00 : API NUMBER
 STRT.FT                             305.00 : START DEPTH
 STOP.FT                            2545.00 : STOP DEPTH
 STEP.FT                               1.00 : DEPTH INCREMENT
 NULL.                                 999 : NULL VALUE
~Curve information
 DEPTH.FT                                   :
 ROP.MIN/FT                                 :
 GAS.UNITS                                  :
~ASCII Log data
       305.0       999.00          6.1 
       306.0         0.03          6.1 
       307.0         0.47          6.2 
       308.0         0.27          6.2 
       309.0         0.55          6.1 
       310.0         0.20          6.1 
       311.0         0.17          1.7 
       312.0         0.17         85.9 
       313.0         0.17         81.8 
       314.0         0.20         36.7 
       315.0         0.17          4.7 
       316.0         0.20          4.5 
       317.0         0.20          7.1 
       318.0         0.20          7.9 
       319.0         0.23          8.4 
       320.0         0.17          9.1 
       321.0         0.17          9.3 
       322.0         0.17          9.3 
       323.0         0.17          9.3 
       324.0         0.20          9.4 
       325.0         0.20          9.2 
       326.0         0.18          9.1 
       327.0         0.17          9.1 
       328.0         0.17          8.6 
       329.0         0.10          8.6 
       330.0         0.13          8.3 
       331.0         0.13          8.3 
       332.0         0.17          8.1 
       333.0         0.23          8.1 
       334.0         0.20          7.7 
       335.0         0.20          7.8 
       336.0         0.17          7.8 
       337.0         0.20          7.6 
       338.0         1.62          6.9 
       339.0         0.33          6.5 
       340.0         0.07          6.8 
       341.0         0.10          6.8 
       342.0         0.13          6.6 
       343.0         0.10          6.6 
       344.0         0.33          6.3 
       345.0         0.37          6.4 
       346.0         0.33          6.4 
       347.0         0.23          6.5 
       348.0         0.20          6.4 
       349.0         0.23          6.2 
       350.0         0.20          6.4 
       351.0         0.17          6.4 
       352.0         0.17          6.3 
       353.0         0.22          6.3 
       354.0         0.17          6.2 
       355.0         0.17          6.1 
       356.0         0.13          6.4 
       357.0         0.17          6.4 
       358.0         0.17          6.2 
       359.0         0.17          6.2 
       360.0         0.20          6.2 
       361.0         0.17          6.3 
       362.0         0.23          6.1 
       363.0         0.17          6.1 
       364.0         0.17          6.1 
       365.0         0.20          6.4 
       366.0         0.23          6.1 
       367.0         0.23          6.1 
       368.0         0.17          6.1 
       369.0         0.20          6.3 
       370.0         0.20          6.2 
       371.0         0.22          6.2 
       372.0         1.57          5.9 
       373.0         0.17          6.1 
       374.0         0.30          6.1 
       375.0         0.23          6.1 
       376.0         0.20          6.2 
       377.0         0.17          6.2 
       378.0         0.20          6.1 
       379.0         0.20          6.2 
       380.0         0.17          6.0 
       381.0         0.22          6.0 
       382.0         0.17          5.9 
       383.0         0.17          5.9 
       384.0         0.17          6.1 
       385.0         0.17          6.1 
       386.0         0.20          6.0 
       387.0         0.20          6.2 
       388.0         0.20          5.9 
       389.0         0.23          6.1 
       390.0         0.20          5.9 
       391.0         0.23          6.1 
       392.0         0.20          6.1 
       393.0         0.23          5.9 
       394.0         0.23          6.1 
       395.0         0.27          6.0 
       396.0         0.13          6.0 
       397.0         0.17          6.2 
       398.0         0.18          5.9 
       399.0         0.17          5.9 
       400.0         0.20          5.9 
       401.0         0.23          6.0 
       402.0         1.80          5.8 
       403.0         0.27          5.7 
       404.0         0.07          5.7 
       405.0         0.30          5.8 
       406.0         0.18          5.7 
       407.0         0.27          5.7 
       408.0         0.27          5.8 
       409.0         0.23          5.8 
       410.0         0.20          5.8 
       411.0         0.20          5.9 
       412.0         0.27          5.7 
       413.0         0.20          5.7 
       414.0         0.20          5.6 
       415.0         0.20          5.8 
       416.0         0.17          5.7 
       417.0         0.17          5.7 
       418.0         0.13          5.7 
       419.0         0.17          5.7 
       420.0         0.17          5.9 
       421.0         0.20          5.7 
       422.0         0.17          5.7 
       423.0         0.18          5.6 
       424.0         0.17          5.7 
       425.0         0.17          5.6 
       426.0         0.13          5.5 
       427.0         0.17          5.6 
       428.0         0.17          5.6 
       429.0         0.20          5.6 
       430.0         0.20          5.7 
       431.0         0.23          6.0 
       432.0         0.17          5.9 
       433.0         0.17          6.0 
       434.0         0.13          6.0 
       435.0         0.17          6.0 
       436.0         0.27          6.1 
       437.0         2.32          5.3 
       438.0         0.50          5.4 
       439.0         0.23          5.3 
       440.0         0.20          5.2 
       441.0         0.23          5.2 
       442.0         0.23          5.5 
       443.0         0.20          5.5 
       444.0         0.20          5.6 
       445.0         0.18          5.7 
       446.0         0.17          5.7 
       447.0         0.20          5.8 
       448.0         0.20          5.9 
       449.0         0.20          5.9 
       450.0         0.23          6.0 
       451.0         0.20          6.1 
       452.0         0.20          6.2 
       453.0         0.23          6.0 
       454.0         0.17          6.0 
       455.0         0.13          5.8 
       456.0         0.17          4.5 
       457.0         0.17          0.9 
       458.0         0.17          2.4 
       459.0         0.20          2.7 
       460.0         0.20          3.2 
       461.0         0.17          2.7 
       462.0         0.13          2.7 
       463.0         0.17          2.4 
       464.0         0.18          2.6 
       465.0         0.10          2.6 
       466.0         0.20          2.7 
       467.0         1.07          2.9 
       468.0         0.07          2.7 
       469.0         0.30          3.0 
       470.0         0.23          3.4 
       471.0         0.27          3.1 
       472.0         0.20          3.2 
       473.0         0.23          3.0 
       474.0         0.23          3.2 
       475.0         0.20          3.2 
       476.0         0.22          3.1 
       477.0         0.20          2.9 
       478.0         0.20          2.9 
       479.0         0.20          2.8 
       480.0         0.23          2.9 
       481.0         0.20          3.1 
       482.0         0.20          2.8 
       483.0         0.17          2.8 
       484.0         0.20          3.2 
       485.0         0.23          2.8 
       486.0         0.17          2.9 
       487.0         0.17          3.1 
       488.0         0.17          2.8 
       489.0         0.17          2.8 
       490.0         0.17          3.1 
       491.0         0.17          3.1 
       492.0         0.23          2.8 
       493.0         0.28          3.1 
       494.0         0.17          3.0 
       495.0         0.17          3.1 
       496.0         0.17          3.4 
       497.0         0.17          3.1 
       498.0         0.17          3.1 
       499.0         0.43          3.9 
       500.0         0.97          3.8 
       501.0         0.33          3.5 
       502.0         0.30          3.6 
       503.0         0.27          3.6 
       504.0         0.32          3.5 
