~Version Information
VERS.                      2.0: CWLS Log ASCII Standard - VERSION 2.0
WRAP.                       NO: One line per depth step
~Well Information Block
STRT.FT               -12.5000: 
STOP.FT              2284.7500: 
STEP.FT                 0.2500: 
NULL.                -999.2500: 
COMP.          Pioneer Natural Resources: COMPANY
WELL.          Hill Climb 22-2: WELL
FLD.           Purgatorie River: FIELD
LOC.           1820' FNL & 2193' FWL--: LOCATION
PROV.                       CO: PROVINCE
CNTY.               Las Animas: COUNTRY
SRVC.                         : SERVICE COMPANY
DATE.          Fri Oct 22 11:44:16 2004: LOG DATE
UWI.                          : UNIQUE WELL ID
~Curve Information Block
DEPT.FT            0 000 00 00: Depth
GR.GAPI                       : Gamma Ray
CCL.                          : Casing Collar Locator
TT3.usec                      : CBL 3' Travel Time
AMP3.mV                       : CBL 3' Amplitude
~Parameter Information Block
~A  Depth        GR         CCL         TT3         AMP3    
# ...
  1059.5000    116.5112      0.0000    260.2762     72.1810
  1059.7500    110.8527      0.0000    259.5247     73.3861
  1060.0000    104.1532      0.0000    259.1599     74.1746
  1060.2500     97.4135      0.0000    259.0329     74.5318
  1060.5000     90.9379      0.0000    259.0105     74.6245
  1060.7500     83.5491      0.0000    259.0208     74.7106
  1061.0000     73.6824      0.0000    259.0349     74.9778
  1061.2500     61.1213      0.0000    259.0437     75.4397
  1061.5000     47.3713      0.0000    259.0481     75.9352
  1061.7500     34.5622      0.0000    259.0541     76.2132
  1062.0000     24.3499      0.0000    259.0661     76.0699
  1062.2500     17.5629      0.0000    259.0801     75.4646
  1062.5000     14.2110      0.0000    259.0873     74.5549
  1062.7500     13.6573      0.0000    259.0818     73.6266
  1063.0000     15.1312      0.0000    259.0630     72.9531
  1063.2500     18.1616      0.0000    259.0356     72.6762
  1063.5000     22.4063      0.0000    259.0096     72.7766
  1063.7500     27.1523      0.0000    258.9984     73.1285
  1064.0000     31.2453      0.0000    259.0088     73.5721
  1064.2500     33.5684      0.0000    259.0341     73.9611
  1064.5000     33.5822      0.0000    259.0591     74.1823
  1064.7500     31.5883      0.0000    259.0714     74.1749
  1065.0000     28.7050      0.0000    259.0687     73.9639
  1065.2500     26.3604      0.0000    259.0586     73.6773
  1065.5000     25.3276      0.0000    259.0521     73.4940
  1065.7500     25.1643      0.0000    259.0572     73.5440
  1066.0000     24.8315      0.0000    259.0736     73.8479
  1066.2500     23.8418      0.0000    259.0931     74.3411
  1066.5000     22.7465      0.0000    259.1049     74.9273
  1066.7500     22.7523      0.0000    259.1025     75.5151
  1067.0000     25.0763      0.0000    259.0866     76.0412
  1067.2500     30.3636      0.0000    259.0632     76.4701
  1067.5000     38.4511      0.0000    259.0378     76.7567
  1067.7500     48.6329      0.0000    259.0116     76.8347
  1068.0000     60.0277      0.0000    258.9839     76.6903
  1068.2500     71.6181      0.0000    258.9571     76.4403
  1068.5000     82.5007      0.0000    258.9377     76.2915
  1068.7500     92.5780      0.0000    258.9295     76.4075
  1069.0000    102.5281      0.0000    258.9281     76.8175
  1069.2500    112.4883      0.0000    258.9249     77.4249
  1069.5000    121.0510      0.0000    258.9147     78.0763
  1069.7500    126.0029      0.0000    258.8992     78.6391
  1070.0000    126.2006      0.0000    258.8836     79.0533
  1070.2500    122.7746      0.0000    258.8708     79.3331
  1070.5000    118.2528      0.0000    258.8600     79.5208
  1070.7500    114.2454      0.0000    258.8500     79.6449
  1071.0000    110.4036      0.0000    258.8401     79.7174
  1071.2500    105.9625      0.0000    258.8301     79.7490
  1071.5000    101.6311      0.0000    258.8199     79.7502
  1071.7500     99.0727      0.0000    258.8128     79.7263
  1072.0000     98.8821      0.0000    258.8159     79.6845
  1072.2500    100.0353      0.0000    258.8335     79.6450
  1072.5000    101.3424      0.0000    258.8604     79.6383
  1072.7500    102.4945      0.0000    258.8855     79.6872
  1073.0000    103.4496      0.0000    258.9002     79.7849
  1073.2500    103.5849      0.0000    258.9031     79.8874
  1073.5000    102.1073      0.0000    258.8982     79.9434
  1073.7500     99.1480      0.0000    258.8903     79.9433
  1074.0000     96.1227      0.0000    258.8811     79.9283
  1074.2500     94.8891      0.0000    258.8709     79.9434
  1074.5000     96.4952      0.0000    258.8623     79.9933
  1074.7500    100.8416      0.0000    258.8611     80.0431
  1075.0000    107.6233      0.0000    258.8716     80.0488
  1075.2500    117.0920      0.0000    258.8943     79.9824
  1075.5000    129.0483      0.0000    258.9249     79.8479
  1075.7500    141.1503      0.0000    258.9565     79.6785
  1076.0000    149.4422      0.0000    258.9816     79.5156
  1076.2500    151.3124      0.0000    258.9940     79.3895
  1076.5000    147.6009      0.0000    258.9925     79.3149
  1076.7500    141.5819      0.0000    258.9821     79.2878
  1077.0000    136.4064      0.0000    258.9706     79.2830
  1077.2500    133.5544      0.0000    258.9644     79.2668
  1077.5000    133.0432      0.0000    258.9666     79.2198
  1077.7500    134.3600      0.0000    258.9771     79.1424
  1078.0000    136.9917      0.0000    258.9927     79.0435
  1078.2500    140.4501      0.0000    259.0099     78.9308
  1078.5000    144.2198      0.0000    259.0264     78.8158
  1078.7500    147.4608      0.0000    259.0409     78.7205
  1079.0000    148.5353      0.0000    259.0526     78.6699
  1079.2500    145.5801      0.0000    259.0613     78.6743
  1079.5000    138.5512      0.0000    259.0659     78.7213
  1079.7500    130.4449      0.0000    259.0636     78.7853
  1080.0000    125.4883      0.0000    259.0538     78.8412
  1080.2500    125.7961      0.0000    259.0419     78.8667
  1080.5000    129.8718      0.0000    259.0355     78.8311
  1080.7500    134.0959      0.0000    259.0375     78.6899
  1081.0000    135.7499      0.0000    259.0467     78.3997
  1081.2500    135.1376      0.0000    259.0605     77.9435
  1081.5000    134.9239      0.0000    259.0764     77.3494
  1081.7500    137.0901      0.0000    259.0923     76.6996
  1082.0000    140.6185      0.0000    259.1052     76.1280
  1082.2500    142.4917      0.0000    259.1106     75.7817
  1082.5000    140.7977      0.0000    259.1037     75.7424
  1082.7500    136.2829      0.0000    259.0858     75.9600
  1083.0000    130.8017      0.0000    259.0671     76.2743
  1083.2500    124.9364      0.0000    259.0587     76.5317
  1083.5000    117.7503      0.0000    259.0629     76.6950
  1083.7500    108.5169      0.0000    259.0709     76.8325
  1084.0000     98.0475      0.0000    259.0690     76.9935
  1084.2500     88.3933      0.0000    259.0481     77.1168
  1084.5000     81.6736      0.0000    259.0114     77.0813
  1084.7500     79.0843      0.0000    258.9724     76.8404
  1085.0000     80.5591      0.0000    258.9457     76.4885
  1085.2500     85.1405      0.0000    258.9370     76.1888
  1085.5000     91.6871      0.0000    258.9430     76.0479
  1085.7500     99.3775      0.0000    258.9554     76.0642
  1086.0000    107.8250      0.0000    258.9652     76.1806
  1086.2500    116.8243      0.0000    258.9673     76.3629
  1086.5000    125.8609      0.0000    258.9633     76.6247
  1086.7500    134.0543      0.0000    258.9584     76.9958
  1087.0000    140.8320      0.0000    258.9549     77.4718
  1087.2500    146.1324      0.0000    258.9541     77.9891
  1087.5000    149.3001      0.0000    258.9596     78.4496
  1087.7500    148.3527      0.0000    258.9742     78.7819
  1088.0000    141.4320      0.0000    258.9940     78.9805
  1088.2500    128.9361      0.0000    259.0110     79.0860
  1088.5000    113.6256      0.0000    259.0211     79.1372
  1088.7500     98.7731      0.0000    259.0256     79.1524
  1089.0000     86.5825      0.0000    259.0257     79.1398
  1089.2500     78.0333      0.0000    259.0208     79.1052
  1089.5000     73.2914      0.0000    259.0137     79.0525
  1089.7500     71.5918      0.0000    259.0101     78.9965
  1090.0000     71.1050      0.0000    259.0113     78.9758
  1090.2500     70.0582      0.0000    259.0099     79.0322
  1090.5000     68.4389      0.0000    258.9959     79.1653
  1090.7500     68.0003      0.0000    258.9672     79.3169
  1091.0000     70.1635      0.0000    258.9349     79.4125
  1091.2500     74.3084      0.0000    258.9158     79.4146
  1091.5000     78.2985      0.0000    258.9178     79.3337
  1091.7500     80.2405      0.0000    258.9349     79.1996
  1092.0000     79.5345      0.0000    258.9569     79.0348
  1092.2500     76.5864      0.0000    258.9788     78.8560
  1092.5000     71.9901      0.0000    258.9985     78.6926
  1092.7500     66.3372      0.0000    259.0116     78.5915
