~Version Information
VERS.                      2.0: CWLS Log ASCII Standard - VERSION 2.0
WRAP.                       NO: One line per depth step
~Well Information Block
STRT.FT               300.0000: 
STOP.FT               871.2500: 
STEP.FT                 0.2500: 
NULL.                -999.2500: 
COMP.          Pioneer Natural Resources: COMPANY
WELL.            Hustler 12-17: WELL
FLD.           Purgatoire River: FIELD
LOC.           2150' FNL & 450' FWL: LOCATION
PROV.                 Colorado: PROVINCE
CNTY.               Las Animas: COUNTRY
SRVC.                Patterson: SERVICE COMPANY
DATE.          Mon Dec 20 09:25:34 2004: LOG DATE
UWI.           05 071 08236 00: UNIQUE WELL ID
~Curve Information Block
DEPT.FT            0 000 00 00: Depth
SN.Ohm-m                      : IEL Short Normal
SP.mV                         : IEL Spontaneous Potential
DIR.Ohm-m                     : IEL Induction Resistivity
GR.GAPI                       : Gamma Ray
~Parameter Information Block
~A  Depth        SN          SP         DIR          GR     
# ...
   400.5000    645.9807   -800.0005      9.6572    157.7554
   400.7500    645.9807   -800.0005      9.7595    158.1038
   401.0000    645.9807   -800.0005      9.8527    157.7317
   401.2500    645.9807   -800.0005      9.9280    157.0580
   401.5000    645.9807   -800.0005      9.9823    155.0241
   401.7500    645.9807   -800.0005     10.0200    152.6253
   402.0000    645.9807   -800.0005     10.0543    147.5440
   402.2500    645.9807   -800.0005     10.1089    143.7438
   402.5000    645.9807   -800.0005     10.2157    138.6395
   402.7500    645.9807   -800.0005     10.4074    136.0824
   403.0000    645.9807   -800.0005     10.7081    133.5279
   403.2500    645.9807   -800.0005     11.1242    132.1918
   403.5000    645.9807   -800.0005     11.6396    129.2476
   403.7500    645.9807   -800.0005     12.2162    125.8753
   404.0000    645.9807   -800.0005     12.8014    118.6192
   404.2500    645.9807   -800.0005     13.3463    113.1618
   404.5000    645.9807   -800.0005     13.8280    106.0227
   404.7500    645.9807   -800.0005     14.2592    102.6736
   405.0000    645.9807   -800.0005     14.6760     99.6558
   405.2500    645.9807   -800.0005     15.1108     98.4468
   405.5000    645.9807   -800.0005     15.5687     97.0761
   405.7500    645.9807   -800.0005     16.0225     96.3505
   406.0000    645.9807   -800.0005     16.4245     95.6908
   406.2500    645.9807   -800.0005     16.7261     95.5966
   406.5000    645.9807   -800.0005     16.8930     96.0346
   406.7500    645.9807   -800.0005     16.9102     96.7975
   407.0000    645.9807   -800.0005     16.7792     98.7189
   407.2500    645.9807   -800.0005     16.5152    100.4155
   407.5000    645.9807   -800.0005     16.1417    103.3877
   407.7500    645.9807   -800.0005     15.6838    105.6560
   408.0000    645.9807   -800.0005     15.1626    109.3973
   408.2500    645.9807   -800.0005     14.5954    111.7971
   408.5000    645.9807   -800.0005     13.9997    114.4716
   408.7500    645.9807   -800.0005     13.3967    115.4296
   409.0000    645.9807   -800.0005     12.8102    116.1305
   409.2500    645.9807   -800.0005     12.2642    116.7149
   409.5000    645.9807   -800.0005     11.7804    118.5622
   409.7500    645.9807   -800.0005     11.3767    120.5446
   410.0000    645.9807   -800.0005     11.0650    124.5106
   410.2500    645.9807   -800.0005     10.8510    127.7045
   410.5000    645.9807   -800.0005     10.7353    132.6647
   410.7500    645.9807   -800.0005     10.7167    135.1622
   411.0000    645.9807   -800.0005     10.7912    135.6695
   411.2500    645.9807   -800.0005     10.9495    133.1754
   411.5000    645.9807   -800.0005     11.1723    125.9034
   411.7500    645.9807   -800.0005     11.4315    120.0175
   412.0000    645.9807   -800.0005     11.6953    112.2310
   412.2500    645.9807   -800.0005     11.9354    108.8525
   412.5000    645.9807   -800.0005     12.1312    107.1784
   412.7500    645.9807   -800.0005     12.2696    108.0282
   413.0000    645.9807   -800.0005     12.3459    111.2320
   413.2500    645.9807   -800.0005     12.3660    114.1246
   413.5000    645.9807   -800.0005     12.3465    118.8520
   413.7500    645.9807   -800.0005     12.3103    121.7644
   414.0000    645.9807   -800.0005     12.2783    124.7592
   414.2500    645.9807   -800.0005     12.2637    125.2312
   414.5000    645.9807   -800.0005     12.2727    122.8404
   414.7500    645.9807   -800.0005     12.3102    119.1641
   415.0000    645.9807   -800.0005     12.3855    111.9473
   415.2500    645.9807   -800.0005     12.5128    107.5933
   415.5000    645.9807   -800.0005     12.7055    104.3188
   415.7500    645.9807   -800.0005     12.9693    104.6851
   416.0000    645.9807   -800.0005     13.2977    107.2424
   416.2500    645.9807   -800.0005     13.6714    108.7061
   416.5000    645.9807   -800.0005     14.0607    109.2846
   416.7500    645.9807   -800.0005     14.4299    109.0267
   417.0000    645.9807   -800.0005     14.7446    108.8815
   417.2500    645.9807   -800.0005     14.9794    109.0165
   417.5000    645.9807   -800.0005     15.1268    108.6367
   417.7500    645.9807   -800.0005     15.2064    107.5614
   418.0000    645.9807   -800.0005     15.2655    104.9874
   418.2500    645.9807   -800.0005     15.3597    103.1672
   418.5000    645.9807   -800.0005     15.5204    101.0919
   418.7500    645.9807   -800.0005     15.7299    100.4110
   419.0000    645.9807   -800.0005     15.9279    100.5407
   419.2500    645.9807   -800.0005     16.0448    101.1825
   419.5000    645.9807   -800.0005     16.0373    102.0010
   419.7500    645.9807   -800.0005     15.8942    101.6663
   420.0000    645.9807   -800.0005     15.6214     99.1929
   420.2500    645.9807   -800.0005     15.2333     96.9318
   420.5000    645.9807   -800.0005     14.7560     95.5031
   420.7500    645.9807   -800.0005     14.2279     97.3975
   421.0000    645.9807   -800.0005     13.6877    104.6077
   421.2500    645.9807   -800.0005     13.1589    110.6771
   421.5000    645.9807   -800.0005     12.6450    117.8791
   421.7500    645.9807   -800.0005     12.1383    120.2110
   422.0000    645.9807   -800.0005     11.6358    121.0278
   422.2500    645.9807   -800.0005     11.1472    121.3723
   422.5000    645.9807   -800.0005     10.6918    123.2444
   422.7500    645.9807   -800.0005     10.2872    125.0854
   423.0000    645.9807   -800.0005      9.9414    127.3499
   423.2500    645.9807   -800.0005      9.6539    128.2610
   423.5000    645.9807   -800.0005      9.4212    129.3416
   423.7500    645.9807   -800.0005      9.2410    130.0417
   424.0000    645.9807   -800.0005      9.1121    130.1900
   424.2500    645.9807   -800.0005      9.0307    128.9833
   424.5000    645.9807   -800.0005      8.9904    125.1479
   424.7500    645.9807   -800.0005      8.9833    122.1100
   425.0000    645.9807   -800.0005      9.0042    118.9171
   425.2500    645.9807   -800.0005      9.0531    118.4462
   425.5000    645.9807   -800.0005      9.1360    119.9977
   425.7500    645.9807   -800.0005      9.2615    121.8326
   426.0000    645.9807   -800.0005      9.4378    124.6012
   426.2500    645.9807   -800.0005      9.6712    126.0383
   426.5000    645.9807   -800.0005      9.9662    127.3432
   426.7500    645.9807   -800.0005     10.3275    127.6571
   427.0000    645.9807   -800.0005     10.7612    126.9821
   427.2500    645.9807   -800.0005     11.2748    125.2044
   427.5000    645.9807   -800.0005     11.8764    119.7082
   427.7500    645.9807   -800.0005     12.5745    114.4203
   428.0000    645.9807   -800.0005     13.3788    105.6991
   428.2500    645.9807   -800.0005     14.3019    100.2059
   428.5000    645.9807   -800.0005     15.3560     92.6386
   428.7500    645.9807   -800.0005     16.5463     87.6805
   429.0000    645.9807   -800.0005     17.8571     80.2125
   429.2500    645.9807   -800.0005     19.2389     75.7245
   429.5000    645.9807   -800.0005     20.6061     70.9898
   429.7500    645.9807   -800.0005     21.8625     69.3862
   430.0000    645.9807   -800.0005     22.9538     68.1602
   430.2500    645.9807   -800.0005     23.9060     67.0618
   430.5000    645.9807   -800.0005     24.8060     64.0940
   430.7500    645.9807   -800.0005     25.7319     61.5915
   431.0000    645.9807   -800.0005     26.6974     58.3115
   431.2500    645.9807   -800.0005     27.6522     56.9171
   431.5000    645.9807   -800.0005     28.5322     56.0112
   431.7500    645.9807   -800.0005     29.3047     55.8650
   432.0000    645.9807   -800.0005     29.9646     55.5999
   432.2500    645.9807   -800.0005     30.4945     55.1155
   432.5000    645.9807   -800.0005     30.8348     54.0999
   432.7500    645.9807   -800.0005     30.8959     53.6338
   433.0000    645.9807   -800.0005     30.5985     53.7708
   433.2500    645.9807   -800.0005     29.9093     54.3681
   433.5000    645.9807   -800.0005     28.8474     55.6885
   433.7500    645.9807   -800.0005     27.4699     56.9205
