~Version Information
 VERS.                                  2.0 : CWLS LAS VERSION
 WRAP.                                   NO : WRAPING MODE
 SWARE .                 MController 2.5.0J : SOFTWARE VERSION
~Well Information
 WELL.                     Old Yeller 31-32 : WELL
 COMP.    Pioneer Natural Resources USA Inc : COMPANY
 FLD.                      Purgatoire River : FIELD
 LOC.                NW/NE Sec 32 T32S R67W : LOCATION
 DATE.                           8/23-28/05 : DATE(S) LOGGED
 SRVC.       BLANCO Geological Services LLC : SERVICE COMPANY
 STAT.                                   CO : STATE
 CNTY.                           Las Animas : COUNTY
 CTRY.                                  USA : COUNTRY
 API.                       05-071-08356-00 : API NUMBER
 STRT.FT                            1664.00 : START DEPTH
 STOP.FT                            2951.00 : STOP DEPTH
 STEP.FT                               1.00 : DEPTH INCREMENT
 NULL.                                -9999 : NULL VALUE
~Curve information
 DEPTH.FT                                   :
 ROP.MIN/FT                                 :
 GAS.UNITS                                  :
~ASCII Log data
# ...
      2665.0         1.38          9.6 
      2666.0         1.43          4.5 
      2667.0         1.18          3.3 
      2668.0         1.03          2.5 
      2669.0         0.83          2.7 
      2670.0         0.70          2.7 
      2671.0        14.72          4.5 
      2672.0         1.00          3.7 
      2673.0         1.47          8.3 
      2674.0         1.38         14.5 
      2675.0         1.30         16.8 
      2676.0         1.12         15.8 
      2677.0         1.00          5.4 
      2678.0         1.13          3.6 
      2679.0         1.25          3.4 
      2680.0         1.30          3.2 
      2681.0         1.13          3.1 
      2682.0         1.32          4.7 
      2683.0         1.60          2.8 
      2684.0         0.77          2.1 
      2685.0         0.55          2.5 
      2686.0         0.57          6.6 
      2687.0         0.60          7.2 
      2688.0         0.50          6.8 
      2689.0         2.12          5.7 
      2690.0         0.50          5.3 
      2691.0         0.63          5.4 
      2692.0         0.70          5.8 
      2693.0         0.60          6.4 
      2694.0         0.55          6.2 
      2695.0         0.47          5.7 
      2696.0         0.40          5.6 
      2697.0         0.63          6.7 
      2698.0         0.37          8.7 
      2699.0         0.73         14.0 
      2700.0         0.58         17.8 
      2701.0        12.35         40.7 
      2702.0         0.80          9.4 
      2703.0         1.18         10.5 
      2704.0         0.97         16.0 
      2705.0         0.73         22.8 
      2706.0         0.62         27.7 
      2707.0         0.63         33.5 
      2708.0         0.67         37.4 
      2709.0         0.67         37.6 
      2710.0         0.80         35.5 
      2711.0         0.78         33.0 
      2712.0         0.70         34.2 
      2713.0         0.83         34.2 
      2714.0         1.17         33.5 
      2715.0         1.12         36.3 
      2716.0         1.13         37.7 
      2717.0         1.03         23.5 
      2718.0         0.85          5.9 
      2719.0         0.83          4.0 
      2720.0         0.83          3.4 
      2721.0         0.80          3.2 
      2722.0         0.98          4.3 
      2723.0         1.27          4.8 
      2724.0         0.90          4.2 
      2725.0         0.63          4.6 
      2726.0         0.38          4.8 
      2727.0         0.57          5.2 
      2728.0         0.70          5.6 
      2729.0         0.67          7.0 
      2730.0         0.93          8.9 
      2731.0        15.28         76.8 
      2732.0         0.80          6.0 
      2733.0         1.18         10.1 
      2734.0         0.77         14.3 
      2735.0         0.70         17.6 
      2736.0         0.73         23.0 
      2737.0         0.73         28.8 
      2738.0         0.72         29.0 
      2739.0         0.73         22.7 
      2740.0         1.07         19.3 
      2741.0         0.30         16.7 
      2742.0         0.33         17.3 
      2743.0         0.28         18.0 
      2744.0         0.37         17.8 
      2745.0         0.33         18.2 
      2746.0         0.60         18.8 
      2747.0         0.70         20.4 
      2748.0         0.70         23.9 
      2749.0         0.65         24.4 
      2750.0         0.60         21.1 
      2751.0         0.53         13.5 
      2752.0         0.63          6.9 
      2753.0         0.67          5.2 
      2754.0         0.70          4.2 
      2755.0         0.62          4.9 
      2756.0         0.57          8.2 
      2757.0         0.57         31.9 
      2758.0         0.60         55.1 
      2759.0         0.73         59.8 
      2760.0         0.68         56.4 
      2761.0        14.03         44.2 
      2762.0         1.03          6.2 
      2763.0         1.07          6.0 
      2764.0         0.88          6.0 
      2765.0         0.73          6.6 
      2766.0         0.73          9.3 
      2767.0         0.73         11.7 
      2768.0         0.78         13.8 
      2769.0         0.67         14.7 
      2770.0         0.37         14.3 
      2771.0         0.53         12.4 
      2772.0         0.93          8.4 
      2773.0         0.75          9.9 
      2774.0         0.73         11.1 
      2775.0         0.50         13.5 
      2776.0         0.40         13.6 
      2777.0         0.70         14.0 
      2778.0         0.92         18.2 
      2779.0         0.77         23.6 
      2780.0         0.63         21.0 
      2781.0         0.63         10.0 
      2782.0         0.67          6.6 
      2783.0         0.65          9.8 
      2784.0         0.77         14.6 
      2785.0         0.97         12.5 
      2786.0         1.07          9.2 
      2787.0         0.88          9.6 
      2788.0         0.83         16.8 
      2789.0         0.70         20.6 
      2790.0         0.63         19.3 
      2791.0        17.80         23.5 
      2792.0         0.23         10.4 
      2793.0         0.23         11.0 
      2794.0         0.30         11.0 
      2795.0         0.33         11.0 
      2796.0         0.37          9.3 
      2797.0         0.37          8.2 
      2798.0         0.37          8.9 
      2799.0         0.57          9.6 
      2800.0         0.85          9.4 
      2801.0         0.90          9.1 
      2802.0         1.88          9.6 
      2803.0         2.57          9.7 
      2804.0         2.25         63.9 
      2805.0         1.23         63.5 
      2806.0         1.32         35.9 
      2807.0         1.00         29.0 
      2808.0         0.87         24.2 
      2809.0         0.88         19.1 
      2810.0         1.13         11.4 
      2811.0         1.03          8.3 
      2812.0         0.93          7.5 
      2813.0         0.52          7.4 
      2814.0         0.33          7.3 
      2815.0         0.43          7.4 
      2816.0         0.67          8.1 
      2817.0         0.70          8.2 
      2818.0         0.77          8.6 
      2819.0         0.92          7.7 
      2820.0         0.80          8.0 
      2821.0        15.55         27.2 
      2822.0         0.53         14.6 
      2823.0         0.60         15.3 
      2824.0         0.53         13.7 
      2825.0         0.50          9.9 
      2826.0         1.12         12.8 
      2827.0         1.13         12.3 
      2828.0         1.20         10.8 
      2829.0         1.22         10.8 
      2830.0         1.30         10.0 
      2831.0         0.93          9.5 
      2832.0         0.55          9.6 
      2833.0         0.33         10.6 
      2834.0         0.47         10.1 
      2835.0         0.83         13.2 
      2836.0         0.43         12.7 
      2837.0         0.57         13.0 
      2838.0         0.72         17.1 
      2839.0         1.23         15.6 
      2840.0         1.17         11.1 
      2841.0         1.08          9.2 
      2842.0         1.00          9.1 
      2843.0         0.97         26.7 
      2844.0         1.03         35.2 
      2845.0         1.12         27.4 
      2846.0         1.23         34.3 
      2847.0         1.10         33.5 
      2848.0         0.92         29.8 
      2849.0         0.80         18.1 
      2850.0         0.80         11.7 
      2851.0        11.30          9.8 
      2852.0         1.20          9.4 
      2853.0         1.27         12.9 
      2854.0         1.18         13.6 
      2855.0         1.03         12.9 
      2856.0         0.90         11.4 
      2857.0         0.98         12.4 
      2858.0         0.90         14.0 
      2859.0         0.53         13.7 
      2860.0         0.63         11.9 
      2861.0         1.02          9.4 
      2862.0         1.07         10.0 
      2863.0         1.10         11.4 
      2864.0         1.25         13.9 
