~Version Information
VERS.                      2.0: CWLS Log ASCII Standard - VERSION 2.0
WRAP.                       NO: One line per depth step
~Well Information Block
STRT.FT                -4.2500: 
STOP.FT              2218.5000: 
STEP.FT                 0.2500: 
NULL.                -999.2500: 
COMP.          Pioneer Natural Resources: COMPANY
WELL.             Warrior 32-1: WELL
FLD.           Purgatorie River: FIELD
LOC.           2624' FNL & 2392' FEL--: LOCATION
PROV.                       CO: PROVINCE
CNTY.               Las Animas: COUNTRY
SRVC.                         : SERVICE COMPANY
DATE.          Tue Oct 12 10:54:12 2004: LOG DATE
UWI.           005 071 08176 : UNIQUE WELL ID
~Curve Information Block
DEPT.FT            0 000 00 00: Depth
GR.GAPI                       : Gamma Ray
CCL.                          : Casing Collar Locator
TT3.usec                      : CBL 3' Travel Time
AMP3.mV                       : CBL 3' Amplitude
~Parameter Information Block
~A  Depth        GR         CCL         TT3         AMP3    
# ...
  1000.7500     66.5384      0.0000    855.6505      4.6770
  1001.0000     72.2889      0.0000    842.4932      4.5898
  1001.2500     80.7152      0.0000    824.5841      4.4859
  1001.5000     91.1591      0.0000    807.6603      4.3917
  1001.7500    102.6469      0.0000    796.0001      4.3502
  1002.0000    113.4875      0.0000    789.8182      4.4001
  1002.2500    121.4790      0.0000    786.5699      4.5459
  1002.5000    124.8727      0.0000    784.0007      4.7507
  1002.7500    123.3097      0.0000    781.6960      4.9544
  1003.0000    118.1138      0.0000    780.4754      5.1083
  1003.2500    111.7891      0.0000    781.0598      5.1975
  1003.5000    106.8221      0.0000    783.2698      5.2316
  1003.7500    104.4329      0.0000    786.1520      5.2174
  1004.0000    104.1604      0.0000    788.7480      5.1555
  1004.2500    104.3322      0.0000    790.7950      5.0665
  1004.5000    102.9874      0.0000    792.8911      4.9983
  1004.7500     98.9683      0.0000    796.1732      4.9919
  1005.0000     92.5968      0.0000    801.6608      5.0453
  1005.2500     85.2003      0.0000    809.4184      5.1216
  1005.5000     78.0387      0.0000    818.1332      5.1867
  1005.7500     71.8583      0.0000    825.5892      5.2337
  1006.0000     67.0424      0.0000    829.6077      5.2754
  1006.2500     63.6976      0.0000    828.7491      5.3158
  1006.5000     61.8184      0.0000    822.9277      5.3326
  1006.7500     61.5731      0.0000    813.9224      5.2945
  1007.0000     63.1521      0.0000    804.7844      5.1992
  1007.2500     66.2344      0.0000    798.0098      5.0857
  1007.5000     69.8842      0.0000    794.2327      5.0017
  1007.7500     72.9423      0.0000    792.6169      4.9646
  1008.0000     74.3705      0.0000    791.9897      4.9553
  1008.2500     73.5549      0.0000    791.3895      4.9457
  1008.5000     70.7533      0.0000    790.1080      4.9250
  1008.7500     67.1338      0.0000    787.9366      4.9011
  1009.0000     63.9521      0.0000    785.5371      4.8843
  1009.2500     61.6310      0.0000    784.1119      4.8722
  1009.5000     59.8872      0.0000    784.3160      4.8520
  1009.7500     58.5618      0.0000    785.6340      4.8146
  1010.0000     57.7815      0.0000    787.1252      4.7660
  1010.2500     57.3881      0.0000    788.6008      4.7226
  1010.5000     56.9039      0.0000    790.9222      4.6973
  1010.7500     56.1623      0.0000    795.1265      4.6920
  1011.0000     55.3810      0.0000    800.9373      4.6983
  1011.2500     54.4849      0.0000    805.9395      4.7006
  1011.5000     52.8327      0.0000    806.9966      4.6848
  1011.7500     49.9229      0.0000    803.2189      4.6483
  1012.0000     46.2602      0.0000    796.9927      4.6016
  1012.2500     43.2436      0.0000    791.6003      4.5602
  1012.5000     42.0654      0.0000    788.5438      4.5394
  1012.7500     42.8550      0.0000    787.3997      4.5483
  1013.0000     44.9264      0.0000    787.2043      4.5822
  1013.2500     47.4626      0.0000    787.3100      4.6208
  1013.5000     49.7067      0.0000    787.3880      4.6404
  1013.7500     50.8673      0.0000    787.2516      4.6247
  1014.0000     50.3221      0.0000    786.8365      4.5663
  1014.2500     48.0596      0.0000    786.2183      4.4691
  1014.5000     44.8798      0.0000    785.5737      4.3563
  1014.7500     42.0931      0.0000    785.0739      4.2677
  1015.0000     40.8689      0.0000    784.8200      4.2365
  1015.2500     41.6761      0.0000    784.8222      4.2655
  1015.5000     44.0836      0.0000    784.9923      4.3243
  1015.7500     46.9576      0.0000    785.1716      4.3687
  1016.0000     49.0051      0.0000    785.2247      4.3634
  1016.2500     49.4088      0.0000    785.1402      4.2983
  1016.5000     48.2426      0.0000    785.0373      4.1954
  1016.7500     46.4361      0.0000    785.0594      4.0994
  1017.0000     45.1980      0.0000    785.2490      4.0553
  1017.2500     45.2784      0.0000    785.4899      4.0848
  1017.5000     46.8038      0.0000    785.5467      4.1815
  1017.7500     49.6733      0.0000    785.1534      4.3246
  1018.0000     53.7183      0.0000    784.1270      4.4932
  1018.2500     58.4198      0.0000    782.5533      4.6674
  1018.5000     62.8954      0.0000    780.8726      4.8240
  1018.7500     66.6021      0.0000    779.5432      4.9429
  1019.0000     70.0603      0.0000    778.4599      5.0209
  1019.2500     74.6658      0.0000    776.9190      5.0754
  1019.5000     81.5834      0.0000    774.4038      5.1295
  1019.7500     90.7295      0.0000    771.5293      5.1956
  1020.0000    100.7522      0.0000    770.5804      5.2724
  1020.2500    109.9143      0.0000    775.0926      5.3505
  1020.5000    117.0303      0.0000    787.5565      5.4144
  1020.7500    121.8607      0.0000    806.1397      5.4422
  1021.0000    124.9928      0.0000    824.3440      5.4136
  1021.2500    127.2987      0.0000    835.9005      5.3288
  1021.5000    129.2959      0.0000    840.0436      5.2224
  1021.7500    130.9449      0.0000    840.2432      5.1456
  1022.0000    132.0592      0.0000    838.3256      5.1230
  1022.2500    132.8062      0.0000    832.6458      5.1342
  1022.5000    133.6692      0.0000    822.1796      5.1416
  1022.7500    134.9102      0.0000    809.5156      5.1263
  1023.0000    136.0760      0.0000    798.6588      5.0963
  1023.2500    136.0195      0.0000    791.5323      5.0759
  1023.5000    133.6697      0.0000    787.3882      5.0898
  1023.7500    129.2881      0.0000    784.5029      5.1450
  1024.0000    124.8187      0.0000    781.8251      5.2230
  1024.2500    122.3996      0.0000    779.5858      5.2967
  1024.5000    122.6112      0.0000    778.7890      5.3563
  1024.7500    124.5554      0.0000    780.0064      5.4094
  1025.0000    127.1363      0.0000    782.6309      5.4589
  1025.2500    129.5214      0.0000    785.3850      5.4940
  1025.5000    130.9178      0.0000    787.3021      5.5028
  1025.7500    130.8805      0.0000    788.0249      5.4893
  1026.0000    129.7252      0.0000    787.3571      5.4724
  1026.2500    128.0372      0.0000    784.8352      5.4676
  1026.5000    126.0229      0.0000    779.9085      5.4715
  1026.7500    123.7986      0.0000    772.5972      5.4661
  1027.0000    121.9046      0.0000    763.7852      5.4364
  1027.2500    120.9851      0.0000    754.4711      5.3846
  1027.5000    121.4209      0.0000    744.6863      5.3248
  1027.7500    123.7437      0.0000    733.8109      5.2655
  1028.0000    128.5686      0.0000    722.3752      5.1993
  1028.2500    135.1450      0.0000    712.7996      5.1144
  1028.5000    140.6461      0.0000    707.1563      5.0161
  1028.7500    142.1991      0.0000    704.3683      4.9298
  1029.0000    139.6453      0.0000    700.9149      4.8803
  1029.2500    135.5230      0.0000    694.6337      4.8729
  1029.5000    132.4705      0.0000    687.1157      4.8973
  1029.7500    131.3015      0.0000    682.3897      4.9484
  1030.0000    131.3451      0.0000    683.8209      5.0345
  1030.2500    131.6979      0.0000    691.9634      5.1633
  1030.5000    131.8414      0.0000    704.4729      5.3225
  1030.7500    131.6990      0.0000    717.8143      5.4767
  1031.0000    131.5947      0.0000    729.4153      5.5820
  1031.2500    131.9550      0.0000    738.5621      5.6078
  1031.5000    132.6794      0.0000    745.8535      5.5548
  1031.7500    132.7955      0.0000    752.3985      5.4576
  1032.0000    131.0917      0.0000    759.2139      5.3626
  1032.2500    127.2819      0.0000    766.4515      5.2988
  1032.5000    122.3494      0.0000    772.9312      5.2667
  1032.7500    117.5608      0.0000    776.9165      5.2485
  1033.0000    113.3927      0.0000    777.6505      5.2214
  1033.2500    109.6639      0.0000    775.8738      5.1646
  1033.5000    106.5333      0.0000    772.7116      5.0644
  1033.7500    105.0223      0.0000    768.3826      4.9151
  1034.0000    106.4123      0.0000    762.2734      4.7157
