~Version Information
VERS.                      2.0: CWLS Log ASCII Standard - VERSION 2.0
WRAP.                       NO: One line per depth step
~Well Information Block
STRT.FT               754.6000: 
STOP.FT              2329.0000: 
STEP.FT                 0.1000: 
NULL.                -999.2500: 
COMP.          Petrogulf Corporation: COMPANY
WELL.           Anderson 18-42: WELL
FLD.           Purgatoire River: FIELD
LOC.           1668' FNL & 1110' FEL: LOCATION
CNTY.               Las Animas: COUNTY
SRVC.                         : SERVICE COMPANY
DATE.          Tue Dec 16 12:18:55 2003: LOG DATE
UWI.                          : UNIQUE WELL ID
STAT.                 Colorado: STATE
~Curve Information Block
DEPT.FT            0 000 00 00: Depth
DCAL.in                       : CDL Caliper
RHOB.g/cc                     : CDL Bulk Density
RHOC.g/cc                     : CDL Density Correction
DPOR.pu                       : CDL Density Porosity
NPOR.pu                       : Neutron Porosity
GR.GAPI                       : Gamma Ray
~Parameter Information Block
~A  Depth       DCAL        RHOB        RHOC        DPOR        NPOR         GR     
# ...
  2012.2000      7.8628      2.4141      0.0153     14.2941     18.7902     92.4215
  2012.3000      7.8636      2.4308      0.0149     13.2845     19.3763     89.8793
  2012.4000      7.8636      2.4712      0.0885     10.8355     20.2097     85.6189
  2012.5000      7.8664      2.5006      0.1084      9.0557     20.5276     79.6359
  2012.6000      7.8664      2.4982      0.1043      9.1973     19.9925     74.5996
  2012.7000      7.8664      2.4798      0.0696     10.3148     19.2618     71.1730
  2012.8000      7.8696      2.4697      0.0475     10.9252     19.2258     67.3465
  2012.9000      7.8696      2.4712      0.0637     10.8372     19.7627     65.3941
  2013.0000      7.8653      2.4771      0.0277     10.4802     20.1768     64.5430
  2013.1000      7.8653      2.4899      0.0551      9.7006     20.5130     63.6514
  2013.2000      7.8653      2.5126      0.0563      8.3298     21.1106     66.1526
  2013.3000      7.8672      2.5373      0.0659      6.8321     21.5550     70.2204
  2013.4000      7.8672      2.5497      0.0818      6.0768     21.0005     70.4417
  2013.5000      7.8702      2.5456      0.0581      6.3279     19.3190     66.2726
  2013.6000      7.8702      2.5346      0.0696      6.9947     17.5811     63.8879
  2013.7000      7.8702      2.5222      0.0536      7.7455     16.7203     66.5591
  2013.8000      7.8677      2.5086      0.0557      8.5720     16.7028     71.0335
  2013.9000      7.8677      2.4980      0.0328      9.2127     17.0044     75.6447
  2014.0000      7.8547      2.4941      0.0256      9.4495     17.0503     78.4523
  2014.1000      7.8547      2.4948      0.0539      9.4062     16.7544     76.1748
  2014.2000      7.8547      2.4996      0.0273      9.1124     16.6526     69.3856
  2014.3000      7.8406      2.5097      0.0366      8.5045     16.8255     62.8971
  2014.4000      7.8406      2.5200      0.0601      7.8782     16.8572     62.1509
  2014.5000      7.8423      2.5238      0.0560      7.6511     17.0106     65.3670
  2014.6000      7.8423      2.5203      0.0417      7.8621     17.4152     64.0486
  2014.7000      7.8423      2.5157      0.0262      8.1406     17.6990     57.9259
  2014.8000      7.8425      2.5162      0.0096      8.1108     17.8523     54.1648
  2014.9000      7.8425      2.5161      0.0462      8.1171     17.5386     55.6871
  2015.0000      7.8506      2.5057      0.0333      8.7453     16.4595     57.1916
  2015.1000      7.8506      2.4891      0.0186      9.7531     15.5310     55.2837
  2015.2000      7.8506      2.4796      0.0187     10.3291     15.5704     55.3328
  2015.3000      7.8479      2.4859      0.0114      9.9437     16.2102     59.3534
  2015.4000      7.8479      2.5000      0.0510      9.0897     16.6171     60.2533
  2015.5000      7.8464      2.5054      0.0492      8.7664     16.5126     55.3823
  2015.6000      7.8464      2.5001      0.0350      9.0839     16.3734     49.8968
  2015.7000      7.8464      2.4976      0.0274      9.2345     16.6217     46.9855
  2015.8000      7.8487      2.5066      0.0438      8.6883     17.0868     48.7525
  2015.9000      7.8487      2.5220      0.0455      7.7597     17.4440     53.7128
  2016.0000      7.8456      2.5322      0.0838      7.1370     17.3138     56.0815
  2016.1000      7.8456      2.5341      0.0467      7.0222     16.5641     55.4446
  2016.2000      7.8456      2.5315      0.0345      7.1812     15.8351     55.4461
  2016.3000      7.8370      2.5233      0.0604      7.6776     15.6830     56.6256
  2016.4000      7.8370      2.5081      0.0603      8.6007     16.0299     59.5536
  2016.5000      7.8128      2.4935      0.0208      9.4833     16.3733     60.9768
  2016.6000      7.8128      2.4928      0.0129      9.5256     16.3552     56.2343
  2016.7000      7.8128      2.5091      0.0368      8.5415     16.1091     50.2337
  2016.8000      7.8434      2.5323      0.0261      7.1349     15.7389     49.8271
  2016.9000      7.8434      2.5529      0.0502      5.8841     15.4217     52.4733
  2017.0000      7.8387      2.5649      0.0863      5.1605     15.6559     52.8857
  2017.1000      7.8387      2.5669      0.0721      5.0386     16.5948     52.0601
  2017.2000      7.8387      2.5650      0.0710      5.1522     17.2861     51.7405
  2017.3000      7.8366      2.5655      0.0479      5.1238     16.7932     48.1491
  2017.4000      7.8366      2.5709      0.0897      4.7914     15.9009     42.8766
  2017.5000      7.8376      2.5798      0.1006      4.2549     15.2564     44.1111
  2017.6000      7.8376      2.5827      0.1132      4.0775     14.5114     51.3461
  2017.7000      7.8376      2.5690      0.0879      4.9118     14.0837     55.4480
  2017.8000      7.9144      2.5433      0.0542      6.4691     14.4424     52.8321
  2017.9000      7.9144      2.5248      0.0281      7.5874     15.1594     50.5776
  2018.0000      8.0843      2.5248      0.0402      7.5872     16.2792     54.0757
  2018.1000      8.0843      2.5377      0.0218      6.8045     18.1236     60.0653
  2018.2000      8.0843      2.5442      0.0607      6.4141     20.1268     63.8907
  2018.3000      8.1306      2.5202      0.0808      7.8688     21.5279     63.9213
  2018.4000      8.1306      2.4578      0.0383     11.6474     22.2294     62.8884
  2018.5000      8.1379      2.3714     -0.0153     16.8861     22.8234     63.7741
  2018.6000      8.1379      2.2724      0.0022     22.8862     23.8788     66.7947
  2018.7000      8.1379      2.1461     -0.0379     30.5365     25.4929     70.9125
  2018.8000      8.1269      1.9845     -0.1178     40.3360     27.2957     72.8380
  2018.9000      8.1269      1.8180     -0.1484     50.4218     28.8455     71.5450
  2019.0000      8.1442      1.6855     -0.1795     58.4535     30.0472     68.7787
  2019.1000      8.1442      1.5934     -0.1738     64.0368     31.1416     64.9090
  2019.2000      8.1442      1.5214     -0.1542     68.4022     32.3990     60.7999
  2019.3000      8.1743      1.4602     -0.1000     72.1097     33.4173     60.7933
  2019.4000      8.1743      1.4172      0.0473     74.7145     33.5558     66.5454
  2019.5000      8.1602      1.3880      0.0891     76.4822     33.1308     72.9831
  2019.6000      8.1602      1.3547      0.0993     78.5046     32.9575     76.2785
  2019.7000      8.1602      1.3121      0.0645     81.0824     33.2969     76.2859
  2019.8000      8.0537      1.2804      0.0698     83.0071     33.7841     74.4134
  2019.9000      8.0537      1.2793      0.0656     83.0726     34.0038     74.2900
  2020.0000      8.1133      1.3097      0.0989     81.2330     33.6048     77.3652
  2020.1000      8.1133      1.3680      0.1014     77.6956     32.4805     82.2548
  2020.2000      8.1133      1.4547      0.1270     72.4411     31.0656     88.8974
  2020.3000      8.4274      1.5580      0.1729     66.1814     29.8797     95.8309
  2020.4000      8.4274      1.6619      0.1969     59.8858     28.8446    101.4538
  2020.5000      8.5140      1.7717      0.2089     53.2309     27.6423    108.7745
  2020.6000      8.5140      1.8993      0.2490     45.4956     26.2814    118.2566
  2020.7000      8.5140      2.0347      0.2682     37.2921     24.9194    126.6233
  2020.8000      8.4825      2.1644      0.2076     29.4286     23.7903    132.3215
  2020.9000      8.4825      2.2885      0.2043     21.9084     23.1874    135.2684
  2021.0000      8.2638      2.3937      0.2261     15.5337     22.9810    132.6709
  2021.1000      8.2638      2.4595      0.1326     11.5478     22.8830    124.6149
  2021.2000      8.2638      2.4877      0.1125      9.8374     22.9672    119.4596
  2021.3000      8.2593      2.4924      0.0768      9.5525     23.1676    123.4314
  2021.4000      8.2593      2.4865      0.0660      9.9063     23.0414    134.4139
  2021.5000      8.2744      2.4784      0.0454     10.4002     22.7166    141.1137
  2021.6000      8.2744      2.4718      0.0646     10.8027     22.7687    137.6552
  2021.7000      8.2744      2.4735      0.0287     10.6989     23.1392    135.7918
