~Version Information
VERS.                      2.0: CWLS Log ASCII Standard - VERSION 2.0
WRAP.                       NO: One line per depth step
~Well Information Block
STRT.FT                -7.5000: 
STOP.FT              2339.2500: 
STEP.FT                 0.2500: 
NULL.                -999.2500: 
COMP.          Pioneer Natural Resources: COMPANY
WELL.            Harrier 44-33: WELL
FLD.           Purgatorie River: FIELD
LOC.           456' FSL & 930' FEL--: LOCATION
PROV.                       CO: PROVINCE
CNTY.               Las Animas: COUNTRY
SRVC.          Patterson Wireline: SERVICE COMPANY
DATE.          Wed Jun 29 11:08:51 2005: LOG DATE
UWI.           05 071 08398 00: UNIQUE WELL ID
~Curve Information Block
DEPT.FT            0 000 00 00: Depth
CCL.                          : Casing Collar Locator
TT3.usec                      : CBL 3' Travel Time
AMP3.mV                       : CBL 3' Amplitude
GR.GAPI                       : Gamma Ray
~Parameter Information Block
~A  Depth       CCL         TT3         AMP3         GR     
# ...
  1366.0000      0.0000    714.9787      3.7089    117.5351
  1366.2500      0.0000    717.4099      3.6835    111.4646
  1366.5000      0.0000    726.3660      3.7765    105.9624
  1366.7500      0.0000    743.4935      3.9578    103.7036
  1367.0000      0.0000    765.9187      4.1691    105.7614
  1367.2500      0.0000    786.7405      4.3739    111.0357
  1367.5000      0.0000    798.8431      4.5931    116.9251
  1367.7500      0.0000    800.2933      4.8907    120.9377
  1368.0000      0.0000    795.8471      5.3041    122.0722
  1368.2500      0.0000    792.0604      5.7825    120.8764
  1368.5000      0.0000    791.3540      6.2112    118.5604
  1368.7500      0.0000    791.5641      6.5028    116.3265
  1369.0000      0.0000    789.9497      6.6537    115.1564
  1369.2500      0.0000    785.9708      6.7050    115.6631
  1369.5000      0.0000    780.8759      6.6792    117.9002
  1369.7500      0.0000    776.4384      6.5823    121.4078
  1370.0000      0.0000    774.6074      6.4532    125.7598
  1370.2500      0.0000    777.3676      6.3814    130.9922
  1370.5000      0.0000    785.4608      6.4585    136.8502
  1370.7500      0.0000    796.7590      6.7162    141.5016
  1371.0000      0.0000    807.2990      7.1169    142.1946
  1371.2500      0.0000    814.9689      7.5906    138.0024
  1371.5000      0.0000    821.1945      8.0637    131.1307
  1371.7500      0.0000    828.1561      8.4587    124.9032
  1372.0000      0.0000    835.2801      8.7052    121.1721
  1372.2500      0.0000    839.5742      8.7712    119.9546
  1372.5000      0.0000    838.7725      8.6757    120.4778
  1372.7500      0.0000    832.5963      8.4562    121.8593
  1373.0000      0.0000    820.8615      8.1297    123.2816
  1373.2500      0.0000    802.3141      7.6967    124.2024
  1373.5000      0.0000    776.6797      7.1730    124.6255
  1373.7500      0.0000    746.9479      6.6121    125.1869
  1374.0000      0.0000    718.3582      6.0919    126.7717
  1374.2500      0.0000    695.2063      5.6754    129.6566
  1374.5000      0.0000    678.7501      5.3765    133.0026
  1374.7500      0.0000    667.4699      5.1664    135.3904
  1375.0000      0.0000    658.9459      5.0110    135.8422
  1375.2500      0.0000    652.1502      4.8985    134.4312
  1375.5000      0.0000    648.5709      4.8335    132.1817
  1375.7500      0.0000    650.8103      4.8116    130.2451
  1376.0000      0.0000    659.6420      4.8112    128.8518
  1376.2500      0.0000    672.8641      4.8111    127.2519
  1376.5000      0.0000    687.8173      4.8065    124.7240
  1376.7500      0.0000    704.5733      4.8049    121.2938
  1377.0000      0.0000    725.0289      4.8206    117.3986
  1377.2500      0.0000    748.0897      4.8792    113.1737
  1377.5000      0.0000    766.6584      5.0070    108.3444
  1377.7500      0.0000    771.1713      5.2049    102.8972
  1378.0000      0.0000    757.7614      5.4343     97.6715
  1378.2500      0.0000    733.5906      5.6336     93.9531
  1378.5000      0.0000    712.8156      5.7464     92.2676
  1378.7500      0.0000    705.3004      5.7452     91.5969
  1379.0000      0.0000    708.7344      5.6474     90.1189
  1379.2500      0.0000    712.2705      5.5107     87.0181
  1379.5000      0.0000    707.2494      5.4017     83.3925
  1379.7500      0.0000    694.0078      5.3514     81.1700
  1380.0000      0.0000    679.5007      5.3444     81.4954
  1380.2500      0.0000    669.6531      5.3493     84.3708
  1380.5000      0.0000    664.1182      5.3436     89.3246
  1380.7500      0.0000    657.3746      5.3094     95.9432
  1381.0000      0.0000    643.7139      5.2342    103.6810
  1381.2500      0.0000    622.0082      5.1336    111.2881
  1381.5000      0.0000    597.2116      5.0506    116.7466
  1381.7500      0.0000    576.6132      5.0226    118.3396
  1382.0000      0.0000    563.2946      5.0508    116.0078
  1382.2500      0.0000    554.0837      5.1038    111.3822
  1382.5000      0.0000    544.5115      5.1449    106.5642
  1382.7500      0.0000    534.1074      5.1581    103.2165
  1383.0000      0.0000    525.9349      5.1534    102.2901
  1383.2500      0.0000    522.9977      5.1536    103.4783
  1383.5000      0.0000    526.2427      5.1784    105.0114
  1383.7500      0.0000    534.3175      5.2357    105.0437
  1384.0000      0.0000    543.7702      5.3228    103.3648
  1384.2500      0.0000    551.0388      5.4310    101.2331
  1384.5000      0.0000    556.1065      5.5470     99.9298
  1384.7500      0.0000    563.2665      5.6525     99.9716
  1385.0000      0.0000    576.6064      5.7319    101.0826
  1385.2500      0.0000    595.5648      5.7816    102.3415
  1385.5000      0.0000    616.0312      5.8147    102.7708
  1385.7500      0.0000    633.5248      5.8546    102.1291
  1386.0000      0.0000    643.3008      5.9181    100.8339
  1386.2500      0.0000    640.3760      5.9839     99.2079
  1386.5000      0.0000    624.3911      5.9777     97.3459
  1386.7500      0.0000    604.3357      5.8170     95.5572
  1387.0000      0.0000    594.4114      5.4985     94.3538
  1387.2500      0.0000    602.9765      5.1268     93.9938
  1387.5000      0.0000    625.0524      4.8390     94.3547
  1387.7500      0.0000    645.7867      4.7025     95.1603
  1388.0000      0.0000    652.9452      4.6871     96.1757
  1388.2500     -2.0000    647.3900      4.7088     97.2354
  1388.5000      0.0000    640.6467      4.6883     98.1334
  1388.7500      0.0000    642.6669      4.5948     98.6556
  1389.0000      0.0000    653.6294      4.4678     98.7147
  1389.2500      0.0000    666.4631      4.3968     98.2011
  1389.5000      0.0000    674.2411      4.4507     96.7722
  1389.7500      0.0000    674.9388      4.6153     94.3055
  1390.0000      0.0000    671.7609      4.8096     91.6478
  1390.2500      0.0000    669.9739      4.9574     90.3511
  1390.5000      0.0000    672.2440      5.0299     91.4302
  1390.7500      0.0000    675.2643      5.0377     94.8430
  1391.0000      0.0000    670.9115      5.0042    100.3352
  1391.2500      0.0000    652.9489      4.9548    107.8299
  1391.5000      0.0000    624.2592      4.9120    116.2097
  1391.7500      0.0000    596.1277      4.8867    122.5983
  1392.0000      0.0000    578.6286      4.8763    124.3648
  1392.2500      0.0000    572.0693      4.8763    121.9141
  1392.5000      0.0000    568.5578      4.8831    118.5474
  1392.7500      0.0000    560.9864      4.8881    117.2561
  1393.0000      0.0000    548.9212      4.8804    118.0190
  1393.2500      0.0000    536.3661      4.8515    118.4411
  1393.5000      0.0000    526.6533      4.7975    116.7147
  1393.7500      0.0000    520.7627      4.7290    113.4754
  1394.0000      0.0000    518.5057      4.6769    110.7185
  1394.2500      0.0000    519.0898      4.6787    109.5515
  1394.5000      0.0000    520.7016      4.7490    109.6516
  1394.7500      0.0000    520.8737      4.8635    110.5344
  1395.0000      0.0000    517.9672      4.9722    112.2381
  1395.2500      0.0000    512.7260      5.0317    114.3666
  1395.5000      0.0000    508.9415      5.0291    115.4006
  1395.7500      0.0000    512.6986      4.9825    113.8475
  1396.0000      0.0000    530.1743      4.9192    109.9258
  1396.2500      0.0000    564.2330      4.8609    105.5819
  1396.5000      0.0000    611.0329      4.8276    102.8098
  1396.7500      0.0000    659.9386      4.8358    102.0757
  1397.0000      0.0000    699.0116      4.8862    102.2329
  1397.2500      0.0000    721.9805      4.9635    101.7029
  1397.5000      0.0000    728.9687      5.0433     99.8381
  1397.7500      0.0000    720.5852      5.0952     97.6373
  1398.0000      0.0000    694.3447      5.0940     97.3353
  1398.2500      0.0000    649.5363      5.0387    100.8821
  1398.5000      0.0000    594.0917      4.9613    108.2535
  1398.7500      0.0000    542.5190      4.9096    117.0857
  1399.0000      0.0000    505.6674      4.9102    124.0311
  1399.2500      0.0000    484.4543      4.9485    126.7008
