~Version Information
VERS.                      2.0: CWLS Log ASCII Standard - VERSION 2.0
WRAP.                       NO: One line per depth step
~Well Information Block
STRT.FT                -7.0000: 
STOP.FT              2389.2500: 
STEP.FT                 0.2500: 
NULL.                -999.2500: 
COMP.          Pioneer Natural Resources: COMPANY
WELL.            Victory 12-14: WELL
FLD.           Purgatorie River: FIELD
LOC.           2434' FNL & 188' FWL------: LOCATION
PROV.                       CO: PROVINCE
CNTY.               Las Animas: COUNTRY
SRVC.          Patterson Wireline: SERVICE COMPANY
DATE.          Fri Apr 22 14:29:17 2005: LOG DATE
UWI.           05 071 08332 00: UNIQUE WELL ID
~Curve Information Block
DEPT.FT            0 000 00 00: Depth
CCL.                          : Casing Collar Locator
TT3.usec                      : CBL 3' Travel Time
AMP3.mV                       : CBL 3' Amplitude
GR.GAPI                       : Gamma Ray
~Parameter Information Block
~A  Depth       CCL         TT3         AMP3         GR     
# ...
   160.5000      0.0000    675.2286      7.4756     81.7851
   160.7500      0.0000    713.6367      6.9573     80.7173
   161.0000      0.0000    756.1869      6.4828     77.9273
   161.2500      0.0000    792.3339      6.0992     74.2040
   161.5000      0.0000    818.9001      5.8565     71.3167
   161.7500      0.0000    837.3325      5.7728     71.3922
   162.0000     -2.0000    846.9043      5.8471     75.4080
   162.2500     -2.0000    842.0669      6.1101     82.2680
   162.5000      0.0000    816.1580      6.6533     89.6475
   162.7500      0.0000    765.8177      7.5683     95.6849
   163.0000      0.0000    693.2116      8.7987     99.9319
   163.2500      0.0000    609.1916     10.0596    103.0250
   163.5000      0.0000    534.5211     10.9839    105.4675
   163.7500      0.0000    491.2387     11.3863    106.6787
   164.0000      0.0000    488.5409     11.3556    105.4971
   164.2500      0.0000    518.4703     11.1088    101.6010
   164.5000      0.0000    564.8875     10.8166     95.9459
   164.7500      0.0000    613.5790     10.5533     89.8749
   165.0000      0.0000    655.4412     10.3306     84.4980
   165.2500      0.0000    686.3909     10.1315     80.9179
   165.5000      0.0000    707.2516      9.9294     80.1596
   165.7500      0.0000    722.2703      9.7000     82.2421
   166.0000      0.0000    736.1477      9.4268     85.5102
   166.2500      0.0000    751.6813      9.1019     87.4019
   166.5000      0.0000    769.2175      8.7331     86.2312
   166.7500      0.0000    787.9265      8.3539     82.4614
   167.0000      0.0000    807.4919      8.0218     78.4362
   167.2500      0.0000    828.3555      7.7887     76.7652
   167.5000      0.0000    849.8981      7.6673     78.5533
   167.7500      0.0000    869.1124      7.6278     82.7952
   168.0000      0.0000    882.4801      7.6263     87.2387
   168.2500      0.0000    889.6367      7.6303     89.8996
   168.5000      0.0000    893.8671      7.6198     90.2035
   168.7500      0.0000    898.1530      7.5788     89.1546
   169.0000      0.0000    901.4905      7.4962     88.5365
   169.2500      0.0000    899.9351      7.3752     89.6658
   169.5000      0.0000    890.9512      7.2410     92.6493
   169.7500      0.0000    876.6513      7.1368     96.7233
   170.0000      0.0000    863.2011      7.1051    100.9775
   170.2500      0.0000    856.7603      7.1624    104.5264
   170.5000      0.0000    858.8849      7.2895    106.4003
   170.7500      0.0000    864.6018      7.4466    105.8654
   171.0000      0.0000    864.6382      7.5966    102.8385
   171.2500      0.0000    851.1677      7.7157     97.9017
   171.5000      0.0000    823.7933      7.7911     92.0713
   171.7500      0.0000    791.2325      7.8213     86.4867
   172.0000      0.0000    766.1483      7.8199     81.9599
   172.2500      0.0000    756.1419      7.8135     78.6339
   172.5000      0.0000    758.4084      7.8318     76.1867
   172.7500      0.0000    763.5566      7.8936     74.4477
   173.0000      0.0000    764.9263      7.9954     73.7025
   173.2500      0.0000    763.0718      8.1096     74.2789
   173.5000      0.0000    760.8876      8.1971     76.0003
   173.7500      0.0000    757.6938      8.2245     78.2798
   174.0000      0.0000    750.8019      8.1771     80.6532
   174.2500      0.0000    740.4924      8.0633     82.9401
   174.5000      0.0000    730.1091      7.9150     84.9790
   174.7500      0.0000    722.2060      7.7817     86.5694
   175.0000      0.0000    717.0389      7.7095     87.6910
   175.2500      0.0000    714.1655      7.7130     88.6209
   175.5000      0.0000    713.4717      7.7618     89.7971
   175.7500      0.0000    714.6758      7.8005     91.5180
   176.0000      0.0000    717.1369      7.7871     93.5969
   176.2500      0.0000    720.5128      7.7146     95.2607
   176.5000      0.0000    724.8927      7.6004     95.5394
   176.7500      0.0000    730.2182      7.4676     93.9508
   177.0000      0.0000    736.5172      7.3437     90.8704
   177.2500      0.0000    744.7426      7.2672     87.2475
   177.5000      0.0000    755.6309      7.2740     84.0483
   177.7500      0.0000    766.7825      7.3643     81.9751
   178.0000      0.0000    772.6552      7.4880     81.4211
   178.2500      0.0000    769.4236      7.5708     82.3291
   178.5000      0.0000    759.1466      7.5572     84.1493
   178.7500      0.0000    747.9272      7.4389     86.1917
   179.0000      0.0000    740.7255      7.2538     88.0379
   179.2500      0.0000    738.5568      7.0661     89.5926
   179.5000      0.0000    739.5130      6.9375     90.9470
   179.7500      0.0000    741.2326      6.8993     92.2286
   180.0000      0.0000    742.4365      6.9427     93.3813
   180.2500      0.0000    742.9351      7.0301     94.1791
   180.5000      0.0000    742.9548      7.1165     94.7291
   180.7500      0.0000    742.6906      7.1653     95.7893
   181.0000      0.0000    742.2689      7.1581     98.0585
   181.2500      0.0000    741.8028      7.0998    101.1101
   181.5000      0.0000    741.4081      7.0209    103.5369
   181.7500      0.0000    741.1927      6.9645    104.4123
   182.0000      0.0000    741.2241      6.9607    104.2679
   182.2500      0.0000    741.4865      7.0047    104.2591
   182.5000      0.0000    741.8638      7.0617    104.5873
   182.7500      0.0000    742.1998      7.0943    104.1133
   183.0000      0.0000    742.4066      7.0902    101.5420
   183.2500      0.0000    742.6388      7.0703     96.8962
   183.5000      0.0000    743.4887      7.0716     91.8154
   183.7500      0.0000    746.0696      7.1181     88.2997
   184.0000      0.0000    751.5165      7.2004     87.0665
   184.2500      0.0000    759.5754      7.2795     87.1157
   184.5000      0.0000    767.3645      7.3098     86.8181
   184.7500      0.0000    770.5938      7.2611     85.3891
   185.0000      0.0000    767.2009      7.1297     83.2324
   185.2500      0.0000    759.4156      6.9419     80.8896
   185.5000      0.0000    751.5542      6.7515     78.1743
   185.7500      0.0000    746.4229      6.6258     74.8168
   186.0000      0.0000    744.2958      6.6180     71.4055
   186.2500      0.0000    744.3217      6.7427     68.8718
   186.5000      0.0000    745.8049      6.9696     67.2267
   186.7500      0.0000    748.1820      7.2347     65.5242
   187.0000      0.0000    750.4501      7.4610     63.1705
   187.2500      0.0000    751.3220      7.5877     60.7472
   187.5000      0.0000    750.2290      7.6017     59.2694
   187.7500      0.0000    747.9103      7.5468     58.9058
   188.0000      0.0000    745.6885      7.4933     58.7828
   188.2500      0.0000    744.3592      7.4902     57.8677
   188.5000      0.0000    743.9089      7.5365     55.7134
   188.7500      0.0000    743.9645      7.5910     52.5811
   189.0000      0.0000    744.2065      7.6054     49.2517
   189.2500      0.0000    744.4570      7.5592     46.6792
   189.5000      0.0000    744.6162      7.4745     45.5651
   189.7500      0.0000    744.6260      7.3965     46.1285
   190.0000      0.0000    744.4796      7.3547     48.0485
   190.2500      0.0000    744.2382      7.3398     50.5306
   190.5000      0.0000    743.9912      7.3170     52.7332
   190.7500      0.0000    743.7963      7.2570     54.3555
   191.0000      0.0000    743.6614      7.1526     55.5323
   191.2500      0.0000    743.5745      7.0184     56.1373
   191.5000      0.0000    743.5318      6.8830     55.7565
   191.7500      0.0000    743.5476      6.7800     54.5093
   192.0000      0.0000    743.6562      6.7330     53.3654
   192.2500      0.0000    743.9013      6.7400     53.3914
   192.5000      0.0000    744.2986      6.7714     54.9655
   192.7500      0.0000    744.7938      6.7883     57.6503
   193.0000      0.0000    745.2615      6.7678     60.3381
   193.2500      0.0000    745.5623      6.7176     61.5062
   193.5000      0.0000    745.6193      6.6692     59.9976
   193.7500      0.0000    745.4584      6.6551     56.0483
