~Version Information
VERS.                      2.0: CWLS Log ASCII Standard - VERSION 2.0
WRAP.                       NO: One line per depth step
~Well Information Block
STRT.FT                 0.0000: 
STOP.FT              2234.2500: 
STEP.FT                 0.2500: 
NULL.                -999.2500: 
COMP.          Pioner Natural Resources: COMPANY
WELL.          Casablanca 11-28 Tr: WELL
FLD.           Purgatoire River: FIELD
LOC.           422' FNL & 215' FWL--: LOCATION
PROV.                 Colorado: PROVINCE
CNTY.               Las Animas: COUNTRY
SRVC.                         : SERVICE COMPANY
DATE.          Fri Mar 11 13:02:46 2005: LOG DATE
UWI.           005 071 08314  : UNIQUE WELL ID
~Curve Information Block
DEPT.FT            0 000 00 00: Depth
CCL.                          : Casing Collar Locator
TT3.usec                      : CBL 3' Travel Time
AMP3.mV                       : CBL 3' Amplitude
AMP5.mV                       : CBL 5' Amplitude
GR.GAPI                       : Gamma Ray
~Parameter Information Block
~A  Depth       CCL         TT3         AMP3        AMP5         GR     
# ...
   588.0000      0.0000    793.6303      4.5111     -1.3539    121.5717
   588.2500      0.0000    796.6975      4.3652     -1.6150    122.5851
   588.5000      0.0000    797.5598      4.2610     -1.5280    120.6073
   588.7500      0.0000    797.3689      4.2138     -2.0503    115.7997
   589.0000      0.0000    796.1819      4.2103     -1.9632    109.7138
   589.2500      0.0000    793.4890      4.2269     -1.3539    104.3425
   589.5000      0.0000    788.8655      4.2493     -1.4409    100.8644
   589.7500      0.0000    782.2701      4.2812     -1.4409     99.0270
   590.0000      0.0000    773.4390      4.3361     -1.9632     97.7397
   590.2500      0.0000    761.3688      4.4185     -1.7021     96.3348
   590.5000      0.0000    746.0405      4.5177     -2.4855     95.0414
   590.7500      0.0000    731.2991      4.6202     -2.2244     94.4034
   591.0000      0.0000    723.9854      4.7230     -2.0503     94.7687
   591.2500      0.0000    727.9067      4.8342     -2.0503     96.2121
   591.5000      0.0000    739.2968      4.9598     -2.2244     98.1326
   591.7500      0.0000    750.3123      5.0892     -1.9632     98.7719
   592.0000      0.0000    756.9883      5.1986     -1.5280     96.0634
   592.2500      0.0000    761.9066      5.2755     -2.0503     89.4632
   592.5000      0.0000    768.9144      5.3369     -1.8762     80.5638
   592.7500      0.0000    777.4915      5.4144     -2.4855     71.8243
   593.0000      0.0000    783.1349      5.5263     -2.3984     65.1022
   593.2500      0.0000    781.5013      5.6677     -2.4855     61.1949
   593.5000      5.0000    771.7393      5.8200     -2.1373     59.9143
   593.7500      0.0000    757.9080      5.9646     -2.0503     60.2336
   594.0000      0.0000    747.7871      6.0942     -2.2244     60.8721
   594.2500      0.0000    747.9545      6.2071     -1.5280     61.1636
   594.5000      0.0000    758.5090      6.2862     -2.3984     61.3054
   594.7500      0.0000    773.3552      6.2980     -2.7466     61.7977
   595.0000      0.0000    785.8494      6.2321     -2.2244     62.7375
   595.2500      0.0000    793.2728      6.1284     -2.0503     63.4403
   595.5000      0.0000    796.5507      6.0525     -1.3539     62.7496
   595.7500      0.0000    797.6504      6.0541     -1.8762     60.2397
   596.0000      0.0000    797.9337      6.1465     -0.3093     57.0988
   596.2500      0.0000    797.9912      6.2964     -1.0927     55.1952
   596.5000      0.0000    798.0000      6.4338      0.2129     55.3089
   596.7500      0.0000    798.0000      6.4966      0.3870     56.7767
   597.0000      0.0000    798.0000      6.4775     -0.6575     58.6264
   597.2500      0.0000    798.0000      6.4258     -0.4834     60.3970
   597.5000      0.0000    797.9985      6.4041      0.6482     61.8939
   597.7500      0.0000    797.9905      6.4427     -0.0482     62.7699
   598.0000      0.0000    797.9520      6.5256      0.8223     62.6336
   598.2500      0.0000    797.8102      6.6110      0.6482     61.3192
   598.5000      0.0000    797.4153      6.6684      1.4316     58.9873
   598.7500      0.0000    796.5973      6.6965      0.9093     56.3050
   599.0000      0.0000    795.3793      6.7105      2.0409     54.4474
   599.2500      0.0000    794.1870      6.7196      2.3891     54.2720
   599.5000      0.0000    793.6793      6.7238      2.8243     55.3353
   599.7500      0.0000    794.1870      6.7247      2.6503     56.2238
   600.0000      0.0000    795.3793      6.7280      2.9114     55.9790
   600.2500      0.0000    796.5973      6.7345      2.1280     54.8676
   600.5000      0.0000    797.4153      6.7340      1.9539     53.8101
   600.7500      0.0000    797.8102      6.7067      1.4316     53.4463
   601.0000      0.0000    797.9520      6.6355      1.2575     53.8691
   601.2500      0.0000    797.9905      6.5208      1.0834     55.0731
   601.5000      0.0000    797.9985      6.3843      1.3446     57.4220
   601.7500      0.0000    798.0000      6.2542      1.6927     61.4552
   602.0000      0.0000    798.0000      6.1444      1.7798     67.2551
   602.2500      0.0000    798.0000      6.0469      1.5186     74.2069
   602.5000      0.0000    798.0000      5.9448      1.4316     81.3877
   602.7500      0.0000    798.0000      5.8323      1.6057     88.0977
   603.0000      0.0000    798.0000      5.7199      1.3446     94.0470
   603.2500      0.0000    798.0000      5.6230      1.6057     99.1341
   603.5000      0.0000    798.0000      5.5488      0.9964    103.1310
   603.7500      0.0000    798.0000      5.4921      0.9964    105.6491
   604.0000      0.0000    798.0000      5.4390      0.7352    106.4398
   604.2500      0.0000    798.0000      5.3753      0.0389    105.8624
   604.5000      0.0000    798.0000      5.2986     -0.3093    105.1426
   604.7500      0.0000    798.0000      5.2210     -0.3964    105.8208
   605.0000      0.0000    798.0000      5.1600     -0.1352    108.5210
   605.2500      0.0000    798.0000      5.1254     -0.1352    112.2255
   605.5000      0.0000    798.0000      5.1148     -0.6575    114.9248
   605.7500      0.0000    798.0000      5.1182     -0.4834    115.0910
   606.0000      0.0000    797.9986      5.1255     -0.6575    112.7171
   606.2500      0.0000    797.9889      5.1313     -0.1352    109.1861
   606.5000      0.0000    797.9409      5.1384      0.3000    106.2182
   606.7500      0.0000    797.7510      5.1584      0.3000    104.8103
   607.0000      0.0000    797.1719      5.2073     -0.0482    104.8176
   607.2500      0.0000    795.8098      5.2959     -0.1352    105.2984
   607.5000      0.0000    793.3487      5.4219      0.7352    105.3255
   607.7500      0.0000    789.9378      5.5697      0.6482    104.6805
   608.0000      0.0000    786.2714      5.7158     -0.1352    103.9096
   608.2500      0.0000    783.0716      5.8339      0.2129    103.7714
   608.5000      0.0000    780.5834      5.9005      0.3870    104.6414
   608.7500      0.0000    778.8546      5.9093      1.3446    106.2742
   609.0000      0.0000    778.3470      5.8805      0.1259    107.9470
   609.2500      0.0000    779.7849      5.8523      1.7798    108.8877
   609.5000      0.0000    783.2631      5.8575      2.1280    108.6770
   609.7500      0.0000    787.7332      5.9041      1.0834    107.3422
   610.0000      0.0000    791.4836      5.9690      1.1705    105.3572
   610.2500      0.0000    793.0815      6.0095      0.7352    103.7654
   610.5000      0.0000    791.9770      5.9957      2.2150    103.9490
   610.7500      0.0000    788.5416      5.9412      1.6927    106.8052
   611.0000      0.0000    783.6979      5.9002      2.6503    111.9018
   611.2500      0.0000    778.1745      5.9253      2.0409    117.4354
   611.5000      0.0000    771.9110      6.0263      1.9539    121.2173
   611.7500      0.0000    764.4687      6.1613      1.6927    122.0458
   612.0000      0.0000    756.3258      6.2598      0.5611    120.2562
   612.2500      0.0000    749.5062      6.2626      1.9539    116.9573
   612.5000      0.0000    746.5139      6.1551      2.4762    113.1199
   612.7500      0.0000    748.4987      5.9751      1.8668    109.6398
   613.0000      0.0000    754.3381      5.7860      1.8668    107.7486
   613.2500      0.0000    761.4039      5.6400      2.1280    108.4280
   613.5000      0.0000    767.4255      5.5583      2.4762    111.0991
   613.7500      0.0000    771.8347      5.5365      2.0409    113.4448
   614.0000      0.0000    775.4506      5.5580      1.7798    113.1001
   614.2500      0.0000    779.1758      5.5979     -0.0482    109.5485
   614.5000      0.0000    783.2219      5.6249      0.2129    104.1806
   614.7500      0.0000    787.2703      5.6119      0.3000     98.6929
   615.0000      0.0000    790.8361      5.5539     -0.5705     93.8073
   615.2500      0.0000    793.3498      5.4758     -0.2223     89.6606
   615.5000      0.0000    794.2816      5.4237      0.6482     86.8324
   615.7500      0.0000    793.4417      5.4473      0.3870     86.0848
