~Version Information
VERS.                      2.0: CWLS Log ASCII Standard - VERSION 2.0
WRAP.                       NO: One line per depth step
~Well Information Block
STRT.FT                -7.5000: 
STOP.FT              1877.2500: 
STEP.FT                 0.2500: 
NULL.                -999.2500: 
COMP.          Pioneer Natural Resources: COMPANY
WELL.            Nova 11-14 Tr: WELL
FLD.           Purgatorie River: FIELD
LOC.           706' FNL & 1109' FWL--: LOCATION
PROV.                       CO: PROVINCE
CNTY.               Las Animas: COUNTRY
SRVC.          Patterson Wireline: SERVICE COMPANY
DATE.          Tue Jul 26 15:08:01 2005: LOG DATE
UWI.           05 071 08434 00: UNIQUE WELL ID
~Curve Information Block
DEPT.FT            0 000 00 00: Depth
CCL.                          : Casing Collar Locator
TT3.usec                      : CBL 3' Travel Time
AMP3.mV                       : CBL 3' Amplitude
GR.GAPI                       : Gamma Ray
~Parameter Information Block
~A  Depth       CCL         TT3         AMP3         GR     
# ...
   964.0000      0.0000    845.1986      9.5746    111.0403
   964.2500      0.0000    844.7895      9.5390    115.0142
   964.5000      0.0000    843.5070      9.5286    122.1660
   964.7500      0.0000    840.8383      9.5331    131.4277
   965.0000      0.0000    836.9046      9.5455    141.1009
   965.2500      0.0000    833.0914      9.5643    149.0486
   965.5000      0.0000    831.4913      9.5899    153.6182
   965.7500      0.0000    833.1279      9.6256    154.4495
   966.0000      0.0000    836.9225      9.6849    152.2926
   966.2500      0.0000    840.7735      9.7872    148.2193
   966.5000      0.0000    843.3447      9.9406    143.2597
   966.7500      0.0000    844.5852     10.1260    138.6710
   967.0000      0.0000    845.0416     10.3048    135.9366
   967.2500      0.0000    845.1721     10.4436    135.9173
   967.5000      0.0000    845.1764     10.5334    138.1129
   967.7500      0.0000    845.0496     10.5861    141.1303
   968.0000      0.0000    844.5720     10.6204    143.6981
   968.2500      0.0000    843.2450     10.6497    145.0644
   968.5000      0.0000    840.4313     10.6790    144.8954
   968.7500      0.0000    835.9592     10.7134    143.2867
   969.0000      0.0000    830.6445     10.7624    140.8258
   969.2500      0.0000    825.6500     10.8276    138.4404
   969.5000      0.0000    820.9576     10.8833    136.8923
   969.7500      0.0000    815.1922     10.8828    136.0735
   970.0000      0.0000    807.6854     10.7894    134.7315
   970.2500      0.0000    800.1979     10.6060    131.2857
   970.5000      0.0000    795.8292     10.3753    125.3341
   970.7500      0.0000    796.3272     10.1525    118.2825
   971.0000      0.0000    800.7434      9.9731    112.1911
   971.2500      0.0000    806.4401      9.8415    108.1367
   971.5000      0.0000    811.1033      9.7437    106.1088
   971.7500      0.0000    813.9926      9.6681    106.1661
   972.0000      0.0000    815.7530      9.6129    108.7876
   972.2500      0.0000    817.5065      9.5784    113.9552
   972.5000      0.0000    820.3020      9.5586    120.5662
   972.7500      0.0000    824.7760      9.5474    126.8722
   973.0000      0.0000    830.5798      9.5510    131.2843
   973.2500      0.0000    836.3570      9.5872    133.2258
   973.5000      0.0000    840.7568      9.6648    133.6042
   973.7500      0.0000    843.3802      9.7653    133.9307
   974.0000      0.0000    844.6743      9.8537    134.6708
   974.2500      0.0000    845.2560      9.9138    134.8915
   974.5000      0.0000    845.5028      9.9615    133.7389
   974.7500      0.0000    845.5071     10.0187    131.7821
   975.0000      0.0000    845.0958     10.0835    130.5082
   975.2500      0.0000    843.7666     10.1349    130.4964
   975.5000      0.0000    840.6772     10.1620    130.3295
   975.7500      0.0000    835.0427     10.1802    127.7478
   976.0000      0.0000    826.9888     10.2205    122.0496
   976.2500      0.0000    818.2125     10.3049    114.9902
   976.5000      0.0000    811.6148     10.4277    109.1066
   976.7500      0.0000    809.8708     10.5588    105.4167
   977.0000      0.0000    813.7870     10.6651    102.9421
   977.2500      0.0000    821.6040     10.7301    100.0880
   977.5000      0.0000    830.0233     10.7533     96.0385
   977.7500      0.0000    836.2936     10.7395     91.0636
   978.0000      0.0000    839.4896     10.6953     86.0614
   978.2500      0.0000    840.0732     10.6341     81.8799
   978.5000      0.0000    838.8334     10.5746     78.7476
   978.7500      0.0000    836.5600     10.5288     76.2576
   979.0000      0.0000    834.3685     10.4925     74.0477
   979.2500      0.0000    833.5654     10.4509     72.3275
   979.5000      0.0000    834.7296     10.3913     71.5341
   979.7500      0.0000    837.0807     10.3118     71.8099
   980.0000      0.0000    838.9435     10.2181     73.0220
   980.2500      0.0000    838.4402     10.1067     74.9515
   980.5000      0.0000    833.4459      9.9467     77.2759
   980.7500      0.0000    821.4999      9.6809     79.5665
   981.0000      0.0000    801.1279      9.2723     81.3017
   981.2500      0.0000    774.6458      8.7741     81.7668
   981.5000      0.0000    749.9306      8.3360     80.2463
   981.7500      0.0000    737.7913      8.0891     76.7268
   982.0000      0.0000    744.8987      8.0225     72.3967
   982.2500      0.0000    767.9449      8.0166     69.1386
   982.5000      0.0000    795.5345      7.9828     68.2132
   982.7500      0.0000    817.3240      7.9218     69.1800
   983.0000      0.0000    832.5372      7.8703     70.1299
   983.2500     -2.0000    849.6909      7.8548     69.3363
   983.5000      0.0000    876.1699      7.9014     66.8884
   983.7500      0.0000    906.3923      8.0647     64.5118
   984.0000      0.0000    922.0246      8.4308     63.7906
   984.2500      0.0000    907.6671      9.0530     64.8435
   984.5000      0.0000    866.6728      9.8408     66.5756
   984.7500      0.0000    818.8746     10.5491     67.7762
   985.0000      0.0000    783.7967     10.9497     67.9514
   985.2500      0.0000    769.0044     11.0096     67.4255
   985.5000      0.0000    771.7886     10.8661     66.7932
   985.7500      0.0000    785.5276     10.6693     66.2985
   986.0000      0.0000    803.0423     10.4952     65.9117
   986.2500      0.0000    818.2073     10.3659     66.0121
   986.5000      0.0000    827.7953     10.2920     67.3711
   986.7500      0.0000    831.8843     10.2849     70.0478
   987.0000      0.0000    832.1174     10.3482     72.8639
   987.2500      0.0000    830.2090     10.4685     74.5968
   987.5000      0.0000    828.0340     10.6150     75.4322
   987.7500      0.0000    827.7280     10.7494     76.6227
   988.0000      0.0000    830.5114     10.8382     78.7793
   988.2500      0.0000    835.6175     10.8617     80.9525
   988.5000      0.0000    840.9504     10.8189     81.5707
   988.7500      0.0000    844.7787     10.7285     80.1060
   989.0000      0.0000    846.6760     10.6235     77.5453
   989.2500      0.0000    847.1612     10.5349     75.2438
   989.5000      0.0000    846.9296     10.4777     73.7834
   989.7500      0.0000    846.4500     10.4487     73.1317
   990.0000      0.0000    845.9579     10.4363     73.3369
   990.2500      0.0000    845.5590     10.4288     74.5840
   990.5000      0.0000    845.2896     10.4166     76.7738
   990.7500      0.0000    845.1447     10.3928     79.3191
   991.0000      0.0000    845.0953     10.3558     81.3364
   991.2500      0.0000    845.0979     10.3104     82.0633
   991.5000      0.0000    845.0853     10.2662     81.2704
   991.7500      0.0000    844.8951     10.2351     79.3680
   992.0000      0.0000    844.0888     10.2242     77.1503
   992.2500      0.0000    841.7142     10.2286     75.4483
   992.5000      0.0000    836.4187     10.2329     74.9635
   992.7500      0.0000    827.5788     10.2268     76.1862
   993.0000      0.0000    817.1010     10.2153     79.1863
   993.2500      0.0000    809.6252     10.2086     83.3904
   993.5000      0.0000    809.4240     10.2045     87.6797
   993.7500      0.0000    816.5467     10.1877     90.8197
   994.0000      0.0000    826.7742     10.1473     91.9072
   994.2500      0.0000    835.4521     10.0897     90.6167
   994.5000      0.0000    840.6539     10.0362     87.2665
   994.7500      0.0000    843.0221     10.0090     82.6651
   995.0000      0.0000    843.9412     10.0166     77.8594
   995.2500      0.0000    844.3605     10.0484     73.9047
   995.5000      0.0000    844.6670     10.0857     71.4801
   995.7500      0.0000    844.9448     10.1171     70.3136
   996.0000      0.0000    845.1859     10.1429     69.1626
   996.2500      0.0000    845.3775     10.1659     66.8192
   996.5000      0.0000    845.5201     10.1852     63.3457
   996.7500      0.0000    845.6251     10.1993     60.1883
   997.0000      0.0000    845.7095     10.2117     58.8303
   997.2500      0.0000    845.8047     10.2283     59.3995
