~Version Information
VERS.                      2.0: CWLS Log ASCII Standard - VERSION 2.0
WRAP.                       NO: One line per depth step
~Well Information Block
STRT.FT               453.5000: 
STOP.FT              1386.0000: 
STEP.FT                 0.1000: 
NULL.                -999.2500: 
COMP.          Petrogulf Corporation: COMPANY
WELL.          Great Plains 22-22R: WELL
FLD.           Purgatoire River: FIELD
LOC.           2042' FNL & 1657' FWL--: LOCATION
PROV.                 Colorado: PROVINCE
CNTY.               Las Animas: COUNTRY
SRVC.                Patterson: SERVICE COMPANY
DATE.          Fri Sep 09 14:42:42 2005: LOG DATE
UWI.           05 071 08028 00: UNIQUE WELL ID
~Curve Information Block
DEPT.FT            0 000 00 00: Depth
DCAL.in                       : CDL Caliper
RHOB.g/cc                     : CDL Bulk Density
RHOC.g/cc                     : CDL Density Correction
DPOR.pu                       : CDL Density Porosity
NPOR.pu                       : Neutron Porosity
GR.GAPI                       : Gamma Ray
~Parameter Information Block
~A  Depth       DCAL        RHOB        RHOC        DPOR        NPOR         GR     
# ...
   703.1000      8.1176      2.4884      0.0539      9.7951     19.0600     59.6436
   703.2000      8.1176      2.4812     -0.0002     10.2319     18.6822     61.2180
   703.3000      8.0963      2.4838      0.0420     10.0718     18.4415     61.5672
   703.4000      8.0963      2.4838      0.0421     10.0756     18.3772     61.6763
   703.5000      8.0712      2.4712      0.0407     10.8343     18.2856     63.8931
   703.6000      8.0712      2.4573     -0.0014     11.6759     18.1062     65.9193
   703.7000      8.0712      2.4587     -0.0008     11.5919     17.5312     65.4826
   703.8000      8.0521      2.4743      0.0299     10.6513     16.6312     63.3194
   703.9000      8.0521      2.4876      0.0679      9.8409     16.1825     59.7600
   704.0000      8.0441      2.4931      0.0007      9.5091     16.5190     56.0462
   704.1000      8.0441      2.4962      0.0342      9.3230     17.3292     55.2116
   704.2000      8.0441      2.4965      0.0437      9.3010     18.2930     56.3942
   704.3000      8.0416      2.4913      0.0496      9.6203     18.8576     55.6131
   704.4000      8.0416      2.4801      0.0232     10.2940     18.1585     55.0509
   704.5000      8.0371      2.4723      0.0072     10.7726     16.4515     57.3247
   704.6000      8.0371      2.4789      0.0243     10.3704     15.1481     56.5495
   704.7000      8.0371      2.4976      0.0362      9.2350     14.7924     50.8950
   704.8000      8.0296      2.5160      0.0513      8.1206     14.8595     48.1193
   704.9000      8.0296      2.5248      0.0592      7.5892     14.8537     51.9356
   705.0000      8.0224      2.5259      0.0385      7.5215     14.5927     55.3731
   705.1000      8.0224      2.5222      0.0733      7.7454     14.0438     52.1574
   705.2000      8.0224      2.5107      0.0281      8.4406     13.3167     45.9854
   705.3000      8.0147      2.4973     -0.0202      9.2528     12.6582     41.0723
   705.4000      8.0147      2.4957     -0.0216      9.3537     12.2706     37.2531
   705.5000      8.0049      2.5095      0.0021      8.5145     12.2890     34.3290
   705.6000      8.0049      2.5303      0.0335      7.2552     12.7396     33.1426
   705.7000      8.0049      2.5486      0.0409      6.1468     13.2151     35.3001
   705.8000      7.9989      2.5612      0.0271      5.3839     13.4763     39.9619
   705.9000      7.9989      2.5691      0.0236      4.9060     13.7373     44.0479
   706.0000      7.9990      2.5722      0.0232      4.7138     14.2061     47.1887
   706.1000      7.9990      2.5685      0.0500      4.9378     14.9571     50.8999
   706.2000      7.9990      2.5671      0.0162      5.0230     16.0417     55.0805
   706.3000      8.0055      2.5811      0.0233      4.1749     17.4988     59.0530
   706.4000      8.0055      2.6058      0.0144      2.6777     18.8655     63.9163
   706.5000      8.0166      2.6254      0.0898      1.4901     19.7196     72.2740
   706.6000      8.0166      2.6244      0.0787      1.5496     20.5924     82.3601
   706.7000      8.0166      2.6032      0.0733      2.8374     21.7122     89.4275
   706.8000      8.0229      2.5832      0.0341      4.0494     22.7082     92.9522
   706.9000      8.0229      2.5839      0.0376      4.0073     23.8865     96.8222
   707.0000      8.0230      2.6058      0.0171      2.6794     25.2980    106.3432
   707.1000      8.0230      2.6404      0.0513      0.5843     26.2741    118.5172
   707.2000      8.0230      2.6760      0.0892     -1.5740     26.8235    123.8712
   707.3000      8.0224      2.6967      0.1151     -2.8326     27.6654    122.5164
   707.4000      8.0224      2.6890      0.0989     -2.3609     28.7351    123.6979
   707.5000      8.0238      2.6588      0.0352     -0.5340     29.0855    131.8410
   707.6000      8.0238      2.6300      0.0370      1.2135     28.4862    141.7755
   707.7000      8.0238      2.6087      0.0596      2.5048     27.8025    146.7533
   707.8000      8.0316      2.5853      0.0126      3.9230     27.5112    143.9825
   707.9000      8.0316      2.5655     -0.0027      5.1213     27.2441    133.8493
   708.0000      8.0481      2.5631      0.0076      5.2640     26.6769    120.9452
   708.1000      8.0481      2.5813      0.0024      4.1629     25.9070    111.8057
   708.2000      8.0481      2.6018      0.0578      2.9211     25.1610    108.6227
   708.3000      8.0573      2.5996      0.0669      3.0543     24.6497    108.6370
   708.4000      8.0573      2.5821      0.0281      4.1128     24.4085    109.7987
   708.5000      8.0455      2.5751      0.0225      4.5417     24.1520    111.9043
   708.6000      8.0455      2.5783      0.0357      4.3475     23.9722    114.4285
   708.7000      8.0455      2.5742      0.0263      4.5938     24.4066    114.7096
   708.8000      8.0224      2.5543     -0.0089      5.8004     25.3995    112.4848
   708.9000      8.0224      2.5210     -0.0145      7.8159     26.3450    112.0082
   709.0000      8.0067      2.4900     -0.0464      9.6957     26.9673    116.0017
   709.1000      8.0067      2.4744     -0.0054     10.6428     27.5626    118.3371
   709.2000      8.0067      2.4675     -0.0452     11.0628     28.5515    113.2560
   709.3000      8.0109      2.4658     -0.0284     11.1609     29.8114    107.2675
   709.4000      8.0109      2.4731     -0.0110     10.7193     30.9682    109.3150
   709.5000      8.0355      2.4789      0.0404     10.3715     31.8173    120.7039
   709.6000      8.0355      2.4693      0.0339     10.9529     32.1365    136.5881
   709.7000      8.0355      2.4520     -0.0085     11.9994     31.9293    148.4031
   709.8000      8.0751      2.4300      0.0689     13.3326     31.6219    148.8693
   709.9000      8.0751      2.3844      0.0565     16.0956     31.8670    139.5897
   710.0000      8.1212      2.3133      0.0178     20.4066     33.0760    131.8145
   710.1000      8.1212      2.2353     -0.0045     25.1339     34.7668    129.0728
   710.2000      8.1212      2.1576     -0.0348     29.8414     35.9081    123.8493
   710.3000      8.1654      2.0747     -0.0749     34.8638     35.9220    113.6529
   710.4000      8.1654      1.9856     -0.1021     40.2657     35.2205    104.1465
   710.5000      8.2014      1.8919     -0.0961     45.9474     34.8612     99.0292
   710.6000      8.2014      1.7919     -0.0887     52.0048     35.1038     96.0696
   710.7000      8.2014      1.6962     -0.1286     57.8048     35.4138     92.2507
   710.8000      8.2266      1.6321     -0.0699     61.6918     35.4888     88.0720
   710.9000      8.2266      1.6171     -0.0008     62.5979     35.1654     84.2000
   711.0000      8.2431      1.6502      0.0306     60.5941     34.4340     80.3289
   711.1000      8.2431      1.7237      0.0441     56.1364     33.5124     80.5688
   711.2000      8.2431      1.8295      0.1062     49.7288     32.4488     86.9166
   711.3000      8.2581      1.9534      0.2058     42.2208     31.4447     93.8363
   711.4000      8.2581      2.0722      0.2754     35.0169     30.5594     98.3842
   711.5000      8.2690      2.1745      0.2297     28.8168     29.6271    101.8206
   711.6000      8.2690      2.2690      0.2183     23.0926     28.7356    105.4056
   711.7000      8.2690      2.3571      0.2095     17.7493     27.7364    107.4777
   711.8000      8.2304      2.4298      0.1755     13.3443     26.6369    107.7904
   711.9000      8.2304      2.4868      0.1308      9.8889     25.8945    108.8913
   712.0000      8.1364      2.5400      0.0189      6.6690     25.4224    110.9867
   712.1000      8.1364      2.5865      0.0660      3.8477     25.1371    113.2923
   712.2000      8.1364      2.6014      0.0536      2.9462     25.3036    114.9863
   712.3000      8.0711      2.5835      0.0340      4.0311     25.5545    118.5171
   712.4000      8.0711      2.5620      0.0052      5.3308     25.4203    121.3325
   712.5000      8.0539      2.5556      0.0190      5.7215     25.2082    120.8713
   712.6000      8.0539      2.5631      0.0082      5.2684     25.1838    123.9121
