~Version Information
VERS.                      2.0: CWLS Log ASCII Standard - VERSION 2.0
WRAP.                       NO: One line per depth step
~Well Information Block
STRT.FT               650.0000: 
STOP.FT              1080.5000: 
STEP.FT                 0.1000: 
NULL.                -999.2500: 
COMP.          Pioneer Natural Resources: COMPANY
WELL.            Galileo 21-11: WELL
FLD.           Purgatoire River: FIELD
LOC.           407' FNL & 2394' FWL: LOCATION
PROV.                 Colorado: PROVINCE
CNTY.               Las Animas: COUNTRY
SRVC.                Patterson: SERVICE COMPANY
DATE.          Mon Apr 11 16:20:08 2005: LOG DATE
UWI.           05 071 08353 00: UNIQUE WELL ID
~Curve Information Block
DEPT.FT            0 000 00 00: Depth
DCAL.in                       : CDL Caliper
RHOB.g/cc                     : CDL Bulk Density
RHOC.g/cc                     : CDL Density Correction
DPOR.pu                       : CDL Density Porosity
GR.GAPI                       : Gamma Ray
NPOR.pu                       : Neutron Porosity
~Parameter Information Block
~A  Depth       DCAL        RHOB        RHOC        DPOR         GR         NPOR    
# ...
   842.0000      8.0106      2.5536      0.0253      5.8406     80.6950     20.5892
   842.1000      8.0106      2.5712      0.0640      4.7740     83.6960     20.2390
   842.2000      8.0106      2.5921      0.0734      3.5116     83.3321     20.2161
   842.3000      8.0084      2.6092      0.0969      2.4740     83.5208     20.5283
   842.4000      8.0084      2.6189      0.1009      1.8846     86.2864     21.1771
   842.5000      8.0110      2.6108      0.0853      2.3787     88.6286     21.8985
   842.6000      8.0110      2.5832      0.0894      4.0485     89.6363     22.1560
   842.7000      8.0110      2.5526      0.0523      5.9055     90.8723     21.5488
   842.8000      8.0060      2.5335      0.0202      7.0599     94.4569     20.5653
   842.9000      8.0060      2.5231      0.0263      7.6912     99.6406     20.1426
   843.0000      8.0075      2.5113      0.0354      8.4075    102.1318     20.3350
   843.1000      8.0075      2.5003      0.0137      9.0751     98.7866     20.4686
   843.2000      8.0075      2.5011      0.0354      9.0224     92.4192     20.2945
   843.3000      8.0091      2.5113      0.0213      8.4074     88.6996     20.3957
   843.4000      8.0091      2.5193      0.0522      7.9205     88.7106     20.9940
   843.5000      8.0106      2.5279      0.0216      7.3987     91.2004     21.4109
   843.6000      8.0106      2.5527      0.0270      5.8979     94.8844     21.3189
   843.7000      8.0106      2.5896      0.1232      3.6579     96.6811     21.0477
   843.8000      8.0114      2.6070      0.1300      2.6088     97.0997     20.6804
   843.9000      8.0114      2.5864      0.1003      3.8551     98.7598     20.1509
   844.0000      8.0095      2.5462      0.0676      6.2880     99.8635     19.8811
   844.1000      8.0095      2.5176      0.0743      8.0262    100.2674     20.1233
   844.2000      8.0095      2.5134      0.0785      8.2767    100.7130     20.4139
   844.3000      8.0070      2.5276      0.0569      7.4209     98.6303     20.4445
   844.4000      8.0070      2.5488      0.0480      6.1317     92.5012     20.5141
   844.5000      8.0093      2.5669      0.0774      5.0387     87.4990     20.9025
   844.6000      8.0093      2.5759      0.0877      4.4923     90.2507     21.4277
   844.7000      8.0093      2.5811      0.0714      4.1774     97.6332     21.8247
   844.8000      8.0197      2.5881      0.0877      3.7523    102.4590     21.9511
   844.9000      8.0197      2.5881      0.1308      3.7545    102.8641     21.6406
   845.0000      8.0002      2.5791      0.0600      4.2944    100.7510     21.2255
   845.1000      8.0002      2.5748      0.0827      4.5580     99.1361     21.4399
   845.2000      8.0002      2.5767      0.0505      4.4448     97.0903     22.3807
   845.3000      8.0073      2.5771      0.0405      4.4161     92.6414     23.4030
   845.4000      8.0073      2.5681      0.0460      4.9610     86.7913     23.8019
   845.5000      8.0093      2.5456      0.0112      6.3246     80.1846     23.3893
   845.6000      8.0093      2.5235     -0.0056      7.6667     76.8889     22.5278
   845.7000      8.0093      2.5137     -0.0109      8.2618     80.4479     21.5241
   845.8000      8.0082      2.5061      0.0292      8.7200     87.4443     20.5645
   845.9000      8.0082      2.4942      0.0017      9.4415     92.2326     20.0607
   846.0000      8.0109      2.4929      0.0073      9.5229     90.0235     20.2725
   846.1000      8.0109      2.5084      0.0493      8.5815     83.7630     20.8392
   846.2000      8.0109      2.5262      0.0252      7.5031     80.5465     20.9310
   846.3000      8.0087      2.5363      0.0137      6.8897     80.7241     20.6729
   846.4000      8.0087      2.5415      0.0171      6.5779     83.3130     20.7911
   846.5000      8.0096      2.5432      0.0760      6.4743     88.8521     20.9714
   846.6000      8.0096      2.5407      0.0845      6.6232     91.8920     20.6217
   846.7000      8.0096      2.5396      0.0657      6.6914     89.0617     19.8742
   846.8000      8.0078      2.5427      0.0525      6.5005     86.4634     19.2720
   846.9000      8.0078      2.5413      0.0949      6.5876     86.9317     19.0006
   847.0000      8.0102      2.5257      0.0478      7.5327     85.5655     19.2146
   847.1000      8.0102      2.5001      0.0685      9.0834     81.6605     19.9360
   847.2000      8.0102      2.4838      0.0074     10.0750     79.2946     20.6807
   847.3000      8.0100      2.5028      0.0202      8.9217     81.2189     20.9962
   847.4000      8.0100      2.5615      0.1275      5.3614     85.4885     20.5736
   847.5000      8.0086      2.6250      0.1959      1.5163     85.8473     19.9123
   847.6000      8.0086      2.6538      0.1941     -0.2300     80.9324     20.0783
   847.7000      8.0086      2.6375      0.1784      0.7567     75.4788     21.1011
   847.8000      8.0072      2.5933      0.1297      3.4391     70.2246     21.7559
   847.9000      8.0072      2.5513      0.0643      5.9839     65.5996     21.2383
   848.0000      8.0116      2.5323      0.0554      7.1349     67.2851     20.3132
   848.1000      8.0116      2.5377      0.0452      6.8065     74.4927     20.0072
   848.2000      8.0116      2.5543      0.0731      5.8014     78.9158     20.4691
   848.3000      8.0200      2.5678      0.0353      4.9821     77.2967     21.0307
   848.4000      8.0200      2.5729      0.0463      4.6713     72.8766     21.2161
   848.5000      7.9854      2.5637      0.0724      5.2309     69.9817     21.2660
   848.6000      7.9854      2.5440      0.0720      6.4257     68.8426     21.2150
   848.7000      7.9854      2.5335      0.0366      7.0605     67.3184     21.2337
   848.8000      8.0049      2.5409      0.0453      6.6104     67.1131     21.4385
   848.9000      8.0049      2.5510      0.0944      6.0009     69.9090     21.1871
   849.0000      8.0092      2.5491      0.0490      6.1144     73.1560     20.6458
   849.1000      8.0092      2.5444      0.0230      6.3976     75.3826     20.3439
   849.2000      8.0092      2.5531      0.0633      5.8742     77.5330     20.2472
   849.3000      8.0107      2.5718      0.0866      4.7381     79.2842     20.4251
   849.4000      8.0107      2.5902      0.0651      3.6220     78.5841     20.5632
   849.5000      8.0090      2.6019      0.0819      2.9175     75.9351     20.1915
   849.6000      8.0090      2.5935      0.1018      3.4269     75.0072     19.6196
   849.7000      8.0090      2.5641      0.0645      5.2057     75.9798     19.1860
   849.8000      8.0099      2.5351      0.0282      6.9608     76.9324     18.7541
   849.9000      8.0099      2.5145      0.0357      8.2126     79.5501     18.4104
   850.0000      8.0119      2.4876      0.0320      9.8454     84.4211     18.3528
   850.1000      8.0119      2.4437      0.0365     12.5009     86.9086     18.1755
   850.2000      8.0119      2.3855      0.0178     16.0311     85.7149     17.6196
   850.3000      8.0084      2.3330      0.0075     19.2106     84.4415     17.4595
   850.4000      8.0084      2.3202      0.0482     19.9877     82.0907     18.1199
   850.5000      8.0067      2.3587      0.0629     17.6528     79.1724     18.8109
   850.6000      8.0067      2.4328      0.0737     13.1641     78.5934     19.2176
   850.7000      8.0067      2.5241      0.1702      7.6292     78.5957     19.9976
   850.8000      8.0105      2.6104      0.2413      2.4011     77.0224     20.9244
   850.9000      8.0105      2.6625      0.3381     -0.7597     74.4505     21.0343
   851.0000      8.0136      2.6729      0.3200     -1.3877     73.5112     20.2445
   851.1000      8.0136      2.6661      0.2939     -0.9736     75.8587     19.4397
   851.2000      8.0136      2.6606      0.2622     -0.6399     79.7308     19.3463
   851.3000      8.0146      2.6517      0.1899     -0.1057     85.5930     20.0812
   851.4000      8.0146      2.6281      0.1534      1.3264     93.8740     21.2612
   851.5000      8.0077      2.5872      0.0607      3.8088     99.9874     22.4210
