~Version Information
VERS.                      2.0: CWLS Log ASCII Standard - VERSION 2.0
WRAP.                       NO: One line per depth step
~Well Information Block
STRT.FT               -12.5000: 
STOP.FT              1647.5000: 
STEP.FT                 0.2500: 
NULL.                -999.2500: 
COMP.          Pioneer Natural Resources: COMPANY
WELL.            Harlee L 34-9: WELL
FLD.           Purgatorie River`: FIELD
LOC.           600' FSL & 2125' FEL----: LOCATION
PROV.                       CO: PROVINCE
CNTY.               Las Animas: COUNTRY
SRVC.                Patterson: SERVICE COMPANY
DATE.          Sat Feb 12 09:31:33 2005: LOG DATE
UWI.           05 071 08009 00: UNIQUE WELL ID
~Curve Information Block
DEPT.FT            0 000 00 00: Depth
CCL.                          : Casing Collar Locator
TT3.usec                      : CBL 3' Travel Time
AMP3.mV                       : CBL 3' Amplitude
AMP5.mV                       : CBL 5' Amplitude
GR.GAPI                       : Gamma Ray
~Parameter Information Block
~A  Depth       CCL         TT3         AMP3        AMP5         GR     
# ...
    99.5000      0.0000    286.1804     77.2621     69.9711     56.3091
    99.7500      0.0000    286.1793     77.2472     68.6345     56.8269
   100.0000      0.0000    286.1776     77.2275     70.2002     60.0105
   100.2500      0.0000    286.1778     77.2145     69.6656     65.3355
   100.5000      0.0000    286.1789     77.2317     70.2765     71.5455
   100.7500      0.0000    286.1791     77.2913     70.5438     76.6196
   101.0000      0.0000    286.1779     77.3766     70.1238     79.0686
   101.2500      0.0000    286.1762     77.4512     69.3601     79.1182
   101.5000      0.0000    286.1753     77.4899     70.2002     78.0825
   101.7500      0.0000    286.1749     77.4964     70.8875     76.8357
   102.0000      0.0000    286.1753     77.4860     69.5892     75.5627
   102.2500      0.0000    286.1777     77.4579     68.8255     74.7228
   102.5000      0.0000    286.1839     77.4004     69.1691     75.2902
   102.7500      0.0000    286.1936     77.3228     69.0164     77.7906
   103.0000      0.0000    286.2036     77.2659     69.8565     81.5729
   103.2500      0.0000    286.2103     77.2665     70.6202     85.1610
   103.5000      0.0000    286.2126     77.3202     69.8183     87.1134
   103.7500      0.0000    286.2118     77.3874     69.0546     86.7705
   104.0000      0.0000    286.2100     77.4327     69.2455     84.7634
   104.2500      0.0000    286.2084     77.4458     69.7419     82.8392
   104.5000      0.0000    286.2080     77.4318     70.0092     82.5351
   104.7500      0.0000    286.2103     77.3997     69.5128     83.5935
   105.0000      0.0000    286.2161     77.3627     69.9711     83.9505
   105.2500      0.0000    286.2244     77.3352     69.7038     81.5119
   105.5000      0.0000    286.2319     77.3279     69.1310     75.8969
   105.7500      0.0000    286.2354     77.3486     69.6656     68.7449
   106.0000      0.0000    286.2332     77.3980     70.3911     62.7289
   106.2500      0.0000    286.2261     77.4633     69.8947     60.0389
   106.5000      0.0000    286.2158     77.5237     70.0474     61.2340
   106.7500      0.0000    286.2047     77.5678     70.4675     65.1250
   107.0000      0.0000    286.1952     77.5990     69.2455     69.6550
   107.2500      0.0000    286.1897     77.6223     69.7038     73.1687
   107.5000      0.0000    286.1894     77.6314     71.5367     75.3020
   107.7500      0.0000    286.1946     77.6159     70.3147     76.8881
   108.0000      0.0000    286.2039     77.5796     69.0928     78.8993
   108.2500      0.0000    286.2144     77.5455     69.9711     81.4473
   108.5000      0.0000    286.2235     77.5353     68.9782     84.0142
   108.7500      0.0000    286.2302     77.5460     69.5128     86.4821
   109.0000      0.0000    286.2343     77.5522     71.0403     89.3027
   109.2500      0.0000    286.2365     77.5303     69.4364     92.5133
   109.5000      0.0000    286.2372     77.4769     69.8183     95.1754
   109.7500      0.0000    286.2377     77.4035     69.3219     96.0529
   110.0000      0.0000    286.2404     77.3224     70.2384     94.4591
   110.2500      0.0000    286.2467     77.2429     68.7491     90.4580
   110.5000      0.0000    286.2559     77.1813     69.6656     85.0217
   110.7500      0.0000    286.2648     77.1618     69.7801     80.2337
   111.0000      0.0000    286.2695     77.1974     69.3219     78.5061
   111.2500      0.0000    286.2689     77.2693     70.3529     80.7940
   111.5000      0.0000    286.2655     77.3352     68.4436     85.6761
   111.7500      0.0000    286.2634     77.3596     69.9329     90.6705
   112.0000      0.0000    286.2636     77.3356     70.1238     94.3840
   112.2500      0.0000    286.2638     77.2814     70.8111     97.0917
   112.5000      0.0000    286.2616     77.2258     69.8947     99.5983
   112.7500      0.0000    286.2576     77.1925     69.7801    102.1676
   113.0000      0.0000    286.2542     77.1895     70.9257    104.3190
   113.2500      0.0000    286.2537     77.2088     70.2002    105.0607
   113.5000      0.0000    286.2559     77.2361     70.8111    103.4839
   113.7500      0.0000    286.2590     77.2619     69.5892     99.6311
   114.0000      0.0000    286.2618     77.2879     69.1310     94.7352
   114.2500      0.0000    286.2640     77.3230     70.5820     90.3272
   114.5000      0.0000    286.2653     77.3728     68.8255     87.0589
   114.7500      0.0000    286.2645     77.4325     70.4675     84.4809
   115.0000      0.0000    286.2607     77.4862     70.0474     81.8498
   115.2500      0.0000    286.2556     77.5140     69.9711     78.8914
   115.5000      0.0000    286.2532     77.5049     70.3529     75.8518
   115.7500      0.0000    286.2563     77.4678     70.4675     73.1664
   116.0000      0.0000    286.2635     77.4270     69.8947     71.2007
   116.2500      0.0000    286.2710     77.4046     70.0092     70.1681
   116.5000      0.0000    286.2762     77.4094     69.4364     70.1368
   116.7500      0.0000    286.2788     77.4396     71.4221     71.0993
   117.0000      0.0000    286.2797     77.4896     69.2455     72.8966
   117.2500      0.0000    286.2792     77.5468     70.1620     74.9717
   117.5000      0.0000    286.2781     77.5873     69.4746     76.3802
   117.7500      0.0000    286.2778     77.5874     70.3911     76.3632
   118.0000      0.0000    286.2795     77.5469     69.5128     75.0437
   118.2500      0.0000    286.2819     77.4960     69.3983     73.4506
   118.5000      0.0000    286.2823     77.4737     70.5438     72.6776
   118.7500      0.0000    286.2795     77.4957     69.5128     72.9938
   119.0000      0.0000    286.2747     77.5429     70.0474     73.8176
   119.2500      0.0000    286.2715     77.5821     69.8183     74.5107
   119.5000      0.0000    286.2726     77.5946     70.5057     75.0334
   119.7500      0.0000    286.2786     77.5880     70.5820     75.8133
   120.0000      0.0000    286.2881     77.5873     69.9711     77.1233
   120.2500      0.0000    286.2984     77.6166     70.0092     78.6688
   120.5000      0.0000    286.3071     77.6820     70.7348     79.7855
   120.7500      0.0000    286.3136     77.7643     69.0546     80.1829
   121.0000      0.0000    286.3180     77.8275     69.9329     80.4173
   121.2500      0.0000    286.3207     77.8402     70.2765     81.3309
   121.5000      0.0000    286.3226     77.7981     70.0092     83.0433
   121.7500      0.0000    286.3251     77.7264     69.2455     84.8142
   122.0000      0.0000    286.3298     77.6597     68.9782     85.8276
   122.2500      0.0000    286.3368     77.6148     68.5582     85.8335
   122.5000      0.0000    286.3430     77.5870     69.3219     85.0320
   122.7500      0.0000    286.3429     77.5657     69.2837     83.6183
   123.0000      0.0000    286.3337     77.5479     68.4436     81.5847
   123.2500      0.0000    286.3183     77.5398     69.7038     78.7918
   123.5000      0.0000    286.3030     77.5514     70.0474     75.0887
   123.7500      0.0000    286.2920     77.5854     69.4746     70.5950
   124.0000      0.0000    286.2846     77.6317     70.6202     66.0188
   124.2500      0.0000    286.2770     77.6773     70.2765     62.4650
   124.5000      0.0000    286.2664     77.7214     69.4746     60.7053
   124.7500      0.0000    286.2535     77.7673     70.5057     60.6936
   125.0000      0.0000    286.2423     77.8017     70.3911     61.8404
   125.2500      0.0000    286.2394     77.7865     66.3052     63.5968
   125.5000      0.0000    286.2628     77.6528     66.4961     65.5615
   125.7500      0.0000    286.3606     77.2588     46.6010     67.1810
   126.0000      0.0000    286.6263     76.3321     72.3386     67.8183
   126.2500      0.0000    287.1797     74.4765     39.2311     67.3829
   126.5000      0.0000    288.1003     71.3457     47.8994     66.6262
   126.7500      0.0000    289.3426     66.9717     47.1356     66.4760
   127.0000      0.0000    290.7112     62.0058     46.6774     67.0930
   127.2500      0.0000    291.9398     57.5158     44.9208     67.7145
