~Version Information
VERS.                      2.0: CWLS Log ASCII Standard - VERSION 2.0
WRAP.                       NO: One line per depth step
~Well Information Block
STRT.FT               -13.5000: 
STOP.FT              2092.5000: 
STEP.FT                 0.2500: 
NULL.                -999.2500: 
COMP.          Petrogulf Corporation: COMPANY
WELL.          Robinson 15-11V: WELL
FLD.           Purgatorie River: FIELD
LOC.           226' FNL & 592' FWL--: LOCATION
CNTY.               Las Animas: COUNTY
SRVC.                         : SERVICE COMPANY
DATE.          Tue Aug 17 13:05:46 2004: LOG DATE
UWI.                          : UNIQUE WELL ID
STAT.                       CO: STATE
~Curve Information Block
DEPT.FT            0 000 00 00: Depth
CCL.                          : Casing Collar Locator
TT3.usec                      : CBL 3' Travel Time
AMP3.mV                       : CBL 3' Amplitude
GR.GAPI                       : Gamma Ray
~Parameter Information Block
~A  Depth       CCL         TT3         AMP3         GR     
# ...
   388.5000      0.0000    427.5296      9.7190     68.6270
   388.7500      0.0000    428.2492      9.6191     71.2854
   389.0000      0.0000    437.3289      9.5385     72.6218
   389.2500      0.0000    459.3119      9.4876     72.9788
   389.5000      0.0000    491.5761      9.4725     72.9151
   389.7500      0.0000    530.8638      9.4785     73.1068
   390.0000      0.0000    573.0113      9.4728     74.4010
   390.2500      0.0000    607.9189      9.4209     77.2981
   390.5000      0.0000    620.5702      9.3055     81.4218
   390.7500      0.0000    600.5858      9.1429     86.1101
   391.0000      0.0000    551.3595      8.9847     91.4862
   391.2500      0.0000    489.2637      8.8882     97.9971
   391.5000      0.0000    432.9001      8.8767    104.5435
   391.7500      0.0000    392.3642      8.9342    108.0804
   392.0000      0.0000    367.3108      9.0297    106.1277
   392.2500      0.0000    352.4843      9.1273     99.4415
   392.5000      0.0000    343.4054      9.1778     91.3897
   392.7500      0.0000    338.3723      9.1374     84.8682
   393.0000      0.0000    337.5177      9.0056     80.5170
   393.2500      0.0000    340.8363      8.8353     77.5344
   393.5000      0.0000    346.8854      8.7019     74.8918
   393.7500      0.0000    353.5434      8.6604     71.5873
   394.0000      0.0000    360.3798      8.7207     67.0682
   394.2500      0.0000    370.6913      8.8486     62.1904
   394.5000      0.0000    391.1901      8.9919     59.1082
   394.7500      0.0000    427.5733      9.1050     59.6184
   395.0000      0.0000    477.6402      9.1634     63.6857
   395.2500      0.0000    529.4635      9.1813     69.6180
   395.5000      0.0000    569.0461      9.2205     75.3457
   395.7500      0.0000    588.6179      9.3534     79.3655
   396.0000      0.0000    585.9472      9.6022     81.0781
   396.2500      0.0000    561.1377      9.9165     81.1386
   396.5000      0.0000    519.4570     10.2092     81.3636
   396.7500      0.0000    473.2019     10.4066     83.3043
   397.0000      0.0000    435.2538     10.4731     86.6395
   397.2500      0.0000    411.4904     10.4132     89.5531
   397.5000      0.0000    400.1905     10.2677     90.5955
   397.7500      0.0000    396.2122     10.0999     89.6422
   398.0000      0.0000    394.6906      9.9719     87.4375
   398.2500      0.0000    392.8467      9.9298     85.1223
   398.5000      0.0000    390.4946     10.0041     83.9948
   398.7500      0.0000    389.4378     10.2052     84.7136
   399.0000      0.0000    392.0431     10.5132     86.5906
   399.2500      0.0000    399.1558     10.8836     88.2829
   399.5000      0.0000    407.8573     11.2635     89.1454
   399.7500      0.0000    411.2295     11.6061     89.3212
   400.0000      0.0000    402.6177     11.8814     88.7619
   400.2500      0.0000    381.9286     12.0788     87.0665
   400.5000      0.0000    356.6772     12.2052     84.3306
   400.7500      0.0000    335.7482     12.2909     81.4310
   401.0000      0.0000    323.0442     12.3873     79.5915
   401.2500      0.0000    317.1857     12.5390     80.1194
   401.5000      0.0000    315.1163     12.7492     83.9539
   401.7500      0.0000    314.9536     12.9719     90.5526
   402.0000      0.0000    316.8259     13.1333     97.5581
   402.2500      0.0000    322.9173     13.1626    102.3806
   402.5000      0.0000    336.7580     13.0191    104.0040
   402.7500      0.0000    360.5787     12.7084    103.0433
   403.0000      0.0000    391.2204     12.2888    100.7175
   403.2500      0.0000    418.9620     11.8578     98.2759
   403.5000      0.0000    433.4559     11.5022     96.8628
   403.7500      0.0000    433.7061     11.2443     97.1390
   404.0000      0.0000    432.0008     11.0447     98.7826
   404.2500      0.0000    444.3054     10.8599    100.4208
   404.5000      0.0000    472.9755     10.6789    100.4050
   404.7500      0.0000    500.1948     10.5060     98.2781
   405.0000      0.0000    503.1850     10.3282     95.5113
   405.2500      0.0000    476.8013     10.1163     94.1389
   405.5000      0.0000    438.1568      9.8562     94.7041
   405.7500      0.0000    409.6484      9.5762     96.2445
   406.0000      0.0000    400.6150      9.3389     98.1348
   406.2500      0.0000    403.9609      9.2100    100.7709
   406.5000      0.0000    405.6120      9.2286    104.0819
   406.7500      0.0000    396.2871      9.3905    106.3454
   407.0000      0.0000    377.4414      9.6417    105.3495
   407.2500      0.0000    358.7396      9.8925    100.6573
   407.5000      0.0000    350.6801     10.0557     94.3140
   407.7500      0.0000    358.4192     10.0909     89.2607
   408.0000      0.0000    378.9167     10.0205     87.1836
   408.2500      0.0000    401.0581      9.9092     87.7176
   408.5000      0.0000    410.9468      9.8307     89.3107
   408.7500      0.0000    402.0136      9.8323     90.6885
   409.0000      0.0000    380.5698      9.9031     91.4827
   409.2500      0.0000    359.6788      9.9846     91.6745
   409.5000      2.0000    348.6286     10.0323     91.1739
   409.7500      2.0000    349.7582     10.0598     90.4021
   410.0000      0.0000    362.3977     10.1091     90.6743
   410.2500      0.0000    385.0768     10.1885     93.1850
   410.5000      0.0000    412.4140     10.2569     97.6401
   410.7500      0.0000    432.9578     10.2767    102.2885
   411.0000      0.0000    434.8224     10.2764    105.3019
   411.2500      0.0000    415.2897     10.3391    105.9127
   411.5000      0.0000    383.5156     10.5127    104.4732
   411.7500      0.0000    352.9090     10.7576    101.9985
   412.0000      0.0000    331.7789     10.9966     99.6828
   412.2500      0.0000    320.7650     11.1830     98.2626
   412.5000      0.0000    316.3933     11.3017     97.5497
   412.7500      0.0000    315.1501     11.3526     96.8341
   413.0000      0.0000    315.0043     11.3643     95.8276
   413.2500      0.0000    315.1043     11.3889     94.8853
   413.5000      0.0000    315.1435     11.4510     94.3260
   413.7500      0.0000    315.0582     11.5083     94.0392
   414.0000      0.0000    314.9498     11.4816     93.9703
   414.2500      0.0000    315.1068     11.3269     94.6299
   414.5000      0.0000    316.3624     11.0769     96.6672
   414.7500      0.0000    321.0679     10.8134     99.6422
   415.0000      0.0000    334.4447     10.5980    101.3934
   415.2500      0.0000    364.2171     10.4341     99.3493
   415.5000      0.0000    415.4966     10.3056     93.0268
   415.7500      0.0000    481.7952     10.2405     84.9273
   416.0000      0.0000    541.1384     10.2990     78.6683
   416.2500      0.0000    566.5602     10.4950     76.3723
   416.5000      0.0000    545.7202     10.7548     77.6006
   416.7500      0.0000    491.0186     10.9663     80.0627
   417.0000      0.0000    429.9898     11.0473     81.2378
   417.2500      0.0000    386.8810     10.9666     79.8302
   417.5000      0.0000    373.2112     10.7378     76.0354
   417.7500      0.0000    390.7614     10.4133     70.7783
   418.0000      0.0000    436.3211     10.0666     65.1789
   418.2500      0.0000    500.1560      9.7605     60.6243
   418.5000      0.0000    563.9419      9.5298     58.5336
   418.7500      0.0000    608.4263      9.3779     59.6193
   419.0000      0.0000    626.8026      9.2784     63.6492
   419.2500      0.0000    627.7903      9.1945     69.8972
   419.5000      0.0000    625.1442      9.1163     77.1980
   419.7500      0.0000    628.2813      9.0617     83.5101
   420.0000      0.0000    641.7708      9.0374     86.4807
   420.2500      0.0000    665.7280      9.0259     85.2239
   420.5000      0.0000    694.3365      9.0263     81.2264
   420.7500      0.0000    718.9802      9.0742     77.0500
   421.0000      0.0000    734.7485      9.1942     74.5302
   421.2500      0.0000    742.4150      9.3493     74.2967
   421.5000      0.0000    745.2419      9.4594     75.8979
   421.7500      0.0000    745.8070      9.4668     77.6062
