~Version Information
VERS.                      2.0: CWLS Log ASCII Standard - VERSION 2.0
WRAP.                       NO: One line per depth step
~Well Information Block
STRT.FT               965.2500: 
STOP.FT              2602.5000: 
STEP.FT                 0.2500: 
NULL.                -999.2500: 
COMP.          Petrogulf Corporation: COMPANY
WELL.             Valejo 8-12V: WELL
FLD.           Purgatorie River: FIELD
LOC.           1510' FNL & 1460' FWL: LOCATION
CNTY.               Las Animas: COUNTY
SRVC.                         : SERVICE COMPANY
DATE.          Fri Nov 14 05:32:33 2003: LOG DATE
UWI.                          : UNIQUE WELL ID
STAT.                 Colorado: STATE
~Curve Information Block
DEPT.FT            0 000 00 00: Depth
RILD.Ohm-m                    : DIL Deep Resistivity
RILM.Ohm-m                    : DIL Medium Resistivity
RLL3.Ohm-m                    : DIL Shallow Resistivity
SP.mV                         : DIL Spontaneous Potential
GR.GAPI                       : Gamma Ray
~Parameter Information Block
~A  Depth       RILD        RILM        RLL3         SP          GR     
# ...
  2449.2500     19.5693     22.9695     28.7155      2.7770     88.0042
  2449.5000     19.9717     23.5514     30.4259      2.6691     81.2215
  2449.7500     20.3962     24.2335     33.0482      2.6065     75.7520
  2450.0000     20.8151     24.9841     35.9995      2.5606     67.3315
  2450.2500     21.2002     25.7648     38.5930      2.5071     62.4380
  2450.5000     21.5377     26.5381     40.3227      2.4367     56.6652
  2450.7500     21.8444     27.2643     41.0146      2.3598     53.5715
  2451.0000     22.1717     27.8978     40.8482      2.2992     49.8236
  2451.2500     22.5849     28.4048     40.2357      2.2761     48.3044
  2451.5000     23.1245     28.7903     39.6026      2.3013     48.2173
  2451.7500     23.7734     29.1028     39.1984      2.3734     49.3377
  2452.0000     24.4495     29.3994     39.0424      2.4847     51.0256
  2452.2500     25.0382     29.7022     39.0028      2.6280     51.2240
  2452.5000     25.4509     29.9878     38.9334      2.8000     50.1779
  2452.7500     25.6710     30.2102     38.7750      2.9980     49.3815
  2453.0000     25.7503     30.3257     38.5621      3.2117     49.1642
  2453.2500     25.7638     30.3074     38.3691      3.4216     49.6732
  2453.5000     25.7675     30.1629     38.2680      3.6070     50.6804
  2453.7500     25.7862     29.9606     38.3063      3.7545     51.0803
  2454.0000     25.8285     29.8258     38.4718      3.8567     50.9152
  2454.2500     25.9022     29.8836     38.6883      3.9115     50.3065
  2454.5000     26.0161     30.1788     38.9077      3.9277     48.9975
  2454.7500     26.1693     30.6358     39.2208      3.9293     48.2280
  2455.0000     26.3424     31.0920     39.8217      3.9480     47.8246
  2455.2500     26.5009     31.3857     40.8160      4.0076     48.1414
  2455.5000     26.6094     31.4327     42.0661      4.1142     49.0631
  2455.7500     26.6451     31.2356     43.2182      4.2582     49.5559
  2456.0000     26.6034     30.8412     43.8493      4.4225     49.5986
  2456.2500     26.4941     30.3037     43.6237      4.5918     49.2004
  2456.5000     26.3366     29.6801     42.4244      4.7613     48.6106
  2456.7500     26.1569     29.0364     40.4339      4.9417     48.6917
  2457.0000     25.9864     28.4479     38.0960      5.1522     49.8317
  2457.2500     25.8499     27.9876     35.9411      5.4065     51.0596
  2457.5000     25.7484     27.7114     34.3802      5.7024     53.0083
  2457.7500     25.6435     27.6408     33.5985      6.0229     54.1975
  2458.0000     25.4616     27.7559     33.5708      6.3429     55.7728
  2458.2500     25.1312     28.0034     34.1244      6.6340     56.5834
  2458.5000     24.6467     28.3218     35.0022      6.8731     56.9568
  2458.7500     24.1106     28.6669     35.9283      7.0557     56.3681
  2459.0000     23.7037     29.0223     36.6742      7.2034     54.3081
  2459.2500     23.5925     29.3931     37.1347      7.3542     52.5958
  2459.5000     23.8431     29.7984     37.4424      7.5422     50.4219
  2459.7500     24.3859     30.2631     38.0580      7.7819     49.4393
  2460.0000     25.0478     30.7983     39.6578      8.0673     48.4367
  2460.2500     25.6374     31.3660     42.7346      8.3779     48.0317
  2460.5000     26.0372     31.8553     47.0953      8.6838     48.3206
  2460.7500     26.2320     32.1070     51.6495      8.9550     49.3674
  2461.0000     26.2692     31.9936     54.8031      9.1775     51.7238
  2461.2500     26.2077     31.5026     55.3338      9.3596     53.2182
  2461.5000     26.0978     30.7479     53.1497      9.5165     55.0973
  2461.7500     25.9830     29.9029     49.3285      9.6495     56.5017
  2462.0000     25.9020     29.1146     45.3800      9.7453     59.0720
  2462.2500     25.8792     28.4563     42.2956      9.7930     60.5698
  2462.5000     25.9169     27.9302     40.1185      9.7984     61.6863
  2462.7500     25.9952     27.5035     38.3147      9.7829     61.9976
  2463.0000     26.0896     27.1518     36.4925      9.7716     62.9894
  2463.2500     26.1884     26.8835     34.7347      9.7819     64.1076
  2463.5000     26.2955     26.7361     33.3330      9.8168     65.4759
  2463.7500     26.4146     26.7575     32.4070      9.8627     65.7053
  2464.0000     26.5344     26.9919     31.8845      9.8916     65.3062
  2464.2500     26.6334     27.4745     31.7613      9.8735     65.0474
  2464.5000     26.7012     28.2226     32.2623      9.7958     65.1083
  2464.7500     26.7557     29.2186     33.7323      9.6734     65.2676
  2465.0000     26.8397     30.3977     36.3514      9.5410     65.0026
  2465.2500     27.0025     31.6632     39.8648      9.4330     64.1501
  2465.5000     27.2844     32.9275     43.5563      9.3694     61.6065
  2465.7500     27.7068     34.1401     46.5856      9.3532     59.1409
  2466.0000     28.2674     35.2705     48.4711      9.3734     54.9970
  2466.2500     28.9443     36.2778     49.3088      9.4098     52.6952
  2466.5000     29.7061     37.1159     49.5692      9.4378     51.0618
  2466.7500     30.5189     37.7680     49.7029      9.4332     51.1650
  2467.0000     31.3332     38.2540     49.8676      9.3768     51.8309
  2467.2500     32.0622     38.5967     49.9154      9.2577     51.7880
  2467.5000     32.5857     38.7861     49.5999      9.0747     50.6104
  2467.7500     32.8015     38.7839     48.8292      8.8330     49.4426
  2468.0000     32.6799     38.5652     47.7521      8.5385     47.8207
  2468.2500     32.2569     38.1678     46.6363      8.1898     46.9842
  2468.5000     31.5647     37.6991     45.7111      7.7741     46.2435
  2468.7500     30.5593     37.2942     45.1203      7.2678     46.2708
  2469.0000     29.0998     37.0500     44.9440      6.6427     47.2247
  2469.2500     26.9908     36.9851     45.1788      5.8742     48.2228
  2469.5000     24.0976     37.0416     45.6921      4.9480     49.5175
  2469.7500     20.5155     37.1316     46.2347      3.8686     49.9646
  2470.0000     16.6530     37.1944     46.5520      2.6698     50.1239
  2470.2500     13.0662     37.2315     46.5501      1.4239     50.1172
  2470.5000     10.1571     37.2995     46.3912      0.2382     50.0117
  2470.7500      8.0412     37.4670     46.3898     -0.7689     49.7389
  2471.0000      6.6370     37.7648     46.7450     -1.5020     49.0943
  2471.2500      5.8058     38.1511     47.3540     -1.9152     48.7810
  2471.5000      5.4356     38.5101     47.8964     -2.0126     48.5623
  2471.7500      5.4775     38.6930     48.0725     -1.8303     48.2091
  2472.0000      5.9746     38.5906     47.7379     -1.4201     46.8504
  2472.2500      7.1399     38.1938     46.8623     -0.8454     45.5901
  2472.5000      9.6401     37.5993     45.4675     -0.1838     43.9890
  2472.7500     15.9908     36.9654     43.6605      0.4760     43.4552
  2473.0000     46.6235     36.4549     41.6957      1.0421     43.5516
  2473.2500 100000.0000     36.1952     39.9429      1.4345     44.0085
  2473.5000 100000.0000     36.2599     38.7618      1.6046     44.5714
  2473.7500 100000.0000     36.6615     38.3842      1.5493     44.4873
  2474.0000 100000.0000     37.3514     38.8735      1.3028     43.6780
  2474.2500 100000.0000     38.2245     40.1480      0.9079     43.0957
  2474.5000 100000.0000     39.1300     42.0173      0.3894     42.9598
  2474.7500 100000.0000     39.8944     44.1930     -0.2549     43.4934
  2475.0000 100000.0000     40.3771     46.2430     -1.0489     44.7340
  2475.2500 100000.0000     40.5705     47.5025     -2.0276     45.4573
  2475.5000 100000.0000     40.7062     47.1198     -3.2268     46.4063
  2475.7500 100000.0000     41.3087     44.4804     -4.6756     47.5993
  2476.0000 100000.0000     43.2467     39.8471     -6.3969     51.7891
  2476.2500 100000.0000     48.1082     34.5399     -8.4191     56.5075
  2476.5000 100000.0000     60.1513     30.2464    -10.7914     64.8632
  2476.7500 100000.0000    100.6363     27.9850    -13.5916     69.4566
  2477.0000 100000.0000 100000.0000     27.6435    -16.9212     72.5648
