~Version Information
VERS.                      2.0: CWLS Log ASCII Standard - VERSION 2.0
WRAP.                       NO: One line per depth step
~Well Information Block
STRT.FT                15.0000: 
STOP.FT              1891.7500: 
STEP.FT                 0.2500: 
NULL.                -999.2500: 
COMP.          Pioneer Natural Resources: COMPANY
WELL.          Oink Oink 14-36 Tr: WELL
FLD.           Purgatoire River: FIELD
LOC.           236' FSL & 164' FWL: LOCATION
PROV.                 Colorado: PROVINCE
CNTY.               Las Animas: COUNTRY
SRVC.                Patterson: SERVICE COMPANY
DATE.          Wed Jun 22 11:40:13 2005: LOG DATE
UWI.           05 071 08393 00: UNIQUE WELL ID
~Curve Information Block
DEPT.FT            0 000 00 00: Depth
GR.GAPI                       : Gamma Ray
CCL.                          : Casing Collar Locator
TT3.usec                      : CBL 3' Travel Time
AMP3.mV                       : CBL 3' Amplitude
~Parameter Information Block
~A  Depth        GR         CCL         TT3         AMP3    
# ...
   752.0000    125.3042      0.0000    749.6797      5.3233
   752.2500    128.8405      0.0000    736.4836      5.2896
   752.5000    131.4328      0.0000    715.3835      5.2562
   752.7500    133.6084      0.0000    690.6797      5.2171
   753.0000    136.0498      0.0000    667.1044      5.1680
   753.2500    138.6103      0.0000    649.1092      5.1094
   753.5000    140.4755      0.0000    639.6332      5.0446
   753.7500    141.1320      0.0000    638.7300      4.9780
   754.0000    140.6388      0.0000    643.7256      4.9129
   754.2500    139.1034      0.0000    650.7597      4.8513
   754.5000    136.6440      0.0000    656.3157      4.7944
   754.7500    134.1036      0.0000    658.0717      4.7468
   755.0000    133.3651      0.0000    655.2106      4.7182
   755.2500    136.4153      0.0000    648.2736      4.7204
   755.5000    143.7260      0.0000    638.6671      4.7576
   755.7500    153.3086      0.0000    628.4260      4.8192
   756.0000    161.4246      0.0000    620.3043      4.8851
   756.2500    164.5595      0.0000    617.1225      4.9381
   756.5000    161.2043      0.0000    619.8687      4.9723
   756.7500    152.4928      0.0000    626.7379      4.9903
   757.0000    141.7776      0.0000    634.7312      4.9948
   757.2500    133.2834      0.0000    641.6995      4.9842
   757.5000    130.1125      0.0000    646.4744      4.9574
   757.7500    132.7333      0.0000    648.2211      4.9189
   758.0000    139.0146      0.0000    646.8658      4.8758
   758.2500    145.5964      0.0000    643.6763      4.8317
   758.5000    149.6708      0.0000    640.5007      4.7881
   758.7500    150.2760      0.0000    638.4247      4.7499
   759.0000    148.4032      0.0000    637.4227      4.7257
   759.2500    145.9072      0.0000    636.9767      4.7225
   759.5000    144.2682      0.0000    636.6960      4.7393
   759.7500    144.0573      0.0000    636.4590      4.7688
   760.0000    144.8969      0.0000    636.2947      4.8032
   760.2500    145.6978      0.0000    636.3199      4.8405
   760.5000    145.3720      0.0000    636.8180      4.8853
   760.7500    143.7048      0.0000    638.3564      4.9457
   761.0000    141.6479      0.0000    641.6808      5.0296
   761.2500    140.7632      0.0000    647.1102      5.1415
   761.5000    142.0909      0.0000    653.7568      5.2785
   761.7500    145.1321      0.0000    659.7335      5.4238
   762.0000    147.9874      0.0000    663.6495      5.5450
   762.2500    148.7811      0.0000    665.6875      5.6012
   762.5000    146.9621      0.0000    666.9739      5.5601
   762.7500    143.1584      0.0000    668.6196      5.4143
   763.0000    138.1310      0.0000    671.5673      5.1863
   763.2500    132.3027      0.0000    676.2088      4.9164
   763.5000    126.1291      0.0000    681.7529      4.6432
   763.7500    120.3462      0.0000    686.8970      4.3940
   764.0000    115.6774      0.0000    691.3132      4.1875
   764.2500    112.5921      0.0000    695.8363      4.0356
   764.5000    111.4099      0.0000    701.1453      3.9391
   764.7500    112.2469      0.0000    706.7286      3.8853
   765.0000    114.6375      0.0000    711.2299      3.8574
   765.2500    117.6113      0.0000    713.4161      3.8453
   765.5000    120.6283      0.0000    712.4454      3.8486
   765.7500    124.1762      0.0000    707.3424      3.8739
   766.0000    128.8538      0.0000    696.8458      3.9325
   766.2500    134.0448      0.0000    680.2654      4.0393
   766.5000    138.1160      0.0000    658.2252      4.2089
   766.7500    139.8160      0.0000    632.3496      4.4490
   767.0000    139.1532      0.0000    605.0839      4.7494
   767.2500    137.1747      0.0000    580.6953      5.0771
   767.5000    134.9930      0.0000    565.2157      5.3853
   767.7500    132.7029      0.0000    563.2389      5.6347
   768.0000    129.3370      0.0000    574.2217      5.8118
   768.2500    124.1493      0.0000    592.4916      5.9234
   768.5000    117.7074      0.0000    610.8319      5.9717
   768.7500    111.5729      0.0000    624.2624      5.9373
   769.0000    107.1797      0.0000    631.7090      5.7943
   769.2500    105.0809      0.0000    635.2814      5.5448
   769.5000    104.9770      0.0000    638.3095      5.2327
   769.7500    106.2456      0.0000    643.7990      4.9210
   770.0000    108.4260      0.0000    653.5699      4.6546
   770.2500    111.2855      0.0000    667.2416      4.4453
   770.5000    114.5758      0.0000    681.6887      4.2820
   770.7500    117.9567      0.0000    692.6420      4.1481
   771.0000    121.2700      0.0000    697.6290      4.0331
   771.2500    124.6939      0.0000    697.0502      3.9366
   771.5000    128.4922      0.0000    692.2742      3.8677
   771.7500    132.7021      0.0000    683.6942      3.8373
   772.0000    137.0819      0.0000    671.6277      3.8455
   772.2500    141.2512      0.0000    658.7150      3.8788
   772.5000    144.7519      0.0000    649.8485      3.9239
   772.7500    147.0112      0.0000    648.4803      3.9810
   773.0000    147.4926      0.0000    652.9163      4.0555
   773.2500    146.0372      0.0000    656.8775      4.1392
   773.5000    143.0234      0.0000    654.4296      4.2104
   773.7500    139.3192      3.0000    645.0869      4.2532
   774.0000    136.0153      3.0000    634.2294      4.2749
   774.2500    133.6492      3.0000    627.6279      4.3005
   774.5000    131.3694      0.0000    625.3843      4.3550
   774.7500    127.2454      0.0000    622.3547      4.4475
   775.0000    119.9014      0.0000    614.0186      4.5674
   775.2500    109.9278      0.0000    599.9647      4.6900
   775.5000     99.5098      0.0000    582.7106      4.7917
   775.7500     90.6010      0.0000    566.6291      4.8654
   776.0000     83.6883      0.0000    558.1147      4.9221
   776.2500     78.3919      0.0000    562.9271      4.9738
   776.5000     74.6753      0.0000    580.6823      5.0192
   776.7500     72.8272      0.0000    602.6342      5.0448
   777.0000     72.4756      0.0000    616.8320      5.0397
   777.2500     72.3275      0.0000    616.3820      5.0057
   777.5000     71.0563      0.0000    603.1227      4.9537
   777.7500     68.2318      0.0000    584.5853      4.8938
   778.0000     64.4750      0.0000    568.7324      4.8329
   778.2500     60.9944      0.0000    561.0076      4.7777
   778.5000     58.9229      0.0000    563.7930      4.7348
   778.7500     58.6640      0.0000    576.1173      4.7064
   779.0000     59.6179      0.0000    593.6312      4.6901
   779.2500     60.7287      0.0000    610.5608      4.6853
   779.5000     61.6004      0.0000    623.0443      4.7001
   779.7500     63.1611      0.0000    630.9012      4.7470
   780.0000     66.9335      0.0000    636.6527      4.8319
   780.2500     73.2761      0.0000    643.2883      4.9492
   780.5000     80.3853      0.0000    652.2061      5.0884
   780.7500     85.4186      0.0000    661.9922      5.2454
   781.0000     86.7678      0.0000    669.4198      5.4260
   781.2500     85.0626      0.0000    672.7816      5.6413
   781.5000     82.0427      0.0000    674.0972      5.8992
   781.7500     78.9499      0.0000    676.5242      6.1956
   782.0000     76.2103      0.0000    679.8089      6.5123
   782.2500     74.1338      0.0000    680.5491      6.8231
   782.5000     73.2628      0.0000    677.7345      7.1007
   782.7500     73.8624      0.0000    675.4577      7.3171
   783.0000     75.3335      0.0000    677.9476      7.4400
   783.2500     76.4670      0.0000    683.6760      7.4376
   783.5000     76.4127      0.0000    686.8727      7.2974
   783.7500     75.2846      0.0000    683.9445      7.0455
   784.0000     73.6334      0.0000    676.6642      6.7381
   784.2500     71.5129      0.0000    669.6728      6.4247
   784.5000     68.4837      0.0000    666.2508      6.1158
   784.7500     64.5836      0.0000    666.4877      5.7914
   785.0000     60.8786      0.0000    668.4215      5.4351
   785.2500     58.7936      0.0000    670.0149      5.0564
