~Version Information
 VERS.                                  2.0 : CWLS LAS VERSION
 WRAP.                                   NO : WRAPING MODE
 SWARE .                 MController 2.5.0J : SOFTWARE VERSION
~Well Information
 WELL.            Rabbit Bush Federal 44-19 : WELL
 COMP.  Pioneer Natural Resources USA, Inc. : COMPANY
 FLD.                      Purgatoire River : FIELD
 LOC.              SE/SE  Sec 19 T32S  R66W : LOCATION
 DATE.                      8/24/06-8/25/06 : DATE(S) LOGGED
 SRVC.       BLANCO Geological Services LLC : SERVICE COMPANY
 STAT.                                   CO : STATE
 CNTY.                            Las Animas: COUNTY
 CTRY.                               U.S.A. : COUNTRY
 API.                       05-071-08149-00 : API NUMBER
 STRT.FT                             539.00 : START DEPTH
 STOP.FT                            2785.00 : STOP DEPTH
 STEP.FT                               1.00 : DEPTH INCREMENT
 NULL.                                -9999 : NULL VALUE
~Curve information
 DEPTH.FT                                   :
 ROP.MIN/FT                                 :
 GAS.UNITS                                  :
~ASCII Log data
# ...
      2139.0         0.40         95.4 
      2140.0         0.33         95.3 
      2141.0         0.27        104.7 
      2142.0         0.27        108.8 
      2143.0         0.27        107.4 
      2144.0         0.30         96.8 
      2145.0         0.25         76.4 
      2146.0         0.30         55.5 
      2147.0         0.30         42.7 
      2148.0         0.30         39.6 
      2149.0         0.27         46.8 
      2150.0         0.23         55.0 
      2151.0         0.27         69.6 
      2152.0         0.30         89.6 
      2153.0         0.30        124.0 
      2154.0         0.27        155.2 
      2155.0         0.33        200.2 
      2156.0         4.87        324.6 
      2157.0         0.40        125.0 
      2158.0         0.53        114.0 
      2159.0         0.77        107.7 
      2160.0         0.82        108.4 
      2161.0         0.37        108.9 
      2162.0         0.27        107.2 
      2163.0         0.23        105.7 
      2164.0         0.23        104.7 
      2165.0         0.23        103.8 
      2166.0         0.20        104.7 
      2167.0         0.20        110.4 
      2168.0         0.27        114.2 
      2169.0         0.27        114.8 
      2170.0         0.17        103.5 
      2171.0         0.20         93.7 
      2172.0         0.22         66.6 
      2173.0         0.13         52.4 
      2174.0         0.27         45.4 
      2175.0         0.23         39.2 
      2176.0         0.23         41.5 
      2177.0         0.20         45.0 
      2178.0         0.23         53.4 
      2179.0         0.23         64.0 
      2180.0         0.23         86.6 
      2181.0         0.23         99.6 
      2182.0         0.30        123.3 
      2183.0         0.23        137.8 
      2184.0         0.17        144.2 
      2185.0         0.17        147.7 
      2186.0         2.85        209.5 
      2187.0         0.20         94.9 
      2188.0         0.37         98.7 
      2189.0         0.38        101.4 
      2190.0         0.33        100.2 
      2191.0         0.53         95.5 
      2192.0         0.40         93.7 
      2193.0         0.40         99.9 
      2194.0         0.40        104.6 
      2195.0         0.37        107.2 
      2196.0         0.33        106.7 
      2197.0         0.27        102.9 
      2198.0         0.25         99.6 
      2199.0         0.23         96.5 
      2200.0         0.20         94.7 
      2201.0         0.27         93.3 
      2202.0         0.23         89.1 
      2203.0         0.30         94.7 
      2204.0         0.30        106.1 
      2205.0         0.33        108.0 
      2206.0         0.30         93.0 
      2207.0         0.30         74.9 
      2208.0         0.30         54.7 
      2209.0         0.37         44.0 
      2210.0         0.35         44.5 
      2211.0         0.30         52.8 
      2212.0         0.33         72.4 
      2213.0         0.30         90.6 
      2214.0         0.27        110.8 
      2215.0         0.30        126.7 
      2216.0         3.92        158.1 
      2217.0         0.43         97.2 
      2218.0         0.37         96.4 
      2219.0         0.35         93.1 
      2220.0         0.37         91.4 
      2221.0         0.40         87.0 
      2222.0         0.27         84.8 
      2223.0         0.30         82.3 
      2224.0         0.33         79.7 
      2225.0         0.30         77.2 
      2226.0         0.27         75.6 
      2227.0         0.27         73.3 
      2228.0         0.30         72.4 
      2229.0         0.27         73.7 
      2230.0         0.28         88.5 
      2231.0         0.30        107.7 
      2232.0         0.33        107.8 
      2233.0         0.27         90.5 
      2234.0         0.30         64.7 
      2235.0         0.27         47.7 
      2236.0         0.27         36.5 
      2237.0         0.23         32.8 
      2238.0         0.27         34.7 
      2239.0         0.27         38.5 
      2240.0         0.27         47.7 
      2241.0         0.27         65.8 
      2242.0         0.25         80.8 
      2243.0         0.30        121.0 
      2244.0         0.30        155.1 
      2245.0         0.20        166.1 
      2246.0         3.98        201.3 
      2247.0         0.47         85.2 
      2248.0         0.57         82.4 
      2249.0         0.60         79.9 
      2250.0         0.65         78.0 
      2251.0         0.37         74.3 
      2252.0         0.37         71.2 
      2253.0         0.33         71.1 
      2254.0         0.30         71.5 
      2255.0         0.27         71.5 
      2256.0         0.27         71.1 
      2257.0         0.30         70.4 
      2258.0         0.30         66.6 
      2259.0         0.30         63.1 
      2260.0         0.28         60.3 
      2261.0         0.30         59.7 
      2262.0         0.33         60.1 
      2263.0         0.30         65.6 
      2264.0         0.33         84.7 
      2265.0         0.37         84.4 
      2266.0         0.33         71.5 
      2267.0         0.33         52.5 
      2268.0         0.33         42.5 
      2269.0         0.30         34.4 
      2270.0         0.38         33.3 
      2271.0         0.33         39.6 
      2272.0         0.37         52.1 
      2273.0         0.37         74.5 
      2274.0         0.37         94.2 
      2275.0         0.37        107.0 
      2276.0         3.75        119.5 
      2277.0         0.50         77.0 
      2278.0         0.43         70.8 
      2279.0         0.45         67.3 
      2280.0         0.47         64.4 
      2281.0         0.43         62.5 
      2282.0         0.33         60.8 
      2283.0         0.33         59.1 
      2284.0         0.33         56.7 
      2285.0         0.30         54.1 
      2286.0         0.33         51.9 
      2287.0         0.30         50.2 
      2288.0         0.32         49.0 
      2289.0         0.27         49.0 
      2290.0         0.33         62.4 
      2291.0         0.27         63.9 
      2292.0         0.30         60.9 
      2293.0         0.30         48.5 
      2294.0         0.23         38.2 
      2295.0         0.23         34.8 
      2296.0         0.30         31.1 
      2297.0         0.23         28.6 
      2298.0         0.30         26.0 
      2299.0         0.27         25.3 
      2300.0         0.32         27.0 
      2301.0         0.33         30.7 
      2302.0         0.30         38.7 
      2303.0         0.30         46.4 
      2304.0         0.20         53.5 
      2305.0         3.22         98.4 
      2306.0         0.40         77.2 
      2307.0         0.27         67.9 
      2308.0         0.43         62.6 
      2309.0         0.37         57.0 
      2310.0         0.37         52.0 
      2311.0         0.38         49.0 
      2312.0         0.27         47.3 
      2313.0         0.27         45.2 
      2314.0         0.33         42.7 
      2315.0         0.27         40.3 
      2316.0         0.27         39.9 
      2317.0         0.33         39.0 
      2318.0         0.30         38.3 
      2319.0         0.27         38.0 
      2320.0         0.30         37.3 
      2321.0         0.37         36.5 
      2322.0         0.38         36.8 
      2323.0         0.33         36.7 
      2324.0         0.33         37.5 
      2325.0         0.37         37.8 
      2326.0         0.33         37.2 
      2327.0         0.23         42.9 
      2328.0         0.37         52.4 
      2329.0         0.40         52.1 
      2330.0         0.40         47.5 
      2331.0         0.40         41.6 
      2332.0         0.45         37.0 
      2333.0         0.33         34.9 
      2334.0         0.20         32.3 
      2335.0         0.20         31.7 
      2336.0         5.15         70.2 
      2337.0         0.62         66.9 
      2338.0         0.53         62.6 
