~Version Information
VERS.                      2.0: CWLS Log ASCII Standard - VERSION 2.0
WRAP.                       NO: One line per depth step
~Well Information Block
STRT.FT               580.0000: 
STOP.FT              2729.7500: 
STEP.FT                 0.2500: 
NULL.                -999.2500: 
COMP.          Pioneer Natural Resources: COMPANY
WELL.          Sand Pebbles 13-33: WELL
FLD.           Purgatoire River: FIELD
LOC.           1883' FSL & 63' FWL----: LOCATION
PROV.                 Colorado: PROVINCE
CNTY.               Las Animas: COUNTRY
SRVC.                Patterson: SERVICE COMPANY
DATE.          Fri Mar 11 13:47:45 2005: LOG DATE
UWI.           05 071 08224 00: UNIQUE WELL ID
~Curve Information Block
DEPT.FT            0 000 00 00: Depth
SN.Ohm-m                      : IEL Short Normal
SP.mV                         : IEL Spontaneous Potential
DIR.Ohm-m                     : IEL Induction Resistivity
GR.GAPI                       : Gamma Ray
~Parameter Information Block
~A  Depth        SN          SP         DIR          GR     
# ...
  2255.0000     27.4878    -20.9129     25.6039     32.8029
  2255.2500     26.8146    -20.2809     25.0834     33.4149
  2255.5000     26.1365    -19.6501     24.6057     34.3728
  2255.7500     25.4772    -19.0316     24.1748     35.0271
  2256.0000     24.8398    -18.4250     23.7820     35.8013
  2256.2500     24.2072    -17.8230     23.4125     35.9987
  2256.5000     23.5578    -17.2190     23.0516     35.7453
  2256.7500     22.8871    -16.6125     22.6890     35.3756
  2257.0000     22.2170    -16.0103     22.3202     34.9680
  2257.2500     21.5874    -15.4238     21.9439     34.9559
  2257.5000     21.0347    -14.8636     21.5583     35.1954
  2257.7500     20.5720    -14.3360     21.1599     35.3283
  2258.0000     20.1821    -13.8421     20.7476     35.4588
  2258.2500     19.8302    -13.3803     20.3272     35.8077
  2258.5000     19.4868    -12.9495     19.9121     37.3895
  2258.7500     19.1445    -12.5503     19.5186     39.2270
  2259.0000     18.8161    -12.1835     19.1586     42.5003
  2259.2500     18.5176    -11.8472     18.8348     44.4163
  2259.5000     18.2497    -11.5327     18.5385     46.0470
  2259.7500     17.9888    -11.2223     18.2523     46.0711
  2260.0000     17.6915    -10.8907     17.9522     44.6395
  2260.2500     17.3088    -10.5083     17.6111     43.1293
  2260.5000     16.8060    -10.0469     17.2014     41.1366
  2260.7500     16.1837     -9.4847     16.7025     40.5392
  2261.0000     15.4849     -8.8088     16.1114     41.1280
  2261.2500     14.7779     -8.0169     15.4501     42.5194
  2261.5000     14.1195     -7.1182     14.7604     46.2222
  2261.7500     13.5295     -6.1343     14.0863     49.9715
  2262.0000     12.9939     -5.0996     13.4572     57.6657
  2262.2500     12.4927     -4.0600     12.8816     63.8299
  2262.5000     12.0239     -3.0669     12.3530     73.2885
  2262.7500     11.6053     -2.1681     11.8612     78.9293
  2263.0000     11.2605     -1.3980     11.4015     85.7050
  2263.2500     11.0023     -0.7707     10.9780     89.1472
  2263.5000     10.8237     -0.2789     10.6005     93.2237
  2263.7500     10.6962      0.1032     10.2778     95.6349
  2264.0000     10.5765      0.4122     10.0116     99.4182
  2264.2500     10.4220      0.6896      9.7947    102.1457
  2264.5000     10.2061      0.9750      9.6125    106.0752
  2264.7500      9.9249      1.3028      9.4471    108.1169
  2265.0000      9.5905      1.6986      9.2817    109.6277
  2265.2500      9.2230      2.1771      9.1037    109.4252
  2265.5000      8.8468      2.7397      8.9065    107.4390
  2265.7500      8.4910      3.3735      8.6897    105.2666
  2266.0000      8.1892      4.0509      8.4570    101.4250
  2266.2500      7.9727      4.7325      8.2138     98.9373
  2266.5000      7.8579      5.3734      7.9642     96.0746
  2266.7500      7.8347      5.9323      7.7107     95.1089
  2267.0000      7.8659      6.3795      7.4554     95.3816
  2267.2500      7.9025      6.7021      7.2018     96.4859
  2267.5000      7.9083      6.9036      6.9565     98.4538
  2267.7500      7.8735      6.9983      6.7277     99.4771
  2268.0000      7.8105      7.0055      6.5238    100.8395
  2268.2500      7.7389      6.9445      6.3519    102.0875
  2268.5000      7.6733      6.8327      6.2172    104.3031
  2268.7500      7.6200      6.6846      6.1226    105.2375
  2269.0000      7.5784      6.5109      6.0692    104.7156
  2269.2500      7.5451      6.3181      6.0562    103.1679
  2269.5000      7.5184      6.1076      6.0810     99.9755
  2269.7500      7.5003      5.8772      6.1404     97.6243
  2270.0000      7.4951      5.6233      6.2309     93.7556
  2270.2500      7.5065      5.3442      6.3496     90.9469
  2270.5000      7.5372      5.0425      6.4946     86.7862
  2270.7500      7.5880      4.7251      6.6642     84.3174
  2271.0000      7.6581      4.4017      6.8561     81.3845
  2271.2500      7.7449      4.0819      7.0661     80.2493
  2271.5000      7.8458      3.7715      7.2874     80.4783
  2271.7500      7.9598      3.4714      7.5117     81.9325
  2272.0000      8.0864      3.1772      7.7286     84.9009
  2272.2500      8.2213      2.8809      7.9264     86.4749
  2272.5000      8.3565      2.5731      8.0921     87.5203
  2272.7500      8.4845      2.2434      8.2145     87.6814
  2273.0000      8.6049      1.8814      8.2896     88.1999
  2273.2500      8.7244      1.4751      8.3250     89.0229
  2273.5000      8.8499      1.0106      8.3384     90.5919
  2273.7500      8.9816      0.4719      8.3514     91.5181
  2274.0000      9.1123     -0.1565      8.3819     92.7154
  2274.2500      9.2303     -0.8848      8.4389     93.6503
  2274.5000      9.3220     -1.7105      8.5219     95.4381
  2274.7500      9.3738     -2.6122      8.6217     96.5847
  2275.0000      9.3745     -3.5479      8.7222     97.3233
  2275.2500      9.3161     -4.4612      8.8037     96.8065
  2275.5000      9.1913     -5.2946      8.8476     94.7948
  2275.7500      8.9960     -6.0041      8.8418     93.2875
  2276.0000      8.7387     -6.5687      8.7842     91.9774
  2276.2500      8.4480     -6.9921      8.6834     92.0110
  2276.5000      8.1703     -7.2973      8.5552     93.1912
  2276.7500      7.9591     -7.5194      8.4185     94.6196
  2277.0000      7.8607     -7.6991      8.2906     97.9265
  2277.2500      7.9028     -7.8803      8.1848    100.8941
  2277.5000      8.0862     -8.1071      8.1086    105.5521
  2277.7500      8.3795     -8.4192      8.0639    107.8817
  2278.0000      8.7229     -8.8446      8.0498    109.0482
  2278.2500      9.0490     -9.3905      8.0653    108.2549
  2278.5000      9.3125    -10.0369      8.1124    105.6875
  2278.7500      9.5088    -10.7365      8.1978    103.8162
  2279.0000      9.6673    -11.4247      8.3318    101.6327
  2279.2500      9.8271    -12.0397      8.5253    100.6151
  2279.5000     10.0149    -12.5460      8.7859     99.0022
  2279.7500     10.2388    -12.9507      9.1149     97.3239
  2280.0000     10.4937    -13.3025      9.5055     93.7407
  2280.2500     10.7699    -13.6714      9.9421     91.1717
  2280.5000     11.0606    -14.1194     10.4025     88.2190
  2280.7500     11.3653    -14.6777     10.8618     87.1728
  2281.0000     11.6885    -15.3405     11.2986     86.8705
  2281.2500     12.0358    -16.0767     11.7006     87.3594
  2281.5000     12.4089    -16.8476     12.0684     88.9678
  2281.7500     12.8058    -17.6207     12.4136     90.5488
  2282.0000     13.2216    -18.3750     12.7551     93.6025
  2282.2500     13.6529    -19.0993     13.1136     96.0436
  2282.5000     14.0991    -19.7902     13.5064     99.7696
  2282.7500     14.5617    -20.4514     13.9447    101.4636
  2283.0000     15.0429    -21.0954     14.4335    101.1315
  2283.2500     15.5523    -21.7447     14.9748     98.7013
  2283.5000     16.1199    -22.4299     15.5738     93.1126
  2283.7500     16.8066    -23.1861     16.2430     89.3582
  2284.0000     17.6984    -24.0489     17.0039     85.0023
  2284.2500     18.8813    -25.0517     17.8830     82.9094
  2284.5000     20.4060    -26.2235     18.9034     79.9583
  2284.7500     22.2662    -27.5860     20.0740     77.2993
  2285.0000     24.4136    -29.1482     21.3801     71.1910
  2285.2500     26.8035    -30.8982     22.7823     65.6684
  2285.5000     29.4400    -32.7962     24.2266     56.4425
  2285.7500     32.3736    -34.7729     25.6623     50.7833
  2286.0000     35.6326    -36.7364     27.0558     44.5716
  2286.2500     39.1294    -38.5869     28.3897     42.3383
  2286.5000     42.6245    -40.2342     29.6515     41.7791
  2286.7500     45.8012    -41.6125     30.8233     42.9701
  2287.0000     48.4050    -42.6894     31.8815     46.3621
  2287.2500     50.3414    -43.4649     32.8039     49.2003
  2287.5000     51.6678    -43.9649     33.5780     53.4611
  2287.7500     52.5129    -44.2313     34.2067     55.8651
  2288.0000     52.9960    -44.3125     34.7107     58.3863
  2288.2500     53.1938    -44.2557     35.1248     59.3120
