~Version Information
VERS.                      2.0: CWLS Log ASCII Standard - VERSION 2.0
WRAP.                       NO: One line per depth step
~Well Information Block
STRT.FT               235.0000: 
STOP.FT              1634.5000: 
STEP.FT                 0.2500: 
NULL.                -999.2500: 
COMP.          Petrogulf Corporation: COMPANY
WELL.             State 16-41R: WELL
FLD.           Purgatorie River: FIELD
LOC.           280' FNL & 907' FEL: LOCATION
SECT.                       16: SECTION
TOWN.                      33S: TOWNSHIP
RANG.                      67W: RANGE
STAT.                 Colorado: STATE
CNTY.               Las Animas: COUNTY
CTRY.                      USA: COUNTRY
SRVC.                Patterson: SERVICE COMPANY
DATE.         Tue Oct 18 15:59:41 2005: LOG DATE
API.              05-071-08345: UNIQUE WELL ID
~Curve Information Block
DEPT.FT            0 000 00 00: Depth
SP.mV                         : DIL Spontaneous Potential
RILD.Ohm-m                    : DIL Deep Resistivity
RILM.Ohm-m                    : DIL Medium Resistivity
RLL3.Ohm-m                    : DIL Shallow Resistivity
GR.GAPI                       : Gamma Ray
~Parameter Information Block
~A  Depth        SP         RILD        RILM        RLL3         GR     
# ...
  1523.0000    178.0264      7.4841      7.6002      8.7722    149.7860
  1523.2500    178.9664      7.3976      7.5051      8.7416    149.1019
  1523.5000    179.8883      7.3113      7.4106      8.6531    150.2509
  1523.7500    180.6779      7.2310      7.3186      8.5500    152.1807
  1524.0000    181.2813      7.1619      7.2312      8.4838    154.7857
  1524.2500    181.7076      7.1074      7.1506      8.4831    155.2102
  1524.5000    182.0023      7.0690      7.0790      8.5444    152.8587
  1524.7500    182.2090      7.0476      7.0180      8.6423    149.3141
  1525.0000    182.3408      7.0442      6.9696      8.7406    142.1261
  1525.2500    182.3728      7.0610      6.9362      8.8021    137.0516
  1525.5000    182.2567      7.1011      6.9208      8.7984    130.4311
  1525.7500    181.9458      7.1672      6.9275      8.7233    127.2711
  1526.0000    181.4162      7.2605      6.9609      8.6054    125.0624
  1526.2500    180.6767      7.3806      7.0260      8.5122    125.1686
  1526.5000    179.7657      7.5265      7.1272      8.5361    126.3981
  1526.7500    178.7427      7.6975      7.2684      8.7558    127.0565
  1527.0000    177.6762      7.8949      7.4530      9.1863    127.3837
  1527.2500    176.6336      8.1225      7.6844      9.7584    127.3713
  1527.5000    175.6696      8.3868      7.9663     10.3539    126.6118
  1527.7500    174.8180      8.6959      8.3044     10.8745    124.8276
  1528.0000    174.0873      9.0591      8.7071     11.2944    119.5116
  1528.2500    173.4651      9.4852      9.1857     11.6666    114.8318
  1528.5000    172.9313      9.9823      9.7548     12.1044    108.4825
  1528.7500    172.4716     10.5571     10.4321     12.7705    106.0107
  1529.0000    172.0840     11.2152     11.2372     13.8817    105.5970
  1529.2500    171.7724     11.9603     12.1906     15.6794    106.6319
  1529.5000    171.5339     12.7934     13.3124     18.3045    107.3005
  1529.7500    171.3474     13.7123     14.6206     21.6412    105.7245
  1530.0000    171.1731     14.7097     16.1291     25.3811     99.7084
  1530.2500    170.9621     15.7705     17.8431     29.4585     93.9789
  1530.5000    170.6720     16.8679     19.7517     34.5464     84.7176
  1530.7500    170.2790     17.9612     21.8141     41.9873     78.9518
  1531.0000    169.7837     18.9972     23.9405     52.9252     71.5533
  1531.2500    169.2111     19.9175     25.9746     67.2067     67.5074
  1531.5000    168.6051     20.6719     27.6954     82.9235     62.6416
  1531.7500    168.0190     21.2329     28.8603     96.9247     60.1156
  1532.0000    167.5021     21.6075     29.2903    105.8825     57.4457
  1532.2500    167.0866     21.8367     28.9576    107.3415     56.5617
  1532.5000    166.7823     21.9811     28.0064    100.5000     56.8632
  1532.7500    166.5821     22.0971     26.6913     86.6148     58.2092
  1533.0000    166.4777     22.2173     25.2792     68.7768     61.9445
  1533.2500    166.4734     22.3423     23.9810     50.8839     65.6719
  1533.5000    166.5873     22.4472     22.9291     36.1937     73.4941
  1533.7500    166.8367     22.4932     22.1878     26.3468     80.2874
  1534.0000    167.2159     22.4376     21.7713     21.5212     92.1713
  1534.2500    167.6851     22.2420     21.6584     21.4596    100.2522
  1534.5000    168.1804     21.8802     21.7974     26.4154    110.2066
  1534.7500    168.6425     21.3514     22.1058     37.1191    113.9028
  1535.0000    169.0501     20.6894     22.4714     53.5174    113.3213
  1535.2500    169.4366     19.9595     22.7612     73.1165    108.8923
  1535.5000    169.8799     19.2396     22.8477     90.6480     98.2404
  1535.7500    170.4671     18.5980     22.6450    100.1098     90.3453
  1536.0000    171.2512     18.0758     22.1377     97.9866     80.5276
  1536.2500    172.2162     17.6794     21.3805     85.1589     76.8162
  1536.5000    173.2680     17.3819     20.4692     66.2264     77.1455
  1536.7500    174.2526     17.1299     19.5020     46.9926     81.6751
  1537.0000    174.9943     16.8573     18.5516     31.8034     94.2932
  1537.2500    175.3383     16.5035     17.6559     22.2388    105.3823
  1537.5000    175.1859     16.0310     16.8227     17.5752    122.8970
  1537.7500    174.5161     15.4380     16.0405     16.1343    133.0307
  1538.0000    173.3936     14.7566     15.2916     16.3307    142.6467
  1538.2500    171.9659     14.0410     14.5622     17.0182    144.4559
  1538.5000    170.4436     13.3493     13.8496     17.4680    141.6137
  1538.7500    169.0644     12.7301     13.1628     17.3250    138.0097
  1539.0000    168.0391     12.2162     12.5198     16.5843    133.5793
  1539.2500    167.4969     11.8259     11.9425     15.4904    132.7167
  1539.5000    167.4477     11.5653     11.4513     14.3482    135.4491
  1539.7500    167.7800     11.4326     11.0632     13.3558    139.5086
  1540.0000    168.2976     11.4197     10.7906     12.5584    147.3051
  1540.2500    168.7782     11.5127     10.6425     11.9304    152.9230
  1540.5000    169.0318     11.6926     10.6259     11.4989    161.5300
  1540.7500    168.9382     11.9365     10.7464     11.4324    166.8479
  1541.0000    168.4591     12.2216     11.0080     12.0666    171.6957
  1541.2500    167.6302     12.5316     11.4130     13.8447    171.1482
  1541.5000    166.5432     12.8603     11.9596     17.0906    163.6737
  1541.7500    165.3236     13.2136     12.6402     21.6185    155.0022
  1542.0000    164.1055     13.6070     13.4403     26.4792    138.3497
  1542.2500    163.0024     14.0622     14.3381     30.2677    125.7061
  1542.5000    162.0816     14.6033     15.3078     31.9547    106.2034
  1542.7500    161.3499     15.2523     16.3239     31.5479     94.4104
  1543.0000    160.7594     16.0231     17.3662     29.9551     81.3456
  1543.2500    160.2311     16.9149     18.4235     28.2415     76.4711
  1543.5000    159.6866     17.9060     19.4925     27.0147     73.8751
  1543.7500    159.0761     18.9510     20.5753     26.3539     73.9603
  1544.0000    158.3913     19.9840     21.6733     26.1091     74.9987
  1544.2500    157.6616     20.9309     22.7825     26.2025     75.7177
  1544.5000    156.9413     21.7257     23.8890     26.7464     76.1542
  1544.7500    156.2914     22.3257     24.9665     27.9649     75.8010
  1545.0000    155.7652     22.7187     25.9757     29.9811     74.5091
  1545.2500    155.3981     22.9186     26.8662     32.6065     73.3896
  1545.5000    155.2032     22.9533     27.5809     35.3088     71.5036
  1545.7500    155.1722     22.8492     28.0619     37.4057     70.2807
  1546.0000    155.2808     22.6203     28.2571     38.3521     69.3898
  1546.2500    155.4966     22.2654     28.1245     37.9845     70.0252
  1546.5000    155.7868     21.7757     27.6358     36.6803     73.2475
  1546.7500    156.1231     21.1471     26.7818     35.3176     76.8443
  1547.0000    156.4801     20.3917     25.5810     34.8565     84.1066
  1547.2500    156.8310     19.5404     24.0875     35.6057     89.7563
  1547.5000    157.1428     18.6374     22.3921     36.7192     98.2431
  1547.7500    157.3748     17.7314     20.6106     36.5742    103.4272
  1548.0000    157.4838     16.8688     18.8610     33.9867    110.7655
  1548.2500    157.4365     16.0892     17.2420     29.2206    115.9043
  1548.5000    157.2237     15.4229     15.8205     23.7467    124.6211
  1548.7500    156.8705     14.8876     14.6318     19.0332    131.1551
  1549.0000    156.4380     14.4865     13.6867     15.6554    141.7530
  1549.2500    156.0105     14.2081     12.9810     13.4106    149.0448
  1549.5000    155.6715     14.0295     12.5036     11.9272    159.8015
  1549.7500    155.4758     13.9228     12.2413     11.0336    166.6152
  1550.0000    155.4274     13.8619     12.1810     10.7636    175.5787
  1550.2500    155.4737     13.8263     12.3088     11.2674    179.9239
  1550.5000    155.5224     13.8003     12.6070     12.7664    182.6490
  1550.7500    155.4727     13.7717     13.0492     15.4605    181.5816
