~Version Information
VERS.                      2.0: CWLS Log ASCII Standard - VERSION 2.0
WRAP.                       NO: One line per depth step
~Well Information Block
STRT.FT               650.0000: 
STOP.FT              1999.0000: 
STEP.FT                 0.2500: 
NULL.                -999.2500: 
COMP.          Pioneer Natural Resources: COMPANY
WELL.           Firehawk 34-26: WELL
FLD.           Purgatoire River: FIELD
LOC.           1196' FSL & 1595' FEL--: LOCATION
STAT.                 Colorado: State
CNTY.               Las Animas: COUNTY
CTRY. USA : Country
SECT. 26 : Section
TOWN. 32S : Township
RANG. 66W : Range
SRVC.                Patterson: SERVICE COMPANY
DATE.          Sun Oct 16 16:57:28 2005: LOG DATE
API.           05 071 08389 00: UNIQUE WELL ID
~Curve Information Block
DEPT.FT            0 000 00 00: Depth
SN.Ohm-m                      : IEL Short Normal
SP.mV                         : IEL Spontaneous Potential
DIR.Ohm-m                     : IEL Induction Resistivity
GR.GAPI                       : Gamma Ray
~Parameter Information Block
~A  Depth        SN          SP         DIR          GR     
# ...
   918.0000     10.6755   -118.4092     10.3350    115.3020
   918.2500     10.4078   -119.0361     10.3773    115.0806
   918.5000     10.1066   -119.3095     10.4490    113.5104
   918.7500      9.7910   -119.2094     10.5545    111.3941
   919.0000      9.5134   -118.7589     10.6992    106.6084
   919.2500      9.3933   -118.0544     10.8880    102.7193
   919.5000      9.5665   -117.3135     11.1236     97.0210
   919.7500     10.1042   -116.8248     11.4037     94.0500
   920.0000     10.9489   -116.7550     11.7222     91.4009
   920.2500     11.9075   -116.9837     12.0730     90.4889
   920.5000     12.7717   -117.1826     12.4526     88.9955
   920.7500     13.4516   -117.1096     12.8593     87.1954
   921.0000     13.9868   -116.8337     13.2893     83.0069
   921.2500     14.4590   -116.6651     13.7337     79.6231
   921.5000     14.8568   -116.8593     14.1797     74.8745
   921.7500     15.0850   -117.3907     14.6123     72.6728
   922.0000     15.1611   -117.9987     15.0143     71.5633
   922.2500     15.2746   -118.4179     15.3652     72.1798
   922.5000     15.5793   -118.5363     15.6447     74.2486
   922.7500     15.9998   -118.3775     15.8416     75.8288
   923.0000     16.2989   -118.0069     15.9626     77.9122
   923.2500     16.3315   -117.5004     16.0316     79.0047
   923.5000     16.2060   -116.9841     16.0776     80.3220
   923.7500     16.1338   -116.6402     16.1221     81.1443
   924.0000     16.1579   -116.6061     16.1712     82.3817
   924.2500     16.1437   -116.8518     16.2172     82.9863
   924.5000     15.9894   -117.1947     16.2454     82.8579
   924.7500     15.7217   -117.4462     16.2435     81.8852
   925.0000     15.4239   -117.5305     16.2076     79.7510
   925.2500     15.1775   -117.4787     16.1441     78.6399
   925.5000     15.0376   -117.3556     16.0660     78.2935
   925.7500     14.9888   -117.1978     15.9883     78.7865
   926.0000     14.9637   -116.9922     15.9254     79.5658
   926.2500     14.9413   -116.7011     15.8906     79.5844
   926.5000     14.9686   -116.3190     15.8944     78.8417
   926.7500     15.0724   -115.8997     15.9414     78.3029
   927.0000     15.2232   -115.5210     16.0261     78.3485
   927.2500     15.4039   -115.2279     16.1323     79.1509
   927.5000     15.6505   -115.0147     16.2366     81.0353
   927.7500     15.9635   -114.8479     16.3163     82.1514
   928.0000     16.2159   -114.6940     16.3565     82.6651
   928.2500     16.2552   -114.5298     16.3538     82.0118
   928.5000     16.0783   -114.3419     16.3141     79.9841
   928.7500     15.8433   -114.1256     16.2472     78.5761
   929.0000     15.7222   -113.8850     16.1608     77.4957
   929.2500     15.7461   -113.6289     16.0547     77.7495
   929.5000     15.8051   -113.3589     15.9194     79.3534
   929.7500     15.7850   -113.0674     15.7395     80.9763
   930.0000     15.6618   -112.7553     15.4990     84.0507
   930.2500     15.4617   -112.4477     15.1843     86.4035
   930.5000     15.1955   -112.1782     14.7820     89.5766
   930.7500     14.8908   -111.9543     14.2761     90.7028
   931.0000     14.6264   -111.7495     13.6545     90.1037
   931.2500     14.4829   -111.5324     12.9232     88.4153
   931.5000     14.5119   -111.2969     12.1193     85.4132
   931.7500     14.7189   -111.0598     11.3078     84.0746
   932.0000     15.0168   -110.8431     10.5623     83.9198
   932.2500     15.2656   -110.6590      9.9404     84.8381
   932.5000     15.4042   -110.4997      9.4699     86.6525
   932.7500     15.5066   -110.3303      9.1511     87.6453
   933.0000     15.6571   -110.1037      8.9698     88.7551
   933.2500     15.8107   -109.7983      8.9168     89.5071
   933.5000     15.8759   -109.4474      9.0101     90.8241
   933.7500     15.8730   -109.1223      9.3180     91.5681
   934.0000     15.9076   -108.8764      9.9875     91.7495
   934.2500     16.0559   -108.6984     11.3058     90.9017
   934.5000     16.3334   -108.5128     13.8718     87.8342
   934.7500     16.7346   -108.2235     19.1643     84.5177
   935.0000     17.3089   -107.7673     32.0508     77.8367
   935.2500     18.2070   -107.1446     82.5606     72.6269
   935.5000     19.5638   -106.4156 100000.0000     64.7146
   935.7500     21.2994   -105.6624 100000.0000     60.0775
   936.0000     23.1267   -104.9420 100000.0000     55.2528
   936.2500     24.7194   -104.2710 100000.0000     54.0543
   936.5000     25.7755   -103.6627 100000.0000     55.9523
   936.7500     26.1114   -103.1806 100000.0000     59.7264
   937.0000     25.8303   -102.9619 100000.0000     68.5003
   937.2500     25.2668   -103.2200 100000.0000     75.6320
   937.5000     24.7145   -104.2671 100000.0000     86.2451
   937.7500     24.2379   -106.5542 100000.0000     91.8283
   938.0000     23.7388   -110.6493 100000.0000     95.7413
   938.2500     23.1455   -117.0594 100000.0000     94.7968
   938.5000     22.5076   -125.8863 100000.0000     88.9579
   938.7500     21.9897   -136.5182 100000.0000     83.5499
   939.0000     21.7943   -147.6744 100000.0000     75.8928
   939.2500     22.0409   -157.8951 100000.0000     72.1731
   939.5000     22.7696   -166.0977 100000.0000     69.2840
   939.7500     24.0040   -171.7081 100000.0000     69.0574
   940.0000     25.6176   -174.3818 100000.0000     71.0026
   940.2500     27.1604   -173.9047 100000.0000     73.7184
   940.5000     27.9758   -170.7328 100000.0000     79.5683
   940.7500     27.5293   -166.7963 100000.0000     84.1687
   941.0000     25.6998   -165.5923      8.3837     90.7945
   941.2500     22.9517   -170.9973      1.8699     94.1515
   941.5000     20.0547   -185.2598      0.9564     96.3558
   941.7500     17.3076   -207.3615      0.6362     95.4899
   942.0000     14.3113   -232.9806      0.4959     90.3915
   942.2500     10.7861   -256.4995      0.4313     84.6062
   942.5000      7.2264   -273.8867      0.3987     73.3999
   942.7500      4.4485   -284.2854      0.3729     65.3189
   943.0000      2.8051   -289.3271      0.3399     54.3649
   943.2500      2.0694   -291.3173      0.2983     48.8020
   943.5000      1.8254   -291.9630      0.2539     43.8823
   943.7500      1.7738   -292.1368      0.2131     42.8756
   944.0000      1.7806   -292.1717      0.1795     44.0539
   944.2500      1.8005   -292.1656      0.1539     45.8450
   944.5000      1.8157   -292.1344      0.1352     48.3260
   944.7500      1.8209   -292.0504      0.1218     49.0752
   945.0000      1.8167   -291.7834      0.1123     49.0101
   945.2500      1.8006   -290.9005      0.1053     49.2872
   945.5000      1.7775   -288.3024      0.1006     52.6167
   945.7500      1.7739   -281.9606      0.0983     57.4357
   946.0000      1.8245   -269.4203      0.0991     67.1869
   946.2500      1.9649   -249.4196      0.1050     73.3926
   946.5000      2.2740   -223.5630      0.1194     78.9389
   946.7500      2.9491   -196.1369      0.1493     79.4917
   947.0000      4.3456   -171.7594      0.2088     77.4501
   947.2500      6.8034   -152.9669      0.3266     76.0863
   947.5000     10.2202   -139.7234      0.5721     76.3152
   947.7500     13.8727   -130.5961      1.2125     78.0937
   948.0000     16.9055   -124.0808      4.8484     81.7559
   948.2500     18.9435   -119.1966 100000.0000     83.7228
   948.5000     20.1566   -115.4566 100000.0000     84.7461
   948.7500     20.9446   -112.6267 100000.0000     84.2490
   949.0000     21.6312   -110.5368 100000.0000     82.9048
   949.2500     22.3073   -109.0159 100000.0000     82.2466
   949.5000     22.8751   -107.9120 100000.0000     81.9521
   949.7500     23.2183   -107.1354 100000.0000     82.0817
   950.0000     23.3580   -106.6716 100000.0000     82.3650
   950.2500     23.4692   -106.5518 100000.0000     82.3346
   950.5000     23.6828   -106.8025 100000.0000     81.4935
   950.7500     23.9030   -107.4126 100000.0000     80.3128
   951.0000     23.9317   -108.3397 100000.0000     78.0246
   951.2500     23.6906   -109.5451 100000.0000     76.6282
