~Version Information
VERS.                      2.0: CWLS Log ASCII Standard - VERSION 2.0
WRAP.                       NO: One line per depth step
~Well Information Block
STRT.FT               784.0000: 
STOP.FT              1033.0000: 
STEP.FT                 0.1000: 
NULL.                -999.2500: 
COMP.          Pioneer Natural Resources: COMPANY
WELL.          Run-Away-Train 43-26: WELL
FLD.           Purgatoire River: FIELD
LOC.           1693' FSL & 1195' FEL: LOCATION
PROV.                 Colorado: PROVINCE
CNTY.               Las Animas: COUNTRY
SRVC.                Patterson: SERVICE COMPANY
DATE.          Wed Apr 06 07:23:28 2005: LOG DATE
UWI.           05 071 08188 00: UNIQUE WELL ID
~Curve Information Block
DEPT.FT            0 000 00 00: Depth
DCAL.in                       : CDL Caliper
RHOB.g/cc                     : CDL Bulk Density
RHOC.g/cc                     : CDL Density Correction
DPOR.pu                       : CDL Density Porosity
GR.GAPI                       : Gamma Ray
NPOR.pu                       : Neutron Porosity
~Parameter Information Block
~A  Depth       DCAL        RHOB        RHOC        DPOR         GR         NPOR    
# ...
   995.2000      7.8474      2.6232      0.1100      1.6263    100.4973     23.2343
   995.3000      7.8518      2.6225      0.0911      1.6681     99.9926     22.5916
   995.4000      7.8518      2.6208      0.0922      1.7721    101.8871     21.6274
   995.5000      7.8452      2.6150      0.0995      2.1198    104.3644     20.8832
   995.6000      7.8452      2.6125      0.0157      2.2709    106.4734     20.7976
   995.7000      7.8452      2.6266      0.0353      1.4207    108.1150     21.0827
   995.8000      7.8216      2.6510      0.0793     -0.0636    108.4650     20.9062
   995.9000      7.8216      2.6587      0.1247     -0.5285    105.6665     20.4882
   996.0000      7.8729      2.6375      0.0833      0.7600     99.6685     20.2774
   996.1000      7.8729      2.6056      0.0283      2.6902     95.6836     19.5384
   996.2000      7.8729      2.5830      0.0792      4.0614     95.8223     18.6514
   996.3000      7.8760      2.5673      0.0545      5.0098     96.6660     19.1161
   996.4000      7.8760      2.5501      0.0328      6.0563     95.7462     20.4896
   996.5000      7.8241      2.5342      0.0186      7.0157     93.5754     21.0142
   996.6000      7.8241      2.5241      0.0175      7.6313     92.4024     20.5868
   996.7000      7.8241      2.5193      0.0230      7.9182     91.7991     20.2852
   996.8000      7.8668      2.5265      0.0561      7.4877     88.9942     20.5766
   996.9000      7.8668      2.5471      0.0054      6.2392     84.3834     21.6460
   997.0000      7.8577      2.5614      0.1211      5.3679     81.6078     22.9944
   997.1000      7.8577      2.5630      0.0854      5.2756     81.9595     23.7636
   997.2000      7.8577      2.5724      0.1652      4.7028     86.2296     23.8082
   997.3000      7.8292      2.5860      0.1741      3.8765     92.9084     23.2270
   997.4000      7.8292      2.5857      0.1342      3.8950     97.7231     22.2762
   997.5000      7.7933      2.5759      0.1259      4.4905     97.7445     21.1911
   997.6000      7.7933      2.5680      0.1153      4.9672     92.4066     20.3202
   997.7000      7.7933      2.5678      0.0848      4.9837     85.9196     20.3594
   997.8000      7.8047      2.5770      0.0303      4.4248     83.5493     21.3281
   997.9000      7.8047      2.5887      0.1237      3.7164     86.3986     22.3387
   998.0000      7.8316      2.5922      0.1189      3.5022     90.3321     22.4636
   998.1000      7.8316      2.5824      0.1151      4.0987     90.3332     21.8292
   998.2000      7.8316      2.5530      0.1175      5.8809     87.7354     20.8886
   998.3000      7.8564      2.5118      0.0573      8.3737     89.3791     19.9288
   998.4000      7.8564      2.4853      0.0458      9.9800     94.2740     19.8812
   998.5000      7.8219      2.4797      0.0688     10.3198     93.4935     21.0249
   998.6000      7.8219      2.4780     -0.0069     10.4249     87.7060     22.0658
   998.7000      7.8219      2.4717      0.0765     10.8050     85.8822     22.2187
   998.8000      7.7793      2.4651      0.0392     11.2060     88.2773     21.9555
   998.9000      7.7793      2.4743      0.0107     10.6466     89.2382     21.9263
   999.0000      7.8330      2.5019      0.0845      8.9759     88.3756     22.0007
   999.1000      7.8330      2.5250      0.1237      7.5747     86.0913     21.4557
   999.2000      7.8330      2.5343      0.0959      7.0124     83.4501     20.8340
   999.3000      7.8586      2.5298      0.1353      7.2849     81.4925     20.9206
   999.4000      7.8586      2.5129      0.0779      8.3121     76.6455     21.0457
   999.5000      7.8479      2.4984      0.0480      9.1901     69.8514     20.5554
   999.6000      7.8479      2.4881      0.1053      9.8104     67.5474     19.9747
   999.7000      7.8479      2.4804     -0.0151     10.2788     71.0607     19.8725
   999.8000      7.8491      2.4902      0.0173      9.6826     76.1712     19.7017
   999.9000      7.8491      2.5089      0.0911      8.5493     77.7337     19.0485
  1000.0000      7.8618      2.5145      0.0280      8.2112     73.8911     18.5953
  1000.1000      7.8618      2.5145     -0.0033      8.2147     67.7938     19.0769
  1000.2000      7.8618      2.5206      0.0618      7.8407     63.2813     19.9385
  1000.3000      7.8665      2.5222      0.0464      7.7464     61.0541     19.9682
  1000.4000      7.8665      2.5138      0.0353      8.2522     60.6712     19.5803
  1000.5000      7.8718      2.5132      0.0318      8.2917     62.4219     19.4936
  1000.6000      7.8718      2.5282      0.0767      7.3794     65.1928     19.5591
  1000.7000      7.8718      2.5368      0.0789      6.8620     66.0424     19.9178
  1000.8000      7.8671      2.5286      0.0363      7.3589     65.0215     20.3739
  1000.9000      7.8671      2.5213      0.0427      7.7997     64.7762     20.5513
  1001.0000      7.8378      2.5259      0.0503      7.5226     65.8580     20.7607
  1001.1000      7.8378      2.5393      0.0777      6.7063     67.4093     21.1478
  1001.2000      7.8378      2.5555      0.0822      5.7273     69.1929     21.4247
  1001.3000      7.8390      2.5707      0.0757      4.8067     73.7227     21.5762
  1001.4000      7.8390      2.5803      0.0596      4.2212     80.4568     22.0343
  1001.5000      7.8552      2.5745      0.0791      4.5776     83.5883     22.8820
  1001.6000      7.8552      2.5532      0.0290      5.8671     82.8303     23.5558
  1001.7000      7.8552      2.5286      0.0495      7.3558     82.5427     23.4453
  1001.8000      7.8740      2.5077      0.0483      8.6251     85.6443     22.4572
  1001.9000      7.8740      2.4886      0.0602      9.7798     91.3937     21.6866
  1002.0000      7.8998      2.4685      0.0138     10.9987     95.4939     22.4153
  1002.1000      7.8998      2.4537      0.0214     11.8950     95.6661     23.9504
  1002.2000      7.8998      2.4547     -0.0101     11.8351     93.7022     24.5212
  1002.3000      7.8543      2.4777      0.0064     10.4429     91.7538     24.1543
  1002.4000      7.8543      2.5141      0.0667      8.2378     89.8443     23.8913
  1002.5000      7.8508      2.5505      0.0971      6.0278     89.2499     23.9774
  1002.6000      7.8508      2.5888      0.0839      3.7115     92.6223     24.3127
  1002.7000      7.8508      2.6198      0.1853      1.8293     98.9568     24.7021
  1002.8000      7.8244      2.6191      0.1766      1.8733    106.1740     25.1933
  1002.9000      7.8244      2.5938      0.0894      3.4081    111.7049     25.3233
  1003.0000      7.8182      2.5677      0.0762      4.9894    110.4651     24.6492
  1003.1000      7.8182      2.5394      0.0808      6.7040    102.5359     24.2292
  1003.2000      7.8182      2.5114     -0.0036      8.3982     93.9892     24.6445
  1003.3000      7.8369      2.5019      0.0412      8.9769     89.3507     25.1199
  1003.4000      7.8369      2.5184      0.0015      7.9739     88.7019     24.9123
  1003.5000      7.8585      2.5511      0.0383      5.9945     88.7264     23.9795
  1003.6000      7.8585      2.5707      0.0268      4.8061     85.6278     23.0787
  1003.7000      7.8585      2.5659      0.0081      5.0962     80.4889     22.5276
  1003.8000      7.8270      2.5612      0.0507      5.3825     79.6352     21.7777
  1003.9000      7.8270      2.5683      0.0919      4.9490     84.5382     20.6742
  1004.0000      7.8530      2.5763      0.0698      4.4681     87.6904     19.7666
  1004.1000      7.8530      2.5780      0.1160      4.3644     84.5849     19.3541
  1004.2000      7.8530      2.5693      0.0922      4.8880     80.8521     19.5638
  1004.3000      7.8160      2.5542      0.0652      5.8062     82.7656     20.2447
  1004.4000      7.8160      2.5479      0.0033      6.1872     88.0898     20.7702
  1004.5000      7.8124      2.5566      0.0749      5.6588     88.6517     20.9923
  1004.6000      7.8124      2.5755      0.0231      4.5144     84.0795     21.2293
  1004.7000      7.8124      2.6018      0.0702      2.9221     82.6633     21.4408
