~Version Information
VERS.                      2.0: CWLS Log ASCII Standard - VERSION 2.0
WRAP.                       NO: One line per depth step
~Well Information Block
STRT.FT               898.0000: 
STOP.FT              2359.2000: 
STEP.FT                 0.1000: 
NULL.                -999.2500: 
COMP.          Pioneer Natural Resources: COMPANY
WELL.             Trimax 44-23: WELL
FLD.           Purgatoire River: FIELD
LOC.           527' FSL & 1064' FEL: LOCATION
PROV.                 Colorado: PROVINCE
CNTY.               Las Animas: COUNTRY
SRVC.                Patterson: SERVICE COMPANY
DATE.          Mon Mar 14 07:28:19 2005: LOG DATE
UWI.           05 071 08326 00: UNIQUE WELL ID
~Curve Information Block
DEPT.FT            0 000 00 00: Depth
DCAL.in                       : CDL Caliper
RHOB.g/cc                     : CDL Bulk Density
RHOC.g/cc                     : CDL Density Correction
DPOR.pu                       : CDL Density Porosity
GR.GAPI                       : Gamma Ray
NPOR.pu                       : Neutron Porosity
~Parameter Information Block
~A  Depth       DCAL        RHOB        RHOC        DPOR         GR         NPOR    
# ...
  1282.0000      7.8505      2.7063      0.1238     -3.4094     96.3904     26.0631
  1282.1000      7.8505      2.7173      0.1397     -4.0759     97.6249     25.2574
  1282.2000      7.8505      2.7091      0.1096     -3.5814    100.5437     24.5592
  1282.3000      7.8578      2.6829      0.1078     -1.9911    100.9904     24.1653
  1282.4000      7.8578      2.6467      0.0675      0.1975     96.8695     24.1808
  1282.5000      7.8778      2.6209      0.0160      1.7617     90.0133     24.3708
  1282.6000      7.8778      2.6175      0.0151      1.9679     86.2359     24.3661
  1282.7000      7.8778      2.6231      0.0486      1.6283     88.5445     24.2150
  1282.8000      7.8865      2.6266      0.0021      1.4210     94.2449     24.1703
  1282.9000      7.8865      2.6314      0.0130      1.1292     98.7126     24.1041
  1283.0000      7.8824      2.6407      0.0719      0.5625     99.9147     24.0483
  1283.1000      7.8824      2.6489      0.0690      0.0677     99.1399     24.1774
  1283.2000      7.8824      2.6468      0.1044      0.1964     98.3251     24.0886
  1283.3000      7.8764      2.6311      0.1051      1.1479     98.7687     23.6140
  1283.4000      7.8764      2.6138      0.0577      2.1939     99.5351     23.3701
  1283.5000      7.8773      2.6069      0.0754      2.6142     98.2852     23.5849
  1283.6000      7.8773      2.6009      0.0877      2.9734     94.8781     23.6370
  1283.7000      7.8773      2.5920      0.0129      3.5139     90.9277     23.4796
  1283.8000      7.8838      2.5916      0.0407      3.5382     88.7323     23.4325
  1283.9000      7.8838      2.5946      0.0810      3.3554     88.9327     23.3226
  1284.0000      7.8904      2.5922      0.0557      3.5003     88.5628     23.3146
  1284.1000      7.8904      2.5932      0.0255      3.4427     86.8791     23.7107
  1284.2000      7.8904      2.5971      0.0378      3.2065     85.6802     24.4055
  1284.3000      7.8933      2.5929      0.0296      3.4610     83.2515     25.2548
  1284.4000      7.8933      2.5896     -0.0028      3.6576     78.0403     25.8428
  1284.5000      7.8930      2.6001      0.0191      3.0232     72.7268     25.9006
  1284.6000      7.8930      2.6088      0.0920      2.4960     69.6581     25.5296
  1284.7000      7.8930      2.6027      0.0434      2.8670     69.1976     24.9927
  1284.8000      7.8920      2.5972      0.0370      3.2016     72.3704     24.8024
  1284.9000      7.8920      2.6037      0.0504      2.8073     79.0251     25.1160
  1285.0000      7.8915      2.6121      0.0773      2.2998     84.9413     25.4081
  1285.1000      7.8915      2.6085      0.0983      2.5169     86.9396     25.1012
  1285.2000      7.8915      2.6003      0.0287      3.0099     84.5667     24.2376
  1285.3000      7.8909      2.6040      0.0440      2.7909     80.6519     23.3318
  1285.4000      7.8909      2.6115      0.0403      2.3315     79.8350     22.8549
  1285.5000      7.8904      2.6094      0.0305      2.4629     80.4701     22.6858
  1285.6000      7.8904      2.6031      0.0394      2.8400     78.5505     22.5866
  1285.7000      7.8904      2.6030      0.0323      2.8469     76.2089     22.7124
  1285.8000      7.8903      2.6094      0.0293      2.4633     76.6878     22.9959
  1285.9000      7.8903      2.6172      0.0448      1.9850     80.6215     23.1708
  1286.0000      7.8891      2.6164      0.0863      2.0341     85.3273     23.0492
  1286.1000      7.8891      2.6028      0.0471      2.8616     86.9980     22.6175
  1286.2000      7.8891      2.5929      0.0502      3.4582     85.4949     22.3501
  1286.3000      7.8864      2.5981      0.0481      3.1447     82.7669     22.6912
  1286.4000      7.8864      2.6067      0.0416      2.6271     80.3606     23.2433
  1286.5000      7.8858      2.6058      0.0132      2.6815     80.0501     23.4862
  1286.6000      7.8858      2.5980      0.0094      3.1524     84.4682     23.5342
  1286.7000      7.8858      2.5886      0.0593      3.7186     91.6532     23.6200
  1286.8000      7.8891      2.5782      0.0413      4.3535     94.9092     24.0694
  1286.9000      7.8891      2.5752      0.0007      4.5353     91.9554     24.6909
  1287.0000      7.8919      2.5884      0.0105      3.7332     87.6577     24.8465
  1287.1000      7.8919      2.6032      0.0782      2.8392     86.5818     24.5889
  1287.2000      7.8919      2.5928      0.0361      3.4655     88.0419     24.2190
  1287.3000      7.8931      2.5617      0.0030      5.3536     87.9791     23.8684
  1287.4000      7.8931      2.5427     -0.0391      6.5021     84.3233     23.6702
  1287.5000      7.8931      2.5545     -0.0380      5.7851     79.2717     23.3341
  1287.6000      7.8931      2.5834      0.0257      4.0376     78.0830     22.8496
  1287.7000      7.8931      2.6015      0.0455      2.9421     80.8858     22.7650
  1287.8000      7.8916      2.6028     -0.0016      2.8595     81.4940     23.0176
  1287.9000      7.8916      2.6074      0.0193      2.5830     78.4043     23.3615
  1288.0000      7.8904      2.6204      0.0255      1.7936     76.7340     23.8351
  1288.1000      7.8904      2.6301      0.0355      1.2064     78.3437     24.2208
  1288.2000      7.8904      2.6305      0.0400      1.1810     81.2612     24.0836
  1288.3000      7.8905      2.6181      0.0324      1.9316     83.8642     23.5515
  1288.4000      7.8905      2.5933     -0.0052      3.4335     83.0858     23.5075
  1288.5000      7.8908      2.5695     -0.0004      4.8777     81.7599     24.2278
  1288.6000      7.8908      2.5627     -0.0234      5.2902     86.7156     25.3023
  1288.7000      7.8908      2.5717      0.0043      4.7444     96.5539     26.4204
  1288.8000      7.8914      2.5778      0.0467      4.3763    104.0461     27.1617
  1288.9000      7.8914      2.5720     -0.0045      4.7247    104.9568     27.4999
  1289.0000      7.8919      2.5635      0.0131      5.2427    100.6185     27.5667
  1289.1000      7.8919      2.5582      0.0017      5.5656     93.3371     27.2556
  1289.2000      7.8919      2.5543      0.0175      5.7986     87.3577     26.9648
  1289.3000      7.8919      2.5505      0.0293      6.0292     89.1280     27.2700
  1289.4000      7.8919      2.5507      0.0243      6.0202     94.5154     27.9616
  1289.5000      7.8917      2.5620      0.0013      5.3306     94.0655     28.4184
  1289.6000      7.8917      2.5810      0.0115      4.1828     88.8956     28.2748
  1289.7000      7.8917      2.5964      0.0239      3.2470     84.6740     27.5367
  1289.8000      7.8919      2.6134     -0.0274      2.2166     82.5192     26.5554
  1289.9000      7.8919      2.6371      0.0545      0.7822     82.5801     25.6058
  1290.0000      7.8919      2.6473      0.0577      0.1653     87.3276     25.0350
  1290.1000      7.8919      2.6301      0.0018      1.2066     94.2956     25.1345
  1290.2000      7.8919      2.6079     -0.0297      2.5537     98.1628     25.5815
  1290.3000      7.8915      2.6054     -0.0082      2.7021     99.1008     25.7378
  1290.4000      7.8915      2.6141      0.0385      2.1744     99.2478     25.1949
  1290.5000      7.8911      2.6164      0.0326      2.0377     99.0957     24.3952
  1290.6000      7.8911      2.6158     -0.0270      2.0742     97.6553     24.1360
  1290.7000      7.8911      2.6240      0.0199      1.5753     96.0496     24.3483
  1290.8000      7.8908      2.6401     -0.0020      0.5994     96.6314     24.6538
  1290.9000      7.8908      2.6573      0.0282     -0.4408     98.5504     24.9539
  1291.0000      7.8907      2.6671      0.0625     -1.0360     98.4379     24.8909
  1291.1000      7.8907      2.6601      0.0744     -0.6098     94.0730     24.3328
  1291.2000      7.8907      2.6432      0.0218      0.4136     87.0867     23.7527
  1291.3000      7.8908      2.6392     -0.0130      0.6541     82.1858     23.4429
  1291.4000      7.8908      2.6516      0.0385     -0.0970     81.7244     23.3684
  1291.5000      7.8910      2.6569      0.0062     -0.4159     80.6148     23.3609
