~Version Information
VERS.                      2.0: CWLS Log ASCII Standard - VERSION 2.0
WRAP.                       NO: One line per depth step
~Well Information Block
STRT.FT                 0.0000: 
STOP.FT              2430.7500: 
STEP.FT                 0.2500: 
NULL.                -999.2500: 
COMP.          Petrogulf Corporation: COMPANY
WELL.             Leier 17-42V: WELL
FLD.           Purgatorie River: FIELD
LOC.           2309' FNL & 1062' FEL: LOCATION
PROV.                 Colorado: PROVINCE
CNTY.               Las Animas: COUNTRY
SRVC.                Patterson: SERVICE COMPANY
DATE.          Thu Oct 06 10:18:00 2005: LOG DATE
UWI.                          : UNIQUE WELL ID
~Curve Information Block
DEPT.FT            0 000 00 00: Depth
CCL.                          : Casing Collar Locator
TT3.usec                      : CBL 3' Travel Time
AMP3.mV                       : CBL 3' Amplitude
GR.GAPI                       : Gamma Ray
~Parameter Information Block
~A  Depth       CCL         TT3         AMP3         GR     
# ...
   167.5000      0.0000    672.2016     12.0600     88.6429
   167.7500      0.0000    744.2979     11.9619     86.7789
   168.0000      0.0000    778.6887     11.8530     85.5535
   168.2500      0.0000    792.9687     11.7631     86.0704
   168.5000      0.0000    800.2831     11.6991     88.2696
   168.7500      0.0000    802.3116     11.6814     90.8908
   169.0000      0.0000    793.6571     11.7118     92.3403
   169.2500      0.0000    760.6132     11.7340     91.8893
   169.5000      0.0000    688.3341     11.7078     90.3669
   169.7500      0.0000    583.9637     11.6861     89.6269
   170.0000      0.0000    482.8364     11.7433     91.0690
   170.2500      0.0000    416.7832     11.8848     94.5135
   170.5000      0.0000    387.6191     12.0712     98.4115
   170.7500      0.0000    378.7339     12.2561    101.0684
   171.0000      0.0000    376.5585     12.3880    101.6952
   171.2500      0.0000    375.8521     12.4455    100.4508
   171.5000      0.0000    375.5669     12.4629     97.9356
   171.7500      0.0000    375.5973     12.4862     95.0257
   172.0000      0.0000    375.8291     12.5334     92.8986
   172.2500      0.0000    376.1107     12.5849     92.4465
   172.5000      0.0000    376.3440     12.5918     93.3738
   172.7500      0.0000    376.5313     12.5353     94.4001
   173.0000      0.0000    376.7522     12.4544     94.7371
   173.2500      0.0000    377.0453     12.3810     94.9672
   173.5000      0.0000    377.3228     12.3154     95.9821
   173.7500      0.0000    377.4773     12.2783     97.3937
   174.0000      0.0000    377.5628     12.2851     97.6642
   174.2500      0.0000    377.7556     12.2967     95.8157
   174.5000      0.0000    378.1049     12.2926     92.6316
   174.7500      0.0000    378.4328     12.3268     90.1019
   175.0000      0.0000    378.5087     12.4454     89.7988
   175.2500      0.0000    378.0812     12.6280     91.8474
   175.5000      0.0000    376.3900     12.8261     95.3821
   175.7500      0.0000    371.8119     12.9879     99.5093
   176.0000      0.0000    363.4431     13.0835    103.6079
   176.2500      0.0000    353.9803     13.1329    107.2424
   176.5000      0.0000    348.6552     13.1635    110.1028
   176.7500      0.0000    349.6024     13.1824    111.6864
   177.0000      0.0000    354.1390     13.1982    111.1790
   177.2500      0.0000    359.5854     13.2056    108.3506
   177.5000      0.0000    365.4615     13.1751    104.4097
   177.7500      0.0000    370.8440     13.0805    101.1552
   178.0000      0.0000    375.0572     12.9142     99.2309
   178.2500      0.0000    381.0550     12.6949     97.7265
   178.5000      0.0000    395.2346     12.4476     95.4325
   178.7500      0.0000    420.7003     12.1740     91.9720
   179.0000      0.0000    450.1534     11.8719     87.6570
   179.2500      0.0000    474.8629     11.5612     82.8052
   179.5000      0.0000    501.2185     11.2911     77.6774
   179.7500      0.0000    544.8499     11.1144     72.8929
   180.0000      0.0000    612.1571     11.0314     69.4110
   180.2500      0.0000    697.0844     10.9906     68.0262
   180.5000      0.0000    770.9091     10.9343     69.0073
   180.7500      0.0000    774.8140     10.8280     72.0201
   181.0000      0.0000    685.9556     10.6796     76.2662
   181.2500      0.0000    567.3864     10.5383     80.9912
   181.5000      0.0000    486.4183     10.4702     85.9311
   181.7500      0.0000    444.2318     10.5101     90.8247
   182.0000      0.0000    415.4931     10.6233     94.5614
   182.2500      0.0000    393.0497     10.7275     95.6532
   182.5000      0.0000    380.2422     10.7512     93.8808
   182.7500      0.0000    375.4943     10.7021     90.8339
   183.0000      0.0000    374.3083     10.6557     88.4080
   183.2500      0.0000    374.1662     10.6482     87.0261
   183.5000      0.0000    374.7018     10.6334     85.5570
   183.7500      0.0000    376.9233     10.5635     82.8198
   184.0000      0.0000    382.9531     10.4459     78.9082
   184.2500      0.0000    394.9088     10.3081     75.0067
   184.5000      0.0000    413.1699     10.1649     72.1763
   184.7500      0.0000    436.5263     10.0319     70.5708
   185.0000      0.0000    462.3385      9.9245     69.7308
   185.2500      0.0000    485.3940      9.8424     69.3212
   185.5000      0.0000    501.0409      9.7673     69.5082
   185.7500      0.0000    511.0657      9.6761     70.7559
   186.0000      0.0000    524.6396      9.5633     73.3689
   186.2500      0.0000    552.8587      9.4372     77.1490
   186.5000      0.0000    596.8150      9.3021     81.2304
   186.7500      0.0000    638.4452      9.1727     84.2020
   187.0000      0.0000    649.4789      9.0753     84.7424
   187.2500      0.0000    614.4775      9.0145     82.5745
   187.5000      0.0000    554.1609      8.9829     78.9040
   187.7500      0.0000    514.5721      8.9950     75.7144
   188.0000      0.0000    515.4944      9.0126     74.3192
   188.2500      0.0000    539.8310      8.8074     74.4057
   188.5000      0.0000    574.2813      8.1038     74.4872
   188.7500      0.0000    616.3460      7.0127     73.3543
   189.0000      0.0000    650.9484      6.0371     71.1607
   189.2500      0.0000    663.2626      5.4950     69.2045
   189.5000      0.0000    663.4053      5.2847     68.7093
   189.7500      2.0000    667.1628      5.1976     69.8746
   190.0000     -2.0000    678.2894      5.1477     72.1755
   190.2500      0.0000    702.4439      5.1531     75.2547
   190.5000      0.0000    740.9108      5.3081     78.9413
   190.7500      0.0000    775.4592      5.7404     82.5168
   191.0000      0.0000    784.1317      6.4017     84.8224
   191.2500      0.0000    757.5190      6.9990     85.4641
   191.5000      0.0000    702.7071      7.3782     85.2901
   191.7500      0.0000    647.5270      7.7180     85.3364
   192.0000      0.0000    619.9084      8.1214     85.7973
   192.2500      0.0000    618.7227      8.4378     86.3344
   192.5000      0.0000    632.4571      8.5610     86.9259
   192.7500      0.0000    666.6526      8.5571     88.1058
   193.0000      0.0000    720.2899      8.5643     90.4795
   193.2500      0.0000    770.8916      8.7053     93.9228
   193.5000      0.0000    806.1118      9.0088     97.0690
   193.7500      0.0000    840.4260      9.4005     97.9110
   194.0000      0.0000    893.7800      9.8204     95.4110
   194.2500      0.0000    958.8501     10.2674     90.4913
   194.5000      0.0000    993.2210     10.6987     85.2063
   194.7500      0.0000    970.6678     11.0189     81.1182
   195.0000      0.0000    923.0674     11.2114     78.8051
   195.2500      0.0000    897.6522     11.3694     78.5159
   195.5000      0.0000    908.2673     11.5741     80.2102
   195.7500      0.0000    940.7737     11.8209     82.6752
   196.0000      0.0000    976.8652     12.0662     83.5711
   196.2500      0.0000    997.4308     12.2778     81.1070
   196.5000      0.0000    980.7278     12.4321     75.4893
   196.7500      0.0000    935.8598     12.5198     68.6586
   197.0000      0.0000    906.1375     12.5750     62.9200
   197.2500      0.0000    906.8834     12.6530     59.7388
   197.5000      0.0000    905.0399     12.7793     59.2488
   197.7500      0.0000    875.8970     12.9512     60.4365
   198.0000      0.0000    835.1058     13.1792     61.7138
   198.2500      0.0000    804.7841     13.4837     61.6920
   198.5000      0.0000    787.9704     13.8359     59.9580
   198.7500      0.0000    780.2071     14.1464     57.2739
   199.0000      0.0000    781.0125     14.3650     54.9362
   199.2500      0.0000    794.0588     14.5494     53.9617
   199.5000      0.0000    821.6937     14.7750     54.8414
   199.7500      0.0000    857.6586     15.0346     57.7041
   200.0000      0.0000    892.0330     15.2646     62.2542
   200.2500      0.0000    923.7860     15.4021     67.5120
   200.5000      0.0000    952.6310     15.4172     72.0502
   200.7500      0.0000    962.5180     15.3300     74.8161
