~Version Information
VERS.                      2.0: CWLS Log ASCII Standard - VERSION 2.0
WRAP.                       NO: One line per depth step
~Well Information Block
STRT.FT               555.6000: 
STOP.FT              2132.0000: 
STEP.FT                 0.1000: 
NULL.                -999.2500: 
COMP.          Petrogulf Corporation: COMPANY
WELL.           Montoya 12-41R: WELL
FLD.           Purgatorie River: FIELD
LOC.           1086' FNL & 610' FEL: LOCATION
CNTY.               Las Animas: COUNTY
SRVC.                         : SERVICE COMPANY
DATE.          Thu Nov 18 08:45:51 2004: LOG DATE
UWI.           05 071 08241 00: UNIQUE WELL ID
STAT.                 Colorado: STATE
~Curve Information Block
DEPT.FT            0 000 00 00: Depth
DCAL.in                       : CDL Caliper
RHOB.g/cc                     : CDL Bulk Density
RHOC.g/cc                     : CDL Density Correction
DPOR.pu                       : CDL Density Porosity
GR.GAPI                       : Gamma Ray
NPOR.pu                       : Neutron Porosity
~Parameter Information Block
~A  Depth       DCAL        RHOB        RHOC        DPOR         GR         NPOR    
# ...
  2120.4000      7.7475      2.6173      0.1328      1.9829   -999.2500   -999.2500
  2120.5000      7.7220      2.6153      0.0999      2.1054   -999.2500   -999.2500
  2120.6000      7.7220      2.6043      0.0939      2.7680   -999.2500   -999.2500
  2120.7000      7.7220      2.5953      0.1004      3.3133   -999.2500   -999.2500
  2120.8000      7.7035      2.5881      0.0892      3.7490   -999.2500   -999.2500
  2120.9000      7.7035      2.5836      0.0558      4.0245   -999.2500   -999.2500
  2121.0000      7.6959      2.5807      0.0648      4.2003   -999.2500   -999.2500
  2121.1000      7.6959      2.5738      0.0866      4.6168   -999.2500   -999.2500
  2121.2000      7.6959      2.5656      0.0683      5.1172   -999.2500   -999.2500
  2121.3000      7.6904      2.5615      0.0705      5.3622   -999.2500   -999.2500
  2121.4000      7.6904      2.5562      0.0797      5.6821   -999.2500   -999.2500
  2121.5000      7.6924      2.5473      0.1024      6.2273   -999.2500   -999.2500
  2121.6000      7.6924      2.5448      0.0760      6.3774   -999.2500   -999.2500
  2121.7000      7.6924      2.5514      0.1187      5.9768   -999.2500   -999.2500
  2121.8000      7.6958      2.5582      0.0818      5.5625   -999.2500   -999.2500
  2121.9000      7.6958      2.5642      0.1074      5.2017   -999.2500   -999.2500
  2122.0000      7.7000      2.5702      0.1074      4.8368   -999.2500   -999.2500
  2122.1000      7.7000      2.5713      0.1367      4.7686   -999.2500   -999.2500
  2122.2000      7.7000      2.5655      0.0672      5.1225   -999.2500   -999.2500
  2122.3000      7.7097      2.5577      0.1017      5.5943   -999.2500   -999.2500
  2122.4000      7.7097      2.5517      0.1014      5.9581   -999.2500   -999.2500
  2122.5000      7.7280      2.5487      0.0906      6.1368   -999.2500   -999.2500
  2122.6000      7.7280      2.5475      0.0703      6.2138   -999.2500   -999.2500
  2122.7000      7.7280      2.5459      0.0782      6.3079   -999.2500   -999.2500
  2122.8000      7.7456      2.5450      0.0838      6.3622   -999.2500   -999.2500
  2122.9000      7.7456      2.5443      0.0682      6.4066   -999.2500   -999.2500
  2123.0000      7.7471      2.5428      0.0695      6.4999   -999.2500   -999.2500
  2123.1000      7.7471      2.5466      0.0690      6.2670   -999.2500   -999.2500
  2123.2000      7.7471      2.5586      0.0794      5.5389   -999.2500   -999.2500
  2123.3000      7.7385      2.5678      0.1035      4.9808   -999.2500   -999.2500
  2123.4000      7.7385      2.5688      0.0799      4.9205   -999.2500   -999.2500
  2123.5000      7.7342      2.5648      0.1194      5.1659   -999.2500   -999.2500
  2123.6000      7.7342      2.5505      0.0781      6.0326   -999.2500   -999.2500
  2123.7000      7.7342      2.5277      0.0595      7.4096   -999.2500   -999.2500
  2123.8000      7.7262      2.5129      0.0563      8.3080   -999.2500   -999.2500
  2123.9000      7.7262      2.5154      0.0643      8.1588   -999.2500   -999.2500
  2124.0000      7.7129      2.5324      0.0749      7.1264   -999.2500   -999.2500
  2124.1000      7.7129      2.5561      0.0831      5.6918   -999.2500   -999.2500
  2124.2000      7.7129      2.5798      0.1167      4.2526   -999.2500   -999.2500
  2124.3000      7.7027      2.6034      0.1114      2.8258   -999.2500   -999.2500
  2124.4000      7.7027      2.6272      0.1019      1.3840   -999.2500   -999.2500
  2124.5000      7.6950      2.6380      0.1739      0.7272   -999.2500   -999.2500
  2124.6000      7.6950      2.6215      0.1286      1.7257   -999.2500   -999.2500
  2124.7000      7.6950      2.5903      0.0992      3.6203   -999.2500   -999.2500
  2124.8000      7.7028      2.5653      0.0984      5.1316   -999.2500   -999.2500
  2124.9000      7.7028      2.5547      0.0704      5.7733   -999.2500   -999.2500
  2125.0000      7.7265      2.5580      0.0728      5.5772   -999.2500   -999.2500
  2125.1000      7.7265      2.5699      0.1046      4.8576   -999.2500   -999.2500
  2125.2000      7.7265      2.5796      0.1199      4.2689   -999.2500   -999.2500
  2125.3000      7.7429      2.5738      0.1140      4.6205   -999.2500   -999.2500
  2125.4000      7.7429      2.5526      0.0816      5.9024   -999.2500   -999.2500
  2125.5000      7.7425      2.5329      0.0636      7.0966   -999.2500   -999.2500
  2125.6000      7.7425      2.5275      0.0622      7.4267   -999.2500   -999.2500
  2125.7000      7.7425      2.5328      0.0793      7.1024   -999.2500   -999.2500
  2125.8000      7.7364      2.5356      0.0745      6.9358   -999.2500   -999.2500
  2125.9000      7.7364      2.5256      0.0697      7.5404   -999.2500   -999.2500
  2126.0000      7.7300      2.5117      0.0225      8.3798   -999.2500   -999.2500
  2126.1000      7.7300      2.5208      0.0322      7.8318   -999.2500   -999.2500
  2126.2000      7.7300      2.5575      0.0735      5.6038   -999.2500   -999.2500
  2126.3000      7.7227      2.5905      0.1172      3.6058   -999.2500   -999.2500
  2126.4000      7.7227      2.5997      0.1003      3.0486   -999.2500   -999.2500
  2126.5000      7.7132      2.5961      0.0960      3.2697   -999.2500   -999.2500
  2126.6000      7.7132      2.5910      0.1006      3.5746   -999.2500   -999.2500
  2126.7000      7.7132      2.5895      0.0666      3.6645   -999.2500   -999.2500
  2126.8000      7.7065      2.5946      0.1168      3.3603   -999.2500   -999.2500
  2126.9000      7.7065      2.6051      0.0811      2.7188   -999.2500   -999.2500
  2127.0000      7.7021      2.6165      0.1092      2.0280   -999.2500   -999.2500
  2127.1000      7.7021      2.6155      0.0958      2.0937   -999.2500   -999.2500
  2127.2000      7.7021      2.5979      0.0604      3.1563   -999.2500   -999.2500
  2127.3000      7.6931      2.5743      0.0976      4.5855   -999.2500   -999.2500
  2127.4000      7.6931      2.5536      0.0603      5.8418   -999.2500   -999.2500
  2127.5000      7.6848      2.5438      0.0530      6.4339   -999.2500   -999.2500
  2127.6000      7.6848      2.5470      0.0872      6.2432   -999.2500   -999.2500
  2127.7000      7.6848      2.5564      0.0498      5.6713   -999.2500   -999.2500
  2127.8000      7.6834      2.5638      0.0889      5.2217   -999.2500   -999.2500
  2127.9000      7.6834      2.5580      0.1168      5.5784   -999.2500   -999.2500
  2128.0000      7.6874      2.5393      0.0719      6.7085   -999.2500   -999.2500
  2128.1000      7.6874      2.5246      0.0821      7.6014   -999.2500   -999.2500
  2128.2000      7.6874      2.5188      0.0876      7.9530   -999.2500   -999.2500
  2128.3000      7.6938      2.5174      0.0817      8.0392   -999.2500   -999.2500
  2128.4000      7.6938      2.5174      0.1002      8.0346   -999.2500   -999.2500
  2128.5000      7.6896      2.5099      0.0949      8.4929   -999.2500   -999.2500
  2128.6000      7.6896      2.4916      0.0678      9.6016   -999.2500   -999.2500
  2128.7000      7.6896      2.4734      0.0387     10.7052   -999.2500   -999.2500
  2128.8000      7.6361      2.4505      0.0971     12.0923   -999.2500   -999.2500
  2128.9000      7.6361      2.4001      0.0908     15.1467   -999.2500   -999.2500
  2129.0000      7.4026      2.3618      0.0168     17.4694   -999.2500   -999.2500
  2129.1000      7.4026      2.5312     -0.0016      7.2005   -999.2500   -999.2500
  2129.2000      7.4026      3.1888     -0.0215    -32.6555   -999.2500   -999.2500
  2129.3000      6.7527      4.0784      0.4466    -86.5668   -999.2500   -999.2500
  2129.4000      6.7527      3.9768      1.7000    -80.4146   -999.2500   -999.2500
  2129.5000      5.1765      2.4371      0.0000     12.9021   -999.2500   -999.2500
  2129.6000      5.1765      0.8563   -999.2500    108.7077   -999.2500   -999.2500
  2129.7000      5.1765      0.1654   -999.2500    150.5829   -999.2500   -999.2500
  2129.8000      2.9050      0.0172   -999.2500    159.5638   -999.2500   -999.2500
  2129.9000      2.9050      0.0009   -999.2500    160.5490   -999.2500   -999.2500
