~Version Information
VERS.                      2.0: CWLS Log ASCII Standard - VERSION 2.0
WRAP.                       NO: One line per depth step
~Well Information Block
STRT.FT               910.3000: 
STOP.FT              1932.5000: 
STEP.FT                 0.1000: 
NULL.                -999.2500: 
COMP.          Petrogulf Corporation: COMPANY
WELL.             State 16-34R: WELL
FLD.           Purgatorie River: FIELD
LOC.           1095' FSL & 1498' FEL: LOCATION
CNTY.               Las Animas: COUNTY
SRVC.                         : SERVICE COMPANY
DATE.          Thu May 06 14:28:18 2004: LOG DATE
UWI.           05 071 08032 00: UNIQUE WELL ID
STAT.                 Colorado: STATE
~Curve Information Block
DEPT.FT            0 000 00 00: Depth
DCAL.in                       : CDL Caliper
RHOB.g/cc                     : CDL Bulk Density
RHOC.g/cc                     : CDL Density Correction
DPOR.pu                       : CDL Density Porosity
NPOR.pu                       : Neutron Porosity
GR.GAPI                       : Gamma Ray
~Parameter Information Block
~A  Depth       DCAL        RHOB        RHOC        DPOR        NPOR         GR     
# ...
  1505.5000      7.9044      2.5238      0.0905      7.6473     26.0200    157.7566
  1505.6000      7.9044      2.4962      0.0671      9.3207     25.6310    161.9129
  1505.7000      7.9044      2.4905      0.0743      9.6694     25.4193    165.8921
  1505.8000      7.9486      2.5066      0.0777      8.6881     25.1749    167.3425
  1505.9000      7.9486      2.5179      0.1573      8.0061     24.8257    164.9426
  1506.0000      7.9504      2.4970      0.0838      9.2732     24.5782    161.1595
  1506.1000      7.9504      2.4542      0.0783     11.8654     24.3970    156.8621
  1506.2000      7.9504      2.4298      0.0028     13.3441     24.3779    151.7695
  1506.3000      7.9580      2.4466      0.0793     12.3298     24.6465    149.3814
  1506.4000      7.9580      2.4785      0.1240     10.3953     24.9769    151.3924
  1506.5000      7.9593      2.4903      0.0637      9.6812     25.2259    154.3949
  1506.6000      7.9593      2.4743      0.0665     10.6488     25.7206    154.9333
  1506.7000      7.9593      2.4480      0.0470     12.2433     26.3167    154.4802
  1506.8000      7.9643      2.4394      0.0180     12.7657     26.4234    155.2365
  1506.9000      7.9643      2.4486      0.0809     12.2034     26.1614    154.4185
  1507.0000      7.9547      2.4495      0.0580     12.1506     25.9024    149.9803
  1507.1000      7.9547      2.4420     -0.0007     12.6039     25.6832    145.6538
  1507.2000      7.9547      2.4441      0.0240     12.4795     25.3220    146.9572
  1507.3000      7.9539      2.4525      0.0707     11.9716     24.7514    152.4706
  1507.4000      7.9539      2.4599      0.0665     11.5219     24.2266    156.1408
  1507.5000      7.9685      2.4662      0.0737     11.1365     23.9708    157.8857
  1507.6000      7.9685      2.4665      0.0765     11.1199     23.8586    158.6241
  1507.7000      7.9685      2.4592      0.1208     11.5610     23.6209    155.7377
  1507.8000      7.9762      2.4516      0.0988     12.0215     23.3362    151.4805
  1507.9000      7.9762      2.4557      0.1045     11.7757     23.2917    151.9178
  1508.0000      7.9875      2.4769      0.1162     10.4917     23.4386    156.6355
  1508.1000      7.9875      2.5023      0.1353      8.9543     23.5767    158.9357
  1508.2000      7.9875      2.5122      0.1177      8.3527     23.8078    156.3046
  1508.3000      7.9922      2.5070      0.0756      8.6676     24.4424    150.5431
  1508.4000      7.9922      2.5038      0.0300      8.8606     25.2725    144.0169
  1508.5000      7.9573      2.5060      0.0484      8.7281     25.8316    141.0146
  1508.6000      7.9573      2.5025      0.0281      8.9410     26.3117    141.9353
  1508.7000      7.9573      2.4927      0.0273      9.5360     26.7256    143.6525
  1508.8000      7.9586      2.4762      0.0346     10.5327     26.5961    145.4977
  1508.9000      7.9586      2.4442     -0.0001     12.4740     26.0528    148.0238
  1509.0000      7.9801      2.4009     -0.0350     15.0980     25.7027    152.6789
  1509.1000      7.9801      2.3592     -0.0310     17.6231     25.6974    157.4230
  1509.2000      7.9801      2.3233     -0.0234     19.8000     25.6453    157.5081
  1509.3000      7.9695      2.3039     -0.0498     20.9771     25.3058    155.6463
  1509.4000      7.9695      2.3157     -0.0197     20.2604     24.5981    155.7619
  1509.5000      7.9760      2.3485      0.0371     18.2732     23.3781    156.1374
  1509.6000      7.9760      2.3719      0.1291     16.8522     22.0351    153.9229
  1509.7000      7.9760      2.3719      0.1383     16.8527     21.2164    150.5973
  1509.8000      7.9897      2.3681      0.1061     17.0856     21.0078    150.2582
  1509.9000      7.9897      2.3829      0.1514     16.1906     21.1713    151.4602
  1510.0000      8.0050      2.4113      0.1708     14.4664     21.5231    149.3045
  1510.1000      8.0050      2.4348      0.1693     13.0440     21.7000    146.4140
  1510.2000      8.0050      2.4401      0.1022     12.7235     21.5636    147.5142
  1510.3000      8.0084      2.4248      0.0761     13.6493     21.6850    147.2598
  1510.4000      8.0084      2.4045      0.0825     14.8790     22.5843    143.5830
  1510.5000      8.0025      2.4066      0.0775     14.7508     23.6459    141.8713
  1510.6000      8.0025      2.4379      0.1491     12.8562     24.0678    143.7872
  1510.7000      8.0025      2.4729      0.1314     10.7332     24.1837    148.6820
  1510.8000      8.0080      2.4921      0.1315      9.5676     24.4497    154.1317
  1510.9000      8.0080      2.4927      0.1637      9.5332     24.6036    155.7258
  1511.0000      8.0143      2.4735      0.1563     10.6988     24.6296    153.5334
  1511.1000      8.0143      2.4507      0.0808     12.0781     24.6777    150.7858
  1511.2000      8.0143      2.4445      0.1185     12.4562     24.5997    146.6687
  1511.3000      8.0168      2.4406      0.1384     12.6882     24.3595    142.4869
  1511.4000      8.0168      2.4146      0.1135     14.2641     24.1036    141.2447
  1511.5000      8.0091      2.3702      0.0686     16.9584     23.9280    141.2553
  1511.6000      8.0091      2.3362      0.0053     19.0176     23.6595    142.0147
  1511.7000      8.0091      2.3316      0.0671     19.2989     23.3012    144.5734
  1511.8000      8.0251      2.3503      0.0819     18.1664     23.0501    146.3514
  1511.9000      8.0251      2.3798      0.1627     16.3746     22.8604    145.9224
  1512.0000      8.0354      2.4051      0.1672     14.8430     22.6775    147.3757
  1512.1000      8.0354      2.4189      0.1242     14.0043     22.5518    151.3029
  1512.2000      8.0354      2.4270      0.1346     13.5170     22.2322    151.0283
  1512.3000      7.9917      2.4378      0.0966     12.8603     21.6663    145.8461
  1512.4000      7.9917      2.4574      0.1087     11.6720     21.3869    141.9517
  1512.5000      8.0047      2.4682      0.1566     11.0164     21.5590    143.7301
  1512.6000      8.0047      2.4448      0.0839     12.4352     21.6580    150.3602
  1512.7000      8.0047      2.3969      0.0353     15.3384     21.4402    150.8434
  1512.8000      8.0253      2.3472      0.0053     18.3493     20.9470    137.7285
  1512.9000      8.0253      2.2897      0.0417     21.8354     20.3204    123.4303
  1513.0000      8.0425      2.2194     -0.0346     26.0951     19.8219    118.7787
  1513.1000      8.0425      2.1698     -0.0944     29.1009     19.3196    118.6268
  1513.2000      8.0425      2.1635     -0.0279     29.4849     18.6918    120.0235
  1513.3000      8.0337      2.1800      0.0025     28.4854     18.1458    125.0305
  1513.4000      8.0337      2.2021      0.0253     27.1442     17.8359    130.3475
  1513.5000      8.0404      2.2304      0.0919     25.4321     17.7448    129.4595
  1513.6000      8.0404      2.2671      0.1601     23.2057     17.7972    123.1580
  1513.7000      8.0404      2.3137      0.2480     20.3816     17.9640    119.3390
  1513.8000      8.0401      2.3618      0.3819     17.4696     18.1119    121.9768
  1513.9000      8.0401      2.3991      0.3599     15.2065     18.1838    127.7925
  1514.0000      8.0148      2.4232      0.2512     13.7448     18.3570    134.8329
  1514.1000      8.0148      2.4264      0.1283     13.5512     18.9820    145.0391
  1514.2000      8.0148      2.3977      0.0529     15.2903     19.9699    155.5072
  1514.3000      7.9385      2.3495     -0.0103     18.2116     20.6819    159.6997
  1514.4000      7.9385      2.3088     -0.0047     20.6785     20.8976    158.3092
  1514.5000      7.9223      2.2962     -0.0410     21.4397     20.9353    159.6949
  1514.6000      7.9223      2.3256      0.0005     19.6592     21.0180    164.4529
  1514.7000      7.9223      2.3900      0.0592     15.7558     21.1806    166.8073
  1514.8000      7.9068      2.4599      0.1512     11.5226     21.4401    166.0079
  1514.9000      7.9068      2.5038      0.1878      8.8611     21.7562    160.4098
  1515.0000      7.9324      2.5119      0.1845      8.3684     22.0002    149.4949
