~Version Information
 VERS.                                  2.0 : CWLS LAS VERSION
 WRAP.                                   NO : WRAPING MODE
 SWARE .                 MController 2.5.0J : SOFTWARE VERSION
~Well Information
 WELL.                        Desoto 13-7TR : WELL
 COMP.        Pioneer Natural Resources Inc : COMPANY
 FLD.                      Purgatoire River : FIELD
 LOC.                 NW/SW Sec 7 T32S R66W : LOCATION
 DATE.                           1/13-14/05 : DATE(S) LOGGED
 SRVC.       Blanco Geological Services LLC : SERVICE COMPANY
 STAT.                                   CO : STATE
 CNTY.                           Las Animas : COUNTY
 CTRY.                                  USA : COUNTRY
 API.                          05-071-08216 : API NUMBER
 STRT.FT                             945.00 : START DEPTH
 STOP.FT                            2785.00 : STOP DEPTH
 STEP.FT                               1.00 : DEPTH INCREMENT
 NULL.                                -9999 : NULL VALUE
~Curve information
 DEPTH.FT                                   :
 ROP.MIN/FT                                 :
 GAS.UNITS                                  :
~ASCII Log data
# ...
      1145.0         0.20          1.3 
      1146.0         0.33          1.9 
      1147.0         0.20          2.6 
      1148.0         0.20          3.2 
      1149.0         0.20          3.3 
      1150.0         0.18          3.5 
      1151.0         0.20          2.5 
      1152.0         0.17          2.1 
      1153.0         0.20          1.7 
      1154.0         0.27          1.6 
      1155.0         0.20          2.3 
      1156.0         0.23          2.3 
      1157.0         0.20          1.8 
      1158.0         0.17          2.9 
      1159.0         0.20          2.8 
      1160.0         0.17          3.5 
      1161.0         0.17          3.5 
      1162.0         0.27          2.8 
      1163.0         0.33          4.1 
      1164.0         0.27          2.7 
      1165.0         0.28          2.0 
      1166.0         0.27          2.3 
      1167.0         0.20          1.6 
      1168.0         0.30          1.7 
      1169.0         0.27          1.8 
      1170.0         0.23          2.0 
      1171.0         0.20          1.8 
      1172.0         0.17          2.5 
      1173.0         0.23          2.2 
      1174.0         0.20          1.8 
      1175.0         0.20          2.5 
      1176.0         0.23          2.4 
      1177.0         0.20          2.6 
      1178.0         0.25          2.5 
      1179.0         0.23          2.0 
      1180.0         0.17          2.0 
      1181.0         0.20          2.8 
      1182.0         0.17          2.4 
      1183.0         0.20          2.4 
      1184.0         0.17          3.0 
      1185.0         0.20          3.0 
      1186.0         0.20          2.4 
      1187.0         0.23          2.8 
      1188.0         0.23          2.0 
      1189.0         0.23          2.1 
      1190.0         0.20          2.8 
      1191.0         0.20          2.3 
      1192.0         0.20          3.0 
      1193.0         0.23          2.2 
      1194.0         0.22          2.4 
      1195.0         0.30          2.6 
      1196.0         0.23          2.5 
      1197.0         0.37          1.7 
      1198.0         0.27          1.5 
      1199.0         0.23          2.1 
      1200.0         0.25          1.2 
      1201.0         0.20          1.7 
      1202.0         0.23          2.0 
      1203.0         0.23          1.4 
      1204.0         0.23          1.4 
      1205.0         0.27          1.3 
      1206.0         0.17          1.8 
      1207.0         0.20          1.6 
      1208.0         0.20          1.9 
      1209.0         0.23          1.3 
      1210.0         0.17          1.3 
      1211.0         0.23          1.5 
      1212.0         0.23          1.7 
      1213.0         0.20          1.6 
      1214.0         0.20          2.0 
      1215.0         0.25          4.0 
      1216.0         0.27          4.1 
      1217.0         0.20          4.4 
      1218.0         0.20          4.4 
      1219.0         0.23          4.3 
      1220.0         0.23          5.2 
      1221.0         0.23          4.7 
      1222.0         0.17          4.6 
      1223.0         0.23          4.5 
      1224.0         0.27          4.6 
      1225.0         0.30          4.6 
      1226.0         0.27          5.2 
      1227.0         0.17          5.1 
      1228.0         0.30          4.6 
      1229.0         0.23          5.0 
      1230.0         0.23          4.6 
      1231.0         0.27          5.2 
      1232.0         0.30          4.6 
      1233.0         0.23          4.7 
      1234.0         0.23          4.8 
      1235.0         0.27          4.5 
      1236.0         0.23          4.6 
      1237.0         0.25          5.5 
      1238.0         0.23          5.1 
      1239.0         0.23          5.3 
      1240.0         0.20          4.7 
      1241.0         0.23          5.1 
      1242.0         0.23          5.2 
      1243.0         0.27          5.0 
      1244.0         0.23          5.0 
      1245.0         0.20          4.9 
      1246.0         0.23          4.9 
      1247.0         0.20          4.9 
      1248.0         0.20          4.9 
      1249.0         0.20          5.6 
      1250.0         0.23          4.7 
      1251.0         0.23          4.6 
      1252.0         0.28          4.9 
      1253.0         0.27          4.9 
      1254.0         0.20          5.7 
      1255.0         0.27          5.2 
      1256.0         0.30          5.6 
      1257.0         0.35          5.2 
      1258.0         0.30          5.9 
      1259.0         0.30          5.2 
      1260.0         0.23          5.6 
      1261.0         0.23          5.4 
      1262.0         0.20          5.1 
      1263.0         0.23          5.9 
      1264.0         0.20          5.9 
      1265.0         0.27          5.4 
      1266.0         0.20          5.4 
      1267.0         0.20          5.2 
      1268.0         0.17          5.3 
      1269.0         0.17          5.3 
      1270.0         0.20          5.9 
      1271.0         0.20          5.1 
      1272.0         0.18          6.1 
      1273.0         0.23          6.1 
      1274.0         0.17          5.3 
      1275.0         0.20          5.3 
      1276.0         0.30          5.2 
      1277.0         0.20          6.2 
      1278.0         0.20          5.2 
      1279.0         0.23          5.4 
      1280.0         0.23          5.4 
      1281.0         0.23          5.5 
      1282.0         0.27          5.7 
      1283.0         0.27          5.5 
      1284.0         0.23          6.3 
      1285.0         0.40          6.2 
      1286.0         0.20          5.4 
      1287.0         0.27          5.5 
      1288.0         0.17          5.7 
      1289.0         0.37          6.3 
      1290.0         0.30          5.6 
      1291.0         0.27          6.0 
      1292.0         0.23          5.8 
      1293.0         0.27          5.2 
      1294.0         0.22          5.3 
      1295.0         0.27          5.3 
      1296.0         0.23          5.3 
      1297.0         0.30          6.2 
      1298.0         0.20          5.4 
      1299.0         0.20          5.6 
      1300.0         0.17          5.5 
      1301.0         0.23          5.5 
      1302.0         0.23          6.3 
      1303.0         0.23          6.0 
      1304.0         0.27          6.0 
      1305.0         0.20          5.5 
      1306.0         0.20          5.5 
      1307.0         0.20          5.6 
      1308.0         0.23          6.0 
      1309.0         0.28          5.3 
      1310.0         0.23          5.5 
      1311.0         0.27          6.1 
      1312.0         0.37          5.3 
      1313.0         0.20          5.6 
      1314.0         0.20          6.3 
      1315.0         0.30          6.4 
      1316.0         0.43          5.7 
      1317.0         0.27          5.8 
      1318.0         0.23          6.2 
      1319.0         0.20          6.2 
      1320.0         0.23          5.6 
      1321.0         0.20          5.6 
      1322.0         0.23          6.0 
      1323.0         0.20          5.7 
      1324.0         0.20          6.3 
      1325.0         0.25          6.5 
      1326.0         0.20          5.6 
      1327.0         0.20          5.9 
      1328.0         0.17          5.9 
      1329.0         0.20          5.7 
      1330.0         0.17          6.6 
      1331.0         0.17          5.4 
      1332.0         0.20          6.4 
      1333.0         0.23          5.1 
      1334.0         0.33          5.3 
      1335.0         0.23          5.3 
      1336.0         0.23          5.3 
      1337.0         0.20          5.2 
      1338.0         0.23          5.5 
      1339.0         0.20         -3.6 
      1340.0         0.25         -3.9 
      1341.0         0.23         -3.8 
      1342.0         0.23         -4.2 
      1343.0         0.20         -4.2 
      1344.0         0.20          3.9 
