~Version Information
VERS.                      2.0: CWLS Log ASCII Standard - VERSION 2.0
WRAP.                       NO: One line per depth step
~Well Information Block
STRT.FT                -7.0000: 
STOP.FT              2389.2500: 
STEP.FT                 0.2500: 
NULL.                -999.2500: 
COMP.          Pioneer Natural Resources: COMPANY
WELL.            Victory 12-14: WELL
FLD.           Purgatorie River: FIELD
LOC.           2434' FNL & 188' FWL------: LOCATION
PROV.                       CO: PROVINCE
CNTY.               Las Animas: COUNTRY
SRVC.          Patterson Wireline: SERVICE COMPANY
DATE.          Fri Apr 22 14:29:17 2005: LOG DATE
UWI.           05 071 08332 00: UNIQUE WELL ID
~Curve Information Block
DEPT.FT            0 000 00 00: Depth
CCL.                          : Casing Collar Locator
TT3.usec                      : CBL 3' Travel Time
AMP3.mV                       : CBL 3' Amplitude
GR.GAPI                       : Gamma Ray
~Parameter Information Block
~A  Depth       CCL         TT3         AMP3         GR     
# ...
   797.0000      0.0000    771.8247      6.0576     79.5191
   797.2500      0.0000    769.8055      6.0462     79.2003
   797.5000      0.0000    771.0939      6.0317     79.8062
   797.7500      0.0000    774.4658      5.9600     80.4685
   798.0000      0.0000    780.2888      5.8471     80.6187
   798.2500      0.0000    788.5118      5.7613     80.2993
   798.5000      0.0000    797.3250      5.7573     79.7172
   798.7500      0.0000    803.6872      5.8305     78.8605
   799.0000      0.0000    804.5541      5.9234     77.5341
   799.2500      0.0000    798.8923      5.9728     75.7022
   799.5000      0.0000    789.8427      5.9685     73.8615
   799.7500      0.0000    783.6919      5.9704     72.9295
   800.0000      0.0000    785.0889      6.0503     73.5064
   800.2500      0.0000    793.3317      6.2082     75.3085
   800.5000      0.0000    803.7012      6.3573     77.5170
   800.7500      0.0000    811.7803      6.3988     79.4821
   801.0000      0.0000    816.0753      6.3059     80.9148
   801.2500      0.0000    817.4455      6.1368     81.8703
   801.5000      0.0000    817.3508      5.9826     82.9097
   801.7500      0.0000    816.8365      5.9104     84.7602
   802.0000      0.0000    816.4861      5.9378     87.3075
   802.2500      0.0000    816.6862      6.0335     89.2471
   802.5000      0.0000    817.6237      6.1364     89.0845
   802.7500      0.0000    818.7485      6.1921     86.4968
   803.0000      0.0000    818.2581      6.1859     82.8610
   803.2500      0.0000    813.8478      6.1421     80.4246
   803.5000      0.0000    804.7368      6.0957     80.5851
   803.7500      0.0000    792.7667      6.0679     82.7092
   804.0000      0.0000    780.8264      6.0590     84.5958
   804.2500      0.0000    770.3872      6.0480     84.1412
   804.5000      0.0000    761.3066      6.0069     80.8075
   804.7500      0.0000    753.9030      5.9339     75.8160
   805.0000      0.0000    750.0646      5.8680     71.0587
   805.2500      0.0000    751.5478      5.8517     67.7507
   805.5000      0.0000    757.5570      5.8775     66.0542
   805.7500      0.0000    764.6274      5.8916     65.7880
   806.0000      0.0000    768.9388      5.8601     66.9546
   806.2500      0.0000    769.1557      5.8123     69.2665
   806.5000      0.0000    767.7863      5.7908     71.6805
   806.7500      0.0000    769.3796      5.7720     73.0705
   807.0000      0.0000    776.1061      5.6820     73.2521
   807.2500      0.0000    785.0408      5.4993     72.8959
   807.5000      0.0000    790.8986      5.3068     72.5732
   807.7500      0.0000    791.8355      5.2329     72.2877
   808.0000      2.0000    791.6526      5.3586     71.8278
   808.2500      0.0000    795.6300      5.6713     71.3083
   808.5000     -2.0000    804.8361      6.0816     71.3472
   808.7500      0.0000    815.1586      6.4892     72.7029
   809.0000      0.0000    820.6953      6.8445     75.6239
   809.2500      0.0000    816.8551      7.1525     79.6281
   809.5000      0.0000    802.0078      7.4377     83.9121
   809.7500      0.0000    779.0412      7.7327     87.8010
   810.0000      0.0000    754.9918      8.0656     90.8865
   810.2500      0.0000    736.7503      8.4131     93.0224
   810.5000      0.0000    726.3538      8.6880     94.1415
   810.7500      0.0000    720.9664      8.8162     93.8079
   811.0000      0.0000    717.0624      8.8149     91.2389
   811.2500      0.0000    713.8715      8.7819     86.3535
   811.5000      0.0000    713.0236      8.8111     80.5989
   811.7500      0.0000    715.8359      8.9295     76.0545
   812.0000      0.0000    721.5173      9.1011     73.8198
   812.2500      0.0000    727.7954      9.2635     73.7623
   812.5000      0.0000    732.6680      9.3508     75.3763
   812.7500      0.0000    735.3032      9.3114     78.0979
   813.0000      0.0000    735.6689      9.1423     80.9499
   813.2500      0.0000    733.8921      8.9111     82.6985
   813.5000      0.0000    730.2771      8.7199     82.7498
   813.7500      0.0000    725.8582      8.6325     81.7706
   814.0000      0.0000    722.4362      8.6378     81.1387
   814.2500      0.0000    721.3443      8.6827     81.6569
   814.5000      0.0000    722.0239      8.7153     82.8896
   814.7500      0.0000    722.4902      8.6963     83.7411
   815.0000      0.0000    721.6558      8.6065     83.5437
   815.2500      0.0000    720.7800      8.4707     82.7244
   815.5000      0.0000    722.1049      8.3502     82.6464
   815.7500      0.0000    726.3037      8.2795     84.5053
   816.0000      0.0000    731.9628      8.2235     88.0472
   816.2500      0.0000    737.5159      8.1216     91.6033
   816.5000      0.0000    742.6282      7.9639     93.3985
   816.7500      0.0000    747.1224      7.8012     92.3938
   817.0000      0.0000    749.7490      7.6865     88.2878
   817.2500      0.0000    749.4380      7.6264     81.7908
   817.5000      0.0000    747.1407      7.5773     74.9097
   817.7500      0.0000    745.0199      7.4768     69.9707
   818.0000      0.0000    744.0300      7.2879     68.0001
   818.2500      0.0000    743.3024      7.0307     68.2946
   818.5000      0.0000    741.7942      6.7720     69.3957
   818.7500      0.0000    739.6896      6.5792     70.2042
   819.0000      0.0000    738.0598      6.4847     70.3938
   819.2500      0.0000    737.9250      6.4925     70.1893
   819.5000      0.0000    740.0609      6.5958     70.0498
   819.7500      0.0000    745.2608      6.7624     70.6282
   820.0000      0.0000    754.2410      6.9088     72.6901
   820.2500      0.0000    766.8178      6.9277     76.5169
   820.5000      0.0000    780.5724      6.7684     81.2934
   820.7500      0.0000    790.4772      6.4889     85.4716
   821.0000      0.0000    791.5512      6.2338     87.8970
   821.2500      0.0000    783.1337      6.1584     88.4631
   821.5000      0.0000    769.8400      6.3407     87.8128
   821.7500      0.0000    757.9250      6.7329     86.6091
   822.0000      0.0000    751.5624      7.1971     85.0472
   822.2500      0.0000    751.7401      7.6035     82.8820
   822.5000      0.0000    756.4005      7.9015     79.8287
   822.7500      0.0000    761.6092      8.1048     76.0212
   823.0000      0.0000    764.4670      8.2263     72.3182
   823.2500      0.0000    765.3043      8.2527     70.2126
   823.5000      0.0000    766.3471      8.1903     71.0523
   823.7500      0.0000    768.8212      8.1150     74.9199
   824.0000      0.0000    772.3462      8.1425     80.2690
   824.2500      0.0000    776.4239      8.3288     84.9825
   824.5000      0.0000    781.2131      8.6118     88.0181
   824.7500      0.0000    786.8922      8.8577     89.9518
   825.0000      0.0000    793.0800      8.9559     91.8591
   825.2500      0.0000    798.9869      8.8667     93.9431
   825.5000      0.0000    803.6796      8.6100     95.5591
   825.7500      0.0000    806.2322      8.2417     96.2782
   826.0000      0.0000    806.4025      7.8341     96.3153
   826.2500      0.0000    805.4978      7.4463     95.6999
   826.5000      0.0000    805.9088      7.0986     93.5381
   826.7500      0.0000    808.8710      6.7879     88.7912
   827.0000      0.0000    812.7765      6.5302     81.9220
   827.2500      0.0000    814.4380      6.3675     75.2680
   827.5000      0.0000    812.2018      6.3194     71.3298
   827.7500      0.0000    807.6430      6.3452     70.7573
   828.0000      0.0000    804.4371      6.3725     72.1146
   828.2500      0.0000    805.5038      6.3586     73.3774
   828.5000      0.0000    810.3518      6.3122     73.4859
   828.7500      0.0000    814.6088      6.2612     72.6736
   829.0000      0.0000    812.7687      6.2238     71.8027
   829.2500      0.0000    802.8627      6.2125     71.6615
   829.5000      0.0000    789.1090      6.2454     72.6879
   829.7500      0.0000    779.3078      6.3393     74.8411
   830.0000      0.0000    778.8860      6.4956     77.5263
   830.2500      0.0000    787.3813      6.6901     79.8196
