~Version Information
VERS.                      2.0: CWLS Log ASCII Standard - VERSION 2.0
WRAP.                       NO: One line per depth step
~Well Information Block
STRT.FT               430.0000: 
STOP.FT              1910.2000: 
STEP.FT                 0.1000: 
NULL.                -999.2500: 
COMP.          Pioneer Natural Resources: COMPANY
WELL.          Formula 23-11 Tr: WELL
FLD.           Purgatoire River: FIELD
LOC.           1976' FSL & 1935' FWL--: LOCATION
PROV.                 Colorado: PROVINCE
CNTY.               Las Animas: COUNTRY
SRVC.                Patterson: SERVICE COMPANY
DATE.          Mon Jun 13 07:32:15 2005: LOG DATE
UWI.           05 071 08399 00: UNIQUE WELL ID
~Curve Information Block
DEPT.FT            0 000 00 00: Depth
DCAL.in                       : CDL Caliper
RHOB.g/cc                     : CDL Bulk Density
RHOC.g/cc                     : CDL Density Correction
DPOR.pu                       : CDL Density Porosity
NPOR.pu                       : Neutron Porosity
GR.GAPI                       : Gamma Ray
~Parameter Information Block
~A  Depth       DCAL        RHOB        RHOC        DPOR        NPOR         GR     
# ...
   718.0000      8.0025      2.5467      0.0275      6.2635     22.7897     78.1722
   718.1000      8.0025      2.5578      0.0583      5.5903     23.0741     79.1805
   718.2000      8.0025      2.5664      0.0649      5.0648     23.0999     74.8914
   718.3000      8.0028      2.5599      0.0260      5.4629     23.1078     70.4459
   718.4000      8.0028      2.5450      0.0403      6.3645     23.2032     71.5966
   718.5000      8.0025      2.5350     -0.0009      6.9716     23.3386     75.5888
   718.6000      8.0025      2.5343      0.0699      7.0125     23.2695     76.7899
   718.7000      8.0025      2.5349      0.0294      6.9728     22.9574     74.1074
   718.8000      8.0004      2.5352      0.0071      6.9559     22.8068     70.7581
   718.9000      8.0004      2.5327      0.0640      7.1101     22.9477     69.3402
   719.0000      7.9990      2.5240      0.0075      7.6373     23.0686     69.8226
   719.1000      7.9990      2.5197      0.0495      7.8970     22.8605     69.7610
   719.2000      7.9990      2.5284      0.0265      7.3671     22.3796     66.8753
   719.3000      8.0000      2.5407      0.0804      6.6239     21.6745     62.5925
   719.4000      8.0000      2.5372      0.0867      6.8341     20.6849     60.8694
   719.5000      8.0003      2.5207      0.0273      7.8340     19.8111     62.9468
   719.6000      8.0003      2.5069      0.0395      8.6747     19.3014     65.6823
   719.7000      8.0003      2.4932      0.0455      9.5003     19.0740     68.3350
   719.8000      7.9996      2.4803      0.0093     10.2867     19.2723     71.6547
   719.9000      7.9996      2.4835      0.0071     10.0897     19.8376     73.8311
   720.0000      8.0007      2.5076      0.0441      8.6279     20.3225     74.5184
   720.1000      8.0007      2.5364      0.0623      6.8872     20.4748     74.1379
   720.2000      8.0007      2.5502      0.0684      6.0515     20.2963     71.6555
   720.3000      8.0029      2.5423      0.0898      6.5259     19.9949     68.9329
   720.4000      8.0029      2.5223      0.0368      7.7367     19.9800     67.6178
   720.5000      8.0042      2.5040      0.0528      8.8463     20.2150     67.6136
   720.6000      8.0042      2.4928      0.0408      9.5291     20.1199     68.6003
   720.7000      8.0042      2.4916      0.0570      9.6010     19.6505     68.2178
   720.8000      8.0040      2.4995      0.0742      9.1207     19.3141     66.3637
   720.9000      8.0040      2.5131      0.0554      8.2966     19.1631     65.3481
   721.0000      8.0025      2.5240      0.0905      7.6367     19.0134     66.8350
   721.1000      8.0025      2.5219      0.0556      7.7615     18.8409     70.6763
   721.2000      8.0025      2.5159      0.0429      8.1263     18.6445     73.8854
   721.3000      8.0005      2.5205      0.0592      7.8511     18.2756     75.0886
   721.4000      8.0005      2.5367      0.0719      6.8679     17.8895     74.9035
   721.5000      7.9994      2.5560      0.1092      5.6978     17.9862     74.8969
   721.6000      7.9994      2.5643      0.1216      5.1960     18.7843     77.1918
   721.7000      7.9994      2.5579      0.1104      5.5819     19.7373     79.4059
   721.8000      7.9991      2.5458      0.0997      6.3152     20.0016     77.4603
   721.9000      7.9991      2.5262      0.1257      7.5025     19.5961     74.4225
   722.0000      7.9984      2.4911      0.0636      9.6298     19.2650     74.5987
   722.1000      7.9984      2.4535      0.0459     11.9104     19.3558     74.1640
   722.2000      7.9984      2.4345      0.0424     13.0620     19.7180     69.6621
   722.3000      7.9995      2.4369      0.0622     12.9137     20.2563     66.3781
   722.4000      7.9995      2.4519      0.0289     12.0085     20.8334     67.8807
   722.5000      8.0003      2.4808      0.0285     10.2541     21.3803     69.6420
   722.6000      8.0003      2.5273      0.1146      7.4373     22.0467     67.6291
   722.7000      8.0003      2.5741      0.1541      4.6013     22.8662     64.1347
   722.8000      7.9986      2.5976      0.1762      3.1770     23.7338     62.6688
   722.9000      7.9986      2.5970      0.1203      3.2091     24.5123     62.8540
   723.0000      7.9985      2.5957      0.1085      3.2938     25.3677     63.0300
   723.1000      7.9985      2.6074      0.1308      2.5836     26.5185     64.1315
   723.2000      7.9985      2.6264      0.1225      1.4327     27.7770     69.9735
   723.3000      8.0013      2.6368      0.1259      0.7978     29.1043     80.4102
   723.4000      8.0013      2.6263      0.0945      1.4373     30.2814     89.9796
   723.5000      8.0033      2.6054      0.0558      2.7038     30.7983     97.0267
   723.6000      8.0033      2.5893      0.0631      3.6799     30.6663    106.0425
   723.7000      8.0033      2.5772      0.0166      4.4115     30.2276    119.1370
   723.8000      8.0018      2.5639      0.0717      5.2185     29.7050    130.3042
   723.9000      8.0018      2.5481      0.0392      6.1757     29.3185    134.1922
   724.0000      7.9980      2.5368      0.0767      6.8607     29.0265    133.9867
   724.1000      7.9980      2.5334      0.1001      7.0669     28.7177    130.5794
   724.2000      7.9980      2.5370      0.0733      6.8473     28.6936    121.0651
   724.3000      7.9958      2.5480      0.0514      6.1845     29.0662    111.5191
   724.4000      7.9958      2.5567      0.1135      5.6516     29.4527    109.6934
   724.5000      7.9960      2.5558      0.0616      5.7102     29.3965    114.2989
   724.6000      7.9960      2.5501      0.1008      6.0548     29.0076    120.9644
   724.7000      7.9960      2.5393      0.0836      6.7080     28.8752    125.6649
   724.8000      7.9974      2.5246      0.0566      7.6003     29.0579    126.8263
   724.9000      7.9974      2.5190      0.0287      7.9404     29.1917    125.5576
   725.0000      7.9987      2.5256      0.0792      7.5399     29.4436    122.9525
   725.1000      7.9987      2.5339      0.0550      7.0374     30.1425    119.5090
   725.2000      7.9987      2.5443      0.0534      6.4074     30.7634    118.3968
   725.3000      8.0010      2.5556      0.0683      5.7193     30.4509    122.6424
   725.4000      8.0010      2.5552      0.0615      5.7445     29.6336    126.5711
   725.5000      8.0030      2.5431      0.0646      6.4774     29.3386    122.8836
   725.6000      8.0030      2.5244      0.0969      7.6138     29.5133    116.3451
   725.7000      8.0030      2.4923      0.0666      9.5602     29.7629    114.8443
   725.8000      8.0031      2.4506      0.0451     12.0861     29.9010    116.5735
   725.9000      8.0031      2.4196      0.0113     13.9648     29.4450    118.5659
   726.0000      8.0016      2.4151      0.0102     14.2382     28.0665    121.3897
   726.1000      8.0016      2.4317      0.0477     13.2298     26.4247    122.0931
   726.2000      8.0016      2.4436      0.1098     12.5108     25.5814    118.3547
   726.3000      7.9995      2.4388      0.0371     12.8020     25.5514    113.1165
   726.4000      7.9995      2.4398      0.0550     12.7419     25.3264    108.8160
   726.5000      8.0014      2.4669      0.0671     11.0992     24.6446    104.9221
   726.6000      8.0014      2.5104      0.1333      8.4631     24.4311    101.3494
   726.7000      8.0014      2.5517      0.1572      5.9564     24.9180     99.1249
   726.8000      8.0154      2.5897      0.1703      3.6554     25.3713     98.8280
   726.9000      8.0154      2.6308      0.1756      1.1615     25.5739     99.7802
   727.0000      8.0474      2.6657      0.1878     -0.9499     26.0732     98.5730
   727.1000      8.0474      2.6716      0.1800     -1.3101     27.1602     94.0961
   727.2000      8.0474      2.6483      0.1139      0.1037     28.3806     89.6954
   727.3000      8.0831      2.6231      0.0379      1.6303     29.2323     87.0027
   727.4000      8.0831      2.6127      0.0577      2.2589     29.7378     84.8413
   727.5000      8.1010      2.6091      0.0805      2.4773     30.0523     85.3658
