~Version Information
VERS.                      2.0: CWLS Log ASCII Standard - VERSION 2.0
WRAP.                       NO: One line per depth step
~Well Information Block
STRT.FT                -6.7500: 
STOP.FT              2058.2500: 
STEP.FT                 0.2500: 
NULL.                -999.2500: 
COMP.          Petrogulf Corporation: COMPANY
WELL.           Schedler 9-23R: WELL
FLD.           Purgatorie River: FIELD
LOC.           2084' FSL & 2331' FWL--: LOCATION
PROV.                       CO: PROVINCE
CNTY.               Las Animas: COUNTRY
SRVC.                         : SERVICE COMPANY
DATE.          Fri Nov 12 13:22:46 2004: LOG DATE
UWI.       005 071 08040 : UNIQUE WELL ID
~Curve Information Block
DEPT.FT            0 000 00 00: Depth
GR.GAPI                       : Gamma Ray
CCL.                          : Casing Collar Locator
TT3.usec                      : CBL 3' Travel Time
AMP3.mV                       : CBL 3' Amplitude
~Parameter Information Block
~A  Depth        GR         CCL         TT3         AMP3    
# ...
  1634.7500     62.6217      0.0000    606.3013      1.3351
  1635.0000     61.3400      0.0000    606.2244      1.3486
  1635.2500     60.5770      0.0000    606.1532      1.3614
  1635.5000     60.9122      0.0000    606.0914      1.3607
  1635.7500     62.7671      0.0000    606.0537      1.3483
  1636.0000     65.6049      0.0000    606.0649      1.3442
  1636.2500     67.7063      0.0000    606.1479      1.3712
  1636.5000     67.4414      0.0000    606.3109      1.4345
  1636.7500     64.9436      0.0000    606.5569      1.5174
  1637.0000     62.0788      0.0000    606.9113      1.5958
  1637.2500     60.7093      0.0000    607.4344      1.6564
  1637.5000     61.2948      0.0000    608.2032      1.7005
  1637.7500     63.0275      0.0000    609.2787      1.7329
  1638.0000     64.7421      0.0000    610.6755      1.7511
  1638.2500     65.5277      0.0000    612.3669      1.7486
  1638.5000     64.9737      0.0000    614.3877      1.7271
  1638.7500     63.3419      0.0000    617.0490      1.7017
  1639.0000     61.5881      0.0000    620.9940      1.6938
  1639.2500     61.0834      0.0000    626.6616      1.7143
  1639.5000     63.0865      0.0000    633.3600      1.7564
  1639.7500     68.4410      0.0000    639.2864      1.8094
  1640.0000     77.8238      0.0000    643.3583      1.8768
  1640.2500     91.8275      0.0000    647.1150      1.9714
  1640.5000    109.9647      0.0000    654.1193      2.0913
  1640.7500    129.6480      0.0000    667.3416      2.2107
  1641.0000    147.0138      0.0000    687.2513      2.2986
  1641.2500    159.2401      0.0000    711.5428      2.3465
  1641.5000    166.0443      0.0000    735.8274      2.3825
  1641.7500    169.1132      0.0000    755.3822      2.4638
  1642.0000    170.5485      0.0000    767.4033      2.6467
  1642.2500    171.8173      0.0000    771.7581      2.9494
  1642.5000    173.4363      0.0000    769.8635      3.3400
  1642.7500    175.0033      0.0000    763.6627      3.7655
  1643.0000    175.6740      0.0000    755.5536      4.1948
  1643.2500    174.9752      0.0000    748.0423      4.6401
  1643.5000    173.1486      0.0000    742.6041      5.1446
  1643.7500    170.6956      0.0000    739.0450      5.7530
  1644.0000    167.8611      0.0000    736.2984      6.4896
  1644.2500    164.7901      0.0000    733.6773      7.3408
  1644.5000    161.9323      0.0000    731.1093      8.2441
  1644.7500    159.7074      0.0000    728.4740      9.0987
  1645.0000    157.6016      0.0000    725.6151      9.8115
  1645.2500    154.2155      0.0000    723.2737     10.3535
  1645.5000    148.8485      0.0000    723.0805     10.7730
  1645.7500    142.8888      0.0000    725.8013     11.1435
  1646.0000    139.1279      0.0000    729.9416     11.4937
  1646.2500    139.5638      0.0000    732.8678     11.7950
  1646.5000    143.9798      0.0000    733.4600     12.0168
  1646.7500    150.4045      0.0000    733.2137     12.1817
  1647.0000    156.5549      0.0000    734.4008     12.3552
  1647.2500    160.8258      0.0000    737.3525     12.5963
  1647.5000    162.4005      0.0000    739.8845     12.9343
  1647.7500    161.1296      0.0000    739.2931     13.3878
  1648.0000    157.7594      0.0000    734.6811     13.9847
  1648.2500    154.0978      0.0000    727.5376     14.7447
  1648.5000    152.3410      0.0000    720.4431     15.6353
  1648.7500    153.7384      0.0000    715.2842     16.5436
  1649.0000    157.8515      0.0000    712.4560     17.3053
  1649.2500    163.0993      0.0000    711.3013     17.7827
  1649.5000    167.9097      0.0000    710.9377     17.9370
  1649.7500    171.4458      0.0000    710.7396     17.8369
  1650.0000    173.4309      0.0000    710.4390     17.5978
  1650.2500    173.5913      0.0000    710.0590     17.3072
  1650.5000    171.9840      0.0000    709.7531     16.9993
  1650.7500    170.1298      0.0000    709.6151     16.6767
  1651.0000    170.8196      0.0000    709.5994     16.3328
  1651.2500    175.5666      0.0000    709.6057     15.9599
  1651.5000    182.1893      0.0000    709.6002     15.5630
  1651.7500    185.7414      0.0000    709.6241     15.1727
  1652.0000    182.5286      0.0000    709.7120     14.8245
  1652.2500    173.5099      0.0000    709.8517     14.5163
  1652.5000    163.7782      0.0000    710.0043     14.1895
  1652.7500    158.5656      0.0000    710.1140     13.7577
  1653.0000    159.5374      0.0000    710.0973     13.1674
  1653.2500    164.4484      0.0000    709.8508     12.4562
  1653.5000    169.5766      0.0000    709.2570     11.7660
  1653.7500    172.2366      0.0000    708.1426     11.2859
  1654.0000    171.6061      0.0000    706.3053     11.1536
  1654.2500    168.1614      0.0000    703.8383     11.3772
  1654.5000    162.9979      0.0000    701.2675     11.8329
  1654.7500    157.4981      0.0000    698.7424     12.3476
  1655.0000    152.9016      0.0000    694.4152     12.8163
  1655.2500    149.7828      0.0000    684.5721     13.2539
  1655.5000    148.0545      0.0000    667.9211     13.7068
  1655.7500    147.4867      0.0000    650.7975     14.1021
  1656.0000    147.7754      0.0000    645.1001     14.2587
  1656.2500    147.9588      0.0000    657.8583     14.1145
  1656.5000    146.4746      0.0000    684.2843     13.8595
  1656.7500    142.5189      0.0000    713.3051     13.7490
  1657.0000    137.2231      0.0000    737.2773     13.8465
  1657.2500    132.9254      2.0000    753.8887     14.0347
  1657.5000    131.1201      1.5759    761.5949     14.2141
  1657.7500    131.4648      0.0000    757.3660     14.4107
  1658.0000    132.9052      0.0000    738.5029     14.7356
  1658.2500    135.1595      0.0000    704.7795     15.3210
  1658.5000    138.4642      0.0000    660.0278     16.2601
  1658.7500    142.0517      0.0000    613.9052     17.5083
  1659.0000    143.7841      0.0000    579.8411     18.8360
  1659.2500    141.9631      0.0000    566.2150     19.9584
  1659.5000    137.2606      0.0000    566.9244     20.7351
  1659.7500    132.3027      0.0000    562.3083     21.2150
  1660.0000    129.4695      0.0000    534.7070     21.5119
  1660.2500    129.4660      0.0000    487.6476     21.6625
  1660.5000    131.5896      0.0000    447.6620     21.5850
  1660.7500    134.5585      0.0000    442.9269     21.1568
  1661.0000    137.1835      0.0000    479.3776     20.3350
  1661.2500    138.9576      0.0000    537.6321     19.2138
  1661.5000    140.0174      0.0000    591.2894     17.9714
  1661.7500    140.2250      0.0000    627.0115     16.7716
  1662.0000    138.6879      0.0000    648.0289     15.7096
  1662.2500    134.6859      0.0000    662.7136     14.8196
  1662.5000    128.7977      0.0000    674.5764     14.0985
  1662.7500    122.5972      0.0000    684.0542     13.5131
  1663.0000    117.4172      0.0000    695.5106     13.0080
  1663.2500    113.9547      0.0000    716.9479     12.5398
  1663.5000    112.9231      0.0000    751.1100     12.1124
  1663.7500    115.1591      0.0000    789.5040     11.7719
  1664.0000    120.6557      0.0000    818.4112     11.5510
  1664.2500    128.0242      0.0000    830.9078     11.4198
  1664.5000    135.1984      0.0000    831.1206     11.3005
  1664.7500    140.2959      0.0000    827.1422     11.1240
  1665.0000    141.9992      0.0000    822.2567     10.8640
  1665.2500    139.9715      0.0000    813.9456     10.5311
  1665.5000    135.2015      0.0000    799.3289     10.1538
  1665.7500    129.4558      0.0000    778.9496      9.7663
  1666.0000    124.1100      0.0000    755.5416      9.3975
  1666.2500    119.7066      0.0000    731.8138      9.0600
  1666.5000    116.5343      0.0000    710.1367      8.7454
  1666.7500    115.0597      0.0000    692.4360      8.4317
  1667.0000    115.4765      0.0000    679.3738      8.1053
  1667.2500    117.1751      0.0000    670.2970      7.7765
  1667.5000    119.0828      0.0000    664.0181      7.4671
  1667.7500    120.4780      0.0000    659.3208      7.1841
  1668.0000    121.1253      0.0000    655.2639      6.9200
