~Version Information
VERS.                      2.0: CWLS Log ASCII Standard - VERSION 2.0
WRAP.                       NO: One line per depth step
~Well Information Block
STRT.FT               350.0000: 
STOP.FT              1390.0000: 
STEP.FT                 0.1000: 
NULL.                -999.2500: 
COMP.          Petrogulf Corporation: COMPANY
WELL.             Leier 17-42R: WELL
FLD.           Purgatorie River: FIELD
LOC.           2398' FNL & 1109' FEL: LOCATION
PROV.                 Colorado: PROVINCE
CNTY.               Las Animas: COUNTRY
SRVC.                Patterson: SERVICE COMPANY
DATE.          Tue Oct 18 07:06:44 2005: LOG DATE
UWI.                          : UNIQUE WELL ID
~Curve Information Block
DEPT.FT            0 000 00 00: Depth
DCAL.in                       : CDL Caliper
RHOB.g/cc                     : CDL Bulk Density
RHOC.g/cc                     : CDL Density Correction
DPOR.pu                       : CDL Density Porosity
GR.GAPI                       : Gamma Ray
NPOR.pu                       : Neutron Porosity
~Parameter Information Block
~A  Depth       DCAL        RHOB        RHOC        DPOR         GR         NPOR    
# ...
   695.6000      8.2279      2.5994      0.1519      3.0652    123.5868     26.3900
   695.7000      8.2279      2.6105      0.0687      2.3934    120.6353     26.2056
   695.8000      8.2146      2.6134      0.0505      2.2181    117.8081     25.9465
   695.9000      8.2146      2.6283      0.0847      1.3163    116.3834     25.5770
   696.0000      8.1987      2.6585      0.1286     -0.5135    110.5793     25.2377
   696.1000      8.1987      2.6885      0.1591     -2.3323    100.0627     25.0282
   696.2000      8.1987      2.7082      0.1652     -3.5262     92.7779     24.8605
   696.3000      8.1738      2.7219      0.1229     -4.3597     91.3837     24.5623
   696.4000      8.1738      2.7303      0.1315     -4.8673     91.8147     24.1254
   696.5000      8.0070      2.7208      0.1279     -4.2938     90.4525     23.7339
   696.6000      8.0070      2.6882      0.1040     -2.3152     86.9956     23.4528
   696.7000      8.0070      2.6467      0.0557      0.2017     84.0835     22.8410
   696.8000      7.9430      2.6186     -0.0331      1.9041     82.3753     21.7050
   696.9000      7.9430      2.6172     -0.0046      1.9891     81.4247     20.7474
   697.0000      7.9168      2.6270      0.0641      1.3925     81.3730     20.1616
   697.1000      7.9168      2.6304     -0.0302      1.1869     80.5903     19.3552
   697.2000      7.9168      2.6351      0.0521      0.9058     79.0153     18.3365
   697.3000      7.9103      2.6479      0.0274      0.1254     78.6764     17.3899
   697.4000      7.9103      2.6670      0.0334     -1.0327     80.7916     16.6218
   697.5000      7.8887      2.6886      0.0179     -2.3364     84.8837     16.2633
   697.6000      7.8887      2.7021      0.0664     -3.1581     88.0018     16.2575
   697.7000      7.8887      2.6928      0.0630     -2.5925     86.7213     16.1745
   697.8000      7.8792      2.6632      0.0328     -0.8028     83.3115     15.9009
   697.9000      7.8792      2.6329      0.0006      1.0343     82.9183     15.6042
   698.0000      7.9264      2.6179      0.0117      1.9424     86.3069     15.5734
   698.1000      7.9264      2.6160      0.0550      2.0585     91.0630     16.1677
   698.2000      7.9264      2.6134      0.0237      2.2177     93.7695     17.2741
   698.3000      7.9364      2.6053      0.0526      2.7121     92.3787     18.4096
   698.4000      7.9364      2.5936      0.0033      3.4169     88.2298     19.3000
   698.5000      7.9400      2.5784      0.0246      4.3386     84.8266     19.8105
   698.6000      7.9400      2.5594      0.0200      5.4923     85.2346     19.8001
   698.7000      7.9400      2.5497     -0.0318      6.0795     87.0005     19.4340
   698.8000      7.9485      2.5618     -0.0041      5.3430     82.6866     19.1224
   698.9000      7.9485      2.5801      0.0514      4.2353     72.8455     19.0527
   699.0000      7.9499      2.5779      0.0645      4.3698     67.3355     19.1539
   699.1000      7.9499      2.5544      0.0293      5.7928     69.6250     19.2068
   699.2000      7.9499      2.5358      0.0267      6.9196     74.0147     19.1170
   699.3000      7.9513      2.5371      0.0285      6.8454     76.1207     19.1426
   699.4000      7.9513      2.5423      0.0577      6.5257     75.6170     19.3746
   699.5000      7.9466      2.5349      0.0501      6.9786     72.0676     19.4405
   699.6000      7.9466      2.5273     -0.0085      7.4374     66.8439     19.1691
   699.7000      7.9466      2.5365      0.0428      6.8787     64.3079     18.8413
   699.8000      7.9465      2.5508      0.0654      6.0113     64.9178     18.8318
   699.9000      7.9465      2.5548      0.0675      5.7690     64.6885     19.2892
   700.0000      7.9431      2.5510      0.0478      5.9971     63.2986     19.9584
   700.1000      7.9431      2.5431      0.1079      6.4808     63.9442     20.2630
   700.2000      7.9431      2.5350      0.0354      6.9717     66.8155     19.9063
   700.3000      7.9403      2.5397      0.0271      6.6878     68.8488     19.0982
   700.4000      7.9403      2.5500      0.0968      6.0611     69.0593     18.1835
   700.5000      7.9457      2.5432      0.0700      6.4710     69.7207     17.6535
   700.6000      7.9457      2.5247      0.0346      7.5919     71.5007     17.8294
   700.7000      7.9457      2.5194      0.0152      7.9157     70.2755     18.2869
   700.8000      7.9515      2.5331      0.0494      7.0825     64.7430     18.2827
   700.9000      7.9515      2.5464      0.0980      6.2762     60.9215     17.8663
   701.0000      7.9503      2.5400      0.0936      6.6660     62.5102     17.3441
   701.1000      7.9503      2.5208      0.0371      7.8288     65.4153     16.7494
   701.2000      7.9503      2.5122      0.0096      8.3535     64.8322     16.4928
   701.3000      7.9459      2.5183      0.0402      7.9801     61.2600     16.8834
   701.4000      7.9459      2.5195      0.0580      7.9067     57.7089     17.5734
   701.5000      7.9594      2.5050      0.0326      8.7899     56.3054     18.1937
   701.6000      7.9594      2.4835      0.0156     10.0914     57.2619     18.5267
   701.7000      7.9594      2.4733     -0.0039     10.7102     59.7240     18.4575
   701.8000      7.9588      2.4837      0.0655     10.0771     62.7183     18.2676
   701.9000      7.9588      2.5019      0.0722      8.9775     64.4501     18.3817
   702.0000      7.9474      2.5151      0.0463      8.1781     64.5695     18.7260
   702.1000      7.9474      2.5242      0.0371      7.6222     64.2578     18.6926
   702.2000      7.9474      2.5320      0.0766      7.1529     62.9490     18.0833
   702.3000      7.9472      2.5407      0.0633      6.6221     60.6871     17.5217
   702.4000      7.9472      2.5513      0.0812      5.9806     59.4960     17.3325
   702.5000      7.9491      2.5616      0.0458      5.3574     60.5133     17.0876
   702.6000      7.9491      2.5716      0.1051      4.7541     62.5892     16.6051
   702.7000      7.9491      2.5769      0.1179      4.4322     64.3089     16.2180
   702.8000      7.9501      2.5728      0.0754      4.6812     66.0044     16.2480
   702.9000      7.9501      2.5601      0.0821      5.4511     68.2760     16.7471
   703.0000      7.9732      2.5356      0.0640      6.9323     70.1267     17.4048
   703.1000      7.9732      2.4973      0.0192      9.2573     70.6579     17.6548
   703.2000      7.9732      2.4594     -0.0279     11.5528     69.7751     17.5028
   703.3000      7.9972      2.4385     -0.0052     12.8205     66.2899     17.7863
   703.4000      7.9972      2.4377     -0.0288     12.8643     60.1871     18.7491
   703.5000      8.0090      2.4531      0.0168     11.9316     54.6611     19.6162
   703.6000      8.0090      2.4677      0.0576     11.0500     52.2136     19.7886
   703.7000      8.0090      2.4691      0.0173     10.9650     52.2964     19.4497
   703.8000      7.9915      2.4683      0.0207     11.0123     53.7875     19.0569
   703.9000      7.9915      2.4735      0.0612     10.6965     55.3233     18.9679
   704.0000      7.9705      2.4789      0.0191     10.3709     56.3587     19.2654
   704.1000      7.9705      2.4787      0.0678     10.3834     57.6134     19.4716
   704.2000      7.9705      2.4737      0.0296     10.6861     59.4304     19.1830
   704.3000      7.9680      2.4680      0.0461     11.0308     61.1191     18.6652
   704.4000      7.9680      2.4585      0.0540     11.6078     60.4184     17.9986
   704.5000      7.9752      2.4486      0.0098     12.2052     55.6663     17.1210
   704.6000      7.9752      2.4532      0.0211     11.9259     50.3327     16.5058
   704.7000      7.9752      2.4708      0.0395     10.8627     50.1331     16.2988
   704.8000      7.9681      2.4807      0.0863     10.2588     55.8766     16.0354
   704.9000      7.9681      2.4779      0.0357     10.4330     61.7533     15.6515
   705.0000      7.9610      2.4831     -0.0044     10.1135     63.1050     15.3984
   705.1000      7.9610      2.5040      0.0648      8.8497     62.2682     15.2378
