~Version Information
VERS.                      2.0: CWLS Log ASCII Standard - VERSION 2.0
WRAP.                       NO: One line per depth step
~Well Information Block
STRT.FT               784.0000: 
STOP.FT              1033.0000: 
STEP.FT                 0.1000: 
NULL.                -999.2500: 
COMP.          Pioneer Natural Resources: COMPANY
WELL.          Run-Away-Train 43-26: WELL
FLD.           Purgatoire River: FIELD
LOC.           1693' FSL & 1195' FEL: LOCATION
PROV.                 Colorado: PROVINCE
CNTY.               Las Animas: COUNTRY
SRVC.                Patterson: SERVICE COMPANY
DATE.          Wed Apr 06 07:23:28 2005: LOG DATE
UWI.           05 071 08188 00: UNIQUE WELL ID
~Curve Information Block
DEPT.FT            0 000 00 00: Depth
DCAL.in                       : CDL Caliper
RHOB.g/cc                     : CDL Bulk Density
RHOC.g/cc                     : CDL Density Correction
DPOR.pu                       : CDL Density Porosity
GR.GAPI                       : Gamma Ray
NPOR.pu                       : Neutron Porosity
~Parameter Information Block
~A  Depth       DCAL        RHOB        RHOC        DPOR         GR         NPOR    
# ...
   860.8000      7.8843      2.5432      0.0697      6.4751     75.2407     21.0697
   860.9000      7.8843      2.5272      0.0785      7.4453     76.1781     21.0893
   861.0000      7.8778      2.5178      0.0762      8.0123     79.7130     21.3951
   861.1000      7.8778      2.5190      0.0655      7.9374     83.4694     21.7850
   861.2000      7.8778      2.5236      0.1114      7.6600     84.1749     21.8136
   861.3000      7.8802      2.5315      0.0618      7.1824     83.4425     21.6016
   861.4000      7.8802      2.5519      0.1163      5.9448     83.2358     21.5542
   861.5000      7.9021      2.5684      0.1298      4.9434     83.9687     21.7541
   861.6000      7.9021      2.5571      0.1256      5.6288     87.9587     21.9020
   861.7000      7.9021      2.5278      0.1438      7.4043     92.7430     21.8519
   861.8000      7.8859      2.5156      0.0549      8.1430     92.4234     21.9405
   861.9000      7.8859      2.5313      0.0931      7.1946     86.3691     22.2700
   862.0000      7.8707      2.5478      0.0820      6.1939     78.9973     22.3992
   862.1000      7.8707      2.5454      0.0592      6.3388     74.6577     22.2340
   862.2000      7.8707      2.5303      0.0742      7.2519     74.0019     22.3343
   862.3000      7.8698      2.5256      0.0060      7.5395     74.9069     22.8598
   862.4000      7.8698      2.5502      0.0335      6.0507     76.2759     23.2911
   862.5000      7.8867      2.5848      0.1095      3.9489     76.2081     23.2027
   862.6000      7.8867      2.5961      0.1129      3.2646     72.6237     22.6964
   862.7000      7.8867      2.5831      0.0659      4.0547     69.2569     22.1716
   862.8000      7.9144      2.5685      0.0454      4.9379     71.6568     21.7930
   862.9000      7.9144      2.5646      0.0854      5.1771     76.1760     21.6081
   863.0000      7.8953      2.5706      0.0590      4.8136     74.8333     21.5805
   863.1000      7.8953      2.5868      0.0418      3.8282     68.0842     21.4802
   863.2000      7.8953      2.6081      0.0747      2.5383     60.8753     21.2474
   863.3000      7.8702      2.6216      0.0808      1.7221     54.9267     20.9489
   863.4000      7.8702      2.6179      0.0902      1.9454     51.4136     20.6089
   863.5000      7.8824      2.5993      0.0804      3.0725     51.8689     20.3296
   863.6000      7.8824      2.5851      0.0416      3.9336     55.9267     20.2114
   863.7000      7.8824      2.5889      0.0567      3.7045     60.1301     20.1396
   863.8000      7.8911      2.5898      0.0947      3.6458     60.7129     19.9552
   863.9000      7.8911      2.5709      0.0160      4.7910     59.0112     19.8971
   864.0000      7.8951      2.5602     -0.0306      5.4447     59.0262     19.9799
   864.1000      7.8951      2.5814      0.0533      4.1563     60.7628     19.8035
   864.2000      7.8951      2.6067      0.0926      2.6272     60.2399     19.3274
   864.3000      7.9083      2.6028      0.0405      2.8626     55.9569     18.8715
   864.4000      7.9083      2.5847      0.0052      3.9565     51.6784     18.6494
   864.5000      7.9118      2.5840      0.0386      4.0001     51.1029     18.7323
   864.6000      7.9118      2.5883      0.1020      3.7401     54.6867     18.9350
   864.7000      7.9118      2.5669      0.0410      5.0385     59.4241     19.1857
   864.8000      7.9027      2.5337      0.0388      7.0468     62.0409     19.4988
   864.9000      7.9027      2.5157      0.0238      8.1412     62.1666     19.6875
   865.0000      7.8861      2.5169      0.0045      8.0657     60.2303     19.8002
   865.1000      7.8861      2.5391      0.0052      6.7182     57.9341     19.9896
   865.2000      7.8861      2.5771      0.0770      4.4169     58.4628     20.3227
   865.3000      7.8840      2.6094      0.0992      2.4623     61.7738     20.7203
   865.4000      7.8840      2.6264      0.0426      1.4303     65.2935     20.9361
   865.5000      7.9139      2.6371      0.0925      0.7831     66.3264     20.9591
   865.6000      7.9139      2.6397      0.1189      0.6250     63.3453     20.8277
   865.7000      7.9139      2.6299      0.0963      1.2155     58.9188     20.5952
   865.8000      7.9148      2.6116      0.1190      2.3261     55.8864     20.5150
   865.9000      7.9148      2.5784      0.0907      4.3418     54.4314     20.5281
   866.0000      7.8896      2.5306     -0.0134      7.2343     54.8573     20.4823
   866.1000      7.8896      2.4954     -0.0408      9.3695     56.1567     20.5393
   866.2000      7.8896      2.4914     -0.0106      9.6119     55.2113     20.5512
   866.3000      7.8803      2.5029      0.0210      8.9171     52.2838     20.1274
   866.4000      7.8803      2.5060      0.0162      8.7297     52.1566     19.7862
   866.5000      7.9053      2.4941      0.0723      9.4483     54.8018     20.1969
   866.6000      7.9053      2.4790     -0.0218     10.3611     55.8063     20.7919
   866.7000      7.9053      2.4794      0.0169     10.3409     54.2713     20.8271
   866.8000      7.9195      2.4950      0.0438      9.3960     53.0984     20.3455
   866.9000      7.9195      2.5101      0.0448      8.4785     54.1091     19.7773
   867.0000      7.8927      2.5218      0.0477      7.7688     57.5686     19.4533
   867.1000      7.8927      2.5437      0.0504      6.4404     62.7117     19.3837
   867.2000      7.8927      2.5786      0.1050      4.3302     66.2804     19.3729
   867.3000      7.8776      2.6067      0.1147      2.6252     66.5271     19.3868
   867.4000      7.8776      2.6120      0.1577      2.3025     65.9972     19.6467
   867.5000      7.8755      2.5985      0.0939      3.1191     64.9579     20.0880
   867.6000      7.8755      2.5804      0.1295      4.2203     61.1175     20.2658
   867.7000      7.8755      2.5660      0.0982      5.0887     56.4701     20.0341
   867.8000      7.8819      2.5554      0.0641      5.7356     55.8700     19.8708
   867.9000      7.8819      2.5452      0.0708      6.3533     57.6014     19.9474
   868.0000      7.8900      2.5408      0.0281      6.6207     56.3757     20.0145
   868.1000      7.8900      2.5464      0.0837      6.2796     54.0125     19.9822
   868.2000      7.8900      2.5548      0.0226      5.7700     53.1736     20.0033
   868.3000      7.9143      2.5619      0.0949      5.3366     52.8873     20.2772
   868.4000      7.9143      2.5599      0.0842      5.4624     53.9820     20.6114
   868.5000      7.9004      2.5485      0.0327      6.1521     55.0737     20.6945
   868.6000      7.9004      2.5435      0.0245      6.4553     52.9496     20.4891
   868.7000      7.9004      2.5487      0.0420      6.1380     49.5849     20.2143
   868.8000      7.8797      2.5582      0.0778      5.5666     48.5469     20.1300
   868.9000      7.8797      2.5653      0.0758      5.1325     49.2469     20.1463
   869.0000      7.8685      2.5620      0.0468      5.3340     47.9033     20.0378
   869.1000      7.8685      2.5566      0.0337      5.6583     43.6459     19.8842
   869.2000      7.8685      2.5582      0.0653      5.5663     40.2965     19.8528
   869.3000      7.8711      2.5484      0.0740      6.1552     39.3146     19.7003
   869.4000      7.8711      2.5160      0.0078      8.1199     38.1604     19.3443
   869.5000      7.8759      2.4871     -0.0790      9.8734     36.1381     19.1633
   869.6000      7.8759      2.4903     -0.0484      9.6817     35.3091     19.2541
   869.7000      7.8759      2.5135      0.0262      8.2698     37.3535     19.2883
   869.8000      7.9035      2.5297     -0.0004      7.2932     40.7078     19.0104
   869.9000      7.9035      2.5338      0.0252      7.0409     42.6055     18.5488
   870.0000      7.9254      2.5337     -0.0111      7.0473     41.1644     18.2459
   870.1000      7.9254      2.5402      0.0185      6.6525     37.1869     18.4047
   870.2000      7.9254      2.5547      0.0502      5.7743     34.2304     18.8831
   870.3000      7.9166      2.5589      0.0767      5.5200     34.0394     19.1590
