~Version Information
VERS.                      2.0: CWLS Log ASCII Standard - VERSION 2.0
WRAP.                       NO: One line per depth step
~Well Information Block
STRT.FT               819.0000: 
STOP.FT              2497.0000: 
STEP.FT                 0.2500: 
NULL.                -999.2500: 
COMP.          Petrogulf Corporation: COMPANY
WELL.             State 16-21V: WELL
FLD.           Purgatorie River: FIELD
LOC.           1738' FWL & 332' FNL: LOCATION
PROV.                 Colorado: PROVINCE
CNTY.               Las Animas: COUNTRY
SRVC.          Patterson Wireline: SERVICE COMPANY
DATE.          Sun Jul 13 13:45:48 2003: LOG DATE
UWI.              05-071-07884: UNIQUE WELL ID 05 071 08829 00
~Curve Information Block
DEPT.FT            0 000 00 00: Depth
DCAL.in                       : CDL Caliper
RHOB.g/cc                     : CDL Bulk Density
RHOC.g/cc                     : CDL Density Correction
DPOR.pu                       : CDL Density Porosity
GR.GAPI                       : Gamma Ray
NPOR.pu                       : Neutron Porosity
~Parameter Information Block
~A  Depth       DCAL        RHOB        RHOC        DPOR         GR         NPOR    
# ...
  1299.0000      8.1718      2.6219      0.0235      1.7027    113.8612     26.4223
  1299.2500      8.1742      2.6136      0.0278      2.2060    116.7939     26.4003
  1299.5000      8.1893      2.6085      0.0317      2.5157    118.2637     26.1262
  1299.7500      8.1993      2.6097      0.0328      2.4423    117.3031     25.7883
  1300.0000      8.2059      2.6161      0.0346      2.0559    113.5128     25.2322
  1300.2500      8.2092      2.6213      0.0374      1.7410    109.8010     24.9510
  1300.5000      8.1970      2.6266      0.0436      1.4162    103.6583     24.7430
  1300.7500      8.1662      2.6268      0.0471      1.4074    100.3318     24.7289
  1301.0000      8.1385      2.6205      0.0482      1.7868     98.4567     24.8734
  1301.2500      8.1286      2.6125      0.0457      2.2715     99.8672     25.0885
  1301.5000      8.1288      2.5975      0.0396      3.1842    105.6750     25.5709
  1301.7500      8.1342      2.5874      0.0362      3.7913    111.1147     25.9500
  1302.0000      8.1459      2.5756      0.0353      4.5091    119.0973     26.4931
  1302.2500      8.1600      2.5709      0.0376      4.7949    122.7541     26.7793
  1302.5000      8.1684      2.5686      0.0437      4.9340    124.5510     27.0433
  1302.7500      8.1727      2.5693      0.0478      4.8919    123.8734     27.1287
  1303.0000      8.1798      2.5711      0.0513      4.7829    122.1890     27.2228
  1303.2500      8.1905      2.5713      0.0511      4.7672    121.4777     27.3170
  1303.5000      8.2004      2.5691      0.0473      4.9032    120.8746     27.5204
  1303.7500      8.2104      2.5662      0.0436      5.0763    120.2057     27.6684
  1304.0000      8.2162      2.5623      0.0383      5.3170    118.4127     27.8539
  1304.2500      8.2181      2.5615      0.0357      5.3625    117.0169     27.9382
  1304.5000      8.2192      2.5650      0.0331      5.1505    115.3702     28.0035
  1304.7500      8.2187      2.5702      0.0317      4.8379    114.7038     27.9961
  1305.0000      8.2177      2.5795      0.0280      4.2709    114.0040     27.8340
  1305.2500      8.2172      2.5848      0.0236      3.9515    113.5100     27.5757
  1305.5000      8.2143      2.5888      0.0158      3.7077    112.9780     26.9926
  1305.7500      8.2108      2.5888      0.0131      3.7072    113.2496     26.5768
  1306.0000      8.2095      2.5867      0.0174      3.8339    115.1227     26.1018
  1306.2500      8.2043      2.5853      0.0259      3.9183    117.1218     25.9353
  1306.5000      8.2012      2.5842      0.0417      3.9883    120.1795     25.9044
  1306.7500      8.2078      2.5831      0.0504      4.0524    121.5395     25.9973
  1307.0000      8.2147      2.5774      0.0554      4.3970    121.7592     26.2117
  1307.2500      8.2159      2.5683      0.0524      4.9526    120.8461     26.3419
  1307.5000      8.2152      2.5422      0.0409      6.5311    119.2871     26.4794
  1307.7500      8.2155      2.5145      0.0319      8.2098    118.9752     26.5857
  1308.0000      8.2167      2.4541      0.0219     11.8754    119.9596     26.9445
  1308.2500      8.2172      2.3994      0.0177     15.1850    121.2163     27.3914
  1308.5000      8.2183      2.2959      0.0101     21.4596    123.2356     28.3537
  1308.7500      8.2244      2.2156      0.0021     26.3281    124.2123     29.1267
  1309.0000      8.2405      2.0905     -0.0068     33.9087    123.8668     30.4093
  1309.2500      8.2721      2.0143     -0.0030     38.5278    121.6001     31.3233
  1309.5000      8.3248      1.9280      0.0215     43.7604    114.9437     32.6765
  1309.7500      8.4233      1.8955      0.0442     45.7260    109.4571     33.4510
  1310.0000      8.6076      1.8851      0.0723     46.3603    102.8928     34.2222
  1310.2500      8.7762      1.8970      0.0817     45.6380    101.1193     34.4137
  1310.5000      8.7093      1.9226      0.0810     44.0856    102.5487     34.2410
  1310.7500      8.4854      1.9306      0.0721     43.5972    104.9901     33.9074
  1311.0000      8.3581      1.9100      0.0470     44.8471    107.7947     33.3348
  1311.2500      8.3438      1.8707      0.0249     47.2312    107.4905     33.0656
  1311.5000      8.3591      1.7824     -0.0027     52.5805    102.3763     32.9862
  1311.7500      8.3871      1.7162     -0.0102     56.5936     96.1691     33.1318
  1312.0000      8.4396      1.6296     -0.0035     61.8430     84.8523     33.5041
  1312.2500      8.4998      1.5916      0.0093     64.1468     77.5616     33.7788
  1312.5000      8.5073      1.5749      0.0328     65.1556     69.1384     34.1788
  1312.7500      8.4441      1.5919      0.0480     64.1271     65.9221     34.4277
  1313.0000      8.3850      1.6538      0.0670     60.3766     65.1836     34.7252
  1313.2500      8.3612      1.7120      0.0761     56.8456     67.3615     34.8258
  1313.5000      8.3481      1.8063      0.0828     51.1316     74.0399     34.7734
  1313.7500      8.3351      1.8603      0.0815     47.8577     80.0388     34.6093
  1314.0000      8.3245      1.9053      0.0694     45.1308     89.2232     34.2462
  1314.2500      8.3193      1.9020      0.0529     45.3328     93.8604     33.9869
  1314.5000      8.3216      1.8445      0.0168     48.8177     96.1506     33.6719
  1314.7500      8.3346      1.7786     -0.0077     52.8095     93.8971     33.5701
  1315.0000      8.3567      1.6622     -0.0282     59.8646     85.3710     33.6838
  1315.2500      8.3842      1.5884     -0.0264     64.3370     77.2753     33.9738
  1315.5000      8.4219      1.5054     -0.0067     69.3677     63.7237     34.6651
  1315.7500      8.5094      1.4768      0.0104     71.1046     55.0799     35.1605
  1316.0000      8.6833      1.4806      0.0339     70.8734     44.7678     35.6126
  1316.2500      8.7735      1.5152      0.0481     68.7778     40.5021     35.5395
  1316.5000      8.6351      1.6124      0.0690     62.8850     38.6176     34.7491
  1316.7500      8.4903      1.7034      0.0816     57.3668     40.3633     33.8329
  1317.0000      8.4766      1.8678      0.0918     47.4033     46.9765     32.0986
  1317.2500      8.4514      1.9868      0.0902     40.1929     53.3686     30.8047
  1317.5000      8.3384      2.1616      0.0780     29.6022     64.2882     28.7277
  1317.7500      8.2225      2.2660      0.0676     23.2745     71.5175     27.2907
  1318.0000      8.1614      2.3931      0.0545     15.5725     80.9004     25.2203
  1318.2500      8.1437      2.4556      0.0480     11.7793     85.4024     24.0203
  1318.5000      8.1339      2.5189      0.0396      7.9447     88.5097     22.6089
  1318.7500      8.1211      2.5447      0.0343      6.3818     88.1899     21.9107
  1319.0000      8.1110      2.5666      0.0273      5.0567     85.6576     21.1207
  1319.2500      8.1110      2.5737      0.0241      4.6264     83.9086     20.7046
  1319.5000      8.1173      2.5773      0.0220      4.4064     82.6626     20.1946
  1319.7500      8.1152      2.5765      0.0219      4.4567     82.7236     19.9430
  1320.0000      8.1038      2.5721      0.0228      4.7217     83.3049     19.7930
  1320.2500      8.0968      2.5682      0.0244      4.9560     83.8330     19.9215
  1320.5000      8.0979      2.5635      0.0296      5.2403     85.5015     20.5485
  1320.7500      8.1043      2.5628      0.0354      5.2843     87.6116     21.2357
  1321.0000      8.1069      2.5677      0.0471      4.9876     91.8990     22.4540
  1321.2500      8.0989      2.5756      0.0555      4.5091     94.6444     23.1952
  1321.5000      8.0870      2.5937      0.0661      3.4126     96.9413     23.9263
  1321.7500      8.0736      2.6085      0.0699      2.5144     96.7774     24.1038
  1322.0000      8.0613      2.6314      0.0683      1.1249     94.4238     23.9832
  1322.2500      8.0617      2.6451      0.0627      0.2960     92.0858     23.7510
  1322.5000      8.0710      2.6604      0.0523     -0.6304     88.2471     23.3614
  1322.7500      8.0723      2.6661      0.0480     -0.9769     85.7346     23.1339
