~Version Information
VERS.                      2.0: CWLS Log ASCII Standard - VERSION 2.0
WRAP.                       NO: One line per depth step
~Well Information Block
STRT.FT                -0.2500: 
STOP.FT              2376.7500: 
STEP.FT                 0.2500: 
NULL.                -999.2500: 
COMP.          Petrogulf Corporation: COMPANY
WELL.             State 16-23V: WELL
FLD.           Purgatorie River: FIELD
LOC.           2414' FSL & 2215' FWL: LOCATION
PROV.                 Colorado: PROVINCE
CNTY.               Las Animas: COUNTRY
SRVC.          Patterson Wireline: SERVICE COMPANY
DATE.          Wed Jun 25 14:56:54 2003: LOG DATE
UWI.           05 071 07865 00: UNIQUE WELL ID
~Curve Information Block
DEPT.FT            0 000 00 00: Depth
CCL.                          : Casing Collar Locator
TT3.usec                      : CBL 3' Travel Time
AMP3.mV                       : CBL 3' Amplitude
GR.GAPI                       : Gamma Ray
~Parameter Information Block
~A  Depth       CCL         TT3         AMP3         GR     
# ...
  1406.7500      0.0000    256.4483     64.0897    130.7739
  1407.0000      0.0000    256.5031     63.9933    131.9086
  1407.2500      0.0000    256.6365     63.9075    135.3128
  1407.5000      0.0000    256.7807     63.8558    139.4129
  1407.7500      0.0000    256.8813     63.8679    141.7411
  1408.0000      0.0000    256.9243     63.9791    141.1720
  1408.2500      0.0000    256.9324     64.2021    139.0672
  1408.5000      0.0000    256.9422     64.4945    137.5484
  1408.7500      0.0000    256.9760     64.7744    136.9734
  1409.0000      0.0000    257.0234     64.9681    135.9801
  1409.2500      0.0000    257.0550     65.0333    133.9161
  1409.5000      0.0000    257.0558     64.9594    132.0733
  1409.7500      0.0000    257.0351     64.7835    131.9423
  1410.0000      0.0000    257.0073     64.5902    132.9783
  1410.2500      0.0000    256.9708     64.4502    132.9760
  1410.5000      0.0000    256.9100     64.3591    130.4565
  1410.7500      0.0000    256.8146     64.2594    125.9169
  1411.0000      0.0000    256.7031     64.1040    120.8292
  1411.2500      0.0000    256.6245     63.8740    116.2459
  1411.5000      0.0000    256.6245     63.5556    112.5434
  1411.7500      0.0000    256.7030     63.1408    109.7863
  1412.0000      0.0000    256.8142     62.6528    107.9393
  1412.2500      0.0000    256.9078     62.1385    106.8480
  1412.5000      0.0000    256.9620     61.6247    106.1173
  1412.7500      0.0000    256.9798     61.1070    105.2520
  1413.0000      0.0000    256.9677     60.5983    104.2171
  1413.2500      0.0000    256.9232     60.1610    103.7028
  1413.5000      0.0000    256.8405     59.8635    104.4411
  1413.7500      0.0000    256.7213     59.7161    106.3635
  1414.0000      0.0000    256.5790     59.6697    108.7375
  1414.2500      0.0000    256.4352     59.6686    110.9779
  1414.5000      0.0000    256.3178     59.6839    112.9083
  1414.7500      0.0000    256.2627     59.7051    114.4022
  1415.0000      0.0000    256.3005     59.7308    115.4336
  1415.2500      0.0000    256.4299     59.7735    116.5151
  1415.5000      0.0000    256.6085     59.8591    118.3652
  1415.7500      0.0000    256.7754     60.0146    120.9074
  1416.0000      0.0000    256.8862     60.2439    123.0716
  1416.2500      0.0000    256.9254     60.4970    123.6672
  1416.5000      0.0000    256.8945     60.6758    122.1076
  1416.7500      0.0000    256.8023     60.6935    118.3667
  1417.0000      0.0000    256.6727     60.5233    112.6910
  1417.2500      0.0000    256.5482     60.1846    105.7319
  1417.5000      0.0000    256.4650     59.7169     98.8013
  1417.7500      0.0000    256.4238     59.1873     93.3146
  1418.0000      0.0000    256.3911     58.6933     89.6087
  1418.2500      0.0000    256.3347     58.3234     86.8676
  1418.5000      0.0000    256.2550     58.1228     84.5819
  1418.7500      0.0000    256.1870     58.1044     83.4660
  1419.0000      0.0000    256.1768     58.2691     84.5704
  1419.2500      0.0000    256.2534     58.5933     88.0901
  1419.5000      0.0000    256.4095     59.0057     93.3013
  1419.7500      0.0000    256.6020     59.4047     99.1582
  1420.0000      0.0000    256.7762     59.7129    104.8088
  1420.2500      0.0000    256.8968     59.9157    109.8868
  1420.5000      0.0000    256.9611     60.0496    114.3886
  1420.7500      0.0000    256.9862     60.1641    118.2212
  1421.0000      0.0000    256.9881     60.2957    121.1259
  1421.2500      0.0000    256.9702     60.4688    123.1329
  1421.5000      0.0000    256.9259     60.7056    124.4556
  1421.7500      0.0000    256.8494     61.0160    124.5981
  1422.0000      0.0000    256.7482     61.3676    122.3425
  1422.2500      0.0000    256.6434     61.6714    117.4097
  1422.5000      0.0000    256.5539     61.8120    111.7060
  1422.7500      0.0000    256.4846     61.7066    108.2016
  1423.0000      0.0000    256.4325     61.3599    108.5043
  1423.2500      0.0000    256.4003     60.8883    111.5809
  1423.5000      0.0000    256.3915     60.4882    114.6108
  1423.7500      0.0000    256.3945     60.3383    115.0873
  1424.0000      0.0000    256.3813     60.4909    112.4986
  1424.2500      0.0000    256.3297     60.8473    108.4071
  1424.5000      0.0000    256.2436     61.2477    105.1739
  1424.7500      0.0000    256.1511     61.5765    104.3800
  1425.0000      0.0000    256.0851     61.7845    105.9071
  1425.2500      0.0000    256.0677     61.8441    108.4024
  1425.5000      0.0000    256.1124     61.7246    110.8933
  1425.7500      0.0000    256.2265     61.4273    113.7395
  1426.0000      0.0000    256.4007     61.0333    117.5875
  1426.2500      0.0000    256.5998     60.6982    121.9763
  1426.5000      0.0000    256.7758     60.5683    125.7162
  1426.7500      0.0000    256.8968     60.6799    128.2205
  1427.0000      0.0000    256.9615     60.9405    129.7857
  1427.2500      0.0000    256.9881     61.2152    130.9123
  1427.5000      0.0000    256.9951     61.4264    131.8892
  1427.7500      0.0000    256.9907     61.5775    133.0638
  1428.0000      0.0000    256.9729     61.7069    135.4438
  1428.2500      0.0000    256.9353     61.8429    140.4954
  1428.5000      0.0000    256.8790     61.9990    148.7039
  1428.7500      0.0000    256.8240     62.1811    158.5847
  1429.0000      0.0000    256.8005     62.3635    167.5829
  1429.2500      0.0000    256.8235     62.4446    173.7671
  1429.5000      0.0000    256.8768     62.2838    176.6178
  1429.7500      0.0000    256.9265     61.8420    176.6882
  1430.0000      0.0000    256.9460     61.2691    174.7240
  1430.2500      0.0000    256.9265     60.8066    171.0762
  1430.5000      0.0000    256.8768     60.6146    166.0626
  1430.7500      0.0000    256.8235     60.7089    160.7066
  1431.0000      0.0000    256.8004     60.9925    156.3723
  1431.2500      0.0000    256.8240     61.2800    153.4746
  1431.5000      0.0000    256.8790     61.3533    151.1147
  1431.7500      0.0000    256.9348     61.1029    148.2925
  1432.0000      0.0000    256.9704     60.6264    145.1844
  1432.2500      0.0000    256.9803     60.1417    142.8851
  1432.5000      0.0000    256.9621     59.8110    141.9509
  1432.7500      0.0000    256.9078     59.6737    141.4313
  1433.0000      0.0000    256.8141     59.7115    139.5419
  1433.2500      0.0000    256.7026     59.9021    135.3048
  1433.5000      0.0000    256.6230     60.1750    129.3961
  1433.7500      0.0000    256.6230     60.3386    123.5429
  1434.0000      0.0000    256.7183     60.1082    119.3851
  1434.2500      0.0000    256.9440     59.2152    117.5289
  1434.5000      0.0000    257.5129     57.4836    116.9884
  1434.7500      0.0000    258.9952     54.8365    115.5322
  1435.0000      0.0000    262.2524     51.2775    111.0806
  1435.2500      0.0000    267.8342     46.8881    103.0224
  1435.5000      0.0000    275.0234     41.9338     92.4135
  1435.7500      0.0000    281.5269     37.0371     81.3189
  1436.0000      0.0000    284.6795     33.0558     71.8493
  1436.2500      2.0000    283.4068     30.5639     65.2148
  1436.5000      0.0000    279.0709     29.4760     61.5400
  1436.7500     -2.0000    274.4185     29.2591     60.7703
  1437.0000     -2.0000    271.8911     29.4205     63.4884
  1437.2500      0.0000    272.6551     29.8047     70.4677
  1437.5000      0.0000    276.2992     30.6156     81.6082
  1437.7500      0.0000    280.7780     32.2601     95.5690
  1438.0000      0.0000    283.1820     35.0697    110.4056
  1438.2500      0.0000    281.5872     39.0423    124.5358
  1438.5000      0.0000    276.4241     43.7880    137.1346
  1438.7500      0.0000    269.8969     48.6302    147.4992
  1439.0000      0.0000    264.2275     52.8023    154.4216
  1439.2500      0.0000    260.4771     55.7822    156.8123
  1439.5000      0.0000    258.5388     57.5537    154.9920
  1439.7500      0.0000    257.7643     58.4926    150.7650
  1440.0000      0.0000    257.5368     59.0093    146.1978
