~Version Information
 VERS.                2.0:  CWLS LOG ASCII STANDARD -VERSION 2.0
 WRAP.                 NO:  ONE LINE PER DEPTH STEP
~WELL INFORMATION BLOCK
#MNEM.UNIT       DATA		            DESCRIPTION OF MNEMONIC
#---------    -------------            ------------------------
 STRT.FT  0.500                          :START DEPTH
 STOP.FT  1812.700                       :STOP DEPTH
 STEP.FT  0.100                          :STEP    UP_HOLE  
 NULL.    -999.25                        :NULL VALUE
 COMP.              EL PASO PRODUCTIONS  :COMPANY
 WELL.                     COREHOLE #38  :WELL
 FLD .                 PURGATOIRE RIVER  :FIELD
 LOC .      15   35S   65W               :LOCATION
 CNTY.                           COLFAX  :COUNTY
 STAT.                     NM            :STATE
 CTRY.                                   :
 SRVC.     O'DRISCOLL                    :SERVICE COMPANY
 DATE.   04/28/05                        :LOG DATE
 API .                                   :API NUMBER
 LIC .                                   :LICENSE NUMBER
~Curve Information Block
#MNEM.UNIT      API CODE     Curve Description
#---------    -------------  ------------------------
 DEPT     .FT        00 001 00 00          :  1  DEPTH   
 GAMMA    .API-GR    00 310 00 00          :  2                GAMMA
 TEMP     .DEG F     00 660 00 00          :  3                 TEMP
 RES(16N) .OHM-M     00 040 00 00          :  4             RES(16N)
 RES(64N) .OHM-M     00 060 00 00          :  5             RES(64N)
 RES      .OHM       00 000 00 00          :  6                  RES
 LATERAL  .OHM-M     00 070 00 00          :  7              LATERAL
 NEUTRON  .API-N     00 000 00 00          :  8              NEUTRON
 POR(NEU) .PERCENT   00 330 00 00          :  9             POR(NEU)
 SANGB    .DEG       00 631 00 00          : 10                SANGB
 DEL_TEMP .DEG F     00 000 00 00          : 11             DEL_TEMP
 SANG     .DEG       00 620 00 00          : 12                 SANG
 SP       .MV        00 010 00 00          : 13                   SP
 TIME     .MINUTES   00 000 00 00          : 14                 TIME
~Parameter Information Block
#MNEM.UNIT   Information     Description
#---------- ---------------  ------------------------
 FILE.      ORIGINAL           :File Type
 FIID.      9057A              :File Type Identifier
 VERS.      3.58G              :System Version
 SER .      1                  :System Serial Number
 TRUK.      .498775            :Truck Calibration Number
 TOOL.        1061             :Tool Serial Number
 TIME.      1335               :Time    HrHrMinMin
 LAT .       36 59'            :Latitude
 LON .       104 39'           :Longitude
 LMF .            GL           :Log Measured From
 DMF .            GL           :Driller Measured From
 PD  .            GL           :Permanent Data
 PDEV.                         :Elevation Permanent Data
 EKB .M                        :Elevation Kelly Bushing
 ELEV.DF                       :Elevation DF
 EGL .M        7777            :Elevation Ground Level
 DRDP.          1825           :Driller's Depth
 CASD.       10.               :Casing Diameter
 CASB.           300           :Casing Bottom
 CASX.         STEEL           :Casing Type
 CAST.                         :Casing Thickness
 TNOC.                         :Time Circulation Stopped
 LOGU.        108              :Logging Unit
 RECB.           R.SIPES       :Recorded By
 OSR1.          9139           :Other Services
 OSR2.                         :Other Services
 OSR3.                         :Other Services
 BS  .MM         3.5           :Bit Size
 MST .                         :Mean Surface Temperature
 TGRD.                         :Temperature Gradiant
 MAGN.            12           :Magnetic Declination
 MDEN.       2.7               :Density Matrix
 MATR.      SANDSTONE          :Neutron Matrix
 DTMT.            54           :Delta T Matrix
 DTFL.                         :Delta T Fluid
 MUDS.                         :Mud Sample Source
 MRS .                         :Mud Resistivity
 MTP .                         :Mud Temperature
 MFRS.                         :Resistivity Mud Filtrate
 MFTP.                         :Temperature Mud Filtrate
 MCRS.                         :Resistivity Mud Cake
 MCTP.                         :Temperature Mud Cake
 FTYP.                         :Fluid Type
 FD  .K/M3                     :Fluid Density
 DFV .S                        :Fluid Viscosity
 FPH .                         :Fuild PH
 ELCO.       50000             :Electron Cutoff
~Other Information
#MNEM.UNIT  Information      Description
#---------- ---------------  ------------------------
# -------------------------- 
~A DEPTH  GAMMA    TEMP  RES(16N) RES(64N) RES      LATERAL  NEUTRON  POR(NEU) SANGB  DEL_TEMP SANG   SP    TIME    
# ...
1439.900     68.3  86.7     -0.4      9.4      7.3     -6.4   1052.4  30.5  343.61 0.01  2.44  -1317.8 0.20000 
1440.000     73.6  86.7      1.1      9.2      7.4     -1.7   1055.5  30.3  326.50 -0.01  2.44  -1317.8 0.20000 
1440.100     75.2  86.7      2.6      9.1      7.3      2.7   1074.3  30.5  314.44 0.06  2.51  -1317.8 0.20000 
1440.200     76.2  86.7      1.3      9.3      7.3     -0.2   1064.9  30.5  315.29 -0.07  2.49  -1317.8 0.20000 
1440.300     77.8  86.7     -0.7      9.5      7.6     -5.6   1055.5  30.9  315.30 -0.04  2.49  -1317.8 0.20000 
1440.400     81.5  86.7     -0.7      9.6      7.5     -4.4   1047.7  31.0  322.88 0.10  2.49  -1317.8 0.20000 
1440.500     79.9  86.7      1.4      9.1      8.2      1.1   1036.8  31.0  321.39 0.03  2.43  -1317.8 0.20000 
1440.600     84.2  86.7      1.6      8.4      7.7     -0.9   1044.6  31.2  321.10 -0.11  2.44  -1317.8 0.20000 
1440.700     86.3  86.7      0.2      7.9      7.4     -2.5   1041.5  31.7  321.12 0.02  2.44  -1317.8 0.20000 
1440.800     86.8  86.7     -0.7      8.2      7.6     -3.5   1055.5  32.0  325.39 0.03  2.44  -1318.0 0.20000 
1440.900     84.7  86.8      1.9      9.3      7.5     -0.4   1024.3  32.0  329.78 -0.05  2.51  -1318.0 0.20000 
1441.000     85.8  86.8      2.8     10.0      7.5      0.6   1022.7  32.3  328.78 0.01  2.53  -1318.0 0.20000 
1441.100     85.2  86.8      1.3     10.7      7.5     -1.8   1000.8  32.5  328.78 -0.01  2.53  -1318.0 0.20000 
1441.200     84.7  86.8      1.1     11.9      7.6     -0.4    988.3  32.6  328.46 0.00  2.53  -1317.8 0.20000 
1441.300     85.8  86.8      3.0     12.7      7.9      2.6    939.8  33.1  327.85 -0.02  2.52  -1317.8 0.10000 
1441.400     91.6  86.8      1.0     13.0      7.3     -1.8    950.8  33.5  327.64 0.03  2.50  -1317.8 0.20000 
1441.500     89.5  86.8      0.2     13.1      7.6     -4.4    960.2  34.1  327.64 0.08  2.50  -1317.8 0.20000 
1441.600     91.6  86.8     -0.7     13.6      8.0     -7.3    944.5  34.8  328.23 -0.09  2.50  -1317.9 0.20000 
1441.700     88.9  86.7      3.3     13.8      7.6     -0.9    939.8  35.1  319.85 0.01  2.45  -1317.9 0.20000 
1441.800     91.1  86.8      4.0     13.7      7.6     -2.8    963.3  35.3  316.60 -0.01  2.47  -1317.9 0.20000 
1441.900     97.9  86.8      3.8     13.0      7.7     -4.5    947.6  36.0  316.60 -0.03  2.47  -1317.9 0.20000 
1442.000    101.1  86.8     -0.5     12.5      7.6     -5.5    899.2  36.6  317.19 0.04  2.47  -1317.8 0.20000 
1442.100    100.6  86.8      0.3     12.2      7.8     -4.2    877.3  36.5  322.88 -0.02  2.46  -1317.7 0.20000 
1442.200    101.6  86.8      1.1     12.3      8.1     -1.7    841.3  36.3  320.98 0.01  2.49  -1317.7 0.20000 
1442.300    104.8  86.8      2.3     12.3      8.1     -2.0    839.7  36.1  320.98 -0.03  2.49  -1317.7 0.20000 
1442.400    108.5  86.8     -0.7     12.4      8.2     -4.8    825.7  36.6  321.49 0.02  2.49  -1317.7 0.20000 
1442.500    106.4  86.8      0.0     12.3      8.3     -2.7    808.5  36.6  325.01 0.02  2.49  -1317.7 0.20000 
1442.600    110.1  86.8      1.7     11.3      8.2      2.2    799.1  36.5  325.99 0.03  2.51  -1317.7 0.20000 
1442.700    109.0  86.8      1.2      9.9      7.7      2.2    846.0  36.5  326.47 -0.09  2.49  -1317.7 0.20000 
1442.800    105.3  86.8     -1.3      9.5      7.8     -1.9    836.6  36.4  326.47 0.03  2.49  -1317.7 0.20000 
1442.900    106.4  86.8      1.3      9.4      8.4     -1.8    883.5  35.9  314.28 -0.03  2.49  -1317.7 0.10000 
1443.000    108.0  86.8      1.9      9.7      8.0     -2.1    907.0  35.6  304.96 0.17  2.51  -1317.7 0.20000 
1443.100    107.5  86.8      1.5      9.7      7.4     -4.8    936.7  35.3  304.28 -0.16  2.53  -1317.7 0.20000 
1443.200    102.7  86.8     -2.6      9.8      8.1     -8.7    932.0  35.3  304.30 -0.01  2.53  -1317.8 0.20000 
1443.300    102.7  86.8     -0.8      9.9      8.1     -4.1    949.2  34.7  301.85 -0.01  2.53  -1317.8 0.20000 
1443.400    105.3  86.8      1.4     10.8      7.5     -0.6    925.7  34.4  305.50 0.04  2.49  -1317.8 0.20000 
1443.500    109.6  86.8      2.2     11.4      8.0      0.1    960.1  34.6  305.63 -0.04  2.48  -1317.8 0.20000 
1443.600    112.2  86.8      1.8     11.6      7.4     -1.5    961.7  34.8  305.63 0.04  2.48  -1317.8 0.20000 
1443.700    115.4  86.8      1.2     11.2      7.1     -2.8    941.4  34.9  307.83 -0.02  2.48  -1317.9 0.20000 
1443.800    114.9  86.8      5.0     10.3      7.4      1.3    941.4  35.2  311.20 0.04  2.42  -1317.9 0.20000 
1443.900    119.6  86.8      5.8      8.9      7.1      3.3    961.7  35.2  311.47 -0.04  2.41  -1317.9 0.20000 
1444.000    119.6  86.8      0.7      8.4      7.4     -2.3    927.3  35.6  311.55 0.04  2.41  -1317.9 0.20000 
1444.100    118.6  86.8      0.7      7.9      7.1     -3.7    885.1  36.4  291.92 -0.07  2.41  -1318.1 0.20000 
1444.200    119.1  86.8      1.5      7.8      7.8     -0.3    888.2  36.7  286.23 0.07  2.47  -1318.1 0.20000 
1444.300    124.9  86.8      2.7      7.5      7.4      2.4    863.2  37.1  286.30 0.01  2.47  -1318.1 0.20000 
1444.400    120.2  86.8      0.0      6.7      7.8     -1.2    842.9  37.7  286.30 -0.03  2.47  -1318.1 0.20000 
1444.500    119.6  86.8     -0.7      6.2      8.2     -1.2    836.6  38.2  283.82 -0.07  2.47  -1317.9 0.20000 
1444.600    114.9  86.8      0.3      5.6      7.4      0.5    846.0  38.5  272.82 0.07  2.41  -1317.9 0.20000 
1444.700    118.6  86.8      0.1      4.9      7.3     -2.4    803.8  38.9  268.78 0.01  2.44  -1317.9 0.20000 
1444.800    119.1  86.8     -1.9      4.6      7.3     -3.5    808.5  39.6  268.78 -0.07  2.44  -1317.9 0.10000 
1444.900    124.9  86.8      0.2      4.1      7.9     -1.7    777.2  40.5  269.31 0.02  2.44  -1318.0 0.20000 
1445.000    123.9  86.8      3.1      4.2      7.8      3.1    766.2  40.6  282.63 -0.01  2.44  -1318.0 0.20000 
1445.100    126.0  86.8      5.6      4.2      7.4      7.4    761.6  41.1  282.95 0.04  2.43  -1318.0 0.20000 
1445.200    123.9  86.8      2.9      4.4      7.2      2.1    781.9  41.8  282.95 -0.03  2.43  -1318.0 0.20000 
1445.300    128.6  86.8     -1.2      4.8      7.2     -4.3    764.7  42.0  276.49 -0.03  2.43  -1317.9 0.20000 
1445.400    131.3  86.8      0.3      5.2      7.6     -0.5    767.8  42.3  15.87  0.03  2.41  -1317.9 0.20000 
1445.500    134.5  86.8      3.0      4.9      8.2      2.4    730.3  42.5  15.02  0.01  2.41  -1317.9 0.20000 
1445.600    132.9  86.8      3.5      5.6      8.2      2.6    722.5  42.8  15.02  -0.06  2.41  -1317.9 0.20000 
1445.700    129.7  86.8      1.0      6.1      9.0     -1.3    709.9  43.5  62.26  0.06  2.41  -1317.9 0.20000 
1445.800    127.6  86.8      3.7      6.8      8.7      3.5    680.2  43.8  86.77  -0.01  2.44  -1317.9 0.20000 
1445.900    134.5  86.8      4.2      7.7      8.0      3.4    689.6  44.0  89.26  0.01  2.41  -1317.9 0.20000 
1446.000    134.5  86.8      3.3      8.2      8.0      1.9    717.8  44.2  89.26  0.01  2.41  -1317.9 0.20000 
1446.100    133.4  86.8      0.6      8.4      8.9     -1.1    719.3  44.1  88.19  -0.08  2.41  -1317.8 0.20000 
1446.200    133.4  86.8      0.3      8.8      8.6     -0.5    700.6  43.8   5.36  0.03  2.41  -1317.8 0.20000 
1446.300    135.0  86.8      1.6      9.2      8.0     -2.2    702.1  43.3  347.58 0.01  2.54  -1317.8 0.10000 
1446.400    140.8  86.9      1.4      9.6      8.1     -2.5    674.0  42.0  350.47 -0.02  2.45  -1317.8 0.20000 
1446.500    140.8  86.9     -1.8      9.8      8.1     -7.2    675.5  41.4  350.30 0.00  2.45  -1317.9 0.20000 
1446.600    143.5  86.9     -0.2     10.3      8.7     -4.8    670.9  40.4  349.08 0.04  2.45  -1318.1 0.20000 
1446.700    147.2  86.9      3.5     10.6      8.1      0.6    708.4  39.1  359.12 -0.02  2.54  -1318.1 0.20000 
1446.800    151.4  86.9      0.7     10.7      7.6     -2.8    760.0  38.7   6.67  -0.05  2.48  -1318.1 0.20000 
1446.900    157.2  86.9     -0.5     11.0      7.8     -3.8    810.0  37.7   6.68  0.07  2.48  -1317.9 0.20000 
1447.000    164.6  86.9     -2.4     11.6      8.1     -6.7    867.9  36.9  324.45 -0.09  2.48  -1317.8 0.20000 
