~Version Information
 VERS.                                  2.0 : CWLS LAS VERSION
 WRAP.                                   NO : WRAPING MODE
 SWARE .                 MController 2.5.0J : SOFTWARE VERSION
~Well Information
 WELL.                          Tonto 42-23 : WELL
 COMP.    Pioneer Natural Resources USA Inc : COMPANY
 FLD.                      Purgatoire River : FIELD
 LOC.                SE/NE Sec 23 T32S R66W : LOCATION
 DATE.                              4/16/05 : DATE(S) LOGGED
 SRVC.       Blanco Geological Services LLC : SERVICE COMPANY
 STAT.                                   CO : STATE
 CNTY.                           Las Animas : COUNTY
 CTRY.                                  USA : COUNTRY
 API.                       05-071-08335-00 : API NUMBER
 STRT.FT                             892.00 : START DEPTH
 STOP.FT                            2270.00 : STOP DEPTH
 STEP.FT                               1.00 : DEPTH INCREMENT
 NULL.                                -9999 : NULL VALUE
~Curve information
 DEPTH.FT                                   :
 ROP.MIN/FT                                 :
 GAS.UNITS                                  :
~ASCII Log data
# ...
      1492.0         0.13         68.8 
      1493.0         0.15         91.9 
      1494.0         0.23        134.8 
      1495.0         0.17        169.9 
      1496.0         2.03        416.6 
      1497.0         0.30        147.7 
      1498.0         0.47        113.0 
      1499.0         0.38         83.2 
      1500.0         0.37         73.2 
      1501.0         0.30         69.5 
      1502.0         0.30         67.9 
      1503.0         0.30         68.1 
      1504.0         0.33         68.6 
      1505.0         0.27         67.6 
      1506.0         0.27         65.1 
      1507.0         0.23         63.2 
      1508.0         0.27         60.9 
      1509.0         0.25         59.3 
      1510.0         0.30         58.3 
      1511.0         0.30         58.6 
      1512.0         0.23         58.0 
      1513.0         0.17         57.7 
      1514.0         0.17         57.9 
      1515.0         0.20         57.9 
      1516.0         0.13         55.2 
      1517.0         0.10         50.1 
      1518.0         0.20         43.4 
      1519.0         0.20         31.6 
      1520.0         0.20         27.6 
      1521.0         0.20         31.1 
      1522.0         0.20         38.8 
      1523.0         0.17         48.4 
      1524.0         0.17         62.3 
      1525.0         0.20         83.7 
      1526.0         1.12        179.3 
      1527.0         0.40        163.3 
      1528.0         0.20        122.7 
      1529.0         0.27        106.2 
      1530.0         0.30         87.1 
      1531.0         0.47         75.5 
      1532.0         0.50         65.8 
      1533.0         0.48         61.9 
      1534.0         0.30         59.0 
      1535.0         0.23         58.8 
      1536.0         0.33         59.5 
      1537.0         0.17         59.2 
      1538.0         0.13         59.2 
      1539.0         0.23         58.4 
      1540.0         0.20         58.8 
      1541.0         0.23         58.8 
      1542.0         0.23         58.3 
      1543.0         0.17         57.3 
      1544.0         0.20         56.1 
      1545.0         0.27         55.7 
      1546.0         0.20         55.3 
      1547.0         0.17         53.8 
      1548.0         0.15         47.2 
      1549.0         0.17         35.3 
      1550.0         0.17         27.0 
      1551.0         0.27         26.0 
      1552.0         0.23         32.3 
      1553.0         0.23         45.7 
      1554.0         0.23         65.2 
      1555.0         0.20         89.4 
      1556.0         1.33        193.6 
      1557.0         0.23        142.9 
      1558.0         0.28        113.2 
      1559.0         0.43         92.6 
      1560.0         0.47         79.7 
      1561.0         0.20         71.3 
      1562.0         0.10         68.0 
      1563.0         0.17         66.5 
      1564.0         0.23         64.9 
      1565.0         0.23         63.6 
      1566.0         0.20         62.8 
      1567.0         0.23         62.1 
      1568.0         0.33         61.4 
      1569.0         0.33         60.9 
      1570.0         0.42         61.9 
      1571.0         0.23         58.6 
      1572.0         0.20         56.4 
      1573.0         0.20         55.6 
      1574.0         0.17         54.8 
      1575.0         0.20         53.7 
      1576.0         0.23         52.8 
      1577.0         0.33         50.3 
      1578.0         0.17         44.4 
      1579.0         0.17         35.1 
      1580.0         0.17         26.4 
      1581.0         0.20         24.2 
      1582.0         0.27         27.5 
      1583.0         0.30         39.2 
      1584.0         0.20         52.5 
      1585.0         0.28         83.6 
      1586.0         2.27        184.0 
      1587.0         0.33         84.4 
      1588.0         0.37         68.4 
      1589.0         0.23         61.1 
      1590.0         0.38         59.9 
      1591.0         0.30         58.9 
      1592.0         0.27         58.1 
      1593.0         0.40         59.2 
      1594.0         0.30         59.4 
      1595.0         0.27         59.2 
      1596.0         0.27         58.0 
      1597.0         0.27         54.4 
      1598.0         0.33         50.8 
      1599.0         0.33         47.1 
      1600.0         0.32         45.5 
      1601.0         0.20         45.8 
      1602.0         0.17         48.1 
      1603.0         0.20         50.4 
      1604.0         0.20         50.9 
      1605.0         0.17         50.2 
      1606.0         0.17         48.5 
      1607.0         0.20         42.6 
      1608.0         0.17         33.3 
      1609.0         0.20         28.2 
      1610.0         0.17         31.1 
      1611.0         0.27         40.9 
      1612.0         0.20         54.8 
      1613.0         0.17         71.9 
      1614.0         0.23        101.2 
      1615.0         0.27        130.6 
      1616.0         1.45        174.5 
      1617.0         0.37        114.9 
      1618.0         0.20         88.5 
      1619.0         0.50         78.5 
      1620.0         0.40         65.4 
      1621.0         0.30         63.5 
      1622.0         0.38         60.2 
      1623.0         0.30         57.6 
      1624.0         0.27         58.9 
      1625.0         0.20         59.2 
      1626.0         0.20         58.6 
      1627.0         0.20         58.2 
      1628.0         0.20         58.2 
      1629.0         0.23         57.3 
      1630.0         0.17         55.2 
      1631.0         0.13         53.9 
      1632.0         0.13         53.3 
      1633.0         0.20         52.7 
      1634.0         0.20         52.9 
      1635.0         0.17         50.5 
      1636.0         0.20         48.8 
      1637.0         0.37         50.2 
      1638.0         0.28         50.0 
      1639.0         0.17         40.8 
      1640.0         0.40         31.7 
      1641.0         0.33         28.4 
      1642.0         0.17         34.6 
      1643.0         0.20         46.7 
      1644.0         0.20         63.0 
      1645.0         0.27         95.7 
      1646.0         1.17        200.4 
      1647.0         0.20        185.9 
      1648.0         0.15        166.9 
      1649.0         0.13        149.6 
      1650.0         0.10        135.8 
      1651.0         0.37        125.6 
      1652.0         0.23         93.8 
      1653.0         0.30         81.0 
      1654.0         0.27         68.0 
      1655.0         0.37         63.1 
      1656.0         0.30         76.1 
      1657.0         0.23         87.1 
      1658.0         0.20         91.0 
      1659.0         0.20         91.5 
      1660.0         0.20         91.0 
      1661.0         0.17         88.5 
      1662.0         0.13         86.4 
      1663.0         0.18         84.4 
      1664.0         0.23         81.4 
      1665.0         0.20         78.5 
      1666.0         0.20         76.4 
      1667.0         0.23         74.2 
      1668.0         0.20         72.6 
      1669.0         0.20         71.9 
      1670.0         0.20         68.7 
      1671.0         0.20         55.3 
      1672.0         0.17         42.6 
      1673.0         0.30         35.9 
      1674.0         0.20         43.9 
      1675.0         0.17         53.9 
      1676.0         2.72        191.6 
      1677.0         0.30         99.9 
      1678.0         0.40         90.0 
      1679.0         0.58         80.6 
      1680.0         0.23         71.4 
      1681.0         0.27         68.2 
      1682.0         0.23         67.3 
      1683.0         0.30         68.7 
      1684.0         0.23         68.5 
      1685.0         0.20         68.2 
      1686.0         0.27         67.6 
      1687.0         0.23         65.8 
      1688.0         0.17         63.5 
      1689.0         0.17         61.3 
      1690.0         0.17         59.3 
      1691.0         0.17         56.9 
