~Version Information
VERS.                      2.0: CWLS Log ASCII Standard - VERSION 2.0
WRAP.                       NO: One line per depth step
~Well Information Block
STRT.FT                -7.7500: 
STOP.FT               973.7500: 
STEP.FT                 0.2500: 
NULL.                -999.2500: 
COMP.          Pioneer Natural Resources: COMPANY
WELL.              Dylan 42-25: WELL
FLD.           Purgatorie River: FIELD
LOC.           2160' FNL & 855' FEL: LOCATION
PROV.                 Colorado: PROVINCE
CNTY.               Las Animas: COUNTRY
SRVC.          Patterson Wireline: SERVICE COMPANY
DATE.          Fri Apr 29 16:36:17 2005: LOG DATE
UWI.           05-071-08229-00: UNIQUE WELL ID
~Curve Information Block
DEPT.FT            0 000 00 00: Depth
CCL.                          : Casing Collar Locator
TT3.usec                      : CBL 3' Travel Time
AMP3.mV                       : CBL 3' Amplitude
GR.GAPI                       : Gamma Ray
~Parameter Information Block
~A  Depth       CCL         TT3         AMP3         GR     
# ...
   226.7500      0.0000    916.7885      5.1390     74.0763
   227.0000      0.0000    909.9263      5.1706     69.4479
   227.2500      0.0000    902.2813      5.2057     64.1060
   227.5000      0.0000    903.3153      5.2262     59.1962
   227.7500      0.0000    913.5587      5.2134     55.6233
   228.0000      0.0000    924.5991      5.1672     53.3401
   228.2500      0.0000    925.9207      5.1054     51.6979
   228.5000      0.0000    912.5352      5.0488     50.4353
   228.7500      0.0000    887.9828      5.0094     49.9720
   229.0000      0.0000    860.8447      4.9906     50.6186
   229.2500      0.0000    838.1558      4.9916     51.9105
   229.5000      0.0000    821.5379      5.0087     53.1028
   229.7500      0.0000    808.7619      5.0339     54.1449
   230.0000      0.0000    797.9218      5.0586     55.7164
   230.2500      0.0000    789.2155      5.0743     58.2795
   230.5000      0.0000    783.1469      5.0705     61.4905
   230.7500      0.0000    778.6711      5.0352     64.7403
   231.0000      0.0000    773.9738      4.9730     67.9091
   231.2500      0.0000    768.7138      4.9221     71.1947
   231.5000      0.0000    765.4030      4.9271     74.3809
   231.7500      0.0000    768.5068      4.9763     76.7778
   232.0000      0.0000    781.8582      4.9949     77.8964
   232.2500      0.0000    806.7600      4.9270     77.7705
   232.5000      0.0000    841.6683      4.7986     76.5876
   232.7500      0.0000    881.7437      4.6736     74.5354
   233.0000      0.0000    918.0507      4.5786     72.1983
   233.2500      0.0000    939.9278      4.5015     70.6074
   233.5000      5.0000    941.8354      4.4400     70.5560
   233.7500      0.0000    928.0571      4.4289     72.0532
   234.0000      0.0000    908.4449      4.5201     74.6212
   234.2500      0.0000    890.5284      4.7337     77.9351
   234.5000      0.0000    877.7822      5.0130     81.7903
   234.7500      0.0000    872.8436      5.2460     85.4158
   235.0000      0.0000    877.6204      5.3577     87.3866
   235.2500      0.0000    889.7861      5.3682     86.7654
   235.5000      0.0000    902.5229      5.3446     84.2348
   235.7500      0.0000    909.7169      5.3260     81.6237
   236.0000      0.0000    910.7969      5.3119     80.1797
   236.2500      0.0000    910.1146      5.2937     79.6133
   236.5000      0.0000    912.1488      5.2739     78.8977
   236.7500      0.0000    917.5462      5.2648     77.5360
   237.0000      0.0000    923.5479      5.2750     75.6607
   237.2500      0.0000    928.5289      5.2971     73.2951
   237.5000      0.0000    935.9641      5.3108     70.2718
   237.7500      0.0000    951.7971      5.3047     66.8685
   238.0000      0.0000    975.7915      5.2854     63.9440
   238.2500      0.0000    997.1181      5.2637     62.3375
   238.5000      0.0000   1002.1724      5.2382     62.3039
   238.7500      0.0000    986.9727      5.2012     63.3740
   239.0000      0.0000    959.3929      5.1531     64.6102
   239.2500      0.0000    930.1169      5.1022     65.2470
   239.5000      0.0000    904.8753      5.0509     65.2979
   239.7500      0.0000    884.8828      4.9936     65.5081
   240.0000      0.0000    870.2905      4.9289     66.6886
   240.2500      0.0000    861.1071      4.8675     68.9995
   240.5000      0.0000    856.4219      4.8198     71.6425
   240.7500      0.0000    854.4816      4.7841     73.2972
   241.0000      0.0000    853.5585      4.7531     73.2289
   241.2500      0.0000    852.4774      4.7289     72.0596
   241.5000      0.0000    850.6509      4.7221     71.1606
   241.7500      0.0000    848.1471      4.7348     71.1949
   242.0000      0.0000    845.8372      4.7535     71.5537
   242.2500      0.0000    844.9695      4.7625     71.2731
   242.5000      0.0000    846.0988      4.7612     70.2361
   242.7500      0.0000    848.4868      4.7610     69.4197
   243.0000      0.0000    850.7412      4.7670     70.1539
   243.2500      0.0000    851.8511      4.7702     73.0652
   243.5000      0.0000    851.4544      4.7604     77.4367
   243.7500      0.0000    849.4767      4.7405     81.5216
   244.0000      0.0000    845.9541      4.7213     83.6022
   244.2500      0.0000    841.3632      4.7083     82.8183
   244.5000      0.0000    837.0743      4.6995     79.2657
   244.7500      0.0000    835.5892      4.6961     73.7776
   245.0000      0.0000    840.0529      4.7068     67.6610
   245.2500      0.0000    852.0364      4.7388     62.2908
   245.5000      0.0000    868.4949      4.7892     58.6950
   245.7500      0.0000    882.2397      4.8468     57.3415
   246.0000      0.0000    887.9390      4.8997     58.0174
   246.2500      0.0000    887.1891      4.9370     59.6862
   246.5000      0.0000    885.8214      4.9499     60.7121
   246.7500      0.0000    887.3014      4.9400     59.8456
   247.0000      0.0000    890.6278      4.9242     57.3404
   247.2500      0.0000    893.1396      4.9247     54.7908
   247.5000      0.0000    893.1483      4.9513     53.5816
   247.7500      0.0000    890.6428      4.9951     53.7352
   248.0000      0.0000    886.8608      5.0386     54.3395
   248.2500      0.0000    883.3491      5.0693     54.5695
   248.5000      0.0000    881.5540      5.0803     54.1591
   248.7500      0.0000    882.9825      5.0641     53.4376
   249.0000      0.0000    887.8674      5.0164     53.1818
   249.2500      0.0000    892.9410      4.9479     54.1590
   249.5000      0.0000    892.4797      4.8830     56.7287
   249.7500      0.0000    883.7759      4.8426     60.9940
   250.0000      0.0000    871.3070      4.8300     66.9943
   250.2500      0.0000    863.3093      4.8345     74.2907
   250.5000      0.0000    863.5267      4.8441     81.4725
   250.7500      0.0000    867.9856      4.8515     86.4357
   251.0000      0.0000    870.6991      4.8554     87.2597
   251.2500      0.0000    870.2357      4.8595     83.1291
   251.5000      0.0000    868.6083      4.8716     75.1380
   251.7500      0.0000    865.7963      4.8957     66.2385
   252.0000      0.0000    859.0406      4.9238     59.4747
   252.2500      0.0000    847.4264      4.9396     55.7708
   252.5000      0.0000    834.0753      4.9364     53.8705
   252.7500      0.0000    823.0302      4.9273     52.5285
   253.0000      0.0000    815.6006      4.9353     52.0884
   253.2500      0.0000    810.1839      4.9691     53.6726
   253.5000      0.0000    804.3867      5.0151     57.6349
   253.7500      0.0000    797.0746      5.0529     63.3084
   254.0000      0.0000    789.4590      5.0769     69.6480
   254.2500      0.0000    785.0992      5.0968     75.6396
   254.5000      0.0000    788.4589      5.1208     80.4895
   254.7500      0.0000    801.9981      5.1451     83.7422
   255.0000      0.0000    823.1646      5.1627     85.1351
   255.2500      0.0000    844.0431      5.1715     84.4647
   255.5000      0.0000    855.3923      5.1728     81.7684
   255.7500      0.0000    852.6245      5.1666     77.5858
   256.0000      0.0000    838.4575      5.1540     73.1933
   256.2500      0.0000    819.8127      5.1441     70.7144
   256.5000      0.0000    802.3532      5.1504     72.4571
   256.7500      0.0000    787.8624      5.1784     79.3779
   257.0000      0.0000    775.6387      5.2164     90.0687
   257.2500      0.0000    765.0471      5.2443    101.4352
   257.5000      0.0000    756.6499      5.2529    110.3037
   257.7500      0.0000    751.6320      5.2537    114.6774
   258.0000      0.0000    750.5513      5.2658    114.4422
   258.2500      0.0000    752.7053      5.2958    111.4146
   258.5000      0.0000    756.5592      5.3308    108.1258
   258.7500      0.0000    760.4985      5.3525    106.0271
   259.0000      0.0000    763.0458      5.3537    105.1569
   259.2500      0.0000    762.9427      5.3402    105.4281
   259.5000      0.0000    759.9110      5.3172    107.2819
   259.7500      0.0000    755.4738      5.2801    110.7116
   260.0000      0.0000    752.4814      5.2251    114.3375
