~Version Information
 VERS.                                  2.0 : CWLS LAS VERSION
 WRAP.                                   NO : WRAPING MODE
 SWARE .                 MController 2.5.0N : SOFTWARE VERSION
~Well Information
 WELL.                          Cluck 21-25 : WELL
 COMP.    PIONEER NATURAL RESOURCES USA INC : COMPANY
 FLD.                      PURGATOIRE RIVER : FIELD
 LOC.                  NE/NW Sec 25 32S 67W : LOCATION
 DATE.                           6/5-6/2005 : DATE(S) LOGGED
 SRVC.       BLANCO GEOLOGICAL SERVICES LLC : SERVICE COMPANY
 STAT.                                   CO : STATE
 CNTY.                           LAS ANIMAS : COUNTY
 CTRY.                                  USA : COUNTRY
 API.                       05-071-08397-00 : API NUMBER
 STRT.FT                             296.00 : START DEPTH
 STOP.FT                            2730.00 : STOP DEPTH
 STEP.FT                               1.00 : DEPTH INCREMENT
 NULL.                                -9999 : NULL VALUE
~Curve information
 DEPTH.FT                                   :
 ROP.MIN/FT                                 :
 GAS.UNITS                                  :
~ASCII Log data
# ...
      1096.0         0.20          6.0 
      1097.0         0.30          6.6 
      1098.0         0.27          6.0 
      1099.0         0.30          6.4 
      1100.0         0.43          6.9 
      1101.0         0.27          7.3 
      1102.0         0.23          7.3 
      1103.0         0.27          6.7 
      1104.0         0.27          7.6 
      1105.0         0.25          6.9 
      1106.0         0.33          7.5 
      1107.0         0.23          7.1 
      1108.0         0.37          8.3 
      1109.0         0.20          7.1 
      1110.0         0.27          7.7 
      1111.0        11.18         31.7 
      1112.0         0.40         18.8 
      1113.0         0.32         16.7 
      1114.0         0.30         14.2 
      1115.0         0.27         12.4 
      1116.0         0.37         34.1 
      1117.0         0.40         37.7 
      1118.0         0.27         41.6 
      1119.0         0.23         10.2 
      1120.0         0.23         39.7 
      1121.0         0.30         47.0 
      1122.0         0.20          8.3 
      1123.0         0.23         10.4 
      1124.0         0.23          9.1 
      1125.0         0.25         10.0 
      1126.0         0.27          9.8 
      1127.0         0.33         10.2 
      1128.0         0.23         10.0 
      1129.0         0.27         11.2 
      1130.0         0.23         10.5 
      1131.0         0.27         10.7 
      1132.0         0.27          9.3 
      1133.0         0.13          9.3 
      1134.0         0.10          9.3 
      1135.0         0.13          8.3 
      1136.0         0.10          8.3 
      1137.0         0.17          9.9 
      1138.0         0.23          9.4 
      1139.0         0.40         10.0 
      1140.0         0.42          9.1 
      1141.0         7.87         29.7 
      1142.0         0.30         10.6 
      1143.0         0.30         10.4 
      1144.0         0.17          9.7 
      1145.0         0.22         10.5 
      1146.0         0.13         10.3 
      1147.0         0.17         10.3 
      1148.0         0.27         10.1 
      1149.0         0.33         10.4 
      1150.0         0.23          8.7 
      1151.0         0.27          9.8 
      1152.0         0.23          9.2 
      1153.0         0.27         10.9 
      1154.0         0.23         11.0 
      1155.0         0.17         10.9 
      1156.0         0.13         10.1 
      1157.0         0.17         10.1 
      1158.0         0.23         10.8 
      1159.0         0.17         11.2 
      1160.0         0.17         10.4 
      1161.0         0.22         10.1 
      1162.0         0.30          9.9 
      1163.0         0.20         11.2 
      1164.0         0.17         10.2 
      1165.0         0.23         10.8 
      1166.0         0.27         10.2 
      1167.0         0.33          9.7 
      1168.0         0.23         10.3 
      1169.0         0.27         10.0 
      1170.0         0.30         11.0 
      1171.0         2.12         12.2 
      1172.0         0.13         11.7 
      1173.0         0.13         11.6 
      1174.0         0.10         11.5 
      1175.0         0.13         11.5 
      1176.0         0.33         12.0 
      1177.0         0.10         12.0 
      1178.0         0.13         12.0 
      1179.0         0.10         12.0 
      1180.0         0.13         12.0 
      1181.0         0.20         11.9 
      1182.0         0.13         11.0 
      1183.0         0.10         11.0 
      1184.0         0.13         11.0 
      1185.0         0.20         11.2 
      1186.0         0.08         11.2 
      1187.0         0.10         11.0 
      1188.0         0.10         11.0 
      1189.0         0.10         11.0 
      1190.0         0.07         11.7 
      1191.0         0.13         11.7 
      1192.0         0.07         11.7 
      1193.0         0.10         12.3 
      1194.0         0.07         12.3 
      1195.0         0.10         12.3 
      1196.0         0.10         11.6 
      1197.0         0.07         11.6 
      1198.0         0.13         11.4 
      1199.0         0.07         11.4 
      1200.0         0.10         11.4 
      1201.0         0.13         11.2 
      1202.0         7.53         96.9 
      1203.0         1.08         12.6 
      1204.0         0.50         11.1 
      1205.0         0.37         10.6 
      1206.0         0.33         10.8 
      1207.0         0.27         12.1 
      1208.0         0.33         11.2 
      1209.0         0.30         14.9 
      1210.0         0.27         15.3 
      1211.0         0.13         17.8 
      1212.0         0.23         18.2 
      1213.0         0.20         14.9 
      1214.0         0.27         12.1 
      1215.0         0.25         11.4 
      1216.0         0.20         11.4 
      1217.0         0.23         11.3 
      1218.0         0.17         12.0 
      1219.0         0.20         12.6 
      1220.0         0.10         12.6 
      1221.0         0.20         13.8 
      1222.0         0.23         12.6 
      1223.0         0.27         11.4 
      1224.0         0.30         12.0 
      1225.0         0.33         11.4 
      1226.0         0.30         12.0 
      1227.0         0.20         12.0 
      1228.0         0.23         11.5 
      1229.0         0.28         11.1 
      1230.0         0.27         11.0 
      1231.0         7.53         28.9 
      1232.0         0.10         14.5 
      1233.0         0.07         13.0 
      1234.0         0.20         12.4 
      1235.0         0.27         13.2 
      1236.0         1.00         12.4 
      1237.0         0.65         12.5 
      1238.0         0.47         12.1 
      1239.0         0.50         12.7 
      1240.0         0.37         12.8 
      1241.0         0.30         12.0 
      1242.0         0.30         12.7 
      1243.0         0.33         11.9 
      1244.0         0.30         12.7 
      1245.0         0.30         12.7 
      1246.0         0.33         12.7 
      1247.0         0.38         12.4 
      1248.0         0.33         12.0 
      1249.0         0.33         12.2 
      1250.0         0.30         12.5 
      1251.0         0.30         11.8 
      1252.0         0.27         12.9 
      1253.0         0.30         12.2 
      1254.0         0.40         12.2 
      1255.0         0.37         12.6 
      1256.0         0.30         11.8 
      1257.0         0.38         12.4 
      1258.0         0.33         11.6 
      1259.0         0.40         13.0 
      1260.0         0.57         12.7 
      1261.0         7.73         32.8 
      1262.0         0.43         15.2 
      1263.0         0.22         13.7 
      1264.0         0.33         13.6 
      1265.0         0.27         13.2 
      1266.0         0.20         14.9 
      1267.0         0.20         17.5 
      1268.0         0.17         20.2 
      1269.0         0.27         19.9 
      1270.0         0.27         20.7 
      1271.0         0.17         20.1 
      1272.0         0.17         20.6 
      1273.0         0.17         20.6 
      1274.0         0.17         19.5 
      1275.0         0.18         20.9 
      1276.0         0.23         21.7 
      1277.0         0.20         26.5 
      1278.0         0.27         27.8 
      1279.0         0.13         27.8 
      1280.0         0.23         26.6 
      1281.0         0.37         24.0 
      1282.0         0.43         18.3 
      1283.0         0.40         14.2 
      1284.0         0.43         14.1 
      1285.0         0.43         13.7 
      1286.0         0.45         13.4 
      1287.0         0.33         13.4 
      1288.0         0.33         14.2 
      1289.0         0.40         13.8 
      1290.0        34.43         40.3 
      1291.0         0.83         15.6 
      1292.0         0.48         14.8 
      1293.0         0.27         13.7 
      1294.0         0.33         14.5 
      1295.0         0.43         14.4 
