~Version Information               
VERS.     2.0     :     CWLS LAS VERSION
WRAP.                         NO     :     WRAPING MODE
~Well Information   
API.                      :            
WELL.               Egan 9-11V     :     WELL
COMP.                    N/A     :     COMPANY
FLD.                    N/A     :     FIELD
LOC.                    N/A     :     LOCATION
CNTY.                    N/A     :     COUNTY
STATE.              N/A     :     STATE
CTRY.                    N/A     :     COUNTRY
DATE.                N/A     :     DATE (LOGGED)
UWI.                    N/A     :     UNIQUE WELL ID
SRVC.                N/A     :     SERVICE COMPANY
STAT.                           :
STRT.FT              612.00     :     START DEPTH
STOP.FT             2500.00     :     STOP DEPTH
STEP.FT                1.00     :     DEPTH INCREMENT
NULL.             -9999           :     NULL VALUE
~Curve information               
 DEPTH.FT                                   :
 ROP.MIN/FT                                 :
 GAS.UNITS                                  :     
C1.PPM          :     
C2.PPM          :
~ASCII Log data               
# ...
2226.00        0.16     7        102.3          -49995
2227.00        0.20     0        103.3          -49995
2228.00        0.20     0        103.3          -49995
2229.00        0.26     7        101.6          -49995
2230.00        0.30     0         97.5          -49995
2231.00        0.26     7         95.1          -49995
2232.00        0.25     0         98.4          -49995
2233.00        0.26     7         99.8          -49995
2234.00        0.26     7        100.3          -49995
2235.00        0.23     3         99.1          -49995
2236.00        0.16     7         94.4          -49995
2237.00        0.13     3         94.4          -49995
2238.00        0.26     7         92.4          -49995
2239.00        0.20     0         92.8          -49995
2240.00        0.16     7         52.3          -49995
2241.00        0.26     7         53.0          -49995
2242.00        0.30     0         53.5          -49995
2243.00        0.53     3         60.4          -49995
2244.00        0.40     0         96.2          -49995
2245.00        0.40     0        136.7          -49995
2246.00        0.33     3        173.4          -49995
2247.00        0.30     0        190.8          -49995
2248.00        0.30     0        190.1          -49995
2249.00        0.26     7        179.4          -49995
2250.00        0.41     7        166.4          -49995
2251.00        0.30     0        148.1          -49995
2252.00        0.23     3        121.6          -49995
2253.00        0.20     0        119.7          -49995
2254.00        0.13     3        107.3          -49995
2255.00        0.20     0        105.6          -49995
2256.00        0.33     3        100.1          -49995
2257.00        0.36     7        102.6          -49995
2258.00        0.36     7        105.5          -49995
2259.00        0.36     7        105.6          -49995
2260.00        0.36     7        103.1          -49995
2261.00        0.31     7         96.6          -49995
2262.00        0.30     0         94.2          -49995
2263.00        0.26     7         91.7          -49995
2264.00        0.40     0         89.1          -49995
2265.00        0.36     7         86.8          -49995
2266.00        0.40     0         84.1          -49995
2267.00        0.43     3         81.5          -49995
2268.00        0.46     7         81.0          -49995
2269.00        0.36     7         79.9          -49995
2270.00        0.35     0         78.5          -49995
2271.00        0.40     0         51.5          -49995
2272.00        0.26     7         57.3          -49995
2273.00        0.73     3         76.5          -49995
2274.00        0.46     7        133.6          -49995
2275.00        0.50     0        184.6          -49995
2276.00        0.53     3        187.8          -49995
2277.00        0.33     3        177.7          -49995
2278.00        0.23     3        152.5          -49995
2279.00        0.31     7        150.7          -49995
2280.00        0.23     3        130.3          -49995
2281.00        0.30     0        104.9          -49995
2282.00        0.36     7         91.5          -49995
2283.00        0.43     3         88.7          -49995
2284.00        0.36     7         97.7          -49995
2285.00        0.36     7         99.5          -49995
2286.00        0.40     0         99.7          -49995
2287.00        0.33     3         98.0          -49995
2288.00        0.30     0         95.5          -49995
2289.00        0.31     7         92.3          -49995
2290.00        0.30     0         89.1          -49995
2291.00        0.30     0         82.9          -49995
2292.00        0.30     0         76.4          -49995
2293.00        0.43     3         77.8          -49995
2294.00        0.40     0         79.0          -49995
2295.00        0.40     0         79.6          -49995
2296.00        0.33     3         79.5          -49995
2297.00        0.20     0         80.0          -49995
2298.00        0.10     0         83.4          -49995
2299.00        0.16     7         49.9          -49995
2300.00        0.23     3         50.3          -49995
2301.00        0.21     7         52.8          -49995
2302.00        0.30     0         56.7          -49995
2303.00        0.45     0         80.8          -49995
2304.00        0.33     3        111.5          -49995
2305.00        0.23     3        153.7          -49995
2306.00        0.20     0        184.8          -49995
2307.00        0.23     3        189.7          -49995
2308.00        0.23     3        195.3          -49995
2309.00        0.26     7        193.7          -49995
2310.00        0.33     3        175.8          -49995
2311.00        0.36     7        156.8          -49995
2312.00        0.40     0        137.0          -49995
2313.00        0.36     7        119.9          -49995
2314.00        0.38     3        106.7          -49995
2315.00        0.40     0         92.1          -49995
2316.00        0.40     0         87.0          -49995
2317.00        0.40     0         87.5          -49995
2318.00        0.40     0         85.6          -49995
2319.00        0.33     3         85.3          -49995
2320.00        0.36     7         84.3          -49995
2321.00        0.33     3         77.7          -49995
2322.00        0.30     0         74.2          -49995
2323.00        0.25     0         73.8          -49995
2324.00        0.20     0         74.1          -49995
2325.00        0.23     3         75.7          -49995
2326.00        0.20     0         77.6          -49995
2327.00        0.20     0         78.4          -49995
2328.00        0.23     3         79.3          -49995
2329.00        0.26     7         82.0          -49995
2330.00        0.23     3         45.4          -49995
2331.00        0.13     3         44.3          -49995
2332.00        0.26     7         45.0          -49995
2333.00        0.30     0         45.8          -49995
2334.00        0.43     3         52.5          -49995
2335.00        0.20     0         61.7          -49995
2336.00        0.23     3         74.6          -49995
2337.00        0.13     3         99.0          -49995
2338.00        0.16     7         99.0          -49995
2339.00        0.20     0        149.4          -49995
2340.00        0.23     3        188.8          -49995
2341.00        0.20     0        230.1          -49995
2342.00        0.26     7        235.4          -49995
2343.00        0.23     3        220.7          -49995
2344.00        0.16     7        210.6          -49995
2345.00        0.28     3        197.4          -49995
2346.00        0.40     0        187.3          -49995
2347.00        0.43     3        157.8          -49995
2348.00        0.33     3        134.5          -49995
2349.00        0.30     0        120.4          -49995
2350.00        0.26     7        119.4          -49995
2351.00        0.26     7        112.4          -49995
2352.00        0.40     0        110.6          -49995
2353.00        0.30     0        109.3          -49995
2354.00        0.26     7        106.9          -49995
2355.00        0.20     0        100.7          -49995
2356.00        0.15     0         97.3          -49995
2357.00        0.16     7         96.2          -49995
2358.00        0.26     7         90.9          -49995
2359.00        0.26     7        112.6          -49995
2360.00        0.26     7         56.0          -49995
2361.00        0.26     7         56.7          -49995
2362.00        0.26     7         57.5          -49995
2363.00        0.63     3         67.3          -49995
2364.00        0.36     7         82.1          -49995
2365.00        0.23     3        103.1          -49995
2366.00        0.26     7        149.4          -49995
2367.00        0.23     3        195.4          -49995
2368.00        0.23     3        230.2          -49995
2369.00        0.26     7        232.0          -49995
2370.00        0.40     0        228.9          -49995
2371.00        0.33     3        209.3          -49995
