~Version Information
VERS.                      2.0: CWLS Log ASCII Standard - VERSION 2.0
WRAP.                       NO: One line per depth step
~Well Information Block
STRT.FT               860.0000: 
STOP.FT              1907.0000: 
STEP.FT                 0.1000: 
NULL.                -999.2500: 
COMP.          Pioneer Natural Resources: COMPANY
WELL.          Victory 12-14 Tr: WELL
FLD.           Purgatoire River: FIELD
LOC.           2522' FNL & 276' FWL: LOCATION
PROV.                 Colorado: PROVINCE
CNTY.               Las Animas: COUNTRY
SRVC.                Patterson: SERVICE COMPANY
DATE.          Mon Jul 18 06:52:40 2005: LOG DATE
UWI.           05 071 08433 00: UNIQUE WELL ID
~Curve Information Block
DEPT.FT            0 000 00 00: Depth
DCAL.in                       : CDL Caliper
RHOB.g/cc                     : CDL Bulk Density
RHOC.g/cc                     : CDL Density Correction
DPOR.pu                       : CDL Density Porosity
GR.GAPI                       : Gamma Ray
NPOR.pu                       : Neutron Porosity
~Parameter Information Block
~A  Depth       DCAL        RHOB        RHOC        DPOR         GR         NPOR    
# ...
  1685.6000      8.0286      2.6419      0.0472      0.4919    119.8857     21.4741
  1685.7000      8.0286      2.6602      0.1223     -0.6193    121.8158     20.7555
  1685.8000      8.0565      2.6721      0.0897     -1.3398    123.7719     20.6027
  1685.9000      8.0565      2.6823      0.1202     -1.9571    123.7485     21.5929
  1686.0000      8.0330      2.6769      0.1058     -1.6294    122.8310     23.0411
  1686.1000      8.0330      2.6442      0.0388      0.3487    121.9933     23.9649
  1686.2000      8.0330      2.6084     -0.0101      2.5242    121.1251     24.2967
  1686.3000      8.0190      2.5846      0.0375      3.9651    119.9972     24.1776
  1686.4000      8.0190      2.5517      0.0044      5.9561    119.3763     23.7872
  1686.5000      8.0663      2.4929      0.0068      9.5198    120.2663     23.5375
  1686.6000      8.0663      2.4184     -0.0245     14.0385    123.0325     23.7063
  1686.7000      8.0663      2.3478     -0.0634     18.3152    130.4679     24.3853
  1686.8000      8.1015      2.2943     -0.0988     21.5553    144.8957     25.3931
  1686.9000      8.1015      2.2622     -0.0198     23.5036    159.3436     26.3528
  1687.0000      8.1205      2.2536     -0.0648     24.0229    166.4472     27.1623
  1687.1000      8.1205      2.2723      0.0144     22.8883    168.6093     27.5743
  1687.2000      8.1205      2.3041      0.0455     20.9609    168.9130     27.3478
  1687.3000      8.1196      2.3282      0.0827     19.5019    166.9677     27.0628
  1687.4000      8.1196      2.3483      0.0813     18.2819    167.3039     27.2866
  1687.5000      8.1226      2.3788      0.2136     16.4368    171.0997     27.7095
  1687.6000      8.1226      2.4341      0.1299     13.0862    171.7660     27.7346
  1687.7000      8.1226      2.5224      0.1765      7.7330    168.5988     27.3451
  1687.8000      8.1100      2.6082      0.1993      2.5356    167.7284     26.7794
  1687.9000      8.1100      2.6479      0.1654      0.1298    173.2503     26.3847
  1688.0000      8.1043      2.6503      0.1198     -0.0176    182.7020     26.8908
  1688.1000      8.1043      2.6446      0.1699      0.3262    188.4758     28.1776
  1688.2000      8.1043      2.6412      0.1216      0.5317    184.2994     28.8571
  1688.3000      8.1057      2.6436      0.1056      0.3907    173.5929     27.9248
  1688.4000      8.1057      2.6465      0.1446      0.2148    167.9508     26.0077
  1688.5000      8.0805      2.6366      0.1457      0.8118    170.4016     24.8705
  1688.6000      8.0805      2.6114      0.1427      2.3409    171.9355     25.3453
  1688.7000      8.0805      2.5785      0.1052      4.3331    170.0914     26.7452
  1688.8000      8.0844      2.5438      0.0927      6.4356    171.8647     27.9701
  1688.9000      8.0844      2.5158      0.0387      8.1339    177.8415     28.4107
  1689.0000      8.1020      2.4992      0.0566      9.1415    181.2708     28.5102
  1689.1000      8.1020      2.4635      0.1154     11.3040    178.7662     29.0072
  1689.2000      8.1020      2.3696      0.0612     16.9925    170.4596     29.9424
  1689.3000      8.1277      2.2425     -0.0064     24.6961    157.6872     30.4061
  1689.4000      8.1277      2.1322      0.0132     31.3826    144.2511     29.9568
  1689.5000      8.1329      2.0263      0.0217     37.8023    132.6067     29.3467
  1689.6000      8.1329      1.8726     -0.0650     47.1142    122.9806     29.2942
  1689.7000      8.1329      1.6616     -0.1008     59.9050    116.4929     29.7540
  1689.8000      8.1509      1.4542     -0.2042     72.4754    110.8764     30.3892
  1689.9000      8.1509      1.3259     -0.1496     80.2508    101.0846     30.8880
  1690.0000      8.1513      1.2880     -0.0946     82.5428     88.4938     31.0948
  1690.1000      8.1513      1.2987     -0.0606     81.8952     77.6371     31.5171
  1690.2000      8.1513      1.3208     -0.0255     80.5559     68.2960     32.5328
  1690.3000      8.1379      1.3445     -0.0328     79.1182     59.5192     33.4615
  1690.4000      8.1379      1.3731      0.0212     77.3877     52.9516     33.9955
  1690.5000      8.3530      1.3965      0.0863     75.9668     49.4811     34.4652
  1690.6000      8.3530      1.4046     -0.0053     75.4777     47.9163     34.6226
  1690.7000      8.3530      1.4090      0.0178     75.2111     48.0754     34.4175
  1690.8000      8.9922      1.4208      0.0081     74.4964     49.9411     34.3542
  1690.9000      8.9922      1.4437     -0.0174     73.1116     49.6542     34.5857
  1691.0000      9.2523      1.4831      0.0109     70.7235     45.3659     34.6421
  1691.1000      9.2523      1.5336      0.0622     67.6626     41.4117     34.2416
  1691.2000      9.2523      1.5740      0.0902     65.2147     40.9059     34.0103
  1691.3000      8.8468      1.5873      0.0961     64.4042     41.9766     33.9616
  1691.4000      8.8468      1.5793      0.0524     64.8927     42.6914     33.2806
  1691.5000      8.7143      1.5662      0.0426     65.6870     42.9154     32.3689
  1691.6000      8.7143      1.5494      0.0700     66.7010     43.0559     31.9830
  1691.7000      8.7143      1.5149      0.0553     68.7954     43.7208     31.7541
  1691.8000      9.0141      1.4582     -0.0517     72.2282     45.0735     31.2921
  1691.9000      9.0141      1.4046     -0.1496     75.4784     47.1520     30.9162
  1692.0000      8.7809      1.3931     -0.1550     76.1772     49.9750     31.2212
  1692.1000      8.7809      1.4340     -0.0767     73.6943     54.2134     32.4619
  1692.2000      8.7809      1.4922      0.0489     70.1690     60.3841     34.1868
  1692.3000      8.3269      1.5260      0.0811     68.1197     65.9500     35.3436
  1692.4000      8.3269      1.5361      0.0254     67.5085     68.7738     35.2049
  1692.5000      8.3406      1.5435      0.0739     67.0586     69.3432     34.5604
  1692.6000      8.3406      1.5440      0.0891     67.0317     70.3324     34.6766
  1692.7000      8.3406      1.5224      0.0458     68.3379     72.8356     34.9589
  1692.8000      8.5919      1.4847     -0.0455     70.6225     73.4827     34.2690
  1692.9000      8.5919      1.4635     -0.1006     71.9111     69.7721     33.2400
  1693.0000      8.7062      1.5023     -0.1157     69.5565     65.5384     32.7309
  1693.1000      8.7062      1.6219     -0.0277     62.3104     67.1045     32.5578
  1693.2000      8.7062      1.7902      0.1106     52.1066     81.4412     32.2790
  1693.3000      8.2935      1.9487      0.2246     42.5015     88.1375     31.6247
  1693.4000      8.2935      2.0776      0.2489     34.6933     91.5500     30.6558
  1693.5000      8.3378      2.2055      0.2340     26.9383     94.5397     29.4946
  1693.6000      8.3378      2.3431      0.2910     18.5991     97.6186     28.5567
  1693.7000      8.3378      2.4452      0.2710     12.4093     99.8336     28.3185
  1693.8000      8.6672      2.4793      0.0991     10.3463    104.2626     28.2024
  1693.9000      8.6672      2.4871     -0.0012      9.8722    111.9575     27.5215
  1694.0000      8.5369      2.5272      0.0173      7.4441    119.5826     26.4888
  1694.1000      8.5369      2.5907      0.1529      3.5926    126.0114     25.4549
  1694.2000      8.5369      2.6314      0.1411      1.1273    140.1381     24.2552
  1694.3000      8.0927      2.6396      0.0926      0.6310    134.7278     23.0503
  1694.4000      8.0927      2.6248      0.1311      1.5286    125.4649     22.4207
  1694.5000      8.0179      2.5836      0.0833      4.0213    118.7227     22.5656
  1694.6000      8.0179      2.5254      0.0616      7.5502    117.7619     23.2940
  1694.7000      8.0179      2.4790      0.0370     10.3645    121.9338     24.1550
  1694.8000      7.9658      2.4610      0.0339     11.4566    124.9958     24.7560
  1694.9000      7.9658      2.4634      0.0218     11.3074    124.7377     25.0286
  1695.0000      7.9550      2.4688      0.0443     10.9805    125.6377     24.9039
  1695.1000      7.9550      2.4701      0.0098     10.9052    126.8858     24.6529
