~Version Information
 VERS.                                  2.0 : CWLS LAS VERSION
 WRAP.                                   NO : WRAPING MODE
 SWARE .                 MController 2.5.0J : SOFTWARE VERSION
~Well Information
 WELL.              Cock-A-Doodle-Doo 44-27 : WELL
 COMP.      Pioneer Natural Resources, Inc. : COMPANY
 FLD.                      Purgatoire River : FIELD
 LOC.                SE/SE Sec.27 T32S R67W : LOCATION
 DATE.                              6/30/05 : DATE(S) LOGGED
 SRVC.       BLANCO Geological Services LLC : SERVICE COMPANY
 STAT.                                   CO : STATE
 CNTY.                           Las Animas : COUNTY
 CTRY.                                  USA : COUNTRY
 API.                             071 08429 : API NUMBER
 STRT.FT                             394.00 : START DEPTH
 STOP.FT                            2540.00 : STOP DEPTH
 STEP.FT                               1.00 : DEPTH INCREMENT
 NULL.                                -9999 : NULL VALUE
~Curve information
 DEPTH.FT                                   :
 ROP.MIN/FT                                 :
 GAS.UNITS                                  :
~ASCII Log data
# ...
      1594.0         0.30        703.6 
      1595.0         0.37        734.0 
      1596.0         0.30        844.8 
      1597.0         0.30        955.3 
      1598.0         0.27       1025.4 
      1599.0         0.30       1078.6 
      1600.0         0.30       1090.4 
      1601.0         0.40       1088.1 
      1602.0         0.48       1066.5 
      1603.0         0.27       1019.0 
      1604.0         0.27        982.6 
      1605.0         0.27        957.3 
      1606.0         0.23        955.6 
      1607.0         0.23        968.1 
      1608.0         0.23        981.3 
      1609.0         0.37        999.8 
      1610.0         0.23       1002.5 
      1611.0         0.17       1000.5 
      1612.0         0.13        996.8 
      1613.0         0.23        987.7 
      1614.0         0.27        965.1 
      1615.0         0.27        945.9 
      1616.0         3.15       1719.8 
      1617.0         0.48       1948.5 
      1618.0         0.43       1939.8 
      1619.0         0.37       1899.7 
      1620.0         0.40       1783.4 
      1621.0         0.43       1556.7 
      1622.0         0.43       1340.4 
      1623.0         0.43       1209.3 
      1624.0         0.40       1171.3 
      1625.0         0.38       1165.2 
      1626.0         0.33       1120.4 
      1627.0         0.37       1079.0 
      1628.0         0.33       1037.9 
      1629.0         0.37       1012.9 
      1630.0         0.37        988.7 
      1631.0         0.33        972.5 
      1632.0         0.40        961.0 
      1633.0         0.33        947.6 
      1634.0         0.35        937.1 
      1635.0         0.37        927.3 
      1636.0         0.37        921.3 
      1637.0         0.37        915.6 
      1638.0         0.37        911.9 
      1639.0         0.33        910.5 
      1640.0         0.37        909.2 
      1641.0         0.37        904.8 
      1642.0         0.37        902.1 
      1643.0         0.33        905.4 
      1644.0         0.38        905.8 
      1645.0         0.37        914.2 
      1646.0         2.82       1506.2 
      1647.0         0.53       1961.7 
      1648.0         0.40       1979.9 
      1649.0         0.40       1962.0 
      1650.0         0.37       1873.4 
      1651.0         0.43       1646.0 
      1652.0         0.53       1390.9 
      1653.0         0.43       1195.2 
      1654.0         0.42       1157.1 
      1655.0         0.40       1138.3 
      1656.0         0.40       1095.5 
      1657.0         0.40       1053.4 
      1658.0         0.37       1013.3 
      1659.0         0.43        985.3 
      1660.0         0.38        964.7 
      1661.0         0.18        950.3 
      1662.0         0.23        945.5 
      1663.0         1.25        938.5 
      1664.0         0.28        887.6 
      1665.0         0.37        856.9 
      1666.0         0.30        871.8 
      1667.0         0.40        902.4 
      1668.0         0.27        914.5 
      1669.0         0.27        917.9 
      1670.0         0.27        915.9 
      1671.0         0.30        906.1 
      1672.0         0.30        877.8 
      1673.0         0.30        844.8 
      1674.0         0.27        818.2 
      1675.0         0.25        798.0 
      1676.0         2.63        770.3 
      1677.0         0.30          7.9 
      1678.0         0.35          7.1 
      1679.0         0.30          6.1 
      1680.0         0.23          5.2 
      1681.0         0.30          4.7 
      1682.0         0.37          4.3 
      1683.0         0.20          4.1 
      1684.0         0.30          4.5 
      1685.0         0.23          4.2 
      1686.0         0.23          4.0 
      1687.0         0.37          4.2 
      1688.0         0.27          4.4 
      1689.0         0.27          4.5 
      1690.0         0.65          4.5 
      1691.0         0.20          4.4 
      1692.0         0.23          4.1 
      1693.0         0.23          4.4 
      1694.0         0.37          4.5 
      1695.0         0.50          4.4 
      1696.0         0.47          4.4 
      1697.0         0.37          4.4 
      1698.0         0.38          4.5 
      1699.0         0.33          2.5 
      1700.0         0.37          2.5 
      1701.0         0.30          2.8 
      1702.0         0.27          2.7 
      1703.0         0.30          2.8 
      1704.0         0.30          2.6 
      1705.0         0.30          2.7 
      1706.0         4.05        227.0 
      1707.0         0.37        300.7 
      1708.0         0.35        368.0 
      1709.0         0.33        441.8 
      1710.0         0.37        935.8 
      1711.0         0.20        933.1 
      1712.0         0.30        901.7 
      1713.0         0.50        807.1 
      1714.0         0.23        651.4 
      1715.0         0.47        593.1 
      1716.0         0.37        488.0 
      1717.0         0.38        487.3 
      1718.0         0.30        486.7 
      1719.0         0.30        479.9 
      1720.0         0.23        470.2 
      1721.0         0.33        460.7 
      1722.0         0.47        443.5 
      1723.0         0.47        212.8 
      1724.0         0.37        207.4 
      1725.0         0.37        201.4 
      1726.0         0.37        202.0 
      1727.0         0.32        206.4 
      1728.0         0.40        220.2 
      1729.0         0.37       1085.0 
      1730.0         0.47       1370.1 
      1731.0         0.43       1298.3 
      1732.0         0.40        847.8 
      1733.0         0.40        640.6 
      1734.0         0.47        553.7 
      1735.0         0.52        509.9 
      1736.0         2.80        502.8 
      1737.0         0.42        281.4 
      1738.0         0.67       1007.9 
      1739.0         0.40       1136.2 
      1740.0         0.33       1140.6 
      1741.0         0.30       1104.2 
      1742.0         0.37        959.7 
      1743.0         0.17        816.8 
      1744.0         0.13        762.6 
      1745.0         0.20        730.3 
      1746.0         0.23        686.8 
      1747.0         0.27        640.6 
      1748.0         0.22        593.5 
      1749.0         0.20        576.3 
      1750.0         0.27        563.8 
      1751.0         0.40        576.6 
      1752.0         0.20        577.6 
      1753.0         0.20        572.9 
      1754.0         0.20        557.1 
      1755.0         0.20        542.3 
      1756.0         0.23        520.4 
      1757.0         0.30        491.4 
      1758.0         0.23        487.7 
      1759.0         0.27        487.3 
      1760.0         0.20        487.3 
      1761.0         0.23        486.3 
      1762.0         0.18        481.6 
      1763.0         0.17        475.2 
      1764.0         0.20        467.5 
      1765.0         0.37        461.1 
      1766.0         3.45        456.7 
      1767.0         0.57       1127.1 
      1768.0         0.27       1124.1 
      1769.0         0.20       1079.0 
      1770.0         0.80       1086.4 
      1771.0         0.68        877.5 
      1772.0         0.40        567.9 
      1773.0         0.27        510.6 
      1774.0         0.37        545.6 
      1775.0         0.40        547.3 
      1776.0         0.33        510.2 
      1777.0         0.27        510.6 
      1778.0         0.37        508.2 
      1779.0         0.33        478.6 
      1780.0         0.27        454.3 
      1781.0         0.25        447.6 
      1782.0         0.23        452.3 
      1783.0         0.27        448.6 
      1784.0         0.27        440.0 
      1785.0         0.23        208.7 
      1786.0         0.23        205.1 
      1787.0         0.27        203.3 
      1788.0         0.30        204.1 
      1789.0         0.30        208.3 
      1790.0         0.27        211.8 
      1791.0         0.23        212.2 
      1792.0         0.30        210.2 
      1793.0         0.27        205.0 
