~Version Information
VERS.                      2.0: CWLS Log ASCII Standard - VERSION 2.0
WRAP.                       NO: One line per depth step
~Well Information Block
STRT.FT               858.7000: 
STOP.FT              2478.2000: 
STEP.FT                 0.1000: 
NULL.                -999.2500: 
COMP.          Petrogulf Corporation: COMPANY
WELL.           Torcom 17-33 V: WELL
FLD.           Purgatoire River: FIELD
LOC.           1544' FSL & 1746' FEL: LOCATION
PROV.                 Colorado: PROVINCE
CNTY.               Las Animas: COUNTRY
SRVC.                Patterson: SERVICE COMPANY
DATE.          Wed Dec 03 09:22:08 2003: LOG DATE
UWI.                          : UNIQUE WELL ID
~Curve Information Block
DEPT.FT            0 000 00 00: Depth
DCAL.in                       : CDL Caliper
RHOB.g/cc                     : CDL Bulk Density
RHOC.g/cc                     : CDL Density Correction
DPOR.pu                       : CDL Density Porosity
GR.GAPI                       : Gamma Ray
NPOR.pu                       : Neutron Porosity
~Parameter Information Block
~A  Depth       DCAL        RHOB        RHOC        DPOR         GR         NPOR    
# ...
  2461.9000      8.0468      2.5591      0.2255      5.5073   -999.2500     16.8632
  2462.0000      8.0717      2.5342      0.1554      7.0172   -999.2500     17.0815
  2462.1000      8.0717      2.5299      0.0656      7.2818   -999.2500     17.0609
  2462.2000      8.0717      2.5410      0.1000      6.6052   -999.2500     17.4986
  2462.3000      8.0695      2.5446      0.0935      6.3876   -999.2500     18.5667
  2462.4000      8.0695      2.5376      0.0996      6.8115   -999.2500     19.3983
  2462.5000      8.0505      2.5325      0.0710      7.1202   -999.2500     19.6932
  2462.6000      8.0505      2.5393      0.1150      6.7104   -999.2500     19.8329
  2462.7000      8.0505      2.5574      0.0672      5.6099   -999.2500     19.9221
  2462.8000      7.9777      2.5768      0.1290      4.4369   -999.2500     19.9541
  2462.9000      7.9777      2.5909      0.1157      3.5840   -999.2500     19.8528
  2463.0000      7.9730      2.6002      0.1422      3.0185   -999.2500     19.5838
  2463.1000      7.9730      2.5990      0.1087      3.0931   -999.2500     19.4036
  2463.2000      7.9730      2.5811      0.1395      4.1787   -999.2500     19.4884
  2463.3000      8.0082      2.5454      0.1991      6.3379   -999.2500     19.9033
  2463.4000      8.0082      2.4980      0.1392      9.2116   -999.2500     20.5731
  2463.5000      8.0022      2.4662      0.0094     11.1382   -999.2500     21.3483
  2463.6000      8.0022      2.4781      0.0476     10.4153   -999.2500     22.1406
  2463.7000      8.0022      2.5141      0.1101      8.2358   -999.2500     22.4393
  2463.8000      7.9964      2.5331      0.1049      7.0855   -999.2500     22.0189
  2463.9000      7.9964      2.5290      0.0864      7.3318   -999.2500     22.0064
  2464.0000      7.9913      2.5244      0.1136      7.6099   -999.2500     24.4730
  2464.1000      7.9913      2.5338      0.0905      7.0413   -999.2500     31.1073
  2464.2000      7.9913      2.5499      0.1527      6.0686   -999.2500     39.9324
  2464.3000      8.0056      2.5621      0.1633      5.3260   -999.2500     45.9957
  2464.4000      8.0056      2.5696      0.1435      4.8733   -999.2500     48.2034
  2464.5000      7.9914      2.5738      0.1552      4.6167   -999.2500     48.6386
  2464.6000      7.9914      2.5838      0.1257      4.0108   -999.2500     48.6846
  2464.7000      7.9914      2.5987      0.1843      3.1121   -999.2500     48.6872
  2464.8000      7.9891      2.6039      0.0545      2.7962   -999.2500   -999.2500
  2464.9000      7.9891      2.6021      0.0981      2.9056   -999.2500   -999.2500
  2465.0000      7.9828      2.5928      0.1012      3.4692   -999.2500   -999.2500
  2465.1000      7.9828      2.5648      0.0465      5.1634   -999.2500   -999.2500
  2465.2000      7.9828      2.5177      0.0624      8.0190   -999.2500   -999.2500
  2465.3000      7.9859      2.4667     -0.0040     11.1103   -999.2500   -999.2500
  2465.4000      7.9859      2.4359      0.0036     12.9786   -999.2500   -999.2500
  2465.5000      7.9873      2.4363     -0.0403     12.9498   -999.2500   -999.2500
  2465.6000      7.9873      2.4559      0.0719     11.7634   -999.2500   -999.2500
  2465.7000      7.9873      2.4801     -0.0288     10.2948   -999.2500   -999.2500
  2465.8000      8.0131      2.5062      0.0842      8.7122   -999.2500   -999.2500
  2465.9000      8.0131      2.5245      0.1474      7.6044   -999.2500   -999.2500
  2466.0000      8.0197      2.5347      0.1099      6.9858   -999.2500   -999.2500
  2466.1000      8.0197      2.5502      0.1537      6.0458   -999.2500   -999.2500
  2466.2000      8.0197      2.5689      0.1506      4.9174   -999.2500   -999.2500
  2466.3000      8.0015      2.5819      0.1682      4.1243   -999.2500   -999.2500
  2466.4000      8.0015      2.5956      0.1166      3.2963   -999.2500   -999.2500
  2466.5000      8.0185      2.6065      0.1499      2.6379   -999.2500   -999.2500
  2466.6000      8.0185      2.5931      0.1384      3.4470   -999.2500   -999.2500
  2466.7000      8.0185      2.5729      0.0308      4.6722   -999.2500   -999.2500
  2466.8000      8.0088      2.5872      0.0772      3.8046   -999.2500   -999.2500
  2466.9000      8.0088      2.6242      0.1763      1.5656   -999.2500   -999.2500
  2467.0000      7.9743      2.6396      0.1657      0.6314   -999.2500   -999.2500
  2467.1000      7.9743      2.6200      0.1499      1.8153   -999.2500   -999.2500
  2467.2000      7.9743      2.5784      0.0563      4.3384   -999.2500   -999.2500
  2467.3000      7.9763      2.5316      0.0181      7.1772   -999.2500   -999.2500
  2467.4000      7.9763      2.4964      0.0083      9.3070   -999.2500   -999.2500
  2467.5000      7.9955      2.4757      0.0516     10.5606   -999.2500   -999.2500
  2467.6000      7.9955      2.4605      0.0334     11.4826   -999.2500   -999.2500
  2467.7000      7.9955      2.4543      0.0189     11.8587   -999.2500   -999.2500
  2467.8000      8.0105      2.4595      0.0096     11.5432   -999.2500   -999.2500
  2467.9000      8.0105      2.4660      0.0517     11.1491   -999.2500   -999.2500
  2468.0000      7.9957      2.4755     -0.0099     10.5765   -999.2500   -999.2500
  2468.1000      7.9957      2.4978      0.0636      9.2237   -999.2500   -999.2500
  2468.2000      7.9957      2.5226      0.0818      7.7239   -999.2500   -999.2500
  2468.3000      7.9920      2.5380      0.0897      6.7863   -999.2500   -999.2500
  2468.4000      7.9920      2.5437      0.1670      6.4430   -999.2500   -999.2500
  2468.5000      8.0326      2.5417      0.1045      6.5611   -999.2500   -999.2500
  2468.6000      8.0326      2.5389      0.1342      6.7331   -999.2500   -999.2500
  2468.7000      8.0326      2.5383      0.1290      6.7679   -999.2500   -999.2500
  2468.8000      8.0038      2.5391      0.1185      6.7189   -999.2500   -999.2500
  2468.9000      8.0038      2.5390      0.1146      6.7259   -999.2500   -999.2500
  2469.0000      7.9926      2.5349      0.1284      6.9770   -999.2500   -999.2500
  2469.1000      7.9926      2.5320      0.0658      7.1524   -999.2500   -999.2500
  2469.2000      7.9926      2.5414      0.0953      6.5841   -999.2500   -999.2500
  2469.3000      7.9972      2.5616      0.0913      5.3579   -999.2500   -999.2500
  2469.4000      7.9972      2.5795      0.1289      4.2728   -999.2500   -999.2500
  2469.5000      8.0145      2.5806      0.1362      4.2082   -999.2500   -999.2500
  2469.6000      8.0145      2.5611      0.1469      5.3859   -999.2500   -999.2500
  2469.7000      8.0145      2.5309      0.1105      7.2165   -999.2500   -999.2500
  2469.8000      7.9838      2.5050      0.0762      8.7855   -999.2500   -999.2500
  2469.9000      7.9838      2.5059      0.0139      8.7356   -999.2500   -999.2500
  2470.0000      8.0023      2.5396      0.1286      6.6909   -999.2500   -999.2500
  2470.1000      8.0023      2.5713      0.1579      4.7709   -999.2500   -999.2500
  2470.2000      8.0023      2.5794      0.0804      4.2780   -999.2500   -999.2500
  2470.3000      8.0160      2.5818      0.1121      4.1312   -999.2500   -999.2500
  2470.4000      8.0160      2.5837      0.1068      4.0192   -999.2500   -999.2500
  2470.5000      8.0566      2.5747      0.0781      4.5637   -999.2500   -999.2500
  2470.6000      8.0566      2.5601      0.0581      5.4492   -999.2500   -999.2500
  2470.7000      8.0566      2.5460      0.0639      6.3036   -999.2500   -999.2500
  2470.8000      8.0556      2.5269      0.0673      7.4606   -999.2500   -999.2500
  2470.9000      8.0556      2.5081      0.0219      8.6019   -999.2500   -999.2500
  2471.0000      8.0228      2.5009      0.0997      9.0382   -999.2500   -999.2500
  2471.1000      8.0228      2.5049      0.0472      8.7957   -999.2500   -999.2500
  2471.2000      8.0228      2.5213      0.0663      7.7998   -999.2500   -999.2500
  2471.3000      7.9856      2.5467      0.1296      6.2591   -999.2500   -999.2500
  2471.4000      7.9856      2.5682      0.1394      4.9602   -999.2500   -999.2500
