~Version Information
VERS.                      2.0: CWLS Log ASCII Standard - VERSION 2.0
WRAP.                       NO: One line per depth step
~Well Information Block
STRT.FT               483.5000: 
STOP.FT              2348.7500: 
STEP.FT                 0.2500: 
NULL.                -999.2500: 
COMP.          Pioneer Natural Resources: COMPANY
WELL.          Hill Climb 22-2: WELL
FLD.           Purgatoire River: FIELD
LOC.           1820' FNL & 2193' FWL: LOCATION
PROV.                 Colorado: PROVINCE
CNTY.               Las Animas: COUNTRY
SRVC.                Patterson: SERVICE COMPANY
DATE.          Wed Oct 20 08:57:51 2004: LOG DATE
UWI.           05 071 08175 00: UNIQUE WELL ID
~Curve Information Block
DEPT.FT            0 000 00 00: Depth
DIR.Ohm-m                     : IEL Induction Resistivity
SN.Ohm-m                      : IEL Short Normal
SP.mV                         : IEL Spontaneous Potential
GR.GAPI                       : Gamma Ray
~Parameter Information Block
~A  Depth       DIR          SN          SP          GR     
# ...
  1455.0000      7.9817      8.2369    345.5073    144.8957
  1455.2500      8.1558      8.1181    345.4078    141.6305
  1455.5000      8.3849      7.9284    345.6995    137.2709
  1455.7500      8.6548      7.6564    346.4030    134.0936
  1456.0000      8.9444      7.3033    347.5103    126.9396
  1456.2500      9.2310      6.9136    348.9824    119.9284
  1456.5000      9.4966      6.5806    350.7443    106.7991
  1456.7500      9.7306      6.4192    352.6836     97.5321
  1457.0000      9.9286      6.5159    354.6567     84.9477
  1457.2500     10.0880      6.8880    356.5073     78.0946
  1457.5000     10.2047      7.4754    358.0966     70.2665
  1457.7500     10.2724      8.1712    359.3336     66.4841
  1458.0000     10.2851      8.8651    360.1915     62.7033
  1458.2500     10.2401      9.4704    360.7039     61.5826
  1458.5000     10.1398      9.9251    360.9417     62.3709
  1458.7500      9.9919     10.1904    360.9839     64.2107
  1459.0000      9.8098     10.2583    360.8957     67.4053
  1459.2500      9.6104     10.1557    360.7181     69.2243
  1459.5000      9.4103      9.9309    360.4694     71.9639
  1459.7500      9.2216      9.6319    360.1504     74.4770
  1460.0000      9.0497      9.2966    359.7504     80.0826
  1460.2500      8.8946      8.9555    359.2516     85.4237
  1460.5000      8.7531      8.6363    358.6342     96.5025
  1460.7500      8.6229      8.3618    357.8823    105.7717
  1461.0000      8.5038      8.1406    356.9921    120.3298
  1461.2500      8.3973      7.9665    355.9790    128.5993
  1461.5000      8.3053      7.8344    354.8811    136.6051
  1461.7500      8.2295      7.7541    353.7567    138.7447
  1462.0000      8.1714      7.7410    352.6730    137.7002
  1462.2500      8.1319      7.7949    351.6908    134.5732
  1462.5000      8.1110      7.8933    350.8508    127.1453
  1462.7500      8.1055      8.0031    350.1666    121.2149
  1463.0000      8.1091      8.0994    349.6277    112.4159
  1463.2500      8.1157      8.1776    349.2081    107.1587
  1463.5000      8.1242      8.2511    348.8719    100.3852
  1463.7500      8.1422      8.3401    348.5726     96.4918
  1464.0000      8.1845      8.4640    348.2471     91.0276
  1464.2500      8.2667      8.6483    347.8119     87.0991
  1464.5000      8.4006      8.9312    347.1715     80.2201
  1464.7500      8.5933      9.3505    346.2384     75.4643
  1465.0000      8.8503      9.9109    344.9583     70.3011
  1465.2500      9.1802     10.5626    343.3268     69.3761
  1465.5000      9.5969     11.2280    341.3900     72.1026
  1465.7500     10.1193     11.8699    339.2302     76.0501
  1466.0000     10.7677     12.5365    336.9441     84.2567
  1466.2500     11.5615     13.3272    334.6281     90.9448
  1466.5000     12.5177     14.3119    332.3730    101.5206
  1466.7500     13.6544     15.4923    330.2670    107.5416
  1467.0000     14.9935     16.8533    328.3994    112.9529
  1467.2500     16.5597     18.4467    326.8564    113.8067
  1467.5000     18.3636     20.4006    325.7067    111.4853
  1467.7500     20.3714     22.8124    324.9837    108.0880
  1468.0000     22.4758     25.5962    324.6725    101.9094
  1468.2500     24.5004     28.4269    324.7121     98.5328
  1468.5000     26.2502     30.8693    325.0116     96.3541
  1468.7500     27.5818     32.6159    325.4743     96.5657
  1469.0000     28.4406     33.6327    326.0186     97.2442
  1469.2500     28.8550     34.0956    326.5888     96.8864
  1469.5000     28.9122     34.2127    327.1547     95.0863
  1469.7500     28.7323     34.1103    327.7033     93.7279
  1470.0000     28.4363     33.8437    328.2287     92.3124
  1470.2500     28.1114     33.4530    328.7251     91.7793
  1470.5000     27.7918     32.9814    329.1849     91.5736
  1470.7500     27.4716     32.4619    329.6027     92.2599
  1471.0000     27.1405     31.9247    329.9811     95.2368
  1471.2500     26.8112     31.4165    330.3345     98.1734
  1471.5000     26.5149     30.9713    330.6870    102.1085
  1471.7500     26.2709     30.5373    331.0668    103.4279
  1472.0000     26.0544     29.9561    331.4979    103.2155
  1472.2500     25.7904     29.0493    331.9958    102.2175
  1472.5000     25.3776     27.7443    332.5657    100.6167
  1472.7500     24.7397     26.1338    333.2024     99.6436
  1473.0000     23.8758     24.4388    333.8872     97.4853
  1473.2500     22.8661     22.9103    334.5824     95.0838
  1473.5000     21.8243     21.7188    335.2260     90.8017
  1473.7500     20.8368     20.8861    335.7345     88.9974
  1474.0000     19.9362     20.3072    336.0168     90.3613
  1474.2500     19.1202     19.8480    335.9968     94.1965
  1474.5000     18.3868     19.4343    335.6358    102.4575
  1474.7500     17.7554     19.0661    334.9431    108.3667
  1475.0000     17.2618     18.7709    333.9711    116.9231
  1475.2500     16.9408     18.5568    332.7979    122.1472
  1475.5000     16.8125     18.4017    331.5042    127.6011
  1475.7500     16.8793     18.2778    330.1558    128.1877
  1476.0000     17.1290     18.1950    328.7957    123.1892
  1476.2500     17.5447     18.2335    327.4439    116.4808
  1476.5000     18.1133     18.5410    326.1035    103.7994
  1476.7500     18.8272     19.2869    324.7689     95.3487
  1477.0000     19.6782     20.5851    323.4367     85.6903
  1477.2500     20.6465     22.4113    322.1195     82.4302
  1477.5000     21.6906     24.5616    320.8589     81.8324
  1477.7500     22.7437     26.7010    319.7312     82.7426
  1478.0000     23.7172     28.4866    318.8410     83.8472
  1478.2500     24.5139     29.6890    318.3009     84.3288
  1478.5000     25.0566     30.2401    318.2054     85.3072
  1478.7500     25.3184     30.2059    318.6100     85.7795
  1479.0000     25.3361     29.7226    319.5215     84.8218
  1479.2500     25.1894     28.9400    320.8991     83.0713
  1479.5000     24.9611     27.9859    322.6636     80.7854
  1479.7500     24.6996     26.9466    324.7084     80.7166
  1480.0000     24.4005     25.8583    326.9117     83.1432
  1480.2500     24.0128     24.7254    329.1501     85.8820
  1480.5000     23.4696     23.5621    331.3117     90.9210
  1480.7500     22.7293     22.4219    333.3054     94.8206
  1481.0000     21.8017     21.3770    335.0649    101.4263
  1481.2500     20.7416     20.4636    336.5487    106.2769
  1481.5000     19.6208     19.6464    337.7386    114.2957
  1481.7500     18.5038     18.8421    338.6381    120.0241
  1482.0000     17.4396     17.9871    339.2676    127.8118
  1482.2500     16.4617     17.0869    339.6550    131.0955
  1482.5000     15.5902     16.2090    339.8197    131.7413
  1482.7500     14.8334     15.4377    339.7600    130.0019
  1483.0000     14.1916     14.8359    339.4478    127.3062
  1483.2500     13.6654     14.4387    338.8368    127.0480
  1483.5000     13.2641     14.2677    337.8794    129.2863
  1483.7500     13.0093     14.3431    336.5448    131.4241
  1484.0000     12.9304     14.6859    334.8287    133.2172
  1484.2500     13.0557     15.3131    332.7531    132.6582
  1484.5000     13.4033     16.2319    330.3588    129.0134
  1484.7500     13.9769     17.4236    327.6987    124.8626
  1485.0000     14.7661     18.8326    324.8404    116.2257
  1485.2500     15.7522     20.3845    321.8757    109.1135
  1485.5000     16.9195     22.0511    318.9325     97.4174
  1485.7500     18.2678     23.9326    316.1766     89.7194
  1486.0000     19.8194     26.2799    313.7958     79.6623
  1486.2500     21.6120     29.3751    311.9660     74.5698
  1486.5000     23.6727     33.2933    310.8109     69.6450
  1486.7500     25.9752     37.7166    310.3687     67.7558
  1487.0000     28.4016     41.9851    310.5791     65.8440
  1487.2500     30.7392     45.3829    311.2954     64.7166
  1487.5000     32.7369     47.4742    312.3171     63.2500
  1487.7500     34.1960     48.2811    313.4326     62.8308
  1488.0000     35.0299     48.1989    314.4616     64.0685
  1488.2500     35.2697     47.7103    315.2879     66.6042
