~Version Information
 VERS.                                  2.0 : CWLS LAS VERSION
 WRAP.                                   NO : WRAPING MODE
 SWARE .                 MController 2.5.0E : SOFTWARE VERSION
~Well Information
 WELL.                          Lynch 43-30 : WELL
 COMP.        Pioneer Natural Resources Inc : COMPANY
 FLD.                      Purgatoire River : FIELD
 LOC.                NE/SE Sec 30 T32S R67W : LOCATION
 DATE.                             10/25/04 : DATE(S) LOGGED
 SRVC.       Blanco Geological services LLc : SERVICE COMPANY
 STAT.                                   CO : STATE
 CNTY.                           Las Animas : COUNTY
 CTRY.                                  USA : COUNTRY
 API.                       05-071-08170-00 : API NUMBER
 STRT.FT                             410.00 : START DEPTH
 STOP.FT                            2845.00 : STOP DEPTH
 STEP.FT                               1.00 : DEPTH INCREMENT
 NULL.                                -9999 : NULL VALUE
~Curve information
 DEPTH.FT                                   :
 ROP.MIN/FT                                 :
 GAS.UNITS                                  :
~ASCII Log data
# ...
     2610.00        0.100        133.1 
     2611.00        0.100        137.1 
     2612.00        0.150        141.5 
     2613.00        0.167        142.2 
     2614.00        0.300        141.9 
     2615.00        0.367        133.8 
     2616.00        0.267        114.5 
     2617.00        0.300        100.8 
     2618.00        0.233         87.5 
     2619.00        0.233         81.7 
     2620.00        0.400         76.2 
     2621.00        0.367         67.5 
     2622.00        0.367         65.5 
     2623.00        0.283         71.2 
     2624.00        0.267         75.0 
     2625.00        0.233         77.6 
     2626.00        0.167         79.1 
     2627.00        0.133         79.0 
     2628.00        0.100         77.5 
     2629.00        0.067         75.1 
     2630.00        0.133         72.8 
     2631.00        0.167         67.6 
     2632.00        0.233         62.3 
     2633.00        0.233         52.7 
     2634.00        0.167         44.4 
     2635.00        0.167         40.8 
     2636.00        6.233        160.1 
     2637.00        0.433        120.0 
     2638.00        0.367        102.9 
     2639.00        0.300         84.8 
     2640.00        0.200         74.4 
     2641.00        0.233         69.4 
     2642.00        0.317         65.5 
     2643.00        0.367         60.4 
     2644.00        0.333         55.1 
     2645.00        0.333         50.1 
     2646.00        0.333         46.2 
     2647.00        0.333         45.3 
     2648.00        0.367         44.5 
     2649.00        0.367         43.1 
     2650.00        0.367         42.1 
     2651.00        0.417         40.3 
     2652.00        0.367         38.7 
     2653.00        0.300         38.2 
     2654.00        0.267         38.1 
     2655.00        0.300         37.7 
     2656.00        0.300         37.4 
     2657.00        0.267         37.2 
     2658.00        0.267         39.8 
     2659.00        0.200         43.9 
     2660.00        0.400         44.9 
     2661.00        0.267         44.2 
     2662.00        0.133         40.4 
     2663.00        0.167         38.1 
     2664.00        0.183         35.0 
     2665.00        0.300         30.5 
     2666.00        0.267         26.7 
     2667.00        0.267         22.6 
     2668.00        6.233         87.5 
     2669.00        0.300         49.6 
     2670.00        0.333         47.6 
     2671.00        0.367         45.3 
     2672.00        0.367         43.5 
     2673.00        0.333         43.2 
     2674.00        0.200         43.1 
     2675.00        0.167         42.1 
     2676.00        0.267         41.7 
     2677.00        0.300         40.3 
     2678.00        0.317         38.4 
     2679.00        0.333         37.7 
     2680.00        0.300         36.3 
     2681.00        0.300         35.8 
     2682.00        0.300         35.0 
     2683.00        0.333         34.7 
     2684.00        0.367         34.5 
     2685.00        0.333         34.0 
     2686.00        0.333         33.5 
     2687.00        0.400         33.2 
     2688.00        0.483         36.3 
     2689.00        0.300         37.4 
     2690.00        0.300         37.4 
     2691.00        0.267         36.9 
     2692.00        0.267         34.4 
     2693.00        0.267         30.0 
     2694.00        0.267         25.5 
     2695.00        0.267         22.1 
     2696.00        4.767         68.9 
     2697.00        0.467         67.1 
     2698.00        0.400         62.8 
     2699.00        0.367         57.2 
     2700.00        0.333         51.3 
     2701.00        0.333         46.9 
     2702.00        0.333         42.9 
     2703.00        0.333         40.2 
     2704.00        0.300         38.6 
     2705.00        0.350         37.3 
     2706.00        0.300         36.3 
     2707.00        0.300         35.9 
     2708.00        0.267         35.3 
     2709.00        0.333         34.7 
     2710.00        0.300         33.6 
     2711.00        0.367         33.0 
     2712.00        0.333         32.1 
     2713.00        0.300         31.1 
     2714.00        0.367         30.1 
     2715.00        0.367         29.6 
     2716.00        0.350         29.5 
     2717.00        0.367         29.8 
     2718.00        0.333         29.9 
     2719.00        0.267         32.4 
     2720.00        0.233         34.8 
     2721.00        0.267         36.2 
     2722.00        0.333         37.5 
     2723.00        0.367         37.3 
     2724.00        0.533         32.7 
     2725.00        0.483         23.0 
     2726.00        4.750         58.0 
     2727.00        0.500         54.8 
     2728.00        0.400         54.7 
     2729.00        0.333         52.1 
     2730.00        0.333         48.9 
     2731.00        0.350         45.4 
     2732.00        0.333         42.8 
     2733.00        0.400         40.9 
     2734.00        0.400         39.3 
     2735.00        0.300         38.5 
     2736.00        0.333         38.2 
     2737.00        0.333         37.3 
     2738.00        0.300         36.3 
     2739.00        0.267         35.4 
     2740.00        0.267         34.8 
     2741.00        0.267         33.8 
     2742.00        0.283         33.1 
     2743.00        0.267         33.2 
     2744.00        0.300         33.8 
     2745.00        0.300         34.5 
     2746.00        0.267         36.0 
     2747.00        0.267         37.6 
     2748.00        0.267         39.3 
     2749.00        0.300         41.2 
     2750.00        0.333         42.3 
     2751.00        0.367         44.9 
     2752.00        0.367         45.7 
     2753.00        0.450         45.9 
     2754.00        0.367         44.6 
     2755.00        0.433         39.3 
     2756.00        4.550        102.9 
     2757.00        0.567        100.4 
     2758.00        0.650         85.4 
     2759.00        0.467         62.5 
     2760.00        2.683         51.9 
     2761.00        5.650         34.2 
     2762.00        5.200         47.2 
     2763.00        0.567         46.0 
     2764.00        0.767         44.4 
     2765.00        0.667         39.8 
     2766.00        0.717         36.9 
     2767.00        0.700         33.2 
     2768.00        0.733         32.1 
     2769.00        0.667         32.2 
     2770.00        0.700         33.5 
     2771.00        0.617         34.2 
     2772.00        0.667         34.1 
     2773.00        0.533         32.8 
     2774.00        0.500         32.1 
     2775.00        0.433         32.6 
     2776.00        0.400         34.3 
     2777.00        0.583         36.3 
     2778.00        0.600         36.3 
     2779.00        0.467         35.6 
     2780.00        0.500         35.5 
     2781.00        0.467         37.2 
     2782.00        0.600         43.4 
     2783.00        0.617         44.5 
     2784.00        0.500         40.3 
     2785.00        0.467         31.0 
     2786.00        6.000         89.5 
     2787.00        0.933         48.0 
     2788.00        0.400         48.0 
     2789.00        0.933         46.3 
     2790.00        0.400         40.6 
     2791.00        0.750         37.6 
     2792.00        0.767         33.7 
     2793.00        0.933         33.2 
     2794.00        0.467         34.6 
     2795.00        0.400         34.4 
     2796.00        0.417         34.3 
     2797.00        0.400         33.8 
     2798.00        0.433         33.2 
     2799.00        0.467         38.4 
     2800.00        0.533         56.3 
     2801.00        0.767         68.4 
     2802.00        0.750         42.0 
     2803.00        0.633         23.1 
     2804.00        0.600         25.0 
     2805.00        0.867         41.2 
     2806.00        0.900         47.4 
     2807.00        0.383         47.2 
     2808.00        0.733         45.8 
     2809.00        0.567         41.6 
