~Version Information
 VERS.                                  2.0 : CWLS LAS VERSION
 WRAP.                                   NO : WRAPING MODE
 SWARE .                 MController 2.5.0J : SOFTWARE VERSION
~Well Information
 WELL.                          Tonto 42-23 : WELL
 COMP.    Pioneer Natural Resources USA Inc : COMPANY
 FLD.                      Purgatoire River : FIELD
 LOC.                SE/NE Sec 23 T32S R66W : LOCATION
 DATE.                              4/16/05 : DATE(S) LOGGED
 SRVC.       Blanco Geological Services LLC : SERVICE COMPANY
 STAT.                                   CO : STATE
 CNTY.                           Las Animas : COUNTY
 CTRY.                                  USA : COUNTRY
 API.                       05-071-08335-00 : API NUMBER
 STRT.FT                             892.00 : START DEPTH
 STOP.FT                            2270.00 : STOP DEPTH
 STEP.FT                               1.00 : DEPTH INCREMENT
 NULL.                                -9999 : NULL VALUE
~Curve information
 DEPTH.FT                                   :
 ROP.MIN/FT                                 :
 GAS.UNITS                                  :
~ASCII Log data
# ...
      1092.0         0.17         76.4 
      1093.0         0.13         75.3 
      1094.0         0.13         70.6 
      1095.0         0.30         60.6 
      1096.0         0.17         56.1 
      1097.0         0.18         79.2 
      1098.0         0.17        105.8 
      1099.0         0.17        137.9 
      1100.0         0.17        168.5 
      1101.0         0.17        253.5 
      1102.0         0.17        379.6 
      1103.0         0.20        435.2 
      1104.0         0.30        430.7 
      1105.0         0.40        322.6 
      1106.0         0.63        183.5 
      1107.0         0.43        110.0 
      1108.0         0.28         93.4 
      1109.0         0.27         87.9 
      1110.0         0.20         82.8 
      1111.0         0.20         79.6 
      1112.0         0.23         77.5 
      1113.0         0.17         76.5 
      1114.0         0.17         75.3 
      1115.0         0.13         74.8 
      1116.0         0.17         74.1 
      1117.0         0.13         73.8 
      1118.0         0.17         73.0 
      1119.0         0.13         72.7 
      1120.0         0.17         72.9 
      1121.0         0.37         74.7 
      1122.0         0.43         74.0 
      1123.0         0.42         73.4 
      1124.0         0.43         72.4 
      1125.0         0.17         60.3 
      1126.0         0.17         50.0 
      1127.0         0.17         47.1 
      1128.0         0.17         55.6 
      1129.0         0.13         68.1 
      1130.0         0.17         91.3 
      1131.0         0.13        118.6 
      1132.0         0.13        145.3 
      1133.0         0.27        196.9 
      1134.0         0.23        209.7 
      1135.0         0.20        207.1 
      1136.0         1.22        185.9 
      1137.0         0.23         91.5 
      1138.0         0.30         85.2 
      1139.0         0.27         78.9 
      1140.0         0.23         74.6 
      1141.0         0.17         73.0 
      1142.0         0.20         70.6 
      1143.0         0.17         67.9 
      1144.0         0.17         66.7 
      1145.0         0.13         64.5 
      1146.0         0.17         63.7 
      1147.0         0.13         63.0 
      1148.0         0.27         63.8 
      1149.0         0.37         64.5 
      1150.0         0.28         64.9 
      1151.0         0.20         63.5 
      1152.0         0.13         62.9 
      1153.0         0.13         62.7 
      1154.0         0.17         58.0 
      1155.0         0.17         45.7 
      1156.0         0.20         35.8 
      1157.0         0.20         27.9 
      1158.0         0.20         34.8 
      1159.0         0.17         45.9 
      1160.0         0.17         63.0 
      1161.0         0.13         79.1 
      1162.0         0.17        110.4 
      1163.0         0.13        140.8 
      1164.0         0.37        259.0 
      1165.0         0.40        336.6 
      1166.0         0.98        319.8 
      1167.0         0.23        132.9 
      1168.0         0.13        110.2 
      1169.0         0.30         98.7 
      1170.0         0.33         82.2 
      1171.0         0.33         75.2 
      1172.0         0.27         70.8 
      1173.0         0.27         68.4 
      1174.0         0.23         67.6 
      1175.0         0.23         67.2 
      1176.0         0.23         65.5 
      1177.0         0.25         64.8 
      1178.0         0.23         59.5 
      1179.0         0.23         38.1 
      1180.0         0.27         22.0 
      1181.0         0.23         27.8 
      1182.0         0.23         39.4 
      1183.0         0.23         52.5 
      1184.0         0.23         61.8 
      1185.0         1.68        107.0 
      1186.0         0.23         81.4 
      1187.0         0.40         71.0 
      1188.0         0.37         58.8 
      1189.0         0.37         56.5 
      1190.0         0.30         53.4 
      1191.0         0.27         57.3 
      1192.0         0.30         57.5 
      1193.0         0.30         44.8 
      1194.0         0.27         26.7 
      1195.0         0.30         31.8 
      1196.0         2.22        178.7 
      1197.0         0.40        132.0 
      1198.0         0.43        100.9 
      1199.0         0.33         81.7 
      1200.0         0.32         71.2 
      1201.0         0.23         67.2 
      1202.0         0.23         65.1 
      1203.0         0.20         63.1 
      1204.0         0.23         62.6 
      1205.0         0.23         58.0 
      1206.0         0.20         37.8 
      1207.0         0.20         24.9 
      1208.0         0.23         27.2 
      1209.0         0.23         33.4 
      1210.0         0.20         39.6 
      1211.0         0.20         44.8 
      1212.0         0.20         48.6 
      1213.0         1.98         97.7 
      1214.0         0.27         75.4 
      1215.0         0.27         71.6 
      1216.0         0.20         67.7 
      1217.0         0.33         63.9 
      1218.0         0.65         61.1 
      1219.0         0.57         59.1 
      1220.0         0.37         58.9 
      1221.0         0.33         55.5 
      1222.0         0.43         42.2 
      1223.0         0.50         60.5 
      1224.0         0.37        124.2 
      1225.0         0.13        151.2 
      1226.0         1.78        221.6 
      1227.0         0.40         88.1 
      1228.0         0.30         72.4 
      1229.0         0.23         66.0 
      1230.0         0.37         60.0 
      1231.0         0.40         69.8 
      1232.0         0.27         72.0 
      1233.0         0.18         71.7 
      1234.0         0.23         69.2 
      1235.0         0.13         64.4 
      1236.0         0.13         61.9 
      1237.0         0.13         59.4 
      1238.0         0.17         57.7 
      1239.0         0.23         56.4 
      1240.0         0.20         54.7 
      1241.0         0.23         54.8 
      1242.0         0.23         57.8 
      1243.0         0.23         60.9 
      1244.0         0.20         62.1 
      1245.0         0.20         63.6 
      1246.0         0.23         66.0 
      1247.0         0.27         69.0 
      1248.0         0.20         68.8 
      1249.0         0.20         61.0 
      1250.0         0.22         47.8 
      1251.0         0.30         43.5 
      1252.0         0.20         47.4 
      1253.0         0.23         51.5 
      1254.0         0.20         55.5 
      1255.0         0.27         61.6 
      1256.0         8.23        236.9 
      1257.0         0.20        161.9 
      1258.0         0.55        132.0 
      1259.0         0.47         76.5 
      1260.0         0.30         60.3 
      1261.0         0.33         57.4 
      1262.0         0.27         57.4 
      1263.0         0.30         57.6 
      1264.0         0.27         55.6 
      1265.0         0.23         52.5 
      1266.0         0.20         51.8 
      1267.0         0.20         51.6 
      1268.0         0.22         50.1 
      1269.0         0.20         48.7 
      1270.0         0.17         45.8 
      1271.0         0.17         43.3 
      1272.0         0.17         43.0 
      1273.0         0.17         42.8 
      1274.0         0.20         44.5 
      1275.0         0.17         48.3 
      1276.0         0.17         49.1 
      1277.0         0.17         49.0 
      1278.0         0.20         48.4 
      1279.0         0.13         48.3 
      1280.0         0.13         52.2 
      1281.0         0.17         63.4 
      1282.0         0.13         76.3 
      1283.0         0.13         94.2 
      1284.0         0.13        115.3 
      1285.0         0.27        171.2 
      1286.0         1.42        324.6 
      1287.0         0.33        155.8 
      1288.0         0.20        117.0 
      1289.0         0.30        100.3 
      1290.0         0.43         86.4 
      1291.0         0.13         75.8 
