~Version Information
VERS.                      2.0: CWLS Log ASCII Standard - VERSION 2.0
WRAP.                       NO: One line per depth step
~Well Information Block
STRT.FT                -9.7500: 
STOP.FT              2612.5000: 
STEP.FT                 0.2500: 
NULL.                -999.2500: 
COMP.                         : COMPANY
WELL.                         : WELL
FLD.                          : FIELD
LOC.                          : LOCATION
CNTY.                         : COUNTY
SRVC.                         : SERVICE COMPANY
DATE.          Mon Nov 17 14:56:03 2003: LOG DATE
UWI.                          : UNIQUE WELL ID
STAT.                         : STATE
~Curve Information Block
DEPT.FT            0 000 00 00: Depth
CCL.                          : Casing Collar Locator
TT3.usec                      : CBL 3' Travel Time
AMP3.mV                       : CBL 3' Amplitude
GR.GAPI                       : Gamma Ray
~Parameter Information Block
~A  Depth       CCL         TT3         AMP3         GR     
# ...
  1531.2500      0.0000    262.4927     71.5725    150.4930
  1531.5000      0.0000    262.4905     71.6765    141.6741
  1531.7500      0.0000    262.5084     71.6684    132.9992
  1532.0000      0.0000    262.5372     71.5861    126.3316
  1532.2500      0.0000    262.5725     71.4709    122.0325
  1532.5000      0.0000    262.6209     71.2994    119.4710
  1532.7500      0.0000    262.6808     71.0454    118.4601
  1533.0000      0.0000    262.7317     70.7614    119.7143
  1533.2500      0.0000    262.7503     70.5564    123.7490
  1533.5000      0.0000    262.7281     70.5173    129.6430
  1533.7500      0.0000    262.6717     70.6668    135.3769
  1534.0000      0.0000    262.5953     70.9619    139.6724
  1534.2500      0.0000    262.5201     71.3012    143.3096
  1534.5000      0.0000    262.4679     71.5577    148.2207
  1534.7500      0.0000    262.4467     71.6525    155.2129
  1535.0000      0.0000    262.4478     71.6026    162.9012
  1535.2500      0.0000    262.4621     71.4745    168.8155
  1535.5000      0.0000    262.4933     71.2998    171.1091
  1535.7500      0.0000    262.5443     71.0762    169.3131
  1536.0000      0.0000    262.6001     70.8354    164.3385
  1536.2500      0.0000    262.6407     70.6411    158.1218
  1536.5000      0.0000    262.6638     70.5123    152.6724
  1536.7500      0.0000    262.6804     70.4126    149.0292
  1537.0000      0.0000    262.6946     70.3373    147.2361
  1537.2500      0.0000    262.7080     70.3541    147.1644
  1537.5000      0.0000    262.7791     70.4944    149.0900
  1537.7500      0.0000    263.1571     70.5918    153.4322
  1538.0000      0.0000    264.4767     70.2109    159.6904
  1538.2500      0.0000    267.8503     68.7242    165.5909
  1538.5000      0.0000    274.4168     65.6338    168.0438
  1538.7500      0.0000    284.1993     61.0790    165.5413
  1539.0000      0.0000    295.2381     56.0148    159.2411
  1539.2500      0.0000    304.4158     51.6095    151.6832
  1539.5000      0.0000    309.6484     48.4201    145.2983
  1539.7500      0.0000    311.1728     46.3094    141.9045
  1540.0000      0.0000    310.7092     44.9881    141.9709
  1540.2500      0.0000    309.8269     44.3197    143.6738
  1540.5000      0.0000    309.2043     44.1693    143.8746
  1540.7500      2.0000    308.8492     44.2599    140.9718
  1541.0000      0.0000    308.4936     44.2973    136.3080
  1541.2500      0.0000    307.7010     44.2793    132.3741
  1541.5000      0.0000    305.8159     44.7030    130.0802
  1541.7500      0.0000    302.1319     46.3705    127.9816
  1542.0000      0.0000    296.3793     49.7785    123.9180
  1542.2500      0.0000    289.0758     54.6275    117.2163
  1542.5000      0.0000    281.3047     60.0017    109.3891
  1542.7500      0.0000    274.2122     64.9502    103.0901
  1543.0000      0.0000    268.6565     68.8587    100.4565
  1543.2500      0.0000    265.0012     71.5040    101.7308
  1543.5000      0.0000    263.0419     72.9942    104.9812
  1543.7500      0.0000    262.2143     73.6466    107.5576
  1544.0000      0.0000    261.9530     73.8324    108.2069
  1544.2500      0.0000    261.9015     73.8475    107.6616
  1544.5000      0.0000    261.9036     73.8424    107.4491
  1544.7500      0.0000    261.9059     73.8493    108.8325
  1545.0000      0.0000    261.8950     73.8625    112.8749
  1545.2500      0.0000    261.8728     73.8832    120.3154
  1545.5000      0.0000    261.8524     73.9024    130.4151
  1545.7500      0.0000    261.8409     73.9126    140.3991
  1546.0000      0.0000    261.8354     73.9333    147.0918
  1546.2500      0.0000    261.8349     73.9791    149.3018
  1546.5000      0.0000    261.8462     74.0200    148.3350
  1546.7500      0.0000    261.8727     74.0149    146.5779
  1547.0000      0.0000    261.9082     73.9649    146.0764
  1547.2500      0.0000    261.9429     73.8989    147.7233
  1547.5000      0.0000    261.9700     73.8324    150.6705
  1547.7500      0.0000    261.9866     73.7631    152.5988
  1548.0000      0.0000    261.9970     73.6885    151.4023
  1548.2500      0.0000    262.0080     73.6137    147.0315
  1548.5000      0.0000    262.0201     73.5537    141.7720
  1548.7500      0.0000    262.0304     73.5157    138.8026
  1549.0000      0.0000    262.0407     73.4726    140.3107
  1549.2500      0.0000    262.0534     73.3894    146.3899
  1549.5000      0.0000    262.0626     73.2793    155.1393
  1549.7500      0.0000    262.0636     73.1790    163.7377
  1550.0000      0.0000    262.0670     73.0625    169.8543
  1550.2500      0.0000    262.0955     72.8279    172.6715
  1550.5000      0.0000    262.1674     72.3819    173.0079
  1550.7500      0.0000    262.2849     71.7201    172.3448
  1551.0000      0.0000    262.4256     70.9571    171.2918
  1551.2500      0.0000    262.5470     70.3014    169.0659
  1551.5000      0.0000    262.6129     69.9350    164.8801
  1551.7500      0.0000    262.6221     69.8629    159.3184
  1552.0000      0.0000    262.6086     69.9019    153.4535
  1552.2500      0.0000    262.6125     69.8402    147.1908
  1552.5000      0.0000    262.6506     69.6052    139.8156
  1552.7500      0.0000    262.7066     69.2941    131.9595
  1553.0000      0.0000    262.7542     69.0516    125.7496
  1553.2500      0.0000    262.7907     68.8975    122.8980
  1553.5000      0.0000    262.8402     68.7029    123.4980
  1553.7500      0.0000    262.9125     68.3853    126.6524
  1554.0000      0.0000    262.9740     68.0853    131.5410
  1554.2500      0.0000    262.9719     68.0698    137.7505
  1554.5000      0.0000    262.8853     68.4677    144.8889
  1554.7500      0.0000    262.7453     69.1421    152.1230
  1555.0000      0.0000    262.6120     69.7965    158.2321
  1555.2500      0.0000    262.5332     70.1855    162.1522
  1555.5000      0.0000    262.5165     70.2695    163.6151
  1555.7500      0.0000    262.5335     70.2095    163.4348
  1556.0000      0.0000    262.5471     70.2137    162.9170
  1556.2500      0.0000    262.5374     70.3839    162.6070
  1556.5000      0.0000    262.5025     70.6886    161.6460
  1556.7500      0.0000    262.4466     71.0453    158.3133
  1557.0000      0.0000    262.3744     71.4043    151.1476
  1557.2500      0.0000    262.2975     71.7563    140.0980
  1557.5000      0.0000    262.2352     72.0885    127.0879
  1557.7500      0.0000    262.2003     72.3659    115.1048
  1558.0000      0.0000    262.1895     72.5608    106.4379
  1558.2500      0.0000    262.1876     72.6827    101.9381
  1558.5000      0.0000    262.1791     72.7733    101.5912
  1558.7500      0.0000    262.1570     72.8740    104.8920
  1559.0000      0.0000    262.1284     72.9876    110.5003
  1559.2500      0.0000    262.1090     73.0738    116.1848
  1559.5000      0.0000    262.1094     73.0890    119.5828
  1559.7500      0.0000    262.1286     73.0216    119.3477
  1560.0000      0.0000    262.1603     72.8830    116.0524
  1560.2500      0.0000    262.1995     72.6818    111.8362
  1560.5000      0.0000    262.2478     72.4073    108.7778
  1560.7500      0.0000    262.3198     72.0290    107.6691
  1561.0000      0.0000    262.4677     71.5175    108.3201
  1561.2500      0.0000    262.8372     70.8745    110.3912
  1561.5000      0.0000    263.7622     70.1089    113.5843
  1561.7500      0.0000    265.7824     69.1506    117.3489
  1562.0000      0.0000    269.4207     67.7829    120.7489
  1562.2500      0.0000    274.8082     65.6668    122.7310
  1562.5000      0.0000    281.5359     62.4813    122.7419
  1562.7500      0.0000    288.8507     58.1878    121.1993
  1563.0000      0.0000    295.8599     53.2906    119.1101
  1563.2500      0.0000    301.6613     48.7451    117.0640
  1563.5000      0.0000    305.6584     45.3881    114.7419
  1563.7500      0.0000    307.8755     43.3960    111.7007
  1564.0000      0.0000    308.8317     42.3495    108.6941
  1564.2500      0.0000    309.0725     41.7816    107.7611
  1564.5000      0.0000    308.8114     41.6458    110.5164
