~Version Information
 VERS.                                  2.0 : CWLS LAS VERSION
 WRAP.                                   NO : WRAPING MODE
 SWARE .                 MController 2.5.0J : SOFTWARE VERSION
~Well Information
 WELL.                        Montoya 6-14R : WELL
 COMP.                       Petrogulf Corp : COMPANY
 FLD.                      Purgatoire River : FIELD
 LOC.                 SW/SW Sec 6 T33S R67W : LOCATION
 DATE.                             11/13/04 : DATE(S) LOGGED
 SRVC.       Blanco Geological Services LLC : SERVICE COMPANY
 STAT.                                   CO : STATE
 CNTY.                           Las Animas : COUNTY
 CTRY.                                  USA : COUNTRY
 API.                       05-071-08242-00 : API NUMBER
 STRT.FT                             484.00 : START DEPTH
 STOP.FT                            2180.00 : STOP DEPTH
 STEP.FT                               1.00 : DEPTH INCREMENT
 NULL.                                -9999 : NULL VALUE
~Curve information
 DEPTH.FT                                   :
 ROP.MIN/FT                                 :
 GAS.UNITS                                  :
~ASCII Log data
# ...
      1484.0         0.33         15.3 
      1485.0         0.23         15.5 
      1486.0         0.27         15.6 
      1487.0         0.35         16.2 
      1488.0         0.33         16.2 
      1489.0         0.37         15.9 
      1490.0         0.27         15.8 
      1491.0         0.23         15.3 
      1492.0         0.33         15.4 
      1493.0         0.27         15.1 
      1494.0         0.23         16.2 
      1495.0         0.43         16.2 
      1496.0         0.40         43.6 
      1497.0         0.33         58.9 
      1498.0         0.42         66.4 
      1499.0         0.27         66.5 
      1500.0         0.27         64.9 
      1501.0         0.23         63.4 
      1502.0         0.37         59.7 
      1503.0         0.37         54.9 
      1504.0         0.43         52.9 
      1505.0         0.23         46.6 
      1506.0         0.30         43.3 
      1507.0         0.23         39.7 
      1508.0         0.23         38.9 
      1509.0         0.13         36.0 
      1510.0         0.22         34.8 
      1511.0         0.17         35.5 
      1512.0         0.17         32.9 
      1513.0         0.13         30.5 
      1514.0         0.13         29.7 
      1515.0         0.13         29.7 
      1516.0         0.13         28.0 
      1517.0         0.27         28.0 
      1518.0         0.30         27.3 
      1519.0         0.30         26.2 
      1520.0         0.23         24.1 
      1521.0         0.23         22.8 
      1522.0         0.27         21.5 
      1523.0         0.20         21.3 
      1524.0         0.30         21.0 
      1525.0         0.20         20.5 
      1526.0         0.28         16.3 
      1527.0         0.53         18.3 
      1528.0         0.60         30.2 
      1529.0         0.78         49.9 
      1530.0         0.63         52.7 
      1531.0         0.47         52.6 
      1532.0         0.40         50.0 
      1533.0         0.37         46.5 
      1534.0         0.37         46.3 
      1535.0         0.30         41.5 
      1536.0         0.33         38.9 
      1537.0         0.33         36.8 
      1538.0         0.35         34.9 
      1539.0         0.37         32.9 
      1540.0         0.37         29.6 
      1541.0         0.33         28.1 
      1542.0         0.33         26.2 
      1543.0         0.30         25.4 
      1544.0         0.33         24.7 
      1545.0         0.33         23.6 
      1546.0         0.40         22.2 
      1547.0         0.42         20.3 
      1548.0         0.50         19.9 
      1549.0         0.50         18.7 
      1550.0         0.50         18.5 
      1551.0         0.43         18.9 
      1552.0         0.43         17.2 
      1553.0         0.47         17.7 
      1554.0         0.45         18.0 
      1555.0         0.30         18.0 
      1556.0         0.13         16.2 
      1557.0         0.50         18.8 
      1558.0         0.48         22.9 
      1559.0         0.57         36.6 
      1560.0         0.67         41.5 
      1561.0         0.80         42.0 
      1562.0         0.33         40.7 
      1563.0         0.30         38.4 
      1564.0         0.27         37.8 
      1565.0         0.32         36.6 
      1566.0         0.23         33.9 
      1567.0         0.27         33.5 
      1568.0         0.40         32.4 
      1569.0         0.43         31.0 
      1570.0         0.63         29.3 
      1571.0         0.37         28.4 
      1572.0         0.30         25.9 
      1573.0         0.27         23.9 
      1574.0         0.23         24.3 
      1575.0         0.25         23.0 
      1576.0         0.27         22.4 
      1577.0         0.30         22.5 
      1578.0         0.37         21.7 
      1579.0         0.33         21.6 
      1580.0         0.37         21.4 
      1581.0         0.33         20.5 
      1582.0         0.27         19.5 
      1583.0         0.27         19.0 
      1584.0         0.30         18.8 
      1585.0         0.30         18.3 
      1586.0         0.58         17.1 
      1587.0         0.43         18.9 
      1588.0         0.38         30.5 
      1589.0         0.27         34.1 
      1590.0         0.33         47.1 
      1591.0         0.40         53.5 
      1592.0         0.37         58.7 
      1593.0         0.47         58.9 
      1594.0         0.47         57.5 
      1595.0         0.40         52.8 
      1596.0         0.30         51.4 
      1597.0         0.32         49.4 
      1598.0         0.30         46.8 
      1599.0         0.27         45.8 
      1600.0         0.30         43.7 
      1601.0         0.20         41.9 
      1602.0         0.23         38.5 
      1603.0         0.23         38.8 
      1604.0         0.33         37.3 
      1605.0         0.37         35.3 
      1606.0         0.27         32.1 
      1607.0         0.33         31.4 
      1608.0         0.27         29.5 
      1609.0         0.28         28.9 
      1610.0         0.37         27.6 
      1611.0         0.33         26.7 
      1612.0         0.43         26.3 
      1613.0         0.37         24.6 
      1614.0         0.30         23.9 
      1615.0         0.30         22.4 
      1616.0         0.47         31.6 
      1617.0         0.63         48.3 
      1618.0         0.33         54.8 
      1619.0         0.38         59.0 
      1620.0         0.37         60.3 
      1621.0         0.63         59.7 
      1622.0         0.70         54.1 
      1623.0         0.27         48.2 
      1624.0         0.23         46.8 
      1625.0         0.23         44.8 
      1626.0         0.30         43.5 
      1627.0         0.30         41.0 
      1628.0         0.32         39.6 
      1629.0         0.23         37.9 
      1630.0         0.17         36.3 
      1631.0         0.23         33.8 
      1632.0         0.20         32.5 
      1633.0         0.20         30.7 
      1634.0         0.27         30.8 
      1635.0         0.30         30.2 
      1636.0         0.23         28.8 
      1637.0         0.33         27.1 
      1638.0         0.47         25.4 
      1639.0         0.53         24.1 
      1640.0         0.42         23.7 
      1641.0         0.30         22.1 
      1642.0         0.30         22.8 
      1643.0         0.37         21.3 
      1644.0         0.33         20.9 
      1645.0         0.27         21.3 
      1646.0         0.67         20.6 
      1647.0         0.67         31.1 
      1648.0         0.53         43.8 
      1649.0         0.58         48.8 
      1650.0         0.47         48.8 
      1651.0         0.43         47.3 
      1652.0         0.33         45.3 
      1653.0         0.37         42.9 
      1654.0         0.27         41.5 
      1655.0         0.30         40.2 
      1656.0         0.23         38.0 
      1657.0         0.30         36.8 
      1658.0         0.33         35.4 
      1659.0         0.35         34.4 
      1660.0         0.33         32.4 
      1661.0         0.47         30.5 
      1662.0         0.33         29.6 
      1663.0         0.30         28.1 
      1664.0         0.27         26.5 
      1665.0         0.20         25.4 
      1666.0         0.23         26.1 
      1667.0         0.30         25.2 
      1668.0         0.23         23.4 
      1669.0         0.23         23.3 
      1670.0         0.45         22.1 
      1671.0         0.40         22.7 
      1672.0         0.40         21.7 
      1673.0         0.27         20.1 
      1674.0         0.27         20.3 
      1675.0         0.33         30.5 
      1676.0         0.95        160.2 
      1677.0         0.07         62.2 
      1678.0         0.57         59.3 
      1679.0         0.63         28.8 
      1680.0         0.57         21.8 
      1681.0         1.78         24.3 
      1682.0         1.30         22.2 
      1683.0         0.90         19.3 
