~Version Information
VERS.                      2.0: CWLS Log ASCII Standard - VERSION 2.0
WRAP.                       NO: One line per depth step
~Well Information Block
STRT.FT               819.0000: 
STOP.FT              2497.0000: 
STEP.FT                 0.2500: 
NULL.                -999.2500: 
COMP.          Petrogulf Corporation: COMPANY
WELL.             State 16-21V: WELL
FLD.           Purgatorie River: FIELD
LOC.           1738' FWL & 332' FNL: LOCATION
PROV.                 Colorado: PROVINCE
CNTY.               Las Animas: COUNTRY
SRVC.          Patterson Wireline: SERVICE COMPANY
DATE.          Sun Jul 13 13:45:48 2003: LOG DATE
UWI.              05-071-07884: UNIQUE WELL ID 05 071 08829 00
~Curve Information Block
DEPT.FT            0 000 00 00: Depth
DCAL.in                       : CDL Caliper
RHOB.g/cc                     : CDL Bulk Density
RHOC.g/cc                     : CDL Density Correction
DPOR.pu                       : CDL Density Porosity
GR.GAPI                       : Gamma Ray
NPOR.pu                       : Neutron Porosity
~Parameter Information Block
~A  Depth       DCAL        RHOB        RHOC        DPOR         GR         NPOR    
# ...
  1827.0000      7.9338      2.5805      0.0575      4.2094     44.0711     15.0830
  1827.2500      7.9347      2.5767      0.0526      4.4408     41.9475     14.6981
  1827.5000      7.9398      2.5711      0.0450      4.7794     39.9909     14.4087
  1827.7500      7.9479      2.5671      0.0402      5.0243     39.5712     14.3701
  1828.0000      7.9526      2.5604      0.0351      5.4290     39.3742     14.5195
  1828.2500      7.9514      2.5559      0.0337      5.7030     38.9559     14.7450
  1828.5000      7.9492      2.5501      0.0352      6.0541     37.9752     15.2062
  1828.7500      7.9489      2.5476      0.0385      6.2081     37.6954     15.5316
  1829.0000      7.9482      2.5464      0.0463      6.2818     38.6140     15.9511
  1829.2500      7.9438      2.5472      0.0529      6.2319     39.9317     16.1636
  1829.5000      7.9357      2.5500      0.0635      6.0587     41.9242     16.3688
  1829.7500      7.9269      2.5524      0.0702      5.9149     42.7783     16.4126
  1830.0000      7.9170      2.5558      0.0785      5.7068     43.2609     16.3505
  1830.2500      7.9096      2.5578      0.0823      5.5873     43.3358     16.2960
  1830.5000      7.9129      2.5602      0.0848      5.4422     43.8101     16.3618
  1830.7500      7.9247      2.5615      0.0837      5.3632     44.8959     16.5452
  1831.0000      7.9319      2.5635      0.0773      5.2452     48.7548     16.9777
  1831.2500      7.9325      2.5652      0.0716      5.1402     53.3751     17.3391
  1831.5000      7.9327      2.5692      0.0678      4.8990     63.7099     18.0343
  1831.7500      7.9341      2.5728      0.0727      4.6813     72.5369     18.6562
  1832.0000      7.9346      2.5784      0.0917      4.3414     87.2928     19.8685
  1832.2500      7.9329      2.5810      0.1068      4.1797     97.0050     20.8264
  1832.5000      7.9266      2.5817      0.1206      4.1408    109.3625     22.3273
  1832.7500      7.9296      2.5797      0.1197      4.2590    115.3337     23.2508
  1833.0000      7.9563      2.5749      0.1055      4.5545    120.9318     24.3684
  1833.2500      7.9802      2.5719      0.0928      4.7355    123.1974     24.9089
  1833.5000      7.9886      2.5702      0.0767      4.8391    125.8352     25.4232
  1833.7500      7.9957      2.5715      0.0693      4.7553    127.3196     25.5593
  1834.0000      8.0085      2.5772      0.0611      4.4106    128.3833     25.4289
  1834.2500      8.0231      2.5828      0.0564      4.0729    127.7925     25.1465
  1834.5000      8.0307      2.5924      0.0507      3.4919    124.9643     24.5448
  1834.7500      8.0299      2.5987      0.0488      3.1089    122.2932     24.0879
  1835.0000      8.0288      2.6067      0.0490      2.6240    117.9806     23.4307
  1835.2500      8.0289      2.6105      0.0500      2.3931    115.0675     23.1152
  1835.5000      8.0198      2.6138      0.0515      2.1964    110.4401     22.9999
  1835.7500      7.9941      2.6146      0.0525      2.1450    107.0637     23.1643
  1836.0000      7.9628      2.6148      0.0554      2.1310    101.8539     23.5735
  1836.2500      7.9483      2.6148      0.0588      2.1337     98.8031     23.8056
  1836.5000      7.9487      2.6150      0.0643      2.1225     95.8307     23.9585
  1836.7500      7.9486      2.6155      0.0669      2.0918     95.0307     23.9480
  1837.0000      7.9465      2.6172      0.0684      1.9907     94.6115     23.8910
  1837.2500      7.9485      2.6190      0.0691      1.8812     93.9496     23.8814
  1837.5000      7.9522      2.6223      0.0709      1.6792     91.4371     23.8493
  1837.7500      7.9536      2.6242      0.0718      1.5609     88.8619     23.7078
  1838.0000      7.9539      2.6251      0.0705      1.5068     84.5843     23.2026
  1838.2500      7.9546      2.6235      0.0680      1.6058     81.9946     22.7186
  1838.5000      7.9551      2.6169      0.0638      2.0080     78.8425     21.9535
  1838.7500      7.9542      2.6096      0.0619      2.4477     77.0457     21.4756
  1839.0000      7.9534      2.5950      0.0604      3.3309     74.0029     20.7426
  1839.2500      7.9542      2.5835      0.0595      4.0327     71.2179     20.1537
  1839.5000      7.9591      2.5647      0.0572      5.1711     65.4999     19.0004
  1839.7500      7.9679      2.5522      0.0553      5.9293     60.8796     18.0470
  1840.0000      7.9772      2.5350      0.0526      6.9688     53.6418     16.4822
  1840.2500      7.9821      2.5253      0.0511      7.5564     49.2506     15.5059
  1840.5000      7.9825      2.5138      0.0488      8.2554     44.3772     14.4053
  1840.7500      7.9818      2.5079      0.0467      8.6107     42.6486     13.9900
  1841.0000      7.9830      2.5012      0.0430      9.0205     42.1203     13.8280
  1841.2500      7.9876      2.4975      0.0410      9.2398     42.5819     13.9719
  1841.5000      7.9938      2.4928      0.0396      9.5253     43.4937     14.4177
  1841.7500      7.9971      2.4900      0.0392      9.6950     43.9784     14.7371
  1842.0000      7.9966      2.4867      0.0378      9.8970     44.5445     15.0092
  1842.2500      7.9950      2.4856      0.0369      9.9652     44.8065     14.9993
  1842.5000      7.9946      2.4865      0.0390      9.9117     44.6926     14.8308
  1842.7500      7.9908      2.4889      0.0440      9.7626     44.1736     14.7402
  1843.0000      7.9834      2.4944      0.0558      9.4293     43.3116     14.7338
  1843.2500      7.9751      2.4979      0.0647      9.2180     43.2696     14.7927
  1843.5000      7.9641      2.4994      0.0763      9.1266     44.3671     14.9050
  1843.7500      7.9565      2.4956      0.0813      9.3600     45.4323     14.9699
  1844.0000      7.9556      2.4786      0.0822     10.3903     46.4997     15.0512
  1844.2500      7.9579      2.4582      0.0775     11.6224     46.7914     15.1531
  1844.5000      7.9631      2.4148      0.0625     14.2534     47.6411     15.6256
  1844.7500      7.9663      2.3803      0.0501     16.3450     49.1988     16.3307
  1845.0000      7.9615      2.3299      0.0390     19.3976     53.3791     18.1161
  1845.2500      7.9570      2.3042      0.0447     20.9557     57.0462     19.6974
  1845.5000      7.9576      2.2873      0.0749     21.9829     62.8648     22.2147
  1845.7500      7.9641      2.2929      0.1007     21.6438     66.4156     23.6699
  1846.0000      7.9894      2.3241      0.1276     19.7520     70.7010     25.0884
  1846.2500      8.0332      2.3555      0.1314     17.8458     72.8149     25.4287
  1846.5000      8.0518      2.4088      0.1207     14.6207     75.1739     25.1676
  1846.7500      8.0233      2.4430      0.1111     12.5477     76.5109     24.6828
  1847.0000      7.9689      2.4862      0.1049      9.9283     78.6334     23.8807
  1847.2500      7.9169      2.5080      0.1069      8.6082     80.1856     23.4702
  1847.5000      7.8921      2.5301      0.1112      7.2684     82.3371     23.1714
  1847.7500      7.8892      2.5388      0.1109      6.7383     83.3054     23.1468
  1848.0000      7.8955      2.5457      0.1054      6.3226     83.6968     23.1679
  1848.2500      7.9067      2.5478      0.1012      6.1914     83.3057     23.1131
  1848.5000      7.9111      2.5503      0.0980      6.0440     82.0814     22.9346
  1848.7500      7.9032      2.5526      0.0985      5.9054     80.9306     22.8574
  1849.0000      7.8967      2.5580      0.1021      5.5758     78.6301     22.9620
  1849.2500      7.8952      2.5629      0.1047      5.2774     76.8340     23.1589
  1849.5000      7.8989      2.5716      0.1051      4.7543     74.5471     23.4133
  1849.7500      7.9063      2.5776      0.1029      4.3874     73.8209     23.3980
  1850.0000      7.9183      2.5862      0.0987      3.8664     74.0112     22.9755
  1850.2500      7.9321      2.5909      0.0971      3.5794     74.3727     22.4650
  1850.5000      7.9363      2.5950      0.0949      3.3329     73.8193     21.5196
  1850.7500      7.9313      2.5948      0.0905      3.3476     72.3831     20.8864
