~Version Information
VERS.                      2.0: CWLS Log ASCII Standard - VERSION 2.0
WRAP.                       NO: One line per depth step
~Well Information Block
STRT.FT                -3.0000: 
STOP.FT              1679.2500: 
STEP.FT                 0.2500: 
NULL.                -999.2500: 
COMP.          Evergreen Operating Corp.: COMPANY
WELL.            Rimrock 14-29: WELL
FLD.           Purgatorie River: FIELD
LOC.           945' FSL & 604' FWL--: LOCATION
PROV.                       CO: PROVINCE
CNTY.               Las Animas: COUNTRY
SRVC.                         : SERVICE COMPANY
DATE.          Mon Oct 04 13:02:21 2004: LOG DATE
UWI.           05 071 08136 00: UNIQUE WELL ID
~Curve Information Block
DEPT.FT            0 000 00 00: Depth
GR.GAPI                       : Gamma Ray
CCL.                          : Casing Collar Locator
TT3.usec                      : CBL 3' Travel Time
AMP3.mV                       : CBL 3' Amplitude
~Parameter Information Block
~A  Depth        GR         CCL         TT3         AMP3    
# ...
   332.0000     60.6336      0.0000    731.7145      6.9052
   332.2500     65.1561      0.0000    726.1046      6.5506
   332.5000     68.6789      0.0000    723.1622      6.2031
   332.7500     71.2130      0.0000    722.0599      5.8510
   333.0000     73.2587      0.0000    721.9023      5.4953
   333.2500     75.5580      0.0000    722.1397      5.1526
   333.5000     78.6289      0.0000    722.4891      4.8484
   333.7500     82.5652      0.0000    722.7598      4.6112
   334.0000     87.2641      0.0000    722.8178      4.4587
   334.2500     92.6068      0.0000    722.6411      4.3840
   334.5000     98.3495      0.0000    722.3361      4.3603
   334.7500    103.9799      0.0000    722.0692      4.3599
   335.0000    108.7911      0.0000    721.9785      4.3663
   335.2500    112.2281      0.0000    722.1272      4.3711
   335.5000    114.2097      0.0000    722.4993      4.3741
   335.7500    114.9243      0.0000    723.0087      4.3876
   336.0000    114.2871      0.0000    723.5271      4.4356
   336.2500    111.9817      0.0000    723.9542      4.5438
   336.5000    108.2151      0.0000    724.3153      4.7250
   336.7500    104.0089      0.0000    724.8502      4.9698
   337.0000    100.4557      0.0000    726.1057      5.2516
   337.2500     98.0081      0.0000    728.9419      5.5455
   337.5000     96.6547      0.0000    734.1281      5.8448
   337.7500     96.3215      0.0000    741.4471      6.1607
   338.0000     96.7865      0.0000    749.0517      6.5058
   338.2500     97.4638      0.0000    754.0700      6.8747
   338.5000     97.6603      0.0000    754.3569      7.2377
   338.7500     97.0461      0.0000    750.0216      7.5571
   339.0000     95.7803      0.0000    743.4659      7.8109
   339.2500     94.3169      0.0000    737.8201      7.9972
   339.5000     93.2686      0.0000    734.8863      8.1169
   339.7500     93.3058      0.0000    734.1589      8.1636
   340.0000     94.7540      0.0000    733.7157      8.1325
   340.2500     97.1984      0.0000    732.1320      8.0308
   340.5000     99.8587      0.0000    729.5587      7.8745
   340.7500    102.4035      0.0000    727.0975      7.6780
   341.0000    104.8370      0.0000    725.5587      7.4510
   341.2500    106.6716      0.0000    724.9767      7.2036
   341.5000    107.1656      0.0000    724.9418      6.9493
   341.7500    106.5312      0.0000    725.0479      6.7020
   342.0000    105.8995      0.0000    725.0850      6.4681
   342.2500    105.7777      0.0000    725.0284      6.2455
   342.5000    105.3834      0.0000    724.9435      6.0299
   342.7500    103.7620      0.0000    724.8787      5.8214
   343.0000    100.8582      0.0000    724.8037      5.6216
   343.2500     97.2986      0.0000    724.6207      5.4321
   343.5000     93.6751      0.0000    724.3480      5.2659
   343.7500     90.2751      0.0000    724.7811      5.1587
   344.0000     87.4101      0.0000    728.6105      5.1613
   344.2500     85.7857      0.0000    740.6934      5.3086
   344.5000     86.1024      0.0000    764.8209      5.5900
   344.7500     88.0948      0.0000    797.3748      5.9451
   345.0000     90.2249      0.0000    824.9911      6.2909
   345.2500     90.6862      0.0000    832.8348      6.5645
   345.5000     88.8612      0.0000    817.2283      6.7526
   345.7500     85.8131      0.0000    788.3732      6.8877
   346.0000     83.3988      0.0000    760.8875      7.0141
   346.2500     82.9886      0.0000    744.2810      7.1486
   346.5000     84.8888      0.0000    741.9172      7.2658
   346.7500     88.5162      0.0000    753.9176      7.3195
   347.0000     92.7698      0.0000    776.5924      7.2731
   347.2500     96.4196      0.0000    799.6466      7.1149
   347.5000     98.5387      0.0000    809.3746      6.8552
   347.7500     98.8318      0.0000    799.2000      6.5188
   348.0000     97.8286      0.0000    775.7476      6.1395
   348.2500     96.7636      0.0000    752.2346      5.7503
   348.5000     96.8233      0.0000    737.8563      5.3843
   348.7500     98.1993      0.0000    735.8916      5.0938
   349.0000    100.0329      0.0000    749.6106      4.9453
   349.2500    101.3355      0.0000    785.1244      4.9533
   349.5000    101.6410      0.0000    844.7967      5.0353
   349.7500    100.7806      0.0000    918.0797      5.0826
   350.0000     98.6064      0.0000    983.5931      5.0674
   350.2500     95.2680      0.0000   1024.3105      5.0430
   350.5000     91.5171      0.0000   1040.3873      5.0590
   350.7500     88.3932      0.0000   1045.7917      5.1201
   351.0000     86.6122      2.0000   1052.7555      5.2184
   351.2500     86.3912      2.0000   1059.8348      5.3846
   351.5000     87.6911      0.0000   1054.4053      5.6962
   351.7500     90.2934      0.0000   1025.3616      6.2091
   352.0000     93.5910      0.0000    972.4515      6.8575
   352.2500     96.5238      0.0000    905.3465      7.4580
   352.5000     97.8371      0.0000    837.3420      7.8643
   352.7500     96.4935      0.0000    780.4285      8.0855
   353.0000     92.1747      0.0000    742.1552      8.2201
   353.2500     85.6922      0.0000    723.3123      8.3291
   353.5000     78.8785      0.0000    718.4745      8.4145
   353.7500     73.7885      0.0000    720.2525      8.4699
   354.0000     71.5777      0.0000    723.7976      8.4984
   354.2500     71.7726      0.0000    727.9612      8.4963
   354.5000     72.6344      0.0000    733.3582      8.4449
   354.7500     72.5492      0.0000    739.8917      8.3274
   355.0000     71.2669      0.0000    745.6732      8.1513
   355.2500     69.6950      0.0000    748.0549      7.9549
   355.5000     68.5577      0.0000    745.7609      7.7839
   355.7500     67.5752      0.0000    740.0518      7.6647
   356.0000     66.0722      0.0000    733.7085      7.6012
   356.2500     64.0737      0.0000    729.1744      7.5880
   356.5000     62.4818      0.0000    727.9777      7.6172
   356.7500     62.3484      0.0000    731.7948      7.6746
   357.0000     64.2410      0.0000    743.1417      7.7367
   357.2500     68.0358      0.0000    763.3320      7.7762
   357.5000     72.8629      0.0000    788.5689      7.7796
   357.7500     77.3669      0.0000    809.3651      7.7655
   358.0000     80.4321      0.0000    816.9185      7.7800
   358.2500     81.6152      0.0000    811.0836      7.8653
   358.5000     80.8402      0.0000    800.9263      8.0287
   358.7500     78.2423      0.0000    797.4641      8.2418
   359.0000     74.7958      0.0000    806.2878      8.4634
   359.2500     72.6256      0.0000    825.6935      8.6592
   359.5000     73.9078      0.0000    850.0004      8.8069
   359.7500     79.1190      0.0000    873.9528      8.8950
   360.0000     86.4174      0.0000    894.5042      8.9247
   360.2500     92.8668      0.0000    910.7611      8.9116
   360.5000     96.4843      0.0000    924.6741      8.8810
   360.7500     97.4724      0.0000    939.8459      8.8517
   361.0000     97.6685      0.0000    956.8861      8.8225
   361.2500     98.6840      0.0000    971.6258      8.7771
   361.5000    100.4441      0.0000    979.7647      8.7072
   361.7500    101.4570      0.0000    981.7145      8.6262
   362.0000    100.2295      0.0000    981.6406      8.5591
   362.2500     96.4170      0.0000    982.8495      8.5247
   362.5000     91.0158      0.0000    984.6986      8.5294
   362.7500     85.5303      0.0000    982.7054      8.5669
   363.0000     80.7475      0.0000    971.6003      8.6192
   363.2500     76.4516      0.0000    951.2023      8.6621
   363.5000     72.4866      0.0000    930.4530      8.6771
   363.7500     69.6563      0.0000    922.2714      8.6626
   364.0000     69.2536      0.0000    932.3903      8.6377
   364.2500     71.8661      0.0000    955.4065      8.6359
   364.5000     76.7695      0.0000    981.9314      8.6841
   364.7500     82.3755      0.0000   1005.6207      8.7793
   365.0000     87.1767      0.0000   1021.9380      8.8843
   365.2500     90.2162      0.0000   1023.5622      8.9510
