~Version Information
VERS.                      2.0: CWLS Log ASCII Standard - VERSION 2.0
WRAP.                       NO: One line per depth step
~Well Information Block
STRT.FT               577.8000: 
STOP.FT              2445.8000: 
STEP.FT                 0.1000: 
NULL.                -999.2500: 
COMP.          Petrogulf Corporation: COMPANY
WELL.             State 16-32V: WELL
FLD.           Purgatorie River: FIELD
LOC.           1599' FNL & 1783' FEL: LOCATION
CNTY.               Las Animas: COUNTY
SRVC.                         : SERVICE COMPANY
DATE.          Thu Jun 05 16:36:04 2003: LOG DATE
UWI.           05 071 07726 00: UNIQUE WELL ID
STAT.                 Colorado: STATE
~Curve Information Block
DEPT.FT            0 000 00 00: Depth
DCAL.in                       : Caliper from Density Tool
RHOB.g/cc                     : Bulk Density
RHOC.g/cc                     : Density Correction
DPOR.pu                       : Density Porosity
GR.GAPI                       : Gamma Ray
NPOR.pu                       : Neutron Porosity
~Parameter Information Block
~A  Depth       DCAL        RHOB        RHOC        DPOR         GR         NPOR    
# ...
  2181.0000      7.9915      1.5473      0.0513     66.8294     72.9768     34.0210
  2181.1000      7.9915      1.5473      0.0513     66.8294     71.1906     34.2015
  2181.2000      7.9915      1.5473      0.0513     66.8294     69.3311     34.3338
  2181.3000      8.1358      1.4851      0.0335     70.5982     67.4372     34.4278
  2181.4000      8.1358      1.4851      0.0335     70.5982     65.5424     34.4954
  2181.5000      8.1929      1.4628      0.0250     71.9529     63.6736     34.5488
  2181.6000      8.1929      1.4628      0.0250     71.9529     61.8529     34.5986
  2181.7000      8.1929      1.4628      0.0250     71.9529     60.0979     34.6528
  2181.8000      8.1086      1.4597      0.0185     72.1422     58.4248     34.7161
  2181.9000      8.1086      1.4597      0.0185     72.1422     56.8503     34.7893
  2182.0000      8.0582      1.4787      0.0171     70.9870     55.3965     34.8698
  2182.1000      8.0582      1.4787      0.0171     70.9870     54.0933     34.9516
  2182.2000      8.0582      1.4787      0.0171     70.9870     52.9805     35.0264
  2182.3000      8.1500      1.5404      0.0165     67.2479     52.1079     35.0840
  2182.4000      8.1500      1.5404      0.0165     67.2479     51.5324     35.1139
  2182.5000      8.3818      1.6041      0.0161     63.3893     51.3141     35.1055
  2182.6000      8.3818      1.6041      0.0161     63.3893     51.5053     35.0495
  2182.7000      8.3818      1.6041      0.0161     63.3893     52.1454     34.9383
  2182.8000      8.6160      1.7319      0.0162     55.6453     53.2522     34.7666
  2182.9000      8.6160      1.7319      0.0162     55.6453     54.8169     34.5318
  2183.0000      8.7206      1.8347      0.0177     49.4148     56.7999     34.2339
  2183.1000      8.7206      1.8347      0.0177     49.4148     59.1365     33.8763
  2183.2000      8.7206      1.8347      0.0177     49.4148     61.7401     33.4654
  2183.3000      8.6541      2.0008      0.0225     39.3457     64.5132     33.0102
  2183.4000      8.6541      2.0008      0.0225     39.3457     67.3593     32.5224
  2183.5000      8.5827      2.1074      0.0263     32.8874     70.1888     32.0151
  2183.6000      8.5827      2.1074      0.0263     32.8874     72.9302     31.5023
  2183.7000      8.5827      2.1074      0.0263     32.8874     75.5302     30.9968
  2183.8000      8.6633      2.2417      0.0307     24.7426     77.9537     30.5096
  2183.9000      8.6633      2.2417      0.0307     24.7426     80.1802     30.0482
  2184.0000      8.7107      2.3093      0.0321     20.6486     82.1966     29.6163
  2184.1000      8.7107      2.3093      0.0321     20.6486     83.9932     29.2135
  2184.2000      8.7107      2.3093      0.0321     20.6486     85.5619     28.8362
  2184.3000      8.5853      2.3808      0.0326     16.3176     86.8939     28.4786
  2184.4000      8.5853      2.3808      0.0326     16.3176     87.9843     28.1347
  2184.5000      8.3626      2.4135      0.0324     14.3353     88.8339     27.7992
  2184.6000      8.3626      2.4135      0.0324     14.3353     89.4533     27.4693
  2184.7000      8.3626      2.4135      0.0324     14.3353     89.8622     27.1451
  2184.8000      8.2794      2.4474      0.0314     12.2772     90.0891     26.8296
  2184.9000      8.2794      2.4474      0.0314     12.2772     90.1671     26.5281
  2185.0000      8.2908      2.4628      0.0301     11.3471     90.1304     26.2471
  2185.1000      8.2908      2.4628      0.0301     11.3471     90.0090     25.9933
  2185.2000      8.2908      2.4628      0.0301     11.3471     89.8284     25.7721
  2185.3000      8.2578      2.4783      0.0275     10.4076     89.6063     25.5873
  2185.4000      8.2578      2.4783      0.0275     10.4076     89.3577     25.4398
  2185.5000      8.2079      2.4852      0.0260      9.9888     89.0940     25.3282
  2185.6000      8.2079      2.4852      0.0260      9.9888     88.8279     25.2492
  2185.7000      8.2079      2.4852      0.0260      9.9888     88.5729     25.1981
  2185.8000      8.1896      2.4924      0.0251      9.5528     88.3439     25.1694
  2185.9000      8.1896      2.4924      0.0251      9.5528     88.1550     25.1575
  2186.0000      8.1549      2.4959      0.0254      9.3415     88.0171     25.1575
  2186.1000      8.1549      2.4959      0.0254      9.3415     87.9340     25.1646
  2186.2000      8.1549      2.4959      0.0254      9.3415     87.9009     25.1747
  2186.3000      8.0927      2.5003      0.0271      9.0703     87.9050     25.1842
  2186.4000      8.0927      2.5003      0.0271      9.0703     87.9247     25.1898
  2186.5000      8.0705      2.5035      0.0287      8.8790     87.9348     25.1885
  2186.6000      8.0705      2.5035      0.0287      8.8790     87.9097     25.1778
  2186.7000      8.0705      2.5035      0.0287      8.8790     87.8307     25.1563
  2186.8000      8.0794      2.5091      0.0319      8.5369     87.6883     25.1234
  2186.9000      8.0794      2.5091      0.0319      8.5369     87.4880     25.0804
  2187.0000      8.1070      2.5133      0.0345      8.2868     87.2492     25.0300
  2187.1000      8.1070      2.5133      0.0345      8.2868     87.0077     24.9760
  2187.2000      8.1070      2.5133      0.0345      8.2868     86.8056     24.9230
  2187.3000      8.1743      2.5186      0.0387      7.9660     86.6897     24.8757
  2187.4000      8.1743      2.5186      0.0387      7.9660     86.6984     24.8381
  2187.5000      8.2079      2.5205      0.0415      7.8476     86.8585     24.8125
  2187.6000      8.2079      2.5205      0.0415      7.8476     87.1782     24.7998
  2187.7000      8.2079      2.5205      0.0415      7.8476     87.6427     24.7988
  2187.8000      8.1498      2.5202      0.0450      7.8667     88.2189     24.8065
  2187.9000      8.1498      2.5202      0.0450      7.8667     88.8564     24.8188
  2188.0000      8.0950      2.5180      0.0467      7.9982     89.4959     24.8309
  2188.1000      8.0950      2.5180      0.0467      7.9982     90.0756     24.8381
  2188.2000      8.0950      2.5180      0.0467      7.9982     90.5372     24.8365
  2188.3000      8.0694      2.5132      0.0485      8.2892     90.8326     24.8236
  2188.4000      8.0694      2.5132      0.0485      8.2892     90.9271     24.7985
  2188.5000      8.0328      2.5101      0.0497      8.4758     90.8012     24.7621
  2188.6000      8.0328      2.5101      0.0497      8.4758     90.4513     24.7173
  2188.7000      8.0328      2.5101      0.0497      8.4758     89.8909     24.6682
  2188.8000      8.0353      2.5078      0.0526      8.6178     89.1494     24.6203
  2188.9000      8.0353      2.5078      0.0526      8.6178     88.2699     24.5794
  2189.0000      8.0763      2.5088      0.0561      8.5590     87.3064     24.5513
  2189.1000      8.0763      2.5088      0.0561      8.5590     86.3195     24.5414
  2189.2000      8.0763      2.5088      0.0561      8.5590     85.3706     24.5540
  2189.3000      8.0866      2.5148      0.0634      8.1927     84.5147     24.5924
  2189.4000      8.0866      2.5148      0.0634      8.1927     83.7954     24.6585
  2189.5000      8.0395      2.5217      0.0690      7.7771     83.2375     24.7525
  2189.6000      8.0395      2.5217      0.0690      7.7771     82.8478     24.8729
  2189.7000      8.0395      2.5217      0.0690      7.7771     82.6124     25.0165
  2189.8000      8.0331      2.5348      0.0758      6.9810     82.5038     25.1778
  2189.9000      8.0331      2.5348      0.0758      6.9810     82.4839     25.3500
  2190.0000      8.0817      2.5443      0.0782      6.4066     82.5121     25.5244
  2190.1000      8.0817      2.5443      0.0782      6.4066     82.5505     25.6921
  2190.2000      8.0817      2.5443      0.0782      6.4066     82.5702     25.8440
  2190.3000      8.1110      2.5572      0.0778      5.6229     82.5509     25.9720
  2190.4000      8.1110      2.5572      0.0778      5.6229     82.4830     26.0700
  2190.5000      8.0806      2.5634      0.0757      5.2478     82.3665     26.1340
