~Version Information
VERS.                      2.0: CWLS Log ASCII Standard - VERSION 2.0
WRAP.                       NO: One line per depth step
~Well Information Block
STRT.FT                -9.7500: 
STOP.FT              2612.5000: 
STEP.FT                 0.2500: 
NULL.                -999.2500: 
COMP.                         : COMPANY
WELL.                         : WELL
FLD.                          : FIELD
LOC.                          : LOCATION
CNTY.                         : COUNTY
SRVC.                         : SERVICE COMPANY
DATE.          Mon Nov 17 14:56:03 2003: LOG DATE
UWI.                          : UNIQUE WELL ID
STAT.                         : STATE
~Curve Information Block
DEPT.FT            0 000 00 00: Depth
CCL.                          : Casing Collar Locator
TT3.usec                      : CBL 3' Travel Time
AMP3.mV                       : CBL 3' Amplitude
GR.GAPI                       : Gamma Ray
~Parameter Information Block
~A  Depth       CCL         TT3         AMP3         GR     
# ...
   157.7500      0.0000    260.6487     84.2806     93.5954
   158.0000      0.0000    260.7523     84.1157     98.3561
   158.2500      0.0000    260.8193     84.0267    101.7983
   158.5000      0.0000    260.8424     84.0291    102.3943
   158.7500      0.0000    260.8337     84.0929    100.5476
   159.0000      0.0000    260.8024     84.1838     97.8803
   159.2500      0.0000    260.7476     84.2842     95.5582
   159.5000      0.0000    260.6707     84.3775     93.7090
   159.7500      0.0000    260.5818     84.4452     91.9541
   160.0000      0.0000    260.4914     84.4885     89.9220
   160.2500      0.0000    260.4041     84.5341     87.6272
   160.5000      0.0000    260.3258     84.6032     85.8221
   160.7500      0.0000    260.2715     84.6831     85.5883
   161.0000      0.0000    260.2598     84.7373     87.2833
   161.2500      0.0000    260.2957     84.7401     90.1050
   161.5000      0.0000    260.3639     84.7019     92.8162
   161.7500      0.0000    260.4398     84.6577     94.7120
   162.0000      0.0000    260.5085     84.6299     95.9373
   162.2500      0.0000    260.5645     84.6162     97.1433
   162.5000      0.0000    260.5947     84.6158     98.9921
   162.7500      0.0000    260.5796     84.6408    101.8491
   163.0000      0.0000    260.5173     84.6960    105.6813
   163.2500      0.0000    260.4317     84.7731    109.8843
   163.5000      0.0000    260.3528     84.8709    113.0924
   163.7500      0.0000    260.2985     84.9994    113.7586
   164.0000      0.0000    260.2778     85.1506    111.7802
   164.2500      0.0000    260.2962     85.2790    109.4325
   164.5000      0.0000    260.3499     85.3263    109.7880
   164.7500      0.0000    260.4207     85.2640    113.8540
   165.0000      0.0000    260.4855     85.1071    119.5929
   165.2500      0.0000    260.5262     84.9046    123.8182
   165.5000      0.0000    260.5279     84.7310    124.8766
   165.7500      0.0000    260.4794     84.6633    123.6293
   166.0000      0.0000    260.3864     84.7305    122.3027
   166.2500      0.0000    260.2754     84.8860    122.5454
   166.5000      0.0000    260.1784     85.0514    124.3297
   166.7500      0.0000    260.1169     85.1791    126.4769
   167.0000      0.0000    260.1028     85.2573    128.1575
   167.2500      0.0000    260.1425     85.2783    129.7806
   167.5000      0.0000    260.2287     85.2406    132.3052
   167.7500      0.0000    260.3306     85.1761    135.6795
   168.0000      0.0000    260.4093     85.1342    138.2190
   168.2500      0.0000    260.4457     85.1259    137.7605
   168.5000      0.0000    260.4456     85.1098    133.3721
   168.7500      0.0000    260.4160     85.0528    126.0363
   169.0000      0.0000    260.3531     84.9838    118.1327
   169.2500      0.0000    260.2606     84.9667    112.2445
   169.5000      0.0000    260.1666     85.0297    109.8059
   169.7500      0.0000    260.1086     85.1349    110.5567
   170.0000      0.0000    260.1056     85.2134    113.3297
   170.2500      0.0000    260.1438     85.2295    117.1939
   170.5000      0.0000    260.1877     85.2091    121.7177
   170.7500      0.0000    260.2087     85.2029    126.6016
   171.0000      0.0000    260.2036     85.2358    131.4452
   171.2500      0.0000    260.1852     85.3000    135.6534
   171.5000      0.0000    260.1660     85.3741    138.5071
   171.7500      0.0000    260.1626     85.4269    139.8487
   172.0000      0.0000    260.2345     85.4035    140.7115
   172.2500      0.0000    260.5738     85.1891    142.6202
   172.5000      0.0000    261.6305     84.5470    146.1503
   172.7500      0.0000    264.1129     83.1137    150.4399
   173.0000      0.0000    268.5808     80.6106    153.9261
   173.2500      0.0000    274.7769     77.1661    155.3393
   173.5000      0.0000    281.5298     73.3158    154.3686
   173.7500      0.0000    287.6768     69.5461    151.8281
   174.0000      0.0000    292.9495     65.9856    149.1363
   174.2500      0.0000    297.6318     62.7003    147.2376
   174.5000      0.0000    301.6772     60.0135    145.6035
   174.7500      0.0000    304.6646     58.2604    142.3621
   175.0000      0.0000    306.4061     57.3987    135.9695
   175.2500      2.0000    307.1373     57.0805    127.1740
   175.5000     -2.0000    307.1425     57.0094    119.2034
   175.7500     -2.0000    306.3900     57.1502    115.6415
   176.0000      0.0000    304.5498     57.6896    117.7634
   176.2500      0.0000    301.3925     58.8422    123.8624
   176.5000      0.0000    297.1680     60.6540    131.0557
   176.7500      0.0000    292.3808     63.0546    137.4625
   177.0000      0.0000    287.1309     66.1337    142.8911
   177.2500      0.0000    281.1236     70.0694    148.2415
   177.5000      0.0000    274.5623     74.5812    154.4527
   177.7500      0.0000    268.5393     78.7589    161.4178
   178.0000      0.0000    264.1940     81.7225    167.5845
   178.2500      0.0000    261.7928     83.2911    171.0072
   178.5000      0.0000    260.7924     83.9101    171.1410
   178.7500      0.0000    260.4800     84.1377    169.4765
   179.0000      0.0000    260.3893     84.2987    168.2039
   179.2500      0.0000    260.3288     84.4638    168.5422
   179.5000      0.0000    260.2679     84.5824    170.5293
   179.7500      0.0000    260.2308     84.6094    173.5597
   180.0000      0.0000    260.2379     84.5422    176.4825
   180.2500      0.0000    260.2836     84.4019    178.1025
   180.5000      0.0000    260.3342     84.2299    178.3223
   180.7500      0.0000    260.3513     84.0934    178.0265
   181.0000      0.0000    260.3235     84.0555    177.3633
   181.2500      0.0000    260.2773     84.1207    175.0555
   181.5000      0.0000    260.2549     84.2200    170.0280
   181.7500      0.0000    260.2821     84.2668    162.9574
   182.0000      0.0000    260.3490     84.2312    155.7168
   182.2500      0.0000    260.4162     84.1576    149.9041
   182.5000      0.0000    260.4441     84.1149    146.0774
   182.7500      0.0000    260.4222     84.1403    143.7815
   183.0000      0.0000    260.3722     84.2249    142.0440
   183.2500      0.0000    260.3280     84.3259    140.1856
   183.5000      0.0000    260.3157     84.3872    138.3942
   183.7500      0.0000    260.3394     84.3749    137.3776
   184.0000      0.0000    260.3784     84.3103    137.3301
   184.2500      0.0000    260.4046     84.2514    137.3204
   184.5000      0.0000    260.4100     84.2349    135.7867
   184.7500      0.0000    260.4094     84.2479    131.7286
   185.0000      0.0000    260.4209     84.2541    125.5055
   185.2500      0.0000    260.4496     84.2366    118.4312
   185.5000      0.0000    260.4802     84.2204    111.6049
   185.7500      0.0000    260.4789     84.2646    105.3169
   186.0000      0.0000    260.4190     84.4067     99.5721
   186.2500      0.0000    260.3174     84.6045     94.7250
   186.5000      0.0000    260.2343     84.7452     91.1871
   186.7500      0.0000    260.2286     84.7257     88.7010
   187.0000      0.0000    260.3100     84.5295     86.4511
   187.2500      0.0000    260.4298     84.2399     83.9766
   187.5000      0.0000    260.5148     83.9906     81.5101
   187.7500      0.0000    260.5168     83.8948     79.2073
   188.0000      0.0000    260.4416     83.9940     76.5301
   188.2500      0.0000    260.3385     84.2392     72.9695
   188.5000      0.0000    260.2666     84.5031     69.2762
   188.7500      0.0000    260.2600     84.6472     67.3721
   189.0000      0.0000    260.3078     84.6206     68.7510
   189.2500      0.0000    260.3686     84.4814     73.1787
   189.5000      0.0000    260.4259     84.2892     79.1139
   189.7500      0.0000    260.5782     83.9414     85.0211
   190.0000      0.0000    261.1458     83.0899     89.8091
   190.2500      0.0000    262.7628     81.2415     92.2939
   190.5000      0.0000    266.3046     78.0350     91.3071
   190.7500      0.0000    272.4276     73.5057     86.8183
   191.0000      0.0000    280.8357     68.1417     80.2944
