~Version Information
 VERS.                                  2.0 : CWLS LAS VERSION
 WRAP.                                   NO : WRAPING MODE
 SWARE .                 MController 2.5.0E : SOFTWARE VERSION
~Well Information
 WELL.                        Rangely 22-28 : WELL
 COMP.             Evergreen Operating Corp : COMPANY
 FLD.                      Purgatorie River : FIELD
 LOC.                SE/NW Sec 28 T32S R67W : LOCATION
 DATE.                09/14/2004-09/15/2004 : DATE(S) LOGGED
 SRVC.       Blanco Geological Services LLC : SERVICE COMPANY
 STAT.                                   CO : STATE
 CNTY.                           Las Animas : COUNTY
 CTRY.                                  USA : COUNTRY
 API.                       05-071-08044-00 : API NUMBER
 STRT.FT                             858.00 : START DEPTH
 STOP.FT                            2847.00 : STOP DEPTH
 STEP.FT                               1.00 : DEPTH INCREMENT
 NULL.                                -9999 : NULL VALUE
~Curve information
 DEPTH.FT                                   :
 ROP.MIN/FT                                 :
 GAS.UNITS                                  :
~ASCII Log data
# ...
     1658.00        0.467       2120.0 
     1659.00        0.267       2005.5 
     1660.00        0.267       1887.6 
     1661.00        0.367       1799.6 
     1662.00        0.317       1677.7 
     1663.00        0.300       1624.4 
     1664.00        0.300       1618.0 
     1665.00        0.300       1581.6 
     1666.00        0.500       1537.2 
     1667.00        0.367       1452.3 
     1668.00        0.233       1499.4 
     1669.00        0.233       1569.8 
     1670.00        0.233       1584.7 
     1671.00        0.233       1557.7 
     1672.00        0.233       1557.7 
     1673.00        0.383       1512.2 
     1674.00        0.167       1418.6 
     1675.00        0.233       1307.7 
     1676.00        2.750       2403.4 
     1677.00        0.267       2447.8 
     1678.00        0.267       2463.7 
     1679.00        0.200       2443.5 
     1680.00        0.367       2237.9 
     1681.00        0.200       2082.6 
     1682.00        0.200       1978.2 
     1683.00        0.233       1879.5 
     1684.00        0.233       1867.0 
     1685.00        0.267       1687.8 
     1686.00        0.233       1681.0 
     1687.00        0.167       1580.6 
     1688.00        0.167       1546.6 
     1689.00        0.167       1546.6 
     1690.00        0.200       1534.1 
     1691.00        0.217       1555.4 
     1692.00        0.233       1575.9 
     1693.00        0.233       1584.0 
     1694.00        0.300       1586.0 
     1695.00        0.300       1572.9 
     1696.00        0.233       1529.4 
     1697.00        0.200       1513.9 
     1698.00        0.200       1442.8 
     1699.00        0.200       1414.5 
     1700.00        0.300       1432.4 
     1701.00        0.233       1502.1 
     1702.00        0.200       1550.3 
     1703.00        0.200       1556.7 
     1704.00        0.300       1519.3 
     1705.00        0.950       1420.3 
     1706.00        2.167       2265.9 
     1707.00        0.450       2315.4 
     1708.00        0.600       2275.3 
     1709.00        0.300       2064.4 
     1710.00        0.300       2057.4 
     1711.00        0.267       1979.2 
     1712.00        0.300       1877.1 
     1713.00        0.367       1754.5 
     1714.00        0.267       1671.9 
     1715.00        0.267       1600.8 
     1716.00        0.267       1575.9 
     1717.00        0.300       1568.8 
     1718.00        0.317       1543.9 
     1719.00        0.300       1553.0 
     1720.00        0.233       1536.8 
     1721.00        0.200       1536.8 
     1722.00        0.200       1532.4 
     1723.00        0.233       1493.0 
     1724.00        0.200       1463.0 
     1725.00        0.200       1429.4 
     1726.00        0.200       1425.3 
     1727.00        0.167       1387.9 
     1728.00        0.200       1388.9 
     1729.00        0.233       1411.2 
     1730.00        0.233       1434.7 
     1731.00        0.300       1466.1 
     1732.00        0.350       1466.1 
     1733.00        0.233       1430.7 
     1734.00        0.300       1391.6 
     1735.00        0.900       1331.0 
     1736.00        2.283       2467.0 
     1737.00        0.400       2505.1 
     1738.00        0.767       2356.2 
     1739.00        0.300       1970.1 
     1740.00        0.367       1766.3 
     1741.00        0.267       1660.5 
     1742.00        0.200       1634.5 
     1743.00        0.267       1590.1 
     1744.00        0.350       1610.6 
     1745.00        0.367       1650.4 
     1746.00        0.333       1648.3 
     1747.00        0.367       1587.0 
     1748.00        0.367       1546.3 
     1749.00        0.367       1481.9 
     1750.00        0.300       1478.9 
     1751.00        0.367       1479.2 
     1752.00        0.433       1456.0 
     1753.00        0.283       1438.8 
     1754.00        0.267       1427.0 
     1755.00        0.233       1400.4 
     1756.00        0.300       1364.0 
     1757.00        0.367       1327.3 
     1758.00        0.733       1255.5 
     1759.00        0.700       1416.2 
     1760.00        0.300       1482.9 
     1761.00        0.300       1488.3 
     1762.00        0.283       1474.5 
     1763.00        0.333       1428.3 
     1764.00        0.300       1389.6 
     1765.00        0.233       1348.2 
     1766.00        0.233       1284.5 
     1767.00        2.583       2302.6 
     1768.00        0.167       2379.8 
     1769.00        0.300       2456.3 
     1770.00        0.333       2503.8 
     1771.00        0.467       2405.4 
     1772.00        0.300       2126.8 
     1773.00        0.267       1962.3 
     1774.00        0.233       1857.6 
     1775.00        0.300       1804.3 
     1776.00        0.200       1675.6 
     1777.00        0.267       1590.4 
     1778.00        0.383       1565.8 
     1779.00        0.400       1543.6 
     1780.00        0.300       1493.4 
     1781.00        0.400       1445.9 
     1782.00        0.300       1421.6 
     1783.00        0.333       1421.6 
     1784.00        0.267       1422.3 
     1785.00        0.333       1393.6 
     1786.00        0.267       1374.8 
     1787.00        0.267       1354.2 
     1788.00        0.283       1353.5 
     1789.00        0.233       1356.9 
     1790.00        0.267       1365.0 
     1791.00        0.367       1392.0 
     1792.00        0.233       1432.4 
     1793.00        0.200       1455.0 
     1794.00        0.233       1459.3 
     1795.00        0.467       1425.3 
     1796.00        2.717       2453.6 
     1797.00        0.300       2622.0 
     1798.00        0.367       2697.8 
     1799.00        0.467       2679.0 
     1800.00        0.300       2349.1 
     1801.00        0.167       2243.0 
     1802.00        0.167       2093.7 
     1803.00        0.250       2008.8 
     1804.00        0.300       1829.9 
     1805.00        0.267       1806.7 
     1806.00        0.400       1732.9 
     1807.00        0.267       1731.6 
     1808.00        0.300       1698.9 
     1809.00        0.333       1645.6 
     1810.00        0.300       1582.6 
     1811.00        0.367       1560.7 
     1812.00        0.267       1516.9 
     1813.00        0.300       1479.6 
     1814.00        0.417       1493.4 
     1815.00        0.433       1458.3 
     1816.00        0.533       1431.7 
     1817.00        0.333       1392.0 
     1818.00        0.400       1392.0 
     1819.00        0.433       1381.8 
     1820.00        0.567       1387.9 
     1821.00        0.267       1458.0 
     1822.00        0.217       1458.0 
     1823.00        0.300       1493.4 
     1824.00        0.333       1462.4 
     1825.00        0.700       1305.4 
     1826.00        2.817       2595.1 
     1827.00        0.733       2593.7 
     1828.00        0.533       2534.4 
     1829.00        0.333       2202.6 
     1830.00        0.400       1861.9 
     1831.00        0.350       1567.5 
     1832.00        0.267       1472.1 
     1833.00        0.333       1523.7 
     1834.00        0.233       1523.7 
     1835.00        0.267       1583.7 
     1836.00        0.400       1579.3 
     1837.00        0.533       1511.9 
     1838.00        0.333       1461.7 
     1839.00        0.300       1415.5 
     1840.00        0.400       1415.5 
     1841.00        0.517       1414.5 
     1842.00        0.300       1394.0 
     1843.00        0.300       1367.7 
     1844.00        0.267       1356.6 
     1845.00        0.300       1341.4 
     1846.00        0.767       1339.4 
     1847.00        0.500       1324.6 
     1848.00        0.433       1305.4 
     1849.00        0.483       1293.6 
     1850.00        0.433       1331.0 
     1851.00        0.300       1392.3 
     1852.00        0.267       1429.7 
     1853.00        0.267       1412.2 
     1854.00        0.233       1344.8 
     1855.00        0.800       1264.6 
     1856.00        2.083       2504.1 
     1857.00        0.633       2564.4 
