~Version Information
VERS.                      2.0: CWLS Log ASCII Standard - VERSION 2.0
WRAP.                       NO: One line per depth step
~Well Information Block
STRT.FT               582.2500: 
STOP.FT              2642.5000: 
STEP.FT                 0.2500: 
NULL.                -999.2500: 
COMP.          Petrogulf Corporation: COMPANY
WELL.           Montoya 12-41V: WELL
FLD.           Purgatorie River: FIELD
LOC.           1081' FNL & 605' FEL: LOCATION
CNTY.               Las Animas: COUNTY
SRVC.                         : SERVICE COMPANY
DATE.          Tue Aug 10 10:59:28 2004: LOG DATE
UWI.           05 071 08094 00: UNIQUE WELL ID
STAT.                 Colorado: STATE
~Curve Information Block
DEPT.FT            0 000 00 00: Depth
SP.mV                         : DIL Spontaneous Potential
RILD.Ohm-m                    : DIL Deep Resistivity
RILM.Ohm-m                    : DIL Medium Resistivity
RLL3.Ohm-m                    : DIL Shallow Resistivity
GR.GAPI                       : Gamma Ray
~Parameter Information Block
~A  Depth        SP         RILD        RILM        RLL3         GR     
# ...
  2234.2500     -7.7294     10.1846      9.4727     11.5962     91.1977
  2234.5000     -7.4409     10.1209      9.5689     11.7911     93.3678
  2234.7500     -7.0361     10.0617      9.6422     12.0341     94.5176
  2235.0000     -6.6288      9.9982      9.6830     12.3148     95.7361
  2235.2500     -6.3310      9.9152      9.6825     12.5909     96.0453
  2235.5000     -6.2367      9.8015      9.6346     12.7968     95.7296
  2235.7500     -6.4088      9.6565      9.5389     12.8635     95.2521
  2236.0000     -6.8692      9.4899      9.4011     12.7420     94.5970
  2236.2500     -7.5999      9.3178      9.2330     12.4223     94.3323
  2236.5000     -8.5475      9.1569      9.0514     11.9381     94.4169
  2236.7500     -9.6333      9.0222      8.8749     11.3579     94.9986
  2237.0000    -10.7654      8.9266      8.7224     10.7656     96.7234
  2237.2500    -11.8464      8.8804      8.6107     10.2408     98.1282
  2237.5000    -12.7824      8.8903      8.5537      9.8499     99.8479
  2237.7500    -13.4825      8.9576      8.5619      9.6487    100.4884
  2238.0000    -13.8677      9.0782      8.6430      9.6962    100.8503
  2238.2500    -13.8755      9.2453      8.8013     10.0672    100.9579
  2238.5000    -13.4711      9.4554      9.0385     10.8519    101.0884
  2238.7500    -12.6609      9.7126      9.3537     12.1324    100.8487
  2239.0000    -11.4973     10.0290      9.7434     13.9424     99.0735
  2239.2500    -10.0759     10.4205     10.2028     16.2308     96.6874
  2239.5000     -8.5221     10.8994     10.7261     18.8471     91.9728
  2239.7500     -6.9648     11.4699     11.3087     21.5652     88.8706
  2240.0000     -5.5145     12.1263     11.9477     24.1338     85.2704
  2240.2500     -4.2442     12.8545     12.6431     26.3342     83.6264
  2240.5000     -3.1828     13.6321     13.3960     28.0228     81.9536
  2240.7500     -2.3195     14.4240     14.2057     29.1442     81.2953
  2241.0000     -1.6172     15.1770     15.0662     29.7159     81.1256
  2241.2500     -1.0306     15.8220     15.9616     29.7996     81.5146
  2241.5000     -0.5227     16.2937     16.8636     29.4751     82.3594
  2241.7500     -0.0669     16.5614     17.7325     28.8263     82.7724
  2242.0000      0.3560     16.6511     18.5217     27.9385     83.0363
  2242.2500      0.7594     16.6368     19.1864     26.8984     83.1594
  2242.5000      1.1489     16.6051     19.6923     25.7901     83.6182
  2242.7500      1.5117     16.6195     20.0220     24.6888     84.1571
  2243.0000      1.8112     16.7030     20.1780     23.6570     85.2079
  2243.2500      2.0006     16.8410     20.1798     22.7445     85.9844
  2243.5000      2.0534     16.9977     20.0597     21.9849     87.0073
  2243.7500      1.9948     17.1347     19.8565     21.3864     87.4119
  2244.0000      1.9094     17.2244     19.6106     20.9237     87.5583
  2244.2500      1.9190     17.2514     19.3581     20.5491     87.5056
  2244.5000      2.1368     17.2090     19.1265     20.2320     87.5115
  2244.7500      2.6230     17.0951     18.9292     20.0120     87.8168
  2245.0000      3.3659     16.9130     18.7625     20.0347     89.4595
  2245.2500      4.2936     16.6727     18.6040     20.5367     91.5715
  2245.5000      5.3031     16.3897     18.4164     21.7643     95.0670
  2245.7500      6.2979     16.0802     18.1566     23.8396     96.0150
  2246.0000      7.2136     15.7565     17.7912     26.6216     93.1043
  2246.2500      8.0265     15.4272     17.3102     29.6385     88.3965
  2246.5000      8.7475     15.1013     16.7349     32.1578     79.8181
  2246.7500      9.4064     14.7935     16.1120     33.4147     74.9576
  2247.0000     10.0241     14.5252     15.4996     32.9166     71.0335
  2247.2500     10.5954     14.3195     14.9512     30.6731     71.1204
  2247.5000     11.0788     14.1937     14.5062     27.2185     75.2297
  2247.7500     11.4081     14.1535     14.1867     23.4047     80.0716
  2248.0000     11.5171     14.1921     13.9996     20.0803     88.5914
  2248.2500     11.3690     14.2924     13.9408     17.8214     93.7454
  2248.5000     10.9782     14.4344     13.9988     16.8252     98.9022
  2248.7500     10.4168     14.6046     14.1590     16.9651    100.2538
  2249.0000      9.7938     14.8004     14.4064     17.9286     99.6170
  2249.2500      9.2275     15.0300     14.7274     19.3525     98.0774
  2249.5000      8.8130     15.3028     15.1111     20.9114     95.4168
  2249.7500      8.6052     15.6197     15.5491     22.3562     94.0631
  2250.0000      8.6136     15.9676     16.0334     23.5229     93.2098
  2250.2500      8.8189     16.3228     16.5551     24.3265     93.3374
  2250.5000      9.1873     16.6620     17.1021     24.7461     93.9055
  2250.7500      9.6821     16.9723     17.6598     24.8042     94.0303
  2251.0000     10.2652     17.2546     18.2120     24.5563     93.2086
  2251.2500     10.8932     17.5186     18.7448     24.1078     92.0273
  2251.5000     11.5115     17.7731     19.2500     23.6631     90.2479
  2251.7500     12.0531     18.0201     19.7259     23.5905     89.8135
  2252.0000     12.4439     18.2518     20.1757     24.4560     90.8550
  2252.2500     12.6117     18.4542     20.6029     26.9622     92.2061
  2252.5000     12.5052     18.6133     21.0052     31.7409     93.5195
  2252.7500     12.1149     18.7230     21.3722     39.0170     93.0248
  2253.0000     11.4862     18.7913     21.6871     48.2653     89.4729
  2253.2500     10.7203     18.8417     21.9337     58.0752     85.2723
  2253.5000      9.9558     18.9091     22.1063     66.4116     77.3040
  2253.7500      9.3367     19.0307     22.2163     71.2746     72.1194
  2254.0000      8.9709     19.2384     22.2935     71.4929     66.7490
  2254.2500      8.9080     19.5492     22.3801     67.2361     65.3370
  2254.5000      9.1321     19.9597     22.5221     59.9476     65.7486
  2254.7500      9.5776     20.4402     22.7597     51.7324     66.7870
  2255.0000     10.1577     20.9380     23.1217     44.5408     68.2704
  2255.2500     10.7956     21.3926     23.6218     39.5537     68.9906
  2255.5000     11.4453     21.7606     24.2567     36.9938     69.9042
  2255.7500     12.0997     22.0376     25.0043     36.3251     70.6879
  2256.0000     12.7776     22.2610     25.8236     36.6456     72.6760
  2256.2500     13.5015     22.4909     26.6577     37.0718     74.8080
  2256.5000     14.2678     22.7805     27.4428     36.9953     79.2331
  2256.7500     15.0292     23.1495     28.1244     36.1814     82.6743
  2257.0000     15.6920     23.5754     28.6753     34.7299     87.7967
  2257.2500     16.1433     24.0003     29.1054     32.9478     90.8511
  2257.5000     16.2787     24.3596     29.4568     31.1953     94.4980
  2257.7500     16.0419     24.6130     29.7865     29.7643     96.0977
  2258.0000     15.4408     24.7622     30.1408     28.8167     97.1281
  2258.2500     14.5406     24.8391     30.5358     28.3769     97.0403
  2258.5000     13.4418     24.8779     30.9457     28.3527     96.0098
  2258.7500     12.2386     24.8913     31.3084     28.5673     94.7684
  2259.0000     10.9920     24.8672     31.5428     28.7954     92.3363
  2259.2500      9.7187     24.7812     31.5801     28.8097     90.7867
  2259.5000      8.4070     24.6174     31.3884     28.4342     89.4734
  2259.7500      7.0399     24.3805     30.9880     27.5909     89.5108
  2260.0000      5.6184     24.1009     30.4387     26.3215     90.8355
  2260.2500      4.1691     23.8240     29.8205     24.7730     92.4391
  2260.5000      2.7309     23.5949     29.2083     23.1577     95.6012
  2260.7500      1.3358     23.4412     28.6624     21.7045     97.8296
  2261.0000     -0.0006     23.3671     28.2249     20.6157    100.6338
  2261.2500     -1.2651     23.3582     27.9232     20.0394    101.9846
  2261.5000     -2.4260     23.3947     27.7745     20.0545    103.2860
  2261.7500     -3.4082     23.4641     27.7893     20.6676    103.5073
  2262.0000     -4.0949     23.5646     27.9714     21.8183    102.0668
