~Version Information
 VERS.                                  2.0 : CWLS LAS VERSION
 WRAP.                                   NO : WRAPING MODE
 SWARE .                 MController 2.5.0J : SOFTWARE VERSION
~Well Information
 WELL.                         Culver 14-12 : WELL
 COMP.    Pioneer Natural Resources USA Inc : COMPANY
 FLD.                      Purgatoire River : FIELD
 LOC.                SW/SW Sec 12 T32S R66W : LOCATION
 DATE.                              6/06/05 : DATE(S) LOGGED
 SRVC.       Blanco Geological Services LLC : SERVICE COMPANY
 STAT.                                   CO : STATE
 CNTY.                           Las Animas : COUNTY
 CTRY.                                  USA : COUNTRY
 API.                       05 071 08386 00 : API NUMBER
 STRT.FT                             442.00 : START DEPTH
 STOP.FT                            2305.00 : STOP DEPTH
 STEP.FT                               1.00 : DEPTH INCREMENT
 NULL.                                -9999 : NULL VALUE
~Curve information
 DEPTH.FT                                   :
 ROP.MIN/FT                                 :
 GAS.UNITS                                  :
~ASCII Log data
# ...
      1042.0         0.13          3.8 
      1043.0         0.13          3.7 
      1044.0         0.17          3.6 
      1045.0         0.23          4.1 
      1046.0         1.62         15.4 
      1047.0         0.17         14.4 
      1048.0         0.23         13.5 
      1049.0         0.27         11.4 
      1050.0         0.30          9.1 
      1051.0         0.23          7.2 
      1052.0         0.23          7.1 
      1053.0         0.20          6.8 
      1054.0         0.23          6.1 
      1055.0         0.27          5.5 
      1056.0         0.23          5.3 
      1057.0         0.20          5.0 
      1058.0         0.10          5.1 
      1059.0         0.13          4.8 
      1060.0         0.17          5.0 
      1061.0         0.23          4.9 
      1062.0         0.18          4.8 
      1063.0         0.23          4.7 
      1064.0         0.20          4.4 
      1065.0         0.17          4.5 
      1066.0         0.17          4.5 
      1067.0         0.20          4.8 
      1068.0         0.17          4.8 
      1069.0         0.17          5.0 
      1070.0         0.13          4.7 
      1071.0         0.13          4.8 
      1072.0         0.13          4.7 
      1073.0         0.10          4.7 
      1074.0         0.17          5.1 
      1075.0         0.23          4.8 
      1076.0         2.25         14.9 
      1077.0         0.43          8.9 
      1078.0         0.33          5.6 
      1079.0         0.27          5.2 
      1080.0         0.23          5.9 
      1081.0         0.20          5.3 
      1082.0         0.27          5.4 
      1083.0         0.27          5.5 
      1084.0         0.25          5.4 
      1085.0         0.27          5.2 
      1086.0         0.20          5.8 
      1087.0         0.20          8.0 
      1088.0         0.20         11.4 
      1089.0         0.13         13.5 
      1090.0         0.10         14.8 
      1091.0         0.13         17.0 
      1092.0         0.13         18.8 
      1093.0         0.10         20.4 
      1094.0         0.17         20.4 
      1095.0         0.23         21.7 
      1096.0         0.20         22.3 
      1097.0         0.20         22.8 
      1098.0         0.20         29.2 
      1099.0         0.20         29.7 
      1100.0         0.20         28.5 
      1101.0         0.20         25.9 
      1102.0         0.18         24.4 
      1103.0         0.20         20.8 
      1104.0         0.23         17.6 
      1105.0         0.30         14.6 
      1106.0         2.27         60.0 
      1107.0         0.32         55.3 
      1108.0         0.23         46.9 
      1109.0         0.23         41.9 
      1110.0         0.20         38.0 
      1111.0         0.23         34.7 
      1112.0         0.23         32.0 
      1113.0         0.20         32.0 
      1114.0         0.23         33.2 
      1115.0         0.23         32.3 
      1116.0         0.20         27.7 
      1117.0         0.20         25.8 
      1118.0         0.20         23.6 
      1119.0         0.20         20.0 
      1120.0         0.20         19.0 
      1121.0         0.13         19.0 
      1122.0         0.10         19.2 
      1123.0         0.13         19.0 
      1124.0         0.18         19.5 
      1125.0         0.23         19.4 
      1126.0         0.20         21.2 
      1127.0         0.17         23.1 
      1128.0         0.23         22.4 
      1129.0         0.23         20.2 
      1130.0         0.13         19.6 
      1131.0         0.17         18.8 
      1132.0         0.20         17.7 
      1133.0         0.20         15.7 
      1134.0         0.13         14.2 
      1135.0         0.30         13.5 
      1136.0         1.98         79.9 
      1137.0         0.47         82.5 
      1138.0         0.33         69.3 
      1139.0         0.27         54.3 
      1140.0         0.27         46.1 
      1141.0         0.23         40.7 
      1142.0         0.20         37.5 
      1143.0         0.27         33.4 
      1144.0         0.23         30.3 
      1145.0         0.28         28.4 
      1146.0         0.13         26.0 
      1147.0         0.17         25.3 
      1148.0         0.23         25.2 
      1149.0         0.23         24.2 
      1150.0         0.20         24.4 
      1151.0         0.23         24.4 
      1152.0         0.23         24.1 
      1153.0         0.20         23.0 
      1154.0         0.20         21.8 
      1155.0         0.20         21.8 
      1156.0         0.20         21.8 
      1157.0         0.23         21.1 
      1158.0         0.20         24.9 
      1159.0         0.20         23.8 
      1160.0         0.17         19.0 
      1161.0         0.20         17.2 
      1162.0         0.25         15.7 
      1163.0         0.17         13.6 
      1164.0         0.20         12.4 
      1165.0         0.13         11.2 
      1166.0         2.98         69.6 
      1167.0         0.23         65.6 
      1168.0         0.23         59.5 
      1169.0         0.10         52.5 
      1170.0         0.17         49.0 
      1171.0         0.23         43.7 
      1172.0         0.23         39.7 
      1173.0         0.23         37.9 
      1174.0         0.27         36.8 
      1175.0         0.27         34.8 
      1176.0         0.20         31.5 
      1177.0         0.23         29.6 
      1178.0         0.23         27.6 
      1179.0         0.28         26.0 
      1180.0         0.27         23.9 
      1181.0         0.23         22.3 
      1182.0         0.23         21.7 
      1183.0         0.23         22.5 
      1184.0         0.27         23.1 
      1185.0         0.20         22.4 
      1186.0         0.23         20.9 
      1187.0         0.23         20.6 
      1188.0         0.20         23.0 
      1189.0         0.27         22.9 
      1190.0         0.10         21.5 
      1191.0         0.23         21.2 
      1192.0         0.20         21.2 
      1193.0         0.20         19.2 
      1194.0         0.25         17.4 
      1195.0         0.17         15.0 
      1196.0         2.13         90.7 
      1197.0         0.37         91.2 
      1198.0         0.33         74.8 
      1199.0         0.20         60.1 
      1200.0         0.18         51.6 
      1201.0         0.17         44.0 
      1202.0         0.17         41.6 
      1203.0         0.20         39.1 
      1204.0         0.23         36.7 
      1205.0         0.23         35.4 
      1206.0         0.17         35.6 
      1207.0         0.13         33.4 
      1208.0         0.20         31.6 
      1209.0         0.37         28.2 
      1210.0         0.30         25.6 
      1211.0         0.13         25.0 
      1212.0         0.13         25.3 
      1213.0         0.10         25.0 
      1214.0         0.17         25.4 
      1215.0         0.23         25.1 
      1216.0         0.20         24.6 
      1217.0         0.28         23.9 
      1218.0         0.23         28.1 
      1219.0         0.20         27.9 
      1220.0         0.20         25.3 
      1221.0         0.20         23.9 
      1222.0         0.23         22.7 
      1223.0         0.20         18.6 
      1224.0         0.20         15.7 
      1225.0         0.23         13.2 
      1226.0         1.98         86.5 
      1227.0         0.13         90.6 
      1228.0         0.33         90.5 
      1229.0         0.33         79.3 
      1230.0         0.23         64.7 
      1231.0         0.23         55.1 
      1232.0         0.13         46.9 
      1233.0         0.17         44.3 
      1234.0         0.20         42.8 
      1235.0         0.23         41.0 
      1236.0         0.23         40.4 
      1237.0         0.27         38.5 
      1238.0         0.27         34.7 
      1239.0         0.25         31.2 
      1240.0         0.23         29.4 
      1241.0         0.20         27.8 
