~Version Information
VERS.                      2.0: CWLS Log ASCII Standard - VERSION 2.0
WRAP.                       NO: One line per depth step
~Well Information Block
STRT.FT               240.0000: 
STOP.FT               966.2000: 
STEP.FT                 0.1000: 
NULL.                -999.2500: 
COMP.          Pioneer Natural Resources: COMPANY
WELL.          New Mexico 21-5: WELL
FLD.           Purgatoire River: FIELD
LOC.           175' FNL & 1700' FWL: LOCATION
PROV.                 Colorado: PROVINCE
CNTY.               Las Animas: COUNTRY
SRVC.                Patterson: SERVICE COMPANY
DATE.          Mon Dec 13 06:55:26 2004: LOG DATE
UWI.           05 071 08234 00: UNIQUE WELL ID
~Curve Information Block
DEPT.FT            0 000 00 00: Depth
DCAL.in                       : CDL Caliper
RHOB.g/cc                     : CDL Bulk Density
RHOC.g/cc                     : CDL Density Correction
DPOR.pu                       : CDL Density Porosity
NPOR.pu                       : Neutron Porosity
GR.GAPI                       : Gamma Ray
~Parameter Information Block
~A  Depth       DCAL        RHOB        RHOC        DPOR        NPOR         GR     
# ...
   758.4000      7.9741      2.4332      0.0143     13.1366     19.3664    125.5028
   758.5000      7.9757      2.4372      0.0470     12.8944     19.2808    136.8228
   758.6000      7.9757      2.4446      0.0417     12.4493     19.2679    144.3121
   758.7000      7.9757      2.4535      0.0561     11.9107     19.0711    143.9890
   758.8000      7.9762      2.4556      0.0618     11.7820     18.1865    136.3283
   758.9000      7.9762      2.4435      0.0469     12.5179     16.8229    128.0987
   759.0000      7.9746      2.4230      0.0173     13.7565     15.7584    129.2488
   759.1000      7.9746      2.4078      0.0087     14.6812     15.0063    136.6000
   759.2000      7.9746      2.3991      0.0221     15.2081     13.9293    135.7016
   759.3000      7.9723      2.3906      0.0148     15.7201     12.3537    128.9534
   759.4000      7.9723      2.3917      0.0100     15.6518     10.9728    127.5855
   759.5000      7.9654      2.4122      0.0413     14.4107     10.9314    130.4460
   759.6000      7.9654      2.4386      0.0697     12.8119     13.3804    133.2517
   759.7000      7.9654      2.4542      0.0516     11.8642     19.0002    130.9466
   759.8000      7.9542      2.4590      0.0712     11.5730     26.8176    120.3261
   759.9000      7.9542      2.4574      0.0575     11.6753     34.8483    108.0733
   760.0000      7.9475      2.4587      0.0573     11.5959     41.8160    103.6619
   760.1000      7.9475      2.4671      0.1178     11.0877      2.4559    105.1173
   760.2000      7.9475      2.4702      0.0590     10.8967      4.4074    106.3500
   760.3000      7.9456      2.4688      0.0481     10.9837      7.8453    105.1900
   760.4000      7.9456      2.4722      0.0263     10.7774     12.1733    101.9250
   760.5000      7.9444      2.4756      0.0617     10.5682     16.1571     96.2466
   760.6000      7.9444      2.4738      0.0375     10.6778     18.8236     89.8254
   760.7000      7.9444      2.4751      0.0238     10.6011     20.1395     83.9835
   760.8000      7.9456      2.4870      0.0364      9.8801     20.2498     76.0938
   760.9000      7.9456      2.5064      0.0314      8.7023     19.5457     71.1881
   761.0000      7.9472      2.5300      0.0539      7.2734     18.7572     75.6719
   761.1000      7.9472      2.5567      0.0163      5.6575     18.4480     79.8482
   761.2000      7.9472      2.5744      0.0676      4.5837     18.2296     74.0003
   761.3000      7.9452      2.5688      0.0288      4.9207     17.6382     66.5864
   761.4000      7.9452      2.5518      0.0704      5.9535     16.8592     64.5266
   761.5000      7.9435      2.5456      0.0407      6.3287     16.1984     62.2198
   761.6000      7.9435      2.5622      0.0242      5.3228     15.6804     56.8970
   761.7000      7.9435      2.5930      0.0673      3.4562     15.0649     53.8230
   761.8000      7.9448      2.6096      0.1043      2.4462     14.6841     57.8278
   761.9000      7.9448      2.6030      0.0688      2.8504     15.1068     66.7389
   762.0000      7.9466      2.5917      0.0674      3.5307     15.7489     71.5406
   762.1000      7.9466      2.5788      0.1031      4.3154     15.7521     67.5673
   762.2000      7.9466      2.5593      0.0295      5.4996     15.5110     60.9452
   762.3000      7.9472      2.5521      0.0098      5.9329     15.5623     59.0121
   762.4000      7.9472      2.5612      0.1036      5.3806     15.4943     62.8429
   762.5000      7.9465      2.5589      0.0902      5.5239     15.1298     68.4020
   762.6000      7.9465      2.5437      0.0358      6.4399     14.8608     73.0377
   762.7000      7.9465      2.5450      0.0358      6.3648     14.6566     76.9597
   762.8000      7.9447      2.5677      0.0461      4.9886     14.3503     78.2495
   762.9000      7.9447      2.5880      0.0803      3.7584     14.2168     72.0576
   763.0000      7.9446      2.5884      0.0533      3.7328     14.4613     60.0840
   763.1000      7.9446      2.5729      0.1028      4.6698     14.9083     50.4006
   763.2000      7.9446      2.5530      0.0505      5.8800     15.4337     47.5202
   763.3000      7.9472      2.5410      0.0585      6.6086     16.0413     51.9554
   763.4000      7.9472      2.5472      0.0147      6.2325     16.5366     60.1142
   763.5000      7.9473      2.5631      0.0529      5.2643     16.7945     64.3175
   763.6000      7.9473      2.5660      0.0333      5.0932     17.1329     62.3586
   763.7000      7.9473      2.5494      0.0783      6.0980     18.0345     61.0950
   763.8000      7.9441      2.5222      0.0399      7.7441     19.6233     66.0312
   763.9000      7.9441      2.5008      0.0055      9.0440     21.2119     74.9496
   764.0000      7.9443      2.4985      0.0443      9.1844     22.1548     83.0112
   764.1000      7.9443      2.5059      0.0286      8.7336     22.6779     89.4827
   764.2000      7.9443      2.5066      0.0502      8.6898     23.1763     94.1977
   764.3000      7.9476      2.4969      0.0517      9.2802     23.3674     92.7893
   764.4000      7.9476      2.4820      0.0636     10.1835     23.2525     88.6438
   764.5000      7.9495      2.4724      0.0485     10.7629     23.7777     88.8742
   764.6000      7.9495      2.4761      0.0854     10.5400     24.9779     91.0618
   764.7000      7.9495      2.4853      0.0995      9.9793     25.5126     94.5778
   764.8000      7.9479      2.4877      0.0786      9.8369     24.7584    102.9890
   764.9000      7.9479      2.4759      0.1083     10.5515     23.6857    114.7894
   765.0000      7.9452      2.4435      0.0649     12.5143     23.3093    127.2417
   765.1000      7.9452      2.3948      0.0177     15.4656     23.4196    133.9473
   765.2000      7.9452      2.3390      0.0384     18.8463     23.7242    128.0015
   765.3000      7.9443      2.2786     -0.0076     22.5118     24.4884    115.4306
   765.4000      7.9443      2.2166     -0.0321     26.2655     25.7110    105.7739
   765.5000      7.9426      2.1523     -0.0294     30.1657     27.2229    100.9787
   765.6000      7.9426      2.0940     -0.1033     33.6994     28.6659    104.0953
   765.7000      7.9426      2.0686     -0.0988     35.2388     29.0036    114.8808
   765.8000      7.9416      2.0807     -0.0363     34.5014     28.0019    126.1079
   765.9000      7.9416      2.1042      0.0156     33.0793     26.9525    131.0596
   766.0000      7.9448      2.1276      0.0310     31.6586     26.7482    130.7122
   766.1000      7.9448      2.1674      0.0750     29.2463     26.9327    127.9461
   766.2000      7.9448      2.2277      0.1748     25.5911     26.7803    121.7361
   766.3000      7.9460      2.2927      0.1662     21.6516     26.3402    115.4366
   766.4000      7.9460      2.3546      0.1676     17.9021     25.7108    112.8796
   766.5000      7.9447      2.4120      0.1652     14.4266     24.5174    111.6623
   766.6000      7.9447      2.4586      0.1644     11.5987     23.2656    109.6091
   766.7000      7.9447      2.4853      0.1228      9.9836     22.8778    106.7232
   766.8000      7.9446      2.4900      0.0947      9.6947     22.9387    101.9434
   766.9000      7.9446      2.4853      0.0768      9.9826     22.5960     97.6802
   767.0000      7.9472      2.4869      0.0219      9.8844     22.1221     98.2294
   767.1000      7.9472      2.5015      0.0520      9.0004     22.1814    102.3052
   767.2000      7.9472      2.5237      0.0484      7.6533     22.8163    105.2427
   767.3000      7.9523      2.5427      0.0361      6.5059     23.4175    105.0223
   767.4000      7.9523      2.5414      0.0780      6.5845     23.3126    103.6820
   767.5000      7.9593      2.5110      0.0214      8.4245     22.7417    104.2921
   767.6000      7.9593      2.4766     -0.0075     10.5066     22.2091    108.2677
   767.7000      7.9593      2.4706      0.0131     10.8749     21.8126    113.8311
   767.8000      7.9664      2.4890      0.0657      9.7602     21.9671    117.5258
   767.9000      7.9664      2.5049      0.0767      8.7950     22.7665    118.9298
