~Version Information
VERS.                      2.0: CWLS Log ASCII Standard - VERSION 2.0
WRAP.                       NO: One line per depth step
~Well Information Block
STRT.FT               754.6000: 
STOP.FT              2329.0000: 
STEP.FT                 0.1000: 
NULL.                -999.2500: 
COMP.          Petrogulf Corporation: COMPANY
WELL.           Anderson 18-42: WELL
FLD.           Purgatoire River: FIELD
LOC.           1668' FNL & 1110' FEL: LOCATION
CNTY.               Las Animas: COUNTY
SRVC.                         : SERVICE COMPANY
DATE.          Tue Dec 16 12:18:55 2003: LOG DATE
UWI.                          : UNIQUE WELL ID
STAT.                 Colorado: STATE
~Curve Information Block
DEPT.FT            0 000 00 00: Depth
DCAL.in                       : CDL Caliper
RHOB.g/cc                     : CDL Bulk Density
RHOC.g/cc                     : CDL Density Correction
DPOR.pu                       : CDL Density Porosity
NPOR.pu                       : Neutron Porosity
GR.GAPI                       : Gamma Ray
~Parameter Information Block
~A  Depth       DCAL        RHOB        RHOC        DPOR        NPOR         GR     
# ...
  1705.0000      8.1650      2.5607      0.0129      5.4119     23.8583    120.0049
  1705.1000      8.1650      2.5460     -0.0026      6.3030     23.5935    115.9038
  1705.2000      8.1650      2.5386     -0.0154      6.7530     23.6859    113.1659
  1705.3000      8.1635      2.5319      0.0114      7.1597     24.0564    114.2754
  1705.4000      8.1635      2.5155     -0.0058      8.1491     24.8684    119.6980
  1705.5000      8.1670      2.5015     -0.0421      9.0029     25.9669    123.6365
  1705.6000      8.1670      2.5025      0.0040      8.9407     26.7854    122.3172
  1705.7000      8.1670      2.5115      0.0100      8.3938     27.3159    119.4547
  1705.8000      8.1670      2.5200     -0.0056      7.8792     27.9144    116.5786
  1705.9000      8.1670      2.5233     -0.0101      7.6791     28.4504    115.5143
  1706.0000      8.1635      2.5162      0.0040      8.1066     28.5078    117.9249
  1706.1000      8.1635      2.5003      0.0206      9.0750     27.9110    119.0632
  1706.2000      8.1635      2.4828     -0.0097     10.1327     26.9141    114.9841
  1706.3000      8.1641      2.4678     -0.0213     11.0407     26.1549    108.9927
  1706.4000      8.1641      2.4521      0.0194     11.9911     25.7468    105.2256
  1706.5000      8.1617      2.4323     -0.0413     13.1928     25.1523    100.7557
  1706.6000      8.1617      2.4114     -0.0146     14.4621     24.2788     93.8072
  1706.7000      8.1617      2.3879     -0.0077     15.8818     23.5410     89.8719
  1706.8000      8.1632      2.3483      0.0186     18.2868     22.9968     91.5145
  1706.9000      8.1632      2.2824      0.0014     22.2781     22.4122     96.4851
  1707.0000      8.1618      2.2048     -0.0526     26.9840     21.8700    100.8502
  1707.1000      8.1618      2.1455     -0.0351     30.5750     21.3030    103.4442
  1707.2000      8.1618      2.1224     -0.0181     31.9764     20.4120    107.1432
  1707.3000      8.1647      2.1300     -0.0233     31.5140     18.9970    109.9377
  1707.4000      8.1647      2.1515      0.0104     30.2096     17.3350    109.7870
  1707.5000      8.1624      2.1768      0.0440     28.6772     15.9970    112.4016
  1707.6000      8.1624      2.2088      0.0768     26.7397     15.2581    117.1089
  1707.7000      8.1624      2.2533      0.1108     24.0445     15.3797    117.4702
  1707.8000      8.1633      2.3090      0.1385     20.6642     16.1888    114.9660
  1707.9000      8.1633      2.3613      0.1965     17.4965     16.8060    113.4313
  1708.0000      8.1676      2.3913      0.1456     15.6812     17.0459    112.6810
  1708.1000      8.1676      2.3994      0.0265     15.1862     17.7207    111.1555
  1708.2000      8.1676      2.3983     -0.0184     15.2544     19.0421    109.2652
  1708.3000      8.1702      2.3911      0.0160     15.6910     20.3572    109.8905
  1708.4000      8.1702      2.3814     -0.0201     16.2780     21.2572    114.9393
  1708.5000      8.1946      2.3795     -0.0251     16.3945     22.0302    120.4046
  1708.6000      8.1946      2.3835      0.0256     16.1510     22.9546    119.5987
  1708.7000      8.1946      2.3842      0.0286     16.1114     23.6221    113.9226
  1708.8000      8.1846      2.3829      0.0282     16.1874     23.4884    111.6556
  1708.9000      8.1846      2.3819      0.0736     16.2507     22.7541    113.8439
  1709.0000      8.1355      2.3810      0.0644     16.3058     21.9662    112.8587
  1709.1000      8.1355      2.3836      0.1231     16.1452     21.4555    108.7377
  1709.2000      8.1355      2.3926      0.0982     15.5974     21.3625    109.0870
  1709.3000      8.1498      2.4140      0.0744     14.3039     21.6743    115.2775
  1709.4000      8.1498      2.4475      0.1005     12.2703     22.2463    124.1246
  1709.5000      8.1545      2.4825      0.0374     10.1523     22.9085    131.2889
  1709.6000      8.1545      2.5108      0.0505      8.4358     23.5163    132.2494
  1709.7000      8.1545      2.5252      0.0544      7.5640     24.0276    125.5922
  1709.8000      8.1677      2.5240      0.0279      7.6385     24.4311    114.5902
  1709.9000      8.1677      2.5217      0.0105      7.7759     24.7306    106.6682
  1710.0000      8.1675      2.5306      0.0141      7.2336     25.0160    107.8866
  1710.1000      8.1675      2.5448      0.0102      6.3752     25.4421    115.8072
  1710.2000      8.1675      2.5511      0.0458      5.9931     25.9482    124.1787
  1710.3000      8.1861      2.5458      0.0179      6.3141     26.1354    132.2957
  1710.4000      8.1861      2.5400      0.0317      6.6679     26.0047    140.5887
  1710.5000      8.1644      2.5417      0.0504      6.5623     25.9574    145.7163
  1710.6000      8.1644      2.5401      0.0324      6.6587     26.2423    148.4540
  1710.7000      8.1644      2.5194      0.0595      7.9164     26.8463    149.2710
  1710.8000      8.1615      2.4886     -0.0248      9.7830     27.3315    145.1710
  1710.9000      8.1615      2.4748     -0.0118     10.6160     27.2645    139.1697
  1711.0000      8.1598      2.4828      0.0125     10.1326     26.8967    135.0826
  1711.1000      8.1598      2.4995      0.0098      9.1233     26.7628    132.2813
  1711.2000      8.1598      2.5157      0.0488      8.1367     26.8174    131.5354
  1711.3000      8.1620      2.5218      0.0634      7.7719     26.6719    129.9234
  1711.4000      8.1620      2.5113      0.0472      8.4050     26.4717    126.9461
  1711.5000      8.1597      2.4943      0.0481      9.4362     26.5310    127.4845
  1711.6000      8.1597      2.4847      0.0569     10.0193     26.5742    130.4328
  1711.7000      8.1597      2.4796      0.1015     10.3266     26.3701    133.9200
  1711.8000      8.1608      2.4666      0.1032     11.1177     26.2954    140.6196
  1711.9000      8.1608      2.4479      0.0692     12.2498     26.6618    146.0905
  1712.0000      8.1615      2.4351      0.0335     13.0263     27.2851    140.9435
  1712.1000      8.1615      2.4324      0.0185     13.1898     27.7053    127.4643
  1712.2000      8.1615      2.4406      0.0351     12.6936     27.7683    115.4529
  1712.3000      8.1647      2.4525      0.0834     11.9708     27.6993    113.2724
  1712.4000      8.1647      2.4475      0.1315     12.2712     27.6058    121.8354
  1712.5000      8.1627      2.4159      0.0401     14.1871     27.2537    131.1423
  1712.6000      8.1627      2.3784      0.0351     16.4589     26.5697    133.9878
  1712.7000      8.1627      2.3615      0.0272     17.4828     25.8236    136.7311
  1712.8000      8.1650      2.3633      0.0943     17.3787     25.1407    145.6474
  1712.9000      8.1650      2.3552      0.0809     17.8652     24.4028    153.7302
  1713.0000      8.1638      2.3267      0.0761     19.5961     23.8364    152.1075
  1713.1000      8.1638      2.3039      0.0892     20.9750     23.8894    142.2892
  1713.2000      8.1638      2.3156      0.1262     20.2673     24.3818    131.7442
  1713.3000      8.1624      2.3549      0.2034     17.8868     24.6364    124.5179
  1713.4000      8.1624      2.3921      0.2465     15.6316     24.3025    118.2182
  1713.5000      8.1642      2.4110      0.2220     14.4856     23.5181    113.3718
  1713.6000      8.1642      2.4096      0.2306     14.5670     22.6541    112.5770
  1713.7000      8.1642      2.3873      0.1898     15.9205     21.8447    110.9718
  1713.8000      8.1634      2.3531      0.1380     17.9922     20.9909    107.5915
  1713.9000      8.1634      2.3172      0.1379     20.1710     20.2728    109.0830
  1714.0000      8.1660      2.2796      0.0379     22.4509     19.8819    115.2941
  1714.1000      8.1660      2.2488     -0.0037     24.3161     19.6518    117.6416
  1714.2000      8.1660      2.2385      0.0119     24.9375     19.4069    112.9207
  1714.3000      8.1654      2.2470      0.0265     24.4227     19.1520    107.9042
  1714.4000      8.1654      2.2664      0.0273     23.2498     18.8453    107.7737
  1714.5000      8.1637      2.2975      0.0526     21.3620     18.5628    111.1830
