~Version Information
VERS.                      2.0: CWLS Log ASCII Standard - VERSION 2.0
WRAP.                       NO: One line per depth step
~Well Information Block
STRT.FT                -7.0000: 
STOP.FT              2389.2500: 
STEP.FT                 0.2500: 
NULL.                -999.2500: 
COMP.          Pioneer Natural Resources: COMPANY
WELL.            Victory 12-14: WELL
FLD.           Purgatorie River: FIELD
LOC.           2434' FNL & 188' FWL------: LOCATION
PROV.                       CO: PROVINCE
CNTY.               Las Animas: COUNTRY
SRVC.          Patterson Wireline: SERVICE COMPANY
DATE.          Fri Apr 22 14:29:17 2005: LOG DATE
UWI.           05 071 08332 00: UNIQUE WELL ID
~Curve Information Block
DEPT.FT            0 000 00 00: Depth
CCL.                          : Casing Collar Locator
TT3.usec                      : CBL 3' Travel Time
AMP3.mV                       : CBL 3' Amplitude
GR.GAPI                       : Gamma Ray
~Parameter Information Block
~A  Depth       CCL         TT3         AMP3         GR     
# ...
   294.5000      0.0000    299.7619     26.2168     69.1537
   294.7500      0.0000    299.8917     24.9384     66.9229
   295.0000      0.0000    300.0796     23.4820     64.8455
   295.2500      0.0000    300.3295     21.9900     63.4448
   295.5000      0.0000    300.6837     20.5730     62.6795
   295.7500      0.0000    301.3203     19.2739     62.1785
   296.0000      0.0000    302.9872     18.0875     61.4513
   296.2500      0.0000    308.0250     16.9966     59.9584
   296.5000      0.0000    321.7871     15.9891     57.4022
   296.7500      0.0000    352.6190     15.0552     54.2993
   297.0000      0.0000    407.5737     14.1833     51.9011
   297.2500      0.0000    484.6468     13.3661     51.0238
   297.5000      0.0000    569.2434     12.6102     51.1513
   297.7500      0.0000    641.7211     11.9335     51.1397
   298.0000      0.0000    690.3594     11.3524     50.5033
   298.2500      0.0000    716.5868     10.8724     49.5262
   298.5000      0.0000    728.9918     10.4918     48.5491
   298.7500      0.0000    735.0696     10.2042     47.7926
   299.0000      0.0000    738.3895      9.9914     47.6302
   299.2500      0.0000    740.1789      9.8222     48.4130
   299.5000      0.0000    741.2093      9.6699     49.9993
   299.7500      0.0000    742.5025      9.5276     51.6470
   300.0000      0.0000    745.4976      9.4035     52.4384
   300.2500      0.0000    751.7410      9.3065     52.0751
   300.5000      0.0000    761.4355      9.2373     51.4204
   300.7500      0.0000    771.4497      9.1857     51.9193
   301.0000      0.0000    776.0168      9.1351     54.1744
   301.2500      0.0000    771.8069      9.0761     57.2452
   301.5000      0.0000    762.7441      9.0162     59.4694
   301.7500      0.0000    758.0110      8.9673     59.9453
   302.0000      0.0000    764.2040      8.9277     59.2398
   302.2500      0.0000    779.7130      8.8832     58.6831
   302.5000      0.0000    796.8020      8.8274     58.9901
   302.7500      0.0000    808.8849      8.7710     59.6309
   303.0000      0.0000    815.6575      8.7310     59.5247
   303.2500      0.0000    821.4633      8.7162     58.1578
   303.5000      0.0000    829.9381      8.7237     55.9719
   303.7500      0.0000    841.1008      8.7430     53.7587
   304.0000      0.0000    852.4935      8.7595     51.7191
   304.2500      0.0000    861.5637      8.7597     49.2956
   304.5000      0.0000    866.9293      8.7411     46.1872
   304.7500      0.0000    868.0954      8.7161     43.2641
   305.0000      0.0000    864.4362      8.7015     41.9780
   305.2500      0.0000    854.9933      8.7051     43.0044
   305.5000      0.0000    840.2201      8.7218     45.8842
   305.7500      0.0000    824.2014      8.7379     49.8497
   306.0000      0.0000    813.6087      8.7378     54.6123
   306.2500      0.0000    812.1633      8.7106     60.3718
   306.5000      0.0000    815.7319      8.6585     67.1808
   306.7500      0.0000    814.8519      8.5983     74.1566
   307.0000      0.0000    803.5588      8.5491     79.3231
   307.2500      0.0000    785.3610      8.5144     80.8145
   307.5000      0.0000    769.8510      8.4822     78.7450
   307.7500      0.0000    763.6461      8.4437     75.6826
   308.0000      0.0000    764.9770      8.4044     74.7619
   308.2500      0.0000    766.7076      8.3763     77.2246
   308.5000      0.0000    763.6549      8.3638     81.8502
   308.7500      0.0000    756.3781      8.3633     86.3581
   309.0000      0.0000    748.7107      8.3703     88.9847
   309.2500      0.0000    743.4279      8.3817     89.2012
   309.5000      0.0000    740.8809      8.3894     87.7654
   309.7500      0.0000    740.4912      8.3807     86.1482
   310.0000      0.0000    742.4633      8.3502     85.3683
   310.2500      0.0000    748.1956      8.3072     85.1436
   310.5000      0.0000    759.3156      8.2663     84.4219
   310.7500      0.0000    775.9291      8.2320     82.7903
   311.0000      0.0000    795.4226      8.2015     81.0936
   311.2500      0.0000    812.9698      8.1761     80.6686
   311.5000      0.0000    823.3160      8.1611     82.3752
   311.7500      0.0000    823.0261      8.1527     86.3955
   312.0000      0.0000    813.1014      8.1369     92.3382
   312.2500      0.0000    800.2662      8.1057     99.0961
   312.5000      0.0000    793.7086      8.0660    104.8301
   312.7500      0.0000    798.2626      8.0288    107.6443
   313.0000      0.0000    810.3356      7.9960    106.9481
   313.2500      0.0000    820.7078      7.9641    104.2600
   313.5000      0.0000    821.3160      7.9361    101.9808
   313.7500      0.0000    810.5236      7.9212    100.9800
   314.0000      0.0000    793.5995      7.9238     99.9668
   314.2500      0.0000    778.1654      7.9369     97.4567
   314.5000      0.0000    768.1698      7.9478     93.6558
   314.7500      0.0000    762.0669      7.9463     90.0010
   315.0000      0.0000    756.5060      7.9286     87.3940
   315.2500      0.0000    750.4009      7.8969     85.3991
   315.5000      0.0000    745.0300      7.8561     83.0318
   315.7500      0.0000    741.7075      7.8102     80.0685
   316.0000      0.0000    740.6449      7.7617     77.5528
   316.2500      0.0000    741.5992      7.7107     76.9857
   316.5000      0.0000    744.6821      7.6544     78.8564
   316.7500      0.0000    750.0629      7.5885     81.7909
   317.0000      0.0000    756.7336      7.5129     83.2571
   317.2500      0.0000    761.9063      7.4333     81.5764
   317.5000      0.0000    762.4708      7.3584     77.5299
   317.7500      0.0000    757.4756      7.2956     73.7395
   318.0000      0.0000    748.7458      7.2478     72.3126
   318.2500      0.0000    739.1215      7.2124     73.1587
   318.5000      0.0000    730.8083      7.1827     74.3634
   318.7500      0.0000    725.1011      7.1493     73.7912
   319.0000      0.0000    722.2479      7.0995     70.5527
   319.2500      0.0000    721.2361      7.0192     65.6085
   319.5000      0.0000    720.7968      6.9018     61.0953
   319.7500      0.0000    720.9808      6.7557     58.7528
   320.0000      0.0000    722.9422      6.6004     58.8006
   320.2500      0.0000    727.0109      6.4513     60.2070
   320.5000      0.0000    731.8226      6.3125     61.6925
   320.7500      0.0000    735.5190      6.1845     62.4524
   321.0000      0.0000    737.3105      6.0628     62.5229
   321.2500      0.0000    738.0768      5.9231     62.7132
   321.5000      0.0000    740.2963      5.7239     63.6315
   321.7500      0.0000    747.7543      5.4460     64.7255
   322.0000      0.0000    764.5568      5.1357     64.9705
   322.2500      0.0000    792.7643      4.8908     64.3590
   322.5000      0.0000    829.7831      4.7902     63.8106
   322.7500      0.0000    868.9185      4.8432     63.6982
   323.0000      0.0000    904.1627      5.0044     63.3804
   323.2500      0.0000    933.6970      5.2221     62.3397
   323.5000     -2.0000    957.0204      5.4625     61.1427
   323.7500     -2.0000    970.1282      5.7013     60.8930
   324.0000     -2.0000    967.0220      5.9103     61.7465
   324.2500      0.0000    946.4860      6.0673     62.2451
   324.5000      0.0000    914.2489      6.1894     60.6114
   324.7500      0.0000    877.1315      6.3588     56.8194
   325.0000      0.0000    838.1097      6.6937     52.8663
   325.2500      0.0000    798.8300      7.2494     50.7914
   325.5000      0.0000    763.5855      7.9335     50.9333
   325.7500      0.0000    737.5797      8.5439     52.3403
   326.0000      0.0000    722.3032      8.9125     54.2650
   326.2500      0.0000    714.6895      9.0108     56.7703
   326.5000      0.0000    710.5392      8.9263     60.3534
   326.7500      0.0000    707.6719      8.7730     65.5519
   327.0000      0.0000    706.2134      8.6334     72.6269
   327.2500      0.0000    707.1368      8.5480     80.9561
   327.5000      0.0000    710.9065      8.5198     88.6838
   327.7500      0.0000    716.6522      8.5258     93.5780
