~Version Information
VERS.                      2.0: CWLS Log ASCII Standard - VERSION 2.0
WRAP.                       NO: One line per depth step
~Well Information Block
STRT.FT               550.0000: 
STOP.FT              2042.5000: 
STEP.FT                 0.1000: 
NULL.                -999.2500: 
COMP.          Petrogulf Corporation: COMPANY
WELL.          Robinson 15-12V: WELL
FLD.           Purgatorie River: FIELD
LOC.           1788' FNL & 466' FWL: LOCATION
PROV.                 Colorado: PROVINCE
CNTY.               Las Animas: COUNTRY
SRVC.                Patterson: SERVICE COMPANY
DATE.          Mon Sep 12 10:04:59 2005: LOG DATE
UWI.                          : UNIQUE WELL ID
~Curve Information Block
DEPT.FT            0 000 00 00: Depth
DCAL.in                       : CDL Caliper
RHOB.g/cc                     : CDL Bulk Density
RHOC.g/cc                     : CDL Density Correction
DPOR.pu                       : CDL Density Porosity
GR.GAPI                       : Gamma Ray
NPOR.pu                       : Neutron Porosity
~Parameter Information Block
~A  Depth       DCAL        RHOB        RHOC        DPOR         GR         NPOR    
# ...
  1231.6000      8.1405      2.4895      0.0826      9.7254    171.6005     28.4937
  1231.7000      8.1405      2.5163      0.0415      8.1028    169.0255     28.0353
  1231.8000      8.0104      2.5264      0.0190      7.4889    166.8387     27.7002
  1231.9000      8.0104      2.5299      0.0280      7.2763    162.3135     27.2600
  1232.0000      7.9807      2.5362      0.0393      6.8982    158.3505     26.9144
  1232.1000      7.9807      2.5519     -0.0001      5.9431    160.0863     26.9512
  1232.2000      7.9807      2.5714      0.0812      4.7652    166.6854     27.2010
  1232.3000      7.9805      2.5805      0.0860      4.2134    172.7822     27.3013
  1232.4000      7.9805      2.5779      0.0719      4.3696    176.2399     27.1457
  1232.5000      7.9777      2.5699      0.0712      4.8536    178.2213     26.9434
  1232.6000      7.9777      2.5594      0.0508      5.4900    179.2562     26.9242
  1232.7000      7.9777      2.5471      0.0828      6.2367    178.5564     27.2264
  1232.8000      7.9771      2.5310      0.0475      7.2130    177.6770     27.6681
  1232.9000      7.9771      2.5135      0.0478      8.2719    177.2795     28.0208
  1233.0000      7.9768      2.5011      0.0669      9.0236    175.0559     28.2264
  1233.1000      7.9768      2.4982      0.0125      9.1985    171.1844     28.2309
  1233.2000      7.9768      2.5048      0.0103      8.7997    169.4668     28.1886
  1233.3000      7.9903      2.5152      0.0416      8.1707    169.6937     28.3149
  1233.4000      7.9903      2.5234      0.0497      7.6740    168.1885     28.5360
  1233.5000      8.0484      2.5308      0.0262      7.2225    166.2490     28.6030
  1233.6000      8.0484      2.5428      0.0625      6.4989    167.4272     28.3527
  1233.7000      8.0484      2.5542      0.0883      5.8052    170.1545     27.7224
  1233.8000      8.0203      2.5550      0.0590      5.7589    172.9197     26.9565
  1233.9000      8.0203      2.5403      0.0656      6.6463    175.0909     26.3434
  1234.0000      7.9988      2.5142     -0.0068      8.2322    175.0151     26.0293
  1234.1000      7.9988      2.4943     -0.0249      9.4351    173.6664     26.1903
  1234.2000      7.9988      2.4912     -0.0132      9.6222    171.6557     26.5122
  1234.3000      8.0033      2.4919      0.0088      9.5790    168.5250     26.6597
  1234.4000      8.0033      2.4878     -0.0178      9.8278    166.0807     26.8355
  1234.5000      8.0181      2.4876     -0.0576      9.8448    166.4562     27.0457
  1234.6000      8.0181      2.4940     -0.0067      9.4517    168.4439     27.2230
  1234.7000      8.0181      2.5026     -0.0248      8.9352    171.4541     27.5758
  1234.8000      8.0399      2.5126      0.0267      8.3250    176.8587     28.0163
  1234.9000      8.0399      2.5213     -0.0105      7.8008    182.3319     28.2871
  1235.0000      8.0986      2.5271      0.0104      7.4483    182.1857     28.6548
  1235.1000      8.0986      2.5337      0.0144      7.0511    175.6188     29.3657
  1235.2000      8.0986      2.5377      0.0559      6.8084    167.1165     29.6289
  1235.3000      8.1154      2.5333      0.0034      7.0721    160.9790     28.8788
  1235.4000      8.1154      2.5277     -0.0128      7.4149    160.0374     28.0374
  1235.5000      8.1675      2.5260      0.0284      7.5150    163.7128     27.8507
  1235.6000      8.1675      2.5282      0.0045      7.3844    167.8692     27.9405
  1235.7000      8.1675      2.5386      0.0051      6.7508    169.1970     28.0124
  1235.8000      8.1133      2.5524      0.0478      5.9145    167.8325     28.0342
  1235.9000      8.1133      2.5528      0.0666      5.8937    165.6137     27.9258
  1236.0000      8.0844      2.5382     -0.0008      6.7783    164.6072     27.8151
  1236.1000      8.0844      2.5320     -0.0180      7.1500    166.3953     27.7034
  1236.2000      8.0844      2.5467      0.0514      6.2582    170.4201     27.4766
  1236.3000      8.0499      2.5661      0.0746      5.0868    175.0616     27.3722
  1236.4000      8.0499      2.5726      0.0710      4.6900    179.4769     27.4941
  1236.5000      8.0432      2.5671      0.0544      5.0232    180.8429     27.5146
  1236.6000      8.0432      2.5611      0.0495      5.3853    176.0580     27.3880
  1236.7000      8.0432      2.5572      0.0584      5.6219    168.2976     27.3811
  1236.8000      8.0346      2.5491      0.0590      6.1136    163.8458     27.5706
  1236.9000      8.0346      2.5446      0.0151      6.3851    164.6083     27.7706
  1237.0000      8.0397      2.5516      0.0658      5.9665    166.8382     27.7779
  1237.1000      8.0397      2.5525      0.1210      5.9067    166.8382     27.4918
  1237.2000      8.0397      2.5358      0.0581      6.9240    165.4778     27.0946
  1237.3000      8.0441      2.5201      0.0190      7.8707    163.7262     26.8618
  1237.4000      8.0441      2.5272      0.0273      7.4412    162.0824     26.8145
  1237.5000      8.0588      2.5500      0.0549      6.0634    160.7282     26.6689
  1237.6000      8.0588      2.5609      0.0841      5.4029    158.1723     26.0265
  1237.7000      8.0588      2.5441      0.0368      6.4168    156.2142     24.9896
  1237.8000      8.0316      2.5110      0.0099      8.4272    157.2492     24.1931
  1237.9000      8.0316      2.4813      0.0122     10.2246    158.6985     24.2353
  1238.0000      8.0299      2.4675      0.0088     11.0630    158.1691     25.0006
  1238.1000      8.0299      2.4690      0.0100     10.9711    157.7988     25.4674
  1238.2000      8.0299      2.4728      0.0244     10.7368    159.8781     25.1179
  1238.3000      8.0415      2.4716      0.0045     10.8134    162.4702     24.7677
  1238.4000      8.0415      2.4809      0.0266     10.2508    162.7064     25.3483
  1238.5000      8.1148      2.5166      0.0602      8.0850    162.3821     26.5552
  1238.6000      8.1148      2.5598      0.1622      5.4672    163.9001     27.5396
  1238.7000      8.1148      2.5824      0.1621      4.0945    166.2207     28.2474
  1238.8000      8.1570      2.5860      0.1591      3.8790    168.4458     28.8885
  1238.9000      8.1570      2.5803      0.1600      4.2247    171.1243     29.2279
  1239.0000      8.1427      2.5709      0.1800      4.7952    174.9241     29.1606
  1239.1000      8.1427      2.5690      0.1088      4.9111    178.4475     29.0593
  1239.2000      8.1427      2.5754      0.1222      4.5227    179.2280     29.0568
  1239.3000      8.1090      2.5738      0.1106      4.6166    176.6178     28.8019
  1239.4000      8.1090      2.5577      0.0740      5.5942    173.0173     28.3341
  1239.5000      8.0196      2.5363      0.0611      6.8885    171.7370     28.0946
  1239.6000      8.0196      2.5199      0.0429      7.8862    169.9472     27.8417
  1239.7000      8.0196      2.5134      0.0266      8.2771    162.6744     27.3485
  1239.8000      8.0568      2.5170      0.0093      8.0626    154.4352     27.2654
  1239.9000      8.0568      2.5324      0.0182      7.1296    151.9236     27.6615
  1240.0000      7.9734      2.5701      0.0044      4.8398    152.6149     27.7775
  1240.1000      7.9734      2.6276      0.0974      1.3605    149.9603     27.4080
  1240.2000      7.9734      2.6756      0.1377     -1.5529    143.4135     26.9622
  1240.3000      7.9412      2.6990      0.0902     -2.9677    134.3943     26.7098
  1240.4000      7.9412      2.7129      0.1235     -3.8110    123.2327     26.7054
  1240.5000      7.9417      2.7312      0.1201     -4.9227    112.3501     26.7264
  1240.6000      7.9417      2.7493      0.1200     -6.0187    103.7198     26.4704
  1240.7000      7.9417      2.7519      0.1110     -6.1730     97.7353     25.9421
  1240.8000      7.9353      2.7296      0.0573     -4.8229     95.3088     25.1712
  1240.9000      7.9353      2.6933     -0.0069     -2.6214     95.5832     24.1900
  1241.0000      7.9292      2.6617     -0.0189     -0.7076     95.6162     23.1746
  1241.1000      7.9292      2.6435     -0.0619      0.3965     95.4376     22.5085
