~Version Information
VERS.                      2.0: CWLS Log ASCII Standard - VERSION 2.0
WRAP.                       NO: One line per depth step
~Well Information Block
STRT.FT               350.0000: 
STOP.FT              1390.0000: 
STEP.FT                 0.1000: 
NULL.                -999.2500: 
COMP.          Petrogulf Corporation: COMPANY
WELL.             Leier 17-42R: WELL
FLD.           Purgatorie River: FIELD
LOC.           2398' FNL & 1109' FEL: LOCATION
PROV.                 Colorado: PROVINCE
CNTY.               Las Animas: COUNTRY
SRVC.                Patterson: SERVICE COMPANY
DATE.          Tue Oct 18 07:06:44 2005: LOG DATE
UWI.                          : UNIQUE WELL ID
~Curve Information Block
DEPT.FT            0 000 00 00: Depth
DCAL.in                       : CDL Caliper
RHOB.g/cc                     : CDL Bulk Density
RHOC.g/cc                     : CDL Density Correction
DPOR.pu                       : CDL Density Porosity
GR.GAPI                       : Gamma Ray
NPOR.pu                       : Neutron Porosity
~Parameter Information Block
~A  Depth       DCAL        RHOB        RHOC        DPOR         GR         NPOR    
# ...
  1242.8000      7.9188      2.5855      0.0735      3.9061    110.8201     25.6013
  1242.9000      7.9188      2.5796      0.0247      4.2663    104.5496     25.2928
  1243.0000      7.9143      2.5922      0.0733      3.5058    100.6497     24.9120
  1243.1000      7.9143      2.6116      0.0801      2.3244     95.4935     24.4060
  1243.2000      7.9143      2.6184      0.0725      1.9126     87.2094     24.0151
  1243.3000      7.8896      2.6157      0.0654      2.0815     80.5301     23.8505
  1243.4000      7.8896      2.6184      0.0183      1.9140     78.0318     23.5356
  1243.5000      7.8645      2.6287      0.0906      1.2889     75.7254     23.1081
  1243.6000      7.8645      2.6384      0.0410      0.7054     70.0527     22.9193
  1243.7000      7.8645      2.6467      0.0781      0.2029     62.8457     22.7334
  1243.8000      7.8319      2.6483      0.0743      0.1007     59.0245     22.1804
  1243.9000      7.8319      2.6378      0.0623      0.7417     59.0748     21.5825
  1244.0000      7.7982      2.6269      0.0484      1.4024     59.8353     21.4456
  1244.1000      7.7982      2.6271      0.1150      1.3898     60.8962     21.5789
  1244.2000      7.7982      2.6344      0.0845      0.9438     63.7035     21.4813
  1244.3000      7.8005      2.6427      0.1160      0.4403     66.0489     21.1111
  1244.4000      7.8005      2.6545      0.0576     -0.2727     64.9292     20.4955
  1244.5000      7.8038      2.6667      0.1280     -1.0109     63.0927     19.6756
  1244.6000      7.8038      2.6632      0.1131     -0.7970     64.1404     18.9139
  1244.7000      7.8038      2.6428      0.0623      0.4380     67.4595     18.3232
  1244.8000      7.8085      2.6142      0.0326      2.1683     72.9462     17.7898
  1244.9000      7.8085      2.5752      0.0427      4.5363     80.5486     17.4444
  1245.0000      7.8191      2.5327     -0.0136      7.1097     88.5671     17.6606
  1245.1000      7.8191      2.5058     -0.0042      8.7390     94.5373     18.5555
  1245.2000      7.8191      2.4942     -0.0072      9.4398     96.9560     19.7598
  1245.3000      7.8279      2.4881      0.0005      9.8136    100.3624     20.8223
  1245.4000      7.8279      2.4909      0.0089      9.6406    111.3759     21.6803
  1245.5000      7.8370      2.5019      0.0462      8.9740    129.6559     22.3214
  1245.6000      7.8370      2.5098      0.0714      8.4964    146.3223     22.6344
  1245.7000      7.8370      2.5145      0.0395      8.2118    154.4365     23.1481
  1245.8000      7.8187      2.5213      0.0937      7.7980    159.2565     24.4242
  1245.9000      7.8187      2.5230      0.1641      7.6960    167.8748     25.9171
  1246.0000      7.7881      2.5147      0.1202      8.1992    177.5542     26.8798
  1246.1000      7.7881      2.5073      0.0997      8.6510    183.5049     27.3814
  1246.2000      7.7881      2.5055      0.0893      8.7592    186.6386     27.7368
  1246.3000      7.8074      2.5087      0.0785      8.5634    188.3763     28.0692
  1246.4000      7.8074      2.5270      0.1055      7.4569    187.6237     28.5718
  1246.5000      7.8536      2.5643      0.1228      5.1956    186.2449     29.2595
  1246.6000      7.8536      2.5962      0.2499      3.2610    186.8805     29.6622
  1246.7000      7.8536      2.5947      0.1931      3.3517    189.1768     29.4825
  1246.8000      7.9129      2.5675      0.1507      5.0012    192.5506     29.2053
  1246.9000      7.9129      2.5427      0.1527      6.5039    192.9313     29.2545
  1247.0000      7.9162      2.5368      0.0931      6.8601    187.9553     29.3548
  1247.1000      7.9162      2.5462      0.1090      6.2927    184.4260     29.3151
  1247.2000      7.9162      2.5518      0.1283      5.9528    186.1108     29.1977
  1247.3000      7.9093      2.5429      0.0904      6.4930    190.1311     28.9737
  1247.4000      7.9093      2.5253      0.0700      7.5571    193.9949     28.7670
  1247.5000      7.9122      2.5092      0.0554      8.5315    194.7248     28.8957
  1247.6000      7.9122      2.5060      0.0357      8.7302    191.3284     29.3460
  1247.7000      7.9122      2.5164      0.0854      8.0973    186.3650     29.5970
  1247.8000      7.9037      2.5310      0.0597      7.2103    181.7289     29.3068
  1247.9000      7.9037      2.5535      0.0293      5.8488    180.4229     28.8576
  1248.0000      7.9046      2.5823      0.1139      4.1007    184.4769     28.6681
  1248.1000      7.9046      2.5978      0.0772      3.1618    188.4941     28.4747
  1248.2000      7.9046      2.5945      0.1140      3.3632    186.8264     27.9323
  1248.3000      7.9130      2.5854      0.0738      3.9168    180.4799     27.4637
  1248.4000      7.9130      2.5823      0.0920      4.1008    171.6054     27.5089
  1248.5000      7.9146      2.5831      0.0892      4.0567    164.9250     27.8493
  1248.6000      7.9146      2.5770      0.0766      4.4215    166.5353     28.1037
  1248.7000      7.9146      2.5599      0.0168      5.4604    174.5656     28.2035
  1248.8000      7.9188      2.5353      0.0137      6.9520    181.7765     28.2016
  1248.9000      7.9188      2.5163      0.0061      8.1021    184.3866     28.1249
  1249.0000      7.9276      2.5102      0.0403      8.4725    183.0677     28.0434
  1249.1000      7.9276      2.5057      0.0571      8.7433    181.4588     28.0216
  1249.2000      7.9276      2.5051     -0.0251      8.7793    181.6782     28.0499
  1249.3000      7.9313      2.5225      0.0349      7.7281    181.7387     28.0056
  1249.4000      7.9313      2.5477      0.0388      6.1993    182.0284     27.9407
  1249.5000      7.9427      2.5604      0.0469      5.4318    183.2448     28.1407
  1249.6000      7.9427      2.5538      0.0436      5.8310    183.1794     28.5831
  1249.7000      7.9427      2.5323      0.0804      7.1312    183.3568     29.0858
  1249.8000      7.9434      2.5024      0.0370      8.9439    184.7225     29.5719
  1249.9000      7.9434      2.4719      0.0530     10.7934    185.1287     29.8561
  1250.0000      7.9438      2.4560     -0.0158     11.7580    184.8944     29.9112
  1250.1000      7.9438      2.4678      0.0158     11.0429    185.7907     29.9828
  1250.2000      7.9438      2.4933      0.0845      9.4965    188.9990     30.1403
  1250.3000      7.9405      2.5079      0.0628      8.6150    194.0520     30.3420
  1250.4000      7.9405      2.5075      0.0756      8.6392    195.4954     30.5304
  1250.5000      7.9372      2.5018      0.0511      8.9815    190.3415     30.6168
  1250.6000      7.9372      2.4970      0.0464      9.2741    185.2613     30.5757
  1250.7000      7.9372      2.4948      0.0404      9.4066    184.6637     30.3410
  1250.8000      7.9383      2.5045     -0.0167      8.8152    185.0710     29.8058
  1250.9000      7.9383      2.5243      0.0776      7.6211    184.3204     29.0844
  1251.0000      7.9349      2.5319      0.0833      7.1552    184.0425     28.6484
  1251.1000      7.9349      2.5215      0.0539      7.7907    185.8123     28.7561
  1251.2000      7.9349      2.4972      0.0486      9.2626    189.1363     29.0413
  1251.3000      7.9370      2.4593      0.0156     11.5576    192.6327     29.0677
  1251.4000      7.9370      2.4216      0.0029     13.8445    193.9106     28.9452
  1251.5000      7.9349      2.4038     -0.0150     14.9223    192.1343     28.8502
  1251.6000      7.9349      2.4089     -0.0234     14.6095    190.5341     28.7404
  1251.7000      7.9349      2.4221      0.0332     13.8096    190.3485     28.7164
  1251.8000      7.9386      2.4252      0.0566     13.6260    186.7706     28.8913
  1251.9000      7.9386      2.4168      0.0422     14.1330    180.0021     29.1636
  1252.0000      7.9387      2.4140      0.0332     14.3059    179.0101     29.3861
  1252.1000      7.9387      2.4237      0.0767     13.7125    185.6431     29.5338
  1252.2000      7.9387      2.4386      0.0505     12.8122    190.3250     29.6378
  1252.3000      7.9351      2.4550      0.0664     11.8204    188.5966     29.6996
