~Version Information
VERS.                      2.0: CWLS Log ASCII Standard - VERSION 2.0
WRAP.                       NO: One line per depth step
~Well Information Block
STRT.FT                -8.2500: 
STOP.FT              1795.0000: 
STEP.FT                 0.2500: 
NULL.                -999.2500: 
COMP.          Petrogulf Corporation: COMPANY
WELL.           Montoya 7-21 R: WELL
FLD.           Purgatoire River: FIELD
LOC.           445' FNL & 1942' FWL----: LOCATION
PROV.                 Colorado: PROVINCE
CNTY.               Las Animas: COUNTRY
SRVC.                         : SERVICE COMPANY
DATE.          Fri Sep 30 15:33:54 2005: LOG DATE
UWI.                          : UNIQUE WELL ID
~Curve Information Block
DEPT.FT            0 000 00 00: Depth
GR.GAPI                       : Gamma Ray
CCL.                          : Casing Collar Locator
TT3.usec                      : CBL 3' Travel Time
AMP3.mV                       : CBL 3' Amplitude
~Parameter Information Block
~A  Depth        GR         CCL         TT3         AMP3    
# ...
   695.2500     61.5614      0.0000    281.9076     49.5391
   695.5000     62.5158      0.0000    281.8929     50.9975
   695.7500     63.9208      0.0000    281.8537     51.6778
   696.0000     65.2783      0.0000    281.8010     51.6202
   696.2500     65.8544      0.0000    281.7625     50.9788
   696.5000     65.3626      0.0000    281.7587     49.9326
   696.7500     64.2715      0.0000    281.7869     48.5624
   697.0000     63.3374      0.0000    281.8263     46.8246
   697.2500     62.9752      0.0000    281.8588     44.6543
   697.5000     63.0417      0.0000    281.8867     42.1077
   697.7500     63.0809      0.0000    281.9337     39.4193
   698.0000     62.8134      0.0000    282.0302     36.9149
   698.2500     62.3855      0.0000    282.1938     34.8385
   698.5000     62.1389      0.0000    282.4200     33.2378
   698.7500     62.3316      0.0000    282.6830     32.0088
   699.0000     63.1693      0.0000    282.9399     31.0375
   699.2500     64.8631      0.0000    283.1354     30.3002
   699.5000     67.3775      0.0000    283.2122     29.8674
   699.7500     70.2478      0.0000    283.1350     29.8647
   700.0000     72.9548      0.0000    282.9086     30.4519
   700.2500     75.5218      0.0000    282.5739     31.7984
   700.5000     78.5425      0.0000    282.1889     34.0037
   700.7500     82.6103      0.0000    281.8119     36.9823
   701.0000     87.8354      0.0000    281.4914     40.4055
   701.2500     93.8713      0.0000    281.2596     43.7766
   701.5000    100.1976      0.0000    281.1257     46.6340
   701.7500    106.2867      0.0000    281.0729     48.7851
   702.0000    111.6647      0.0000    281.0400     50.4004
   702.2500    115.9689      0.0000    280.8635     51.8577
   702.5000    119.0185      0.0000    280.1975     53.4418
   702.7500    120.8643      0.0000    278.5332     55.1639
   703.0000    121.6876      0.0000    275.5084     56.8275
   703.2500    121.5506      0.0000    271.3823     58.2213
   703.5000    120.2571      0.0000    267.0573     59.2595
   703.7500    117.5835      0.0000    263.3418     60.0089
   704.0000    113.8301      0.0000    260.3100     60.6079
   704.2500    110.1422      0.0000    257.7193     61.1147
   704.5000    108.0095      0.0000    255.9064     61.3910
   704.7500    108.2729      0.0000    255.8740     61.1398
   705.0000    110.7121      0.0000    258.4522     60.0658
   705.2500    114.6256      0.0000    263.4607     58.0344
   705.5000    119.5901      0.0000    269.6035     55.1693
   705.7500    125.4362      0.0000    275.1924     51.8892
   706.0000    131.4578      0.0000    279.1201     48.8101
   706.2500    135.7807      0.0000    281.2665     46.4874
   706.5000    135.8112      0.0000    282.1438     45.1636
   706.7500    129.8587      0.0000    282.3395     44.7248
   707.0000    118.8682      0.0000    282.2477     44.8270
   707.2500    106.5508      0.0000    282.0766     45.0206
   707.5000     97.2060      0.0000    281.9298     44.8632
   707.7500     92.8627      0.0000    281.8545     44.1038
   708.0000     92.5085      0.0000    281.8548     42.8427
   708.2500     94.1130      0.0000    281.8951     41.4695
   708.5000     96.9551      0.0000    281.9264     40.3890
   708.7500    101.5744      0.0000    281.9656     39.7643
   709.0000    107.9882      0.0000    282.2004     39.4344
   709.2500    114.9544      0.0000    283.0451     38.9858
   709.5000    121.1232      0.0000    284.9765     37.9489
   709.7500    126.1035      0.0000    288.0493     36.0816
   710.0000    129.8648      0.0000    291.4382     33.5494
   710.2500    131.5826      0.0000    293.7352     30.8097
   710.5000    129.9606      0.0000    294.0405     28.3500
   710.7500    125.0397      0.0000    292.6981     26.5657
   711.0000    119.2267      0.0000    290.8216     25.7160
   711.2500    115.8728      0.0000    289.3003     25.8038
   711.5000    116.7796      0.0000    288.3789     26.5352
   711.7500    121.3355      0.0000    287.8752     27.5178
   712.0000    127.6451      1.2695    287.4725     28.5036
   712.2500    133.8013      0.0000    286.7963     29.4847
   712.5000    138.4913      0.0000    285.4419     30.7080
   712.7500    141.4571      0.0000    283.2364     32.6470
   713.0000    143.6539      0.0000    280.6258     35.7428
   713.2500    146.4630      0.0000    278.6158     39.8835
   713.5000    150.5287      0.0000    278.0050     44.1055
   713.7500    155.4544      0.0000    278.7036     46.9998
   714.0000    160.2973      0.0000    279.9638     47.6190
   714.2500    163.8685      0.0000    281.1369     46.1241
   714.5000    164.9111      0.0000    282.0290     43.6380
   714.7500    162.9053      0.0000    282.7077     41.4675
   715.0000    158.9511      0.0000    283.2388     40.3285
   715.2500    155.3096      0.0000    283.6274     40.0828
   715.5000    153.6157      0.0000    283.8816     40.0202
   715.7500    153.4558      0.0000    284.0557     39.3701
   716.0000    152.7256      0.0000    284.2624     37.7066
   716.2500    149.4840      0.0000    284.6784     35.1054
   716.5000    143.7367      0.0000    285.5738     32.0499
   716.7500    137.6114      0.0000    287.2418     29.1581
   717.0000    133.7553      0.0000    289.7029     26.8731
   717.2500    133.3363      0.0000    292.4384     25.2999
   717.5000    135.3770      0.0000    294.7868     24.2516
   717.7500    137.7616      0.0000    296.9105     23.4107
   718.0000    138.6543      0.0000    300.0130     22.5010
   718.2500    137.1991      0.0000    305.0488     21.4268
   718.5000    133.6548      0.0000    311.2997     20.3280
   718.7500    129.3407      0.0000    316.5492     19.5104
   719.0000    126.0495      0.0000    318.5512     19.2965
   719.2500    124.9520      0.0000    316.2862     19.8862
   719.5000    125.9972      0.0000    310.3538     21.2872
   719.7500    128.4219      0.0000    302.6450     23.3374
   720.0000    131.5313      0.0000    295.3870     25.8159
   720.2500    134.7050      0.0000    289.9964     28.5757
   720.5000    136.8568      0.0000    286.6347     31.5964
   720.7500    136.5419      0.0000    284.6927     34.9209
   721.0000    133.1556      0.0000    283.5205     38.5407
   721.2500    128.0006      0.0000    282.7676     42.3314
   721.5000    123.6974      0.0000    282.3312     46.0822
   721.7500    122.0876      0.0000    282.1834     49.5528
   722.0000    122.6921      0.0000    282.2597     52.4964
   722.2500    123.4460      0.0000    282.4468     54.6877
   722.5000    122.7512      0.0000    282.6265     55.9926
   722.7500    120.5154      0.0000    282.7101     56.3916
   723.0000    117.6710      0.0000    282.6516     55.8922
   723.2500    115.3564      0.0000    282.4566     54.4544
   723.5000    114.3712      0.0000    282.1907     52.1003
   723.7500    114.8509      0.0000    281.9657     49.1673
   724.0000    116.2753      0.0000    281.8900     46.4240
   724.2500    117.8995      0.0000    282.0157     44.8028
   724.5000    119.4174      0.0000    282.3164     44.8529
   724.7500    121.4117      0.0000    282.7087     46.3687
   725.0000    124.8690      0.0000    283.0961     48.5698
   725.2500    129.9659      0.0000    283.4052     50.6683
   725.5000    135.5439      0.0000    283.5916     52.2881
   725.7500    139.9619      0.0000    283.5957     53.4692
   726.0000    142.2122      0.0000    283.2521     54.4611
   726.2500    142.1781      0.0000    282.1762     55.5960
   726.5000    140.2543      0.0000    279.7486     57.2806
   726.7500    137.1610      0.0000    275.4082     59.9316
   727.0000    133.9762      0.0000    269.2452     63.7225
   727.2500    131.7451      0.0000    262.3399     68.2850
   727.5000    130.7701      0.0000    256.2653     72.7195
   727.7500    130.5036      0.0000    252.0847     76.0582
   728.0000    130.3253      0.0000    249.8473     77.8328
   728.2500    130.2687      0.0000    248.9424     78.2347
   728.5000    131.0204      0.0000    248.7487     77.7513
