~Version Information
VERS.                      2.0: CWLS Log ASCII Standard - VERSION 2.0
WRAP.                       NO: One line per depth step
~Well Information Block
STRT.FT               830.0000: 
STOP.FT              3122.7000: 
STEP.FT                 0.1000: 
NULL.                -999.2500: 
COMP.          Pioneer Natural Resources: COMPANY
WELL.              Stones 24-8: WELL
FLD.           Purgatoire River: FIELD
LOC.           648' FSL & 2264' FWL: LOCATION
PROV.                 Colorado: PROVINCE
CNTY.               Las Animas: COUNTRY
SRVC.                Patterson: SERVICE COMPANY
DATE.          Wed Jan 19 15:33:00 2005: LOG DATE
UWI.           05 071 07945 00: UNIQUE WELL ID
~Curve Information Block
DEPT.FT            0 000 00 00: Depth
DCAL.in                       : CDL Caliper
RHOB.g/cc                     : CDL Bulk Density
RHOC.g/cc                     : CDL Density Correction
DPOR.pu                       : CDL Density Porosity
NPOR.pu                       : Neutron Porosity
GR.GAPI                       : Gamma Ray
~Parameter Information Block
~A  Depth       DCAL        RHOB        RHOC        DPOR        NPOR         GR     
# ...
  2193.2000      8.0136      2.5084      0.0212      8.5832     18.0069     98.5451
  2193.3000      8.0128      2.5145      0.0338      8.2134     17.7285    101.8666
  2193.4000      8.0128      2.5253      0.0625      7.5557     17.9916    101.2008
  2193.5000      8.0146      2.5321      0.0636      7.1427     18.9387     97.5743
  2193.6000      8.0146      2.5329      0.0329      7.0979     19.7807     96.1425
  2193.7000      8.0146      2.5308      0.0456      7.2265     20.0122     99.9695
  2193.8000      8.0219      2.5296      0.0339      7.2980     20.0303    109.7872
  2193.9000      8.0219      2.5364      0.0572      6.8833     20.3863    123.3643
  2194.0000      8.0275      2.5525      0.0548      5.9094     20.8729    135.9425
  2194.1000      8.0275      2.5670      0.0753      5.0280     21.2938    143.3442
  2194.2000      8.0275      2.5725      0.0489      4.6951     21.5909    144.0564
  2194.3000      8.0192      2.5714      0.0837      4.7628     21.5724    139.6353
  2194.4000      8.0192      2.5620      0.0747      5.3339     21.6412    130.8532
  2194.5000      8.0098      2.5448      0.0288      6.3738     21.9882    117.7642
  2194.6000      8.0098      2.5350      0.0198      6.9692     22.1251    108.0638
  2194.7000      8.0098      2.5478      0.0542      6.1965     21.9237    108.7825
  2194.8000      8.0082      2.5745      0.0850      4.5780     21.5995    117.4878
  2194.9000      8.0082      2.5838      0.1243      4.0098     21.2390    126.6398
  2195.0000      8.0103      2.5628      0.0708      5.2831     21.0169    130.4700
  2195.1000      8.0103      2.5369      0.0311      6.8530     21.1428    130.9140
  2195.2000      8.0103      2.5303      0.0601      7.2534     21.4331    130.4456
  2195.3000      8.0125      2.5416      0.0715      6.5667     21.7375    126.5862
  2195.4000      8.0125      2.5646      0.0617      5.1747     21.8938    122.2710
  2195.5000      8.0137      2.5923      0.0857      3.4985     21.7030    124.1061
  2195.6000      8.0137      2.6061      0.1088      2.6577     21.5073    130.5147
  2195.7000      8.0137      2.5943      0.0972      3.3772     21.5012    132.6547
  2195.8000      8.0152      2.5695      0.0444      4.8784     21.4056    127.1538
  2195.9000      8.0152      2.5468      0.0871      6.2532     21.5224    118.3488
  2196.0000      8.0185      2.5251      0.0757      7.5708     22.1801    112.3133
  2196.1000      8.0185      2.5099      0.0335      8.4896     22.9172    113.0461
  2196.2000      8.0185      2.5150      0.0386      8.1840     23.0492    119.2879
  2196.3000      8.0223      2.5316      0.0932      7.1778     22.8150    127.1319
  2196.4000      8.0223      2.5418      0.0855      6.5579     22.8101    133.7785
  2196.5000      8.0235      2.5439      0.0547      6.4301     22.9963    136.2921
  2196.6000      8.0235      2.5352      0.1062      6.9551     23.3326    136.0023
  2196.7000      8.0235      2.5162      0.0380      8.1101     23.7280    138.5282
  2196.8000      8.0237      2.5072      0.0620      8.6552     23.7729    144.0373
  2196.9000      8.0237      2.5152      0.0992      8.1704     23.4097    150.0335
  2197.0000      8.0232      2.5283      0.0734      7.3747     23.3295    154.1779
  2197.1000      8.0232      2.5469      0.0432      6.2468     23.9555    151.1399
  2197.2000      8.0232      2.5667      0.1084      5.0514     24.3485    142.7040
  2197.3000      8.0215      2.5701      0.0948      4.8440     23.7425    137.7847
  2197.4000      8.0215      2.5670      0.0277      5.0294     22.9239    138.9732
  2197.5000      8.0205      2.5714      0.1242      4.7658     22.9286    144.1681
  2197.6000      8.0205      2.5689      0.0871      4.9157     23.3278    147.8048
  2197.7000      8.0205      2.5596      0.0625      5.4781     22.9168    142.9146
  2197.8000      8.0197      2.5568      0.1160      5.6470     21.6306    133.3313
  2197.9000      8.0197      2.5606      0.1102      5.4175     20.4807    126.9175
  2198.0000      8.0168      2.5709      0.1083      4.7967     20.2007    125.1359
  2198.1000      8.0168      2.5894      0.0882      3.6711     20.4928    126.7583
  2198.2000      8.0168      2.6160      0.0704      2.0633     20.5304    129.3266
  2198.3000      8.0154      2.6421      0.1398      0.4795     20.3419    131.1230
  2198.4000      8.0154      2.6459      0.1150      0.2475     20.7018    132.5318
  2198.5000      8.0160      2.6223      0.0820      1.6759     21.4377    133.0271
  2198.6000      8.0160      2.5936      0.0648      3.4205     21.6920    131.5734
  2198.7000      8.0160      2.5809      0.0630      4.1893     21.4122    129.7032
  2198.8000      8.0157      2.5875      0.0697      3.7861     21.1523    129.0962
  2198.9000      8.0157      2.6017      0.1145      2.9279     21.0843    129.4193
  2199.0000      8.0170      2.6085      0.0417      2.5126     20.9504    131.1188
  2199.1000      8.0170      2.6006      0.0727      2.9922     20.6590    135.7617
  2199.2000      8.0170      2.5815      0.0135      4.1545     20.4853    142.9908
  2199.3000      8.0230      2.5653      0.0201      5.1318     20.4507    146.3568
  2199.4000      8.0230      2.5638      0.0052      5.2227     20.1511    141.7423
  2199.5000      8.0275      2.5783      0.0419      4.3442     19.4876    136.5383
  2199.6000      8.0275      2.5971      0.0860      3.2073     18.8054    137.8076
  2199.7000      8.0275      2.6105      0.0684      2.3958     18.4196    140.0668
  2199.8000      8.0269      2.6195      0.0975      1.8494     18.5420    136.0539
  2199.9000      8.0269      2.6140      0.1009      2.1819     18.9816    129.2963
  2200.0000      8.0255      2.5871      0.0554      3.8145     19.1208    125.5316
  2200.1000      8.0255      2.5566      0.0409      5.6605     18.9271    124.9332
  2200.2000      8.0255      2.5406      0.0380      6.6324     19.1629    125.6747
  2200.3000      8.0267      2.5456      0.0091      6.3250     20.2107    126.0340
  2200.4000      8.0267      2.5698      0.0693      4.8599     21.5247    125.4520
  2200.5000      8.0280      2.5952      0.0814      3.3215     22.2775    124.3595
  2200.6000      8.0280      2.6026      0.1089      2.8720     22.1978    126.8007
  2200.7000      8.0280      2.5927      0.0748      3.4702     21.9822    133.7352
  2200.8000      8.0294      2.5859      0.0555      3.8867     21.9890    138.8246
  2200.9000      8.0294      2.5890      0.0963      3.6956     22.0475    141.5750
  2201.0000      8.0304      2.5845      0.1058      3.9704     22.3394    145.0525
  2201.1000      8.0304      2.5724      0.0216      4.7030     22.6638    145.4210
  2201.2000      8.0304      2.5737      0.0496      4.6222     22.5759    143.6508
  2201.3000      8.0311      2.5902      0.0238      3.6253     22.3567    146.3784
  2201.4000      8.0311      2.6059      0.1035      2.6701     22.4987    152.3641
  2201.5000      8.0305      2.6105      0.0476      2.3943     22.8298    153.4752
  2201.6000      8.0305      2.6089      0.0906      2.4881     22.5712    146.3591
  2201.7000      8.0305      2.6090      0.0551      2.4840     21.7394    136.5621
  2201.8000      8.0292      2.6118      0.0690      2.3155     21.0557    130.9709
  2201.9000      8.0292      2.6175      0.0437      1.9667     20.4561    129.6793
  2202.0000      8.0293      2.6203      0.1073      1.7980     19.6906    129.2070
  2202.1000      8.0293      2.6043      0.0584      2.7693     19.0884    128.9099
  2202.2000      8.0293      2.5677      0.0316      4.9864     19.0137    129.3146
  2202.3000      8.0300      2.5293      0.0053      7.3168     19.6990    128.4812
  2202.4000      8.0300      2.5085      0.0308      8.5770     20.9501    125.7654
  2202.5000      8.0302      2.5108      0.0232      8.4391     21.6887    123.9044
  2202.6000      8.0302      2.5240      0.0682      7.6378     21.4253    127.0904
  2202.7000      8.0302      2.5298      0.0591      7.2825     21.0907    136.7493
