~Version Information
VERS.                      2.0: CWLS Log ASCII Standard - VERSION 2.0
WRAP.                       NO: One line per depth step
~Well Information Block
STRT.FT               962.7000: 
STOP.FT              2435.5000: 
STEP.FT                 0.1000: 
NULL.                -999.2500: 
COMP.          Petrogulf Corporation: COMPANY
WELL.              Hand 8-44 V: WELL
FLD.           Purgatorie River: FIELD
LOC.           1076' FEL & 820' FSL: LOCATION
CNTY.               Las Animas: COUNTY
SRVC.                         : SERVICE COMPANY
DATE.          Fri Nov 21 14:12:41 2003: LOG DATE
UWI.                          : UNIQUE WELL ID
STAT.                 Colorado: STATE
~Curve Information Block
DEPT.FT            0 000 00 00: Depth
DCAL.in                       : CDL Caliper
RHOB.g/cc                     : CDL Bulk Density
RHOC.g/cc                     : CDL Density Correction
DPOR.pu                       : CDL Density Porosity
GR.GAPI                       : Gamma Ray
NPOR.pu                       : Neutron Porosity
~Parameter Information Block
~A  Depth       DCAL        RHOB        RHOC        DPOR         GR         NPOR    
# ...
  1845.9000      8.3704      2.1614      0.3208     29.6111    139.0198     29.9424
  1846.0000      8.3810      2.2373      0.3161     25.0105    142.5983     30.1160
  1846.1000      8.3810      2.3245      0.3443     19.7272    139.2393     31.0061
  1846.2000      8.3810      2.4101      0.4745     14.5401    133.9391     31.7959
  1846.3000      8.5160      2.4588      0.4791     11.5869    132.3499     32.1270
  1846.4000      8.5160      2.4587      0.4285     11.5934    136.0611     32.1794
  1846.5000      8.6794      2.4326      0.3818     13.1746    144.3586     32.1327
  1846.6000      8.6794      2.4111      0.3256     14.4815    151.4616     31.8416
  1846.7000      8.6794      2.4213      0.3125     13.8585    153.0504     30.8497
  1846.8000      9.2546      2.4838      0.2122     10.0718    151.0893     29.6658
  1846.9000      9.2546      2.5937      0.3891      3.4141    147.5817     29.3573
  1847.0000      9.3566      2.6988      0.5850     -2.9556    146.2421     29.8351
  1847.1000      9.3566      2.7422      0.5761     -5.5878    152.3068     29.9546
  1847.2000      9.3566      2.7234      0.5260     -4.4482    159.3857     28.9012
  1847.3000      8.7998      2.6843      0.4784     -2.0798    157.9145     27.8293
  1847.4000      8.7998      2.6598      0.4310     -0.5954    153.7729     28.2951
  1847.5000      8.6417      2.6547      0.4211     -0.2849    148.9217     29.5482
  1847.6000      8.6417      2.6624      0.3743     -0.7495    138.6784     29.8575
  1847.7000      8.6417      2.6795      0.3408     -1.7877    132.3478     28.8956
  1847.8000      8.4260      2.6922      0.4083     -2.5549    137.2301     27.4144
  1847.9000      8.4260      2.6893      0.3337     -2.3823    146.4780     25.9041
  1848.0000      8.4008      2.6858      0.2293     -2.1716    154.8612     24.8063
  1848.1000      8.4008      2.6904      0.2409     -2.4473    161.6985     24.3616
  1848.2000      8.4008      2.6757      0.2382     -1.5559    167.6797     24.2483
  1848.3000      8.3866      2.6224      0.1388      1.6722    173.3066     24.8310
  1848.4000      8.3866      2.5625     -0.0073      5.3050    173.0202     25.9389
  1848.5000      8.3861      2.5329     -0.0042      7.0969    165.3631     26.4208
  1848.6000      8.3861      2.5323     -0.0519      7.1340    157.6067     26.1504
  1848.7000      8.3861      2.5451      0.0571      6.3562    152.0174     25.6843
  1848.8000      8.3585      2.5572      0.0700      5.6264    148.0899     25.1458
  1848.9000      8.3585      2.5703      0.0578      4.8298    145.5802     24.5648
  1849.0000      8.3339      2.5969      0.1030      3.2170    142.6256     24.3284
  1849.1000      8.3339      2.6266      0.1054      1.4168    141.1862     24.5489
  1849.2000      8.3339      2.6402      0.0738      0.5922    145.3728     24.6792
  1849.3000      8.2623      2.6327      0.0801      1.0467    151.6134     24.2432
  1849.4000      8.2623      2.6127      0.0987      2.2603    151.9799     24.0574
  1849.5000      8.2639      2.5950      0.0659      3.3307    147.8613     25.0618
  1849.6000      8.2639      2.5757      0.1442      4.5014    146.8817     26.6793
  1849.7000      8.2639      2.5228      0.1299      7.7113    147.2568     28.1931
  1849.8000      8.2669      2.4267      0.0658     13.5335    144.2616     29.1001
  1849.9000      8.2669      2.3255     -0.0348     19.6648    143.8459     28.9278
  1850.0000      8.2684      2.2431      0.0133     24.6582    149.9444     28.4220
  1850.1000      8.2684      2.1461      0.0092     30.5366    153.1597     28.7727
  1850.2000      8.2684      2.0067     -0.0749     38.9880    146.8397     29.8567
  1850.3000      8.2409      1.8584     -0.0535     47.9739    136.1996     30.4566
  1850.4000      8.2409      1.7552     -0.1049     54.2308    126.7043     29.9937
  1850.5000      8.2487      1.7083     -0.0184     57.0736    119.6456     29.2965
  1850.6000      8.2487      1.6875      0.0061     58.3321    114.6831     29.4723
  1850.7000      8.2487      1.6905     -0.0465     58.1529    111.4908     30.3835
  1850.8000      8.3275      1.7433      0.0861     54.9496    108.9119     30.6654
  1850.9000      8.3275      1.8322      0.1619     49.5656    108.2621     29.5702
  1851.0000      8.3800      1.9176      0.2302     44.3909    110.5066     27.8179
  1851.1000      8.3800      1.9946      0.2708     39.7190    112.0176     26.6655
  1851.2000      8.3800      2.0864      0.2294     34.1599    112.1597     26.2850
  1851.3000      8.4250      2.1774      0.3707     28.6405    115.0462     25.7698
  1851.4000      8.4250      2.2245      0.2622     25.7866    120.7386     25.3092
  1851.5000      8.5062      2.2437      0.1097     24.6253    123.9299     25.9692
  1851.6000      8.5062      2.2841      0.1364     22.1777    120.7058     27.0704
  1851.7000      8.5062      2.3449      0.1091     18.4933    114.5926     26.6717
  1851.8000      8.3754      2.3945      0.1555     15.4841    114.5750     24.5326
  1851.9000      8.3754      2.4296      0.1081     13.3596    121.5919     23.2128
  1852.0000      8.3112      2.4736      0.2254     10.6896    125.9941     24.1742
  1852.1000      8.3112      2.5297      0.2820      7.2887    125.3318     24.9738
  1852.2000      8.3112      2.5713      0.2420      4.7669    124.0331     24.1006
  1852.3000      8.4657      2.5789      0.2853      4.3097    126.6388     23.3182
  1852.4000      8.4657      2.5754      0.0876      4.5206    138.0160     23.4461
  1852.5000      8.5136      2.5920      0.2219      3.5134    154.5908     23.3217
  1852.6000      8.5136      2.6229      0.1242      1.6401    165.9798     22.5824
  1852.7000      8.5136      2.6550      0.1532     -0.3007    170.3890     22.3865
  1852.8000      8.3395      2.6712      0.1989     -1.2849    171.5677     23.3786
  1852.9000      8.3395      2.6603      0.1442     -0.6272    166.3784     24.3417
  1853.0000      8.2118      2.6453      0.0870      0.2822    158.4907     23.4451
  1853.1000      8.2118      2.6500      0.1243      0.0019    156.9721     20.8184
  1853.2000      8.2118      2.6626      0.1066     -0.7647    155.1863     19.0632
  1853.3000      8.1919      2.6634      0.0763     -0.8135    150.2691     19.7440
  1853.4000      8.1919      2.6455      0.1106      0.2732    154.3513     21.4649
  1853.5000      8.1802      2.6051      0.0896      2.7227    168.3994     22.4835
  1853.6000      8.1802      2.5498      0.0148      6.0752    179.8023     22.5054
  1853.7000      8.1802      2.5066     -0.0205      8.6887    180.7827     22.0504
  1853.8000      8.1340      2.5001     -0.0135      9.0839    172.1991     21.5498
  1853.9000      8.1340      2.5353      0.0093      6.9491    160.8895     21.2595
  1854.0000      8.1549      2.5893      0.1413      3.6798    153.1575     21.3727
  1854.1000      8.1549      2.6199      0.1400      1.8228    147.9117     21.8210
  1854.2000      8.1549      2.6171      0.0983      1.9949    141.6649     22.3880
  1854.3000      8.1668      2.6046      0.1207      2.7529    136.6870     23.1985
  1854.4000      8.1668      2.5955      0.1052      3.3019    136.7115     24.0394
  1854.5000      8.1849      2.5758      0.1432      4.4993    139.1635     24.4289
  1854.6000      8.1849      2.5322      0.0416      7.1390    140.0155     24.2614
  1854.7000      8.1849      2.4783      0.0318     10.4083    136.0067     23.3926
  1854.8000      8.1972      2.4328      0.0402     13.1627    127.5499     22.0037
  1854.9000      8.1972      2.4079      0.0375     14.6724    122.1957     21.7232
  1855.0000      8.2257      2.4084      0.0661     14.6395    123.4396     23.7058
  1855.1000      8.2257      2.4156      0.1198     14.2049    128.9237     26.4176
  1855.2000      8.2257      2.3975      0.1461     15.3038    137.1065     28.1705
  1855.3000      8.2135      2.3481      0.1050     18.2987    142.0414     28.7856
  1855.4000      8.2135      2.2985      0.0521     21.3014    139.8501     28.4802
