~Version Information
VERS.                      2.0: CWLS Log ASCII Standard - VERSION 2.0
WRAP.                       NO: One line per depth step
~Well Information Block
STRT.FT               521.0000: 
STOP.FT              2732.5000: 
STEP.FT                 0.2500: 
NULL.                -999.2500: 
COMP.          Petrogulf Corporation: COMPANY
WELL.              Silva 6-22V: WELL
FLD.           Purgatorie River: FIELD
LOC.           1936' FNL & 1798' FWL: LOCATION
CNTY.               Las Animas: COUNTY
SRVC.                         : SERVICE COMPANY
DATE.          Tue Nov 09 08:09:38 2004: LOG DATE
UWI.           05 071 08143 00: UNIQUE WELL ID
STAT.                 Colorado: STATE
~Curve Information Block
DEPT.FT            0 000 00 00: Depth
SP.mV                         : DIL Spontaneous Potential
RILD.Ohm-m                    : DIL Deep Resistivity
RILM.Ohm-m                    : DIL Medium Resistivity
RLL3.Ohm-m                    : DIL Shallow Resistivity
GR.GAPI                       : Gamma Ray
~Parameter Information Block
~A  Depth        SP         RILD        RILM        RLL3         GR     
# ...
  2117.0000      1.8207     14.0918     14.0912     24.8914    154.0994
  2117.2500      3.3157     14.6261     14.8192     27.5625    145.5125
  2117.5000      5.0492     15.2106     15.6194     30.0036    130.2712
  2117.7500      6.8907     15.8357     16.4795     32.0224    119.2211
  2118.0000      8.7007     16.4875     17.3862     33.5261    102.7559
  2118.2500     10.3464     17.1500     18.3267     34.5368     92.4061
  2118.5000     11.7207     17.8068     19.2896     35.1692     78.1959
  2118.7500     12.7378     18.4430     20.2655     35.5848     69.7243
  2119.0000     13.3410     19.0478     21.2456     35.9411     58.8704
  2119.2500     13.5042     19.6159     22.2203     36.3552     53.0557
  2119.5000     13.2352     20.1480     23.1789     36.8912     46.3192
  2119.7500     12.5758     20.6494     24.1104     37.5675     42.7952
  2120.0000     11.6012     21.1288     25.0050     38.3755     38.5240
  2120.2500     10.3992     21.5963     25.8567     39.2971     36.4320
  2120.5000      9.0459     22.0615     26.6651     40.3155     34.6186
  2120.7500      7.5813     22.5319     27.4351     41.4142     34.0368
  2121.0000      6.0020     23.0110     28.1747     42.5718     33.1859
  2121.2500      4.2716     23.4979     28.8925     43.7586     32.3178
  2121.5000      2.3498     23.9871     29.5963     44.9362     30.8669
  2121.7500      0.2359     24.4686     30.2911     46.0631     30.1717
  2122.0000     -2.0013     24.9308     30.9807     47.1010     29.6715
  2122.2500     -4.2144     25.3619     31.6669     48.0220     29.4403
  2122.5000     -6.1946     25.7540     32.3510     48.8133     28.9141
  2122.7500     -7.7110     26.1042     33.0326     49.4801     28.6117
  2123.0000     -8.5579     26.4150     33.7097     50.0452     28.8716
  2123.2500     -8.6040     26.6912     34.3771     50.5443     29.6790
  2123.5000     -7.8220     26.9353     35.0244     51.0177     31.3169
  2123.7500     -6.3013     27.1425     35.6361     51.4998     32.1485
  2124.0000     -4.2396     27.2965     36.1891     52.0130     32.5561
  2124.2500     -1.9174     27.3701     36.6507     52.5670     32.5114
  2124.5000      0.3509     27.3283     36.9747     53.1619     32.6419
  2124.7500      2.2698     27.1356     37.0961     53.7887     32.9006
  2125.0000      3.6207     26.7662     36.9333     54.4256     33.0040
  2125.2500      4.3118     26.2111     36.3952     55.0280     32.6816
  2125.5000      4.4001     25.4803     35.4039     55.5211     32.0143
  2125.7500      4.0838     24.6002     33.9246     55.7976     31.9523
  2126.0000      3.6495     23.6074     31.9907     55.7219     33.1822
  2126.2500      3.4134     22.5413     29.7096     55.1401     35.0419
  2126.5000      3.6363     21.4390     27.2417     53.8940     39.1040
  2126.7500      4.4679     20.3328     24.7577     51.8438     42.4084
  2127.0000      5.9194     19.2491     22.4017     48.9026     48.7171
  2127.2500      7.8719     18.2089     20.2706     45.0806     55.0612
  2127.5000     10.1166     17.2280     18.4128     40.5222     71.1079
  2127.7500     12.4045     16.3182     16.8380     35.5161     87.7614
  2128.0000     14.5009     15.4873     15.5310     30.4588    121.5397
  2128.2500     16.2237     14.7401     14.4634     25.7745    147.5184
  2128.5000     17.4599     14.0794     13.6023     21.8174    184.4479
  2128.7500     18.1696     13.5062     12.9149     18.7936    203.1163
  2129.0000     18.3641     13.0208     12.3718     16.7298    216.7146
  2129.2500     18.0884     12.6228     11.9485     15.4980    215.5383
  2129.5000     17.4099     12.3113     11.6261     14.8791    202.1123
  2129.7500     16.4134     12.0849     11.3914     14.6374    189.4345
  2130.0000     15.2036     11.9419     11.2361     14.5824    171.8942
  2130.2500     13.9180     11.8795     11.1566     14.6026    163.8347
  2130.5000     12.7202     11.8944     11.1527     14.6703    158.0831
  2130.7500     11.7801     11.9824     11.2272     14.8273    157.3664
  2131.0000     11.2295     12.1387     11.3843     15.1583    158.2721
  2131.2500     11.1236     12.3579     11.6295     15.7616    158.9074
  2131.5000     11.4123     12.6343     11.9687     16.7219    158.2201
  2131.7500     11.9441     12.9626     12.4075     18.0876    155.8315
  2132.0000     12.5001     13.3376     12.9508     19.8573    148.4928
  2132.2500     12.8593     13.7551     13.6018     21.9751    141.1935
  2132.5000     12.8552     14.2116     14.3610     24.3344    127.6200
  2132.7500     12.4180     14.7041     15.2251     26.7913    117.4629
  2133.0000     11.5870     15.2287     16.1850     29.1842    101.3505
  2133.2500     10.4870     15.7797     17.2246     31.3569     90.4605
  2133.5000      9.2898     16.3482     18.3190     33.1801     75.0007
  2133.7500      8.1681     16.9208     19.4335     34.5677     66.0267
  2134.0000      7.2676     17.4802     20.5252     35.4843     55.3744
  2134.2500      6.6906     18.0062     21.5463     35.9427     50.1248
  2134.5000      6.4959     18.4796     22.4508     35.9939     44.4299
  2134.7500      6.7064     18.8867     23.2023     35.7141     41.7964
  2135.0000      7.3066     19.2235     23.7812     35.1922     39.5488
  2135.2500      8.2442     19.4978     24.1875     34.5210     39.2296
  2135.5000      9.4196     19.7279     24.4399     33.7904     40.1199
  2135.7500     10.6977     19.9381     24.5681     33.0811     41.0498
  2136.0000     11.9237     20.1528     24.6065     32.4576     41.9966
  2136.2500     12.9566     20.3902     24.5875     31.9629     42.2248
  2136.5000     13.7064     20.6581     24.5368     31.6176     42.5917
  2136.7500     14.1539     20.9519     24.4744     31.4230     43.2117
  2137.0000     14.3512     21.2554     24.4147     31.3669     44.4748
  2137.2500     14.3910     21.5453     24.3692     31.4297     44.9926
  2137.5000     14.3645     21.7982     24.3474     31.5861     44.5643
  2137.7500     14.3181     21.9973     24.3595     31.8068     43.5493
  2138.0000     14.2385     22.1386     24.4148     32.0593     41.6238
  2138.2500     14.0590     22.2313     24.5213     32.3138     40.3822
  2138.5000     13.6890     22.2952     24.6853     32.5508     38.6083
  2138.7500     13.0645     22.3541     24.9102     32.7682     37.3596
  2139.0000     12.1797     22.4282     25.1966     32.9832     35.3630
  2139.2500     11.1079     22.5294     25.5423     33.2280     34.1525
  2139.5000      9.9839     22.6580     25.9424     33.5407     33.0892
  2139.7500      8.9731     22.8036     26.3903     33.9560     33.1106
  2140.0000      8.2287     22.9469     26.8767     34.4987     34.0275
  2140.2500      7.8570     23.0638     27.3902     35.1816     34.8004
  2140.5000      7.8969     23.1303     27.9150     36.0106     35.5636
  2140.7500      8.3271     23.1262     28.4281     36.9955     35.7379
  2141.0000      9.0857     23.0370     28.8966     38.1599     35.6881
  2141.2500     10.1026     22.8553     29.2746     39.5447     35.5163
  2141.5000     11.3175     22.5790     29.5017     41.1997     35.0955
  2141.7500     12.6913     22.2116     29.5084     43.1569     34.7930
  2142.0000     14.1941     21.7601     29.2262     45.3887     34.4780
  2142.2500     15.7794     21.2354     28.6074     47.7621     34.3549
  2142.5000     17.3672     20.6511     27.6408     50.0094     34.0960
  2142.7500     18.8254     20.0227     26.3629     51.7382     33.7985
  2143.0000     19.9801     19.3668     24.8542     52.4941     33.6090
  2143.2500     20.6374     18.6992     23.2195     51.8739     34.4492
  2143.5000     20.6277     18.0343     21.5658     49.6555     39.3054
  2143.7500     19.8463     17.3835     19.9828     45.8962     46.3086
  2144.0000     18.2887     16.7554     18.5343     40.9529     63.9822
  2144.2500     16.0635     16.1566     17.2566     35.4043     80.2188
  2144.5000     13.3753     15.5913     16.1645     29.9032    107.7139
  2144.7500     10.4844     15.0632     15.2568     25.0140    124.8434
