~Version Information
 VERS.                                  2.0 : CWLS LAS VERSION
 WRAP.                                   NO : WRAPING MODE
 SWARE .                 MController 2.5.0J : SOFTWARE VERSION
~Well Information
 WELL.                          Quack 22-24 : WELL
 COMP.    PIONEER NATURAL RESOURCES USA INC : COMPANY
 FLD.                      PURGATOIRE RIVER : FIELD
 LOC.                 SE/NW Sec 24 32S  67W : LOCATION
 DATE.                                  N/A : DATE(S) LOGGED
 SRVC.       Blanco Geological Services LLC : SERVICE COMPANY
 STAT.                                   CO : STATE
 CNTY.                           LAS ANIMAS : COUNTY
 CTRY.                                  USA : COUNTRY
 API.                       05-071-08402-00 : API NUMBER
 STRT.FT                             201.00 : START DEPTH
 STOP.FT                            2610.00 : STOP DEPTH
 STEP.FT                               1.00 : DEPTH INCREMENT
 NULL.                                -9999 : NULL VALUE
~Curve information
 DEPTH.FT                                   :
 ROP.MIN/FT                                 :
 GAS.UNITS                                  :
~ASCII Log data
# ...
      2001.0         0.23        440.2 
      2002.0         0.27        440.0 
      2003.0         0.33         79.4 
      2004.0         0.33        108.8 
      2005.0         0.35        172.8 
      2006.0         2.37       1483.6 
      2007.0         0.57       1063.5 
      2008.0         0.42        836.7 
      2009.0         0.40        734.6 
      2010.0         0.43        673.0 
      2011.0         0.37        618.4 
      2012.0         0.33        641.3 
      2013.0         0.47        672.0 
      2014.0         0.27        674.0 
      2015.0         0.33        671.6 
      2016.0         0.47        663.9 
      2017.0         0.45        654.8 
      2018.0         0.47        620.4 
      2019.0         0.40        596.8 
      2020.0         0.40        596.8 
      2021.0         0.30        603.9 
      2022.0         0.30        605.9 
      2023.0         0.30        608.3 
      2024.0         0.30        608.6 
      2025.0         0.30        609.3 
      2026.0         0.35        607.3 
      2027.0         0.33        606.9 
      2028.0         0.33        610.3 
      2029.0         0.33        611.7 
      2030.0         0.30        551.4 
      2031.0         0.30        444.6 
      2032.0         0.27        108.6 
      2033.0         0.30        120.2 
      2034.0         0.20        148.1 
      2035.0         0.23        197.2 
      2036.0         2.55       1455.3 
      2037.0         0.50        894.3 
      2038.0         0.37        746.8 
      2039.0         0.40        677.4 
      2040.0         0.38        623.5 
      2041.0         0.37        603.6 
      2042.0         0.50        625.5 
      2043.0         0.33        624.5 
      2044.0         0.37        616.7 
      2045.0         0.47        611.3 
      2046.0         0.50        599.9 
      2047.0         0.52        588.8 
      2048.0         0.43        579.7 
      2049.0         0.43        569.9 
      2050.0         0.47        573.6 
      2051.0         0.47        576.6 
      2052.0         0.40        569.2 
      2053.0         0.43        545.3 
      2054.0         0.40        533.8 
      2055.0         0.35        535.2 
      2056.0         0.30        538.2 
      2057.0         0.33        537.9 
      2058.0         0.30        541.6 
      2059.0         0.33        543.9 
      2060.0         0.33        506.5 
      2061.0         0.33        440.0 
      2062.0         0.37         84.5 
      2063.0         0.37        112.7 
      2064.0         0.30        161.3 
      2065.0         0.42        262.5 
      2066.0         2.37       1579.6 
      2067.0         0.37        960.0 
      2068.0         0.33        833.4 
      2069.0         0.32        752.2 
      2070.0         0.33        703.6 
      2071.0         0.33        638.3 
      2072.0         0.30        612.0 
      2073.0         0.33        624.1 
      2074.0         0.30        627.2 
      2075.0         0.30        628.5 
      2076.0         0.43        624.8 
      2077.0         0.50        621.1 
      2078.0         0.48        611.0 
      2079.0         0.47        596.5 
      2080.0         0.50        597.5 
      2081.0         0.37        594.8 
      2082.0         0.33        588.8 
      2083.0         0.37        582.7 
      2084.0         0.47        576.6 
      2085.0         0.47        569.2 
      2086.0         0.52        564.8 
      2087.0         0.43        555.4 
      2088.0         0.37        548.7 
      2089.0         0.47        546.3 
      2090.0         0.40        536.5 
      2091.0         0.40        508.9 
      2092.0         0.40        440.0 
      2093.0         0.43         81.0 
      2094.0         0.45        121.6 
      2095.0         0.43        197.4 
      2096.0         5.55       2031.8 
      2097.0         0.33        600.5 
      2098.0         0.35        606.3 
      2099.0         0.47        606.6 
      2100.0         0.53        606.3 
      2101.0         0.40        595.2 
      2102.0         0.37        603.6 
      2103.0         0.37        618.4 
      2104.0         0.33        628.8 
      2105.0         0.30        630.2 
      2106.0         0.35        626.8 
      2107.0         0.33        625.5 
      2108.0         0.37        625.1 
      2109.0         0.37        624.5 
      2110.0         0.40        618.1 
      2111.0         0.37        621.4 
      2112.0         0.37        620.4 
      2113.0         0.40        618.7 
      2114.0         0.37        623.1 
      2115.0         0.35        621.1 
      2116.0         0.30        620.4 
      2117.0         0.20        621.1 
      2118.0         0.27        620.4 
      2119.0         0.27        620.4 
      2120.0         0.33        617.7 
      2121.0         0.33        560.8 
      2122.0         0.30        449.6 
      2123.0         0.23        440.0 
      2124.0         0.33        104.3 
      2125.0         0.40        159.9 
      2126.0         2.98       1647.7 
      2127.0         0.50        992.4 
      2128.0         0.48        824.6 
      2129.0         0.43        720.1 
      2130.0         0.43        668.3 
      2131.0         0.40        642.3 
      2132.0         0.37        645.4 
      2133.0         0.53        645.0 
      2134.0         0.47        640.3 
      2135.0         0.48        642.7 
      2136.0         0.43        628.5 
      2137.0         0.47        620.4 
      2138.0         0.40        620.4 
      2139.0         0.40        617.1 
      2140.0         0.37        604.9 
      2141.0         0.43        600.2 
      2142.0         0.43        583.4 
      2143.0         0.42        593.5 
      2144.0         0.33        604.2 
      2145.0         0.33        603.9 
      2146.0         0.30        596.2 
      2147.0         0.37        590.1 
      2148.0         0.43        583.0 
      2149.0         0.40        584.4 
      2150.0         0.37        571.9 
      2151.0         0.30        512.6 
      2152.0         0.33        440.0 
      2153.0         0.28         76.5 
      2154.0         0.40         93.0 
      2155.0         0.47        144.9 
      2156.0         2.92       1460.3 
      2157.0         0.50        886.6 
      2158.0         0.47        768.3 
      2159.0         0.50        694.2 
      2160.0         0.40        644.7 
      2161.0         0.37        646.4 
      2162.0         0.37        660.5 
      2163.0         0.35        671.0 
      2164.0         0.33        673.7 
      2165.0         0.57        689.5 
      2166.0         0.60        695.9 
      2167.0         0.47        683.1 
      2168.0         0.50        623.8 
      2169.0         0.57        629.2 
      2170.0         0.32        631.5 
      2171.0         0.27        631.5 
      2172.0         0.27        627.8 
      2173.0         0.37        625.8 
      2174.0         0.30        623.8 
      2175.0         0.30        624.1 
      2176.0         0.27        623.1 
      2177.0         0.30        630.2 
      2178.0         0.33        639.0 
      2179.0         0.33        636.6 
      2180.0         0.30        546.3 
      2181.0         0.18        457.0 
      2182.0         0.30        440.0 
      2183.0         0.33        106.3 
      2184.0         0.37        158.3 
      2185.0         0.40        248.9 
      2186.0         1.67       1532.1 
      2187.0         0.58       1293.9 
      2188.0         0.33       1029.4 
      2189.0         0.33        925.3 
      2190.0         0.40        832.7 
      2191.0         0.40        749.1 
      2192.0         0.37        692.9 
      2193.0         0.33        648.4 
      2194.0         0.37        740.0 
      2195.0         0.47        968.5 
      2196.0         0.35       1029.4 
      2197.0         0.57       1030.4 
      2198.0         0.60       1016.6 
      2199.0         0.43        986.0 
      2200.0         0.33        969.1 
