~Version Information
VERS.                      2.0: CWLS Log ASCII Standard - VERSION 2.0
WRAP.                       NO: One line per depth step
~Well Information Block
STRT.FT               250.0000: 
STOP.FT              2600.7500: 
STEP.FT                 0.2500: 
NULL.                -999.2500: 
COMP.          Pioneer Natural Resources: COMPANY
WELL.              Quack 22-24: WELL
FLD.           Purgatoire River: FIELD
LOC.           2492' FNL & 2459' FWL--: LOCATION
PROV.                 Colorado: PROVINCE
CNTY.               Las Animas: COUNTRY
SRVC.                Patterson: SERVICE COMPANY
DATE.          Sun Jun 12 09:02:01 2005: LOG DATE
UWI.            05 071 0840200: UNIQUE WELL ID
~Curve Information Block
DEPT.FT            0 000 00 00: Depth
SN.Ohm-m                      : IEL Short Normal
SP.mV                         : IEL Spontaneous Potential
DIR.Ohm-m                     : IEL Induction Resistivity
GR.GAPI                       : Gamma Ray
~Parameter Information Block
~A  Depth        SN          SP         DIR          GR     
# ...
  1623.5000     29.1327   -117.1430     22.7974     82.8220
  1623.7500     29.9082   -118.2907     23.0238     78.4930
  1624.0000     30.4229   -119.1072     23.1360     72.0705
  1624.2500     30.3515   -119.4828     22.9871     67.9721
  1624.5000     29.4950   -119.3468     22.4478     63.6462
  1624.7500     27.9045   -118.6797     21.4722     63.0645
  1625.0000     25.8495   -117.5181     20.1307     66.5239
  1625.2500     23.6617   -115.9511     18.5805     71.5807
  1625.5000     21.5802   -114.1070     16.9965     82.6160
  1625.7500     19.6985   -112.1326     15.5112     91.8203
  1626.0000     18.0123   -110.1717     14.1931    107.2818
  1626.2500     16.4951   -108.3452     13.0565    117.7598
  1626.5000     15.1400   -106.7382     12.0861    132.1035
  1626.7500     13.9578   -105.3947     11.2587    140.1262
  1627.0000     12.9598   -104.3212     10.5560    149.4433
  1627.2500     12.1463   -103.4943      9.9688    153.8163
  1627.5000     11.5026   -102.8729      9.4941    157.7437
  1627.7500     10.9985   -102.4087      9.1304    158.8953
  1628.0000     10.5936   -102.0563      8.8745    159.5380
  1628.2500     10.2495   -101.7787      8.7187    160.0957
  1628.5000      9.9421   -101.5512      8.6505    161.9697
  1628.7500      9.6633   -101.3603      8.6520    163.6737
  1629.0000      9.4132   -101.2007      8.7007    165.7477
  1629.2500      9.1938   -101.0707      8.7724    166.2215
  1629.5000      9.0131   -100.9671      8.8444    165.0417
  1629.7500      8.8915   -100.8821      8.8992    162.8801
  1630.0000      8.8560   -100.8016      8.9268    158.0186
  1630.2500      8.9217   -100.7073      8.9253    154.6375
  1630.5000      9.0748   -100.5807      8.8998    151.5844
  1630.7500      9.2734   -100.4083      8.8619    151.6106
  1631.0000      9.4670   -100.1862      8.8268    154.0692
  1631.2500      9.6215    -99.9224      8.8091    156.4341
  1631.5000      9.7356    -99.6365      8.8186    160.1644
  1631.7500      9.8359    -99.3561      8.8573    162.5138
  1632.0000      9.9541    -99.1114      8.9213    165.0223
  1632.2500     10.0994    -98.9291      9.0034    165.4436
  1632.5000     10.2482    -98.8286      9.0968    163.6791
  1632.7500     10.3609    -98.8191      9.1946    160.8132
  1633.0000     10.4099    -98.9002      9.2889    153.9680
  1633.2500     10.4004    -99.0633      9.3721    148.1676
  1633.5000     10.3720    -99.2943      9.4407    139.8549
  1633.7500     10.3886    -99.5757      9.4992    136.3072
  1634.0000     10.5171    -99.8869      9.5597    135.8330
  1634.2500     10.7982   -100.2034      9.6384    138.5277
  1634.5000     11.2148   -100.4956      9.7485    144.7585
  1634.7500     11.6766   -100.7262      9.8951    148.4421
  1635.0000     12.0358   -100.8492     10.0708    149.9438
  1635.2500     12.1465   -100.8106     10.2568    146.8263
  1635.5000     11.9482   -100.5523     10.4298    135.4623
  1635.7500     11.5170   -100.0206     10.5722    124.5686
  1636.0000     11.0349    -99.1767     10.6807    107.0584
  1636.2500     10.6906    -98.0086     10.7669     97.1187
  1636.5000     10.5796    -96.5406     10.8486     88.0538
  1636.7500     10.6674    -94.8363     10.9372     86.5614
  1637.0000     10.8370    -92.9947     11.0291     89.9616
  1637.2500     10.9881    -91.1380     11.1043     94.4833
  1637.5000     11.1175    -89.3952     11.1365    102.0435
  1637.7500     11.3162    -87.8840     11.1083    106.5210
  1638.0000     11.6913    -86.6972     11.0240    111.4853
  1638.2500     12.2835    -85.8944     10.9105    113.5396
  1638.5000     13.0417    -85.5004     10.8077    114.9075
  1638.7500     13.8571    -85.5074     10.7568    114.7770
  1639.0000     14.6200    -85.8808     10.7921    113.2451
  1639.2500     15.2672    -86.5643     10.9389    111.5991
  1639.5000     15.7974    -87.4854     11.2146    108.8814
  1639.7500     16.2481    -88.5606     11.6301    107.4657
  1640.0000     16.6445    -89.7026     12.1871    107.1594
  1640.2500     16.9631    -90.8271     12.8727    108.7102
  1640.5000     17.1499    -91.8599     13.6516    113.2485
  1640.7500     17.1894    -92.7431     14.4635    116.5495
  1641.0000     17.1599    -93.4375     15.2315    119.4783
  1641.2500     17.2090    -93.9240     15.8833    119.4555
  1641.5000     17.4545    -94.2028     16.3721    117.6392
  1641.7500     17.8906    -94.2918     16.6807    116.7622
  1642.0000     18.3777    -94.2248     16.8088    117.9922
  1642.2500     18.7185    -94.0484     16.7621    120.5511
  1642.5000     18.7681    -93.8164     16.5545    125.3826
  1642.7500     18.5109    -93.5827     16.2192    128.2094
  1643.0000     18.0622    -93.3929     15.8121    131.0392
  1643.2500     17.5993    -93.2771     15.4034    132.1077
  1643.5000     17.2712    -93.2463     15.0605    133.2163
  1643.7500     17.1349    -93.2922     14.8337    134.0419
  1644.0000     17.1426    -93.3915     14.7464    135.5943
  1644.2500     17.1794    -93.5122     14.7917    136.5094
  1644.5000     17.1257    -93.6204     14.9326    136.6530
  1644.7500     16.9125    -93.6864     15.1096    135.3939
  1645.0000     16.5438    -93.6882     15.2538    131.4691
  1645.2500     16.0842    -93.6130     15.3060    128.2760
  1645.5000     15.6259    -93.4575     15.2305    124.8612
  1645.7500     15.2479    -93.2283     15.0198    124.6421
  1646.0000     14.9809    -92.9426     14.6899    127.8822
  1646.2500     14.7979    -92.6284     14.2725    131.7363
  1646.5000     14.6361    -92.3258     13.8069    138.0526
  1646.7500     14.4362    -92.0857     13.3362    141.5758
  1647.0000     14.1720    -91.9663     12.9032    144.8252
  1647.2500     13.8514    -92.0277     12.5460    145.4786
  1647.5000     13.4974    -92.3228     12.2929    144.4406
  1647.7500     13.1346    -92.8851     12.1588    142.7320
  1648.0000     12.7990    -93.7153     12.1468    139.0141
  1648.2500     12.5590    -94.7728     12.2547    135.6572
  1648.5000     12.5242    -95.9737     12.4806    128.9256
  1648.7500     12.8226    -97.2036     12.8261    123.3779
  1649.0000     13.5457    -98.3408     13.2925    114.2429
  1649.2500     14.6821    -99.2897     13.8742    108.2011
  1649.5000     16.0818   -100.0072     14.5526    100.1799
  1649.7500     17.4986   -100.5136     15.2915     96.0938
  1650.0000     18.7020   -100.8775     16.0373     92.7583
  1650.2500     19.5801   -101.1804     16.7255     92.7260
  1650.5000     20.1472   -101.4740     17.2911     95.9540
  1650.7500     20.4646   -101.7505     17.6818     99.9148
  1651.0000     20.5659   -101.9408     17.8688    107.3416
  1651.2500     20.4516   -101.9423     17.8540    112.3484
  1651.5000     20.1361   -101.6662     17.6708    118.5179
  1651.7500     19.6781   -101.0815     17.3760    121.3306
  1652.0000     19.1665   -100.2380     17.0330    123.6976
  1652.2500     18.6839    -99.2562     16.6946    124.2952
  1652.5000     18.2797    -98.2928     16.3932    124.1396
  1652.7500     17.9644    -97.4951     16.1406    123.5398
  1653.0000     17.7199    -96.9646     15.9359    122.0783
  1653.2500     17.5275    -96.7404     15.7758    120.6545
  1653.5000     17.3967    -96.8049     15.6622    117.6014
  1653.7500     17.3646    -97.1032     15.6045    115.0157
  1654.0000     17.4611    -97.5645     15.6147    110.9864
  1654.2500     17.6663    -98.1171     15.6976    108.6998
  1654.5000     17.8967    -98.6958     15.8392    106.1462
  1654.7500     18.0327    -99.2422     16.0002    104.6478
  1655.0000     17.9690    -99.7045     16.1205    101.6862
  1655.2500     17.6649   -100.0384     16.1373     99.0696
  1655.5000     17.1684   -100.2100     16.0105     95.3733
  1655.7500     16.5961   -100.2007     15.7385     94.3401
  1656.0000     16.0738   -100.0098     15.3532     96.6031
  1656.2500     15.6707    -99.6549     14.8972    100.5444
  1656.5000     15.3666    -99.1679     14.4029    107.9633
  1656.7500     15.0710    -98.5913     13.8840    112.3524
