~Version Information
VERS.                      2.0: CWLS Log ASCII Standard - VERSION 2.0
WRAP.                       NO: One line per depth step
~Well Information Block
STRT.FT               845.0000: 
STOP.FT              2308.2500: 
STEP.FT                 0.2500: 
NULL.                -999.2500: 
COMP.          Pioneer Natural Resources: COMPANY
WELL.             Vector 33-23: WELL
FLD.           Purgatoire River: FIELD
LOC.           1560' FEL & 1988' FSL----: LOCATION
PROV.                 Colorado: PROVINCE
CNTY.               Las Animas: COUNTRY
SRVC.                Patterson: SERVICE COMPANY
DATE.          Sat Mar 26 12:39:07 2005: LOG DATE
UWI.           05 071 08336 00: UNIQUE WELL ID
~Curve Information Block
DEPT.FT            0 000 00 00: Depth
SN.Ohm-m                      : IEL Short Normal
SP.mV                         : IEL Spontaneous Potential
DIR.Ohm-m                     : IEL Induction Resistivity
GR.GAPI                       : Gamma Ray
~Parameter Information Block
~A  Depth        SN          SP         DIR          GR     
# ...
  1414.5000     10.1367    -79.4814      9.7784    117.9479
  1414.7500     10.0691    -79.8019      9.7348    119.3533
  1415.0000     10.0661    -80.2449      9.7595    120.7000
  1415.2500     10.1501    -80.7798      9.8627    120.1994
  1415.5000     10.3289    -81.3599     10.0459    116.7907
  1415.7500     10.5872    -81.9246     10.2997    112.8995
  1416.0000     10.8887    -82.4033     10.6035    105.1269
  1416.2500     11.1869    -82.7215     10.9290     98.9686
  1416.5000     11.4482    -82.8093     11.2456     89.1123
  1416.7500     11.6788    -82.6094     11.5261     82.9499
  1417.0000     11.9374    -82.0850     11.7504     76.2854
  1417.2500     12.3069    -81.2247     11.9066     74.7622
  1417.5000     12.8233    -80.0439     11.9875     78.0159
  1417.7500     13.4134    -78.5813     11.9874     83.5539
  1418.0000     13.9020    -76.8925     11.8989     94.7722
  1418.2500     14.0976    -75.0421     11.7129    102.7131
  1418.5000     13.8938    -73.0963     11.4223    113.7349
  1418.7500     13.3179    -71.1181     11.0282    120.2265
  1419.0000     12.5030    -69.1644     10.5446    128.5425
  1419.2500     11.6142    -67.2857      9.9992    132.8456
  1419.5000     10.7737    -65.5249      9.4290    136.6688
  1419.7500     10.0298    -63.9168      8.8729    137.1512
  1420.0000      9.3807    -62.4847      8.3639    134.7883
  1420.2500      8.8205    -61.2393      7.9240    131.4019
  1420.5000      8.3635    -60.1764      7.5631    124.1486
  1420.7500      8.0328    -59.2791      7.2805    118.2616
  1421.0000      7.8395    -58.5212      7.0687    108.9500
  1421.2500      7.7747    -57.8732      6.9168    103.2750
  1421.5000      7.8084    -57.3074      6.8127     96.8404
  1421.7500      7.8881    -56.8025      6.7452     94.3382
  1422.0000      7.9449    -56.3442      6.7053     93.5352
  1422.2500      7.9181    -55.9243      6.6874     95.0447
  1422.5000      7.7874    -55.5386      6.6894    100.1411
  1422.7500      7.5914    -55.1852      6.7126    104.8400
  1423.0000      7.4131    -54.8631      6.7599    112.3155
  1423.2500      7.3366    -54.5735      6.8344    116.8399
  1423.5000      7.4010    -54.3203      6.9371    122.3216
  1423.7500      7.5845    -54.1106      7.0651    124.9479
  1424.0000      7.8261    -53.9549      7.2114    127.0862
  1424.2500      8.0612    -53.8646      7.3666    127.2156
  1424.5000      8.2463    -53.8510      7.5225    125.3582
  1424.7500      8.3657    -53.9233      7.6745    122.4939
  1425.0000      8.4327    -54.0865      7.8242    114.9921
  1425.2500      8.4883    -54.3402      7.9802    107.8450
  1425.5000      8.5956    -54.6779      8.1582     96.0807
  1425.7500      8.8182    -55.0856      8.3790     89.9449
  1426.0000      9.1861    -55.5428      8.6625     86.8416
  1426.2500      9.6671    -56.0252      9.0183     89.0539
  1426.5000     10.1661    -56.5080      9.4346     95.5523
  1426.7500     10.5590    -56.9703      9.8720     99.2934
  1427.0000     10.7488    -57.3990     10.2664    101.1070
  1427.2500     10.7174    -57.7922     10.5489     99.9245
  1427.5000     10.5360    -58.1600     10.6752     97.1896
  1427.7500     10.3193    -58.5235     10.6442     96.5994
  1428.0000     10.1555    -58.9121     10.4913     99.4909
  1428.2500     10.0652    -59.3574     10.2642    103.7696
  1428.5000     10.0105    -59.8854     10.0008    111.7798
  1428.7500      9.9319    -60.5069      9.7209    117.0389
  1429.0000      9.7836    -61.2093      9.4291    124.0145
  1429.2500      9.5513    -61.9536      9.1243    128.0455
  1429.5000      9.2519    -62.6788      8.8087    132.9469
  1429.7500      8.9200    -63.3164      8.4918    135.1588
  1430.0000      8.5922    -63.8105      8.1899    136.7187
  1430.2500      8.2966    -64.1382      7.9215    136.8757
  1430.5000      8.0492    -64.3222      7.7018    136.7086
  1430.7500      7.8553    -64.4295      7.5392    136.8128
  1431.0000      7.7120    -64.5559      7.4330    137.4309
  1431.2500      7.6114    -64.8007      7.3744    137.7205
  1431.5000      7.5439    -65.2405      7.3494    137.0034
  1431.7500      7.4994    -65.9109      7.3433    135.6185
  1432.0000      7.4675    -66.8030      7.3454    133.0940
  1432.2500      7.4391    -67.8714      7.3510    131.9706
  1432.5000      7.4131    -69.0509      7.3617    131.9283
  1432.7500      7.4007    -70.2748      7.3824    132.6629
  1433.0000      7.4185    -71.4871      7.4189    133.5446
  1433.2500      7.4737    -72.6464      7.4760    133.4934
  1433.5000      7.5559    -73.7228      7.5560    132.6373
  1433.7500      7.6443    -74.6889      7.6586    131.7398
  1434.0000      7.7203    -75.5135      7.7798    129.5769
  1434.2500      7.7747    -76.1608      7.9134    127.2854
  1434.5000      7.8078    -76.5969      8.0523    122.8235
  1434.7500      7.8269    -76.8055      8.1909    119.8148
  1435.0000      7.8457    -76.8047      8.3262    116.5972
  1435.2500      7.8845    -76.6569      8.4585    115.9025
  1435.5000      7.9693    -76.4675      8.5895    117.2513
  1435.7500      8.1250    -76.3685      8.7211    119.2925
  1436.0000      8.3616    -76.4910      8.8535    122.8075
  1436.2500      8.6616    -76.9352      8.9859    124.9953
  1436.5000      8.9834    -77.7491      9.1172    127.9446
  1436.7500      9.2795    -78.9225      9.2470    129.5835
  1437.0000      9.5169    -80.3957      9.3744    130.9923
  1437.2500      9.6864    -82.0807      9.4966    131.1464
  1437.5000      9.7984    -83.8841      9.6096    130.9147
  1437.7500      9.8736    -85.7263      9.7103    130.8820
  1438.0000      9.9333    -87.5518      9.7985    130.8457
  1438.2500      9.9928    -89.3304      9.8778    130.4137
  1438.5000     10.0593    -91.0508      9.9544    128.9585
  1438.7500     10.1349    -92.7117     10.0363    127.8372
  1439.0000     10.2228    -94.3132     10.1318    126.8025
  1439.2500     10.3323    -95.8518     10.2486    126.6978
  1439.5000     10.4791    -97.3208     10.3930    126.8329
  1439.7500     10.6807    -98.7131     10.5701    126.5988
  1440.0000     10.9527   -100.0277     10.7837    125.3821
  1440.2500     11.3070   -101.2730     11.0381    124.2153
  1440.5000     11.7538   -102.4686     11.3387    122.5625
  1440.7500     12.3076   -103.6412     11.6938    121.6270
  1441.0000     12.9952   -104.8176     12.1150    120.0118
  1441.2500     13.8568   -106.0157     12.6169    118.4496
  1441.5000     14.9322   -107.2355     13.2169    115.2195
  1441.7500     16.2411   -108.4536     13.9348    112.5926
  1442.0000     17.7718   -109.6210     14.7903    107.9971
  1442.2500     19.4812   -110.6648     15.7980    104.2084
  1442.5000     21.2976   -111.4954     16.9594     96.4699
  1442.7500     23.1282   -112.0161     18.2530     89.5172
  1443.0000     24.8759   -112.1349     19.6301     76.9239
  1443.2500     26.4608   -111.7768     21.0201     68.3260
  1443.5000     27.8340   -110.8937     22.3465     58.1007
  1443.7500     28.9695   -109.4712     23.5419     54.5555
  1444.0000     29.8393   -107.5308     24.5506     55.2358
  1444.2500     30.3941   -105.1278     25.3163     59.3895
  1444.5000     30.5760   -102.3468     25.7788     69.4352
  1444.7500     30.3580    -99.2940     25.8921     77.0998
  1445.0000     29.7773    -96.0886     25.6556     86.7729
  1445.2500     28.9351    -92.8538     25.1284     90.4218
  1445.5000     27.9662    -89.7064     24.4123     91.1125
  1445.7500     26.9980    -86.7478     23.6180     89.4394
  1446.0000     26.1209    -84.0564     22.8340     86.3487
  1446.2500     25.3777    -81.6831     22.1136     84.8453
  1446.5000     24.7748    -79.6510     21.4776     83.4862
  1446.7500     24.3005    -77.9588     20.9299     82.7644
  1447.0000     23.9373    -76.5864     20.4735     81.5327
  1447.2500     23.6649    -75.5026     20.1178     80.6980
  1447.5000     23.4595    -74.6703     19.8745     79.7950
  1447.7500     23.2981    -74.0516     19.7476     79.5238
