~Version Information
VERS.                      2.0: CWLS Log ASCII Standard - VERSION 2.0
WRAP.                       NO: One line per depth step
~Well Information Block
STRT.FT               550.0000: 
STOP.FT              2042.5000: 
STEP.FT                 0.2500: 
NULL.                -999.2500: 
COMP.          Petrogulf Corporation: COMPANY
WELL.          Robinson 15-12V: WELL
FLD.           Purgatorie River: FIELD
LOC.           1788' FNL & 466' FWL: LOCATION
PROV.                 Colorado: PROVINCE
CNTY.               Las Animas: COUNTRY
SRVC.                Patterson: SERVICE COMPANY
DATE.          Mon Sep 12 10:04:59 2005: LOG DATE
UWI.                          : UNIQUE WELL ID
~Curve Information Block
DEPT.FT            0 000 00 00: Depth
SP.mV                         : DIL Spontaneous Potential
RILD.Ohm-m                    : DIL Deep Resistivity
RILM.Ohm-m                    : DIL Medium Resistivity
RLL3.Ohm-m                    : DIL Shallow Resistivity
GR.GAPI                       : Gamma Ray
~Parameter Information Block
~A  Depth        SP         RILD        RILM        RLL3         GR     
# ...
  1418.0000    232.4657      6.1219      6.1593      6.9996    171.6431
  1418.2500    231.9692      6.0750      6.1265      7.0781    166.8866
  1418.5000    232.6112      6.1052      5.8849      7.1082    149.9856
  1418.7500    232.3609      6.0233      5.8402      6.7812    156.4724
  1419.0000    232.5735      6.0650      5.6954      6.3810    160.5531
  1419.2500    231.6532      6.0307      5.6652      6.2150    167.5314
  1419.5000    231.6654      5.9841      5.6803      6.1783    163.8128
  1419.7500    231.3076      6.1131      5.7441      6.2594    151.5198
  1420.0000    230.9311      6.1069      5.8423      6.5039    162.3328
  1420.2500    230.4373      6.1794      5.9329      6.7943    159.9232
  1420.5000    229.6376      6.2226      6.0728      6.8505    156.0434
  1420.7500    229.1084      6.2426      6.2541      6.8164    154.0792
  1421.0000    228.3127      6.3037      6.3316      6.9449    143.9413
  1421.2500    228.1094      6.4128      6.5372      6.9262    146.3234
  1421.5000    227.1035      6.5139      6.6285      7.0664    132.1327
  1421.7500    227.2759      6.5622      6.7527      7.1108    124.6861
  1422.0000    226.7194      6.7445      6.7838      7.0703    129.7061
  1422.2500    226.8307      6.7856      6.9108      6.9357    127.3771
  1422.5000    226.7000      7.0210      7.3262      6.8752    122.8158
  1422.7500    226.9246      7.1748      7.3931      7.4329    129.7540
  1423.0000    227.3342      7.2605      7.8394      8.0038    142.2033
  1423.2500    227.2327      7.4673      8.0015      8.8020    145.8647
  1423.5000    227.4345      7.5013      7.9190      9.0216    158.9692
  1423.7500    226.7249      7.6837      7.9805      8.6318    158.6758
  1424.0000    226.5788      7.9220      8.0959      8.3048    162.5513
  1424.2500    226.2044      8.1012      8.1405      8.3521    165.5798
  1424.5000    226.3560      8.4990      8.3685      8.3443    163.2103
  1424.7500    224.8815      8.9279      8.6337      8.2510    160.3199
  1425.0000    224.6917      9.0940      9.1835      8.6140    142.6727
  1425.2500    224.6534      9.5516      9.7853      8.8007    145.1866
  1425.5000    224.4792      9.7638     10.8116      9.5753    126.7615
  1425.7500    223.8034     10.0851     12.2135     12.4280    107.6703
  1426.0000    223.4176     10.3361     13.7268     24.6229     91.4483
  1426.2500    223.6444     10.7043     14.3158     39.9660    105.4361
  1426.5000    224.1814     10.9345     14.5930     47.7399    113.9560
  1426.7500    224.9125     11.3642     15.3182     35.6393    136.9171
  1427.0000    224.7619     11.7917     15.0965     21.2914    151.4868
  1427.2500    225.4017     12.1674     15.6192     15.8781    158.6952
  1427.5000    226.1087     12.6426     15.8278     15.2319    171.1842
  1427.7500    226.7566     12.7844     16.3222     17.5301    165.7458
  1428.0000    226.1132     12.7822     17.0266     19.5589    154.7580
  1428.2500    226.1167     12.8342     16.9379     20.1478    157.0972
  1428.5000    226.1451     13.1749     16.5404     18.8870    174.7006
  1428.7500    225.9780     13.0985     16.2021     17.3820    173.1304
  1429.0000    225.4303     12.7329     15.0696     16.6900    171.8092
  1429.2500    225.2431     12.6635     14.8419     14.0664    182.2608
  1429.5000    225.3181     12.5993     14.3772     12.9619    187.7650
  1429.7500    226.0227     12.6173     14.0404     12.3514    192.5421
  1430.0000    225.5954     12.6671     13.7582     12.5309    194.1290
  1430.2500    225.4936     12.8441     13.7940     12.7192    187.3752
  1430.5000    225.6044     12.6375     14.1372     12.6553    167.2328
  1430.7500    225.4579     12.6814     14.1566     13.0488    159.2693
  1431.0000    225.7195     12.5662     14.4681     14.9190    152.7051
  1431.2500    226.3887     12.8339     14.7922     17.6960    147.1357
  1431.5000    226.9755     12.9926     15.5006     19.4607    142.4780
  1431.7500    227.6544     13.0240     16.4230     17.1395    147.4494
  1432.0000    227.9289     12.6072     16.6621     14.8806    154.3093
  1432.2500    228.8831     12.5811     16.7584     16.9887    140.0789
  1432.5000    229.1837     12.5540     16.9505     28.5446    119.8822
  1432.7500    229.9897     12.2083     17.2270     43.9628    113.5399
  1433.0000    230.0746     12.1396     16.5984     47.8684    113.2237
  1433.2500    230.4016     12.2149     14.9288     34.3325    136.7793
  1433.5000    230.4038     12.1932     14.0706     18.4849    156.9244
  1433.7500    230.9308     12.0301     13.2115     11.5087    159.0715
  1434.0000    230.7513     12.2106     12.5675     10.2630    193.6326
  1434.2500    230.2128     12.2195     12.3625     10.1297    196.7504
  1434.5000    230.0754     12.4389     12.2954     10.1763    189.1639
  1434.7500    229.6176     12.5461     12.6949     10.5800    181.0335
  1435.0000    229.0663     12.5206     12.9018     10.8025    169.0715
  1435.2500    228.6019     12.3661     12.8298     12.1623    172.1887
  1435.5000    228.7537     12.4845     13.5330     13.3247    170.9326
  1435.7500    228.8249     12.3772     13.9812     14.3670    156.2748
  1436.0000    228.5607     12.2862     14.1818     15.9513    128.6491
  1436.2500    227.6792     12.3359     14.7212     18.0552    132.3745
  1436.5000    227.8913     12.5527     15.2676     21.1962    133.3805
  1436.7500    228.2799     12.5196     15.5663     24.1743    132.0945
  1437.0000    228.3313     12.9474     15.5924     23.6257    134.2739
  1437.2500    227.7217     13.7309     15.5320     18.9542    139.1015
  1437.5000    227.3685     14.5383     15.6396     14.8541    159.2437
  1437.7500    226.5829     15.0949     15.9505     12.7861    157.6623
  1438.0000    226.1757     15.4372     16.6259     12.8258    140.5725
  1438.2500    225.4330     16.3437     18.2449     13.7260    136.3170
  1438.5000    225.6873     16.7637     19.1861     15.5459    120.7464
  1438.7500    224.5730     16.9449     21.4122     17.5194    113.2332
  1439.0000    224.2478     17.0195     23.3709     24.0060     96.1283
  1439.2500    224.0160     16.3962     23.3528     35.3293     82.1104
  1439.5000    224.3665     16.6484     24.5597     48.7549     66.0898
  1439.7500    223.5876     16.3705     25.8031     61.2471     60.9084
  1440.0000    223.1399     15.8702     25.9692     71.5544     57.2042
  1440.2500    223.2132     15.5064     24.3859     70.3354     55.6164
  1440.5000    223.8365     15.4821     23.1289     65.6080     65.1951
  1440.7500    224.2484     15.6018     20.1705     47.4551     80.5342
  1441.0000    224.1688     15.3151     18.0642     28.2289    130.1198
  1441.2500    224.6821     15.0061     16.2508     14.6264    161.4691
  1441.5000    225.6289     15.2777     15.5824     10.8240    185.3745
  1441.7500    226.5330     14.7490     15.5974     10.7616    193.0352
  1442.0000    227.0048     14.2030     14.8575     11.6067    198.9051
  1442.2500    227.9764     13.4264     15.0401     12.0083    182.3224
  1442.5000    228.8489     13.1603     14.8181     13.2013    164.1890
  1442.7500    230.2374     12.6242     14.3222     14.1905    171.3369
  1443.0000    231.1545     11.8766     13.9414     16.1524    162.5565
  1443.2500    232.3418     11.2970     12.9737     15.4374    161.7031
  1443.5000    233.5567     10.8880     11.7207     12.0415    169.0306
  1443.7500    234.6671     10.6793     11.2587     10.5583    185.7847
  1444.0000    235.5595     10.3583     10.8696      9.5014    187.9441
  1444.2500    235.5099     10.2562     10.5981      9.5360    177.1015
  1444.5000    235.6716     10.1317     10.3769      9.6953    183.1047
  1444.7500    235.5013      9.8999     10.3046      9.6899    181.3810
  1445.0000    235.5770      9.7358     10.2424      9.7109    185.9268
  1445.2500    235.4767      9.7171      9.8640      9.6587    183.4275
  1445.5000    235.5977      9.4536      9.7359      9.4765    186.1770
  1445.7500    235.9886      9.3374      9.5246      9.5908    188.4677
