~Version Information
VERS.                      2.0: CWLS Log ASCII Standard - VERSION 2.0
WRAP.                       NO: One line per depth step
~Well Information Block
STRT.FT               758.7500: 
STOP.FT              2420.7500: 
STEP.FT                 0.2500: 
NULL.                -999.2500: 
COMP.          Petrogulf Corporation: COMPANY
WELL.            Montoya 7-21V: WELL
FLD.           Purgatorie River: FIELD
LOC.           738' FSL & 2070' FWL: LOCATION
CNTY.               Las Animas: COUNTY
SRVC.                         : SERVICE COMPANY
DATE.          Fri Aug 20 07:13:07 2004: LOG DATE
UWI.           05 071 08018 00: UNIQUE WELL ID
STAT.                 Colorado: STATE
~Curve Information Block
DEPT.FT            0 000 00 00: Depth
SP.mV                         : DIL Spontaneous Potential
RILD.Ohm-m                    : DIL Deep Resistivity
RILM.Ohm-m                    : DIL Medium Resistivity
RLL3.Ohm-m                    : DIL Shallow Resistivity
GR.GAPI                       : Gamma Ray
~Parameter Information Block
~A  Depth        SP         RILD        RILM        RLL3         GR     
# ...
  1206.7500    -27.9310      8.9505      8.5458     10.9742    155.9886
  1207.0000    -28.3452      8.7176      8.3218     10.8015    152.9176
  1207.2500    -28.8571      8.5407      8.1396     10.5335    150.8182
  1207.5000    -29.3720      8.4200      7.9981     10.2558    147.5681
  1207.7500    -29.7731      8.3495      7.8957     10.0509    145.5580
  1208.0000    -29.9572      8.3171      7.8297      9.9611    143.6436
  1208.2500    -29.8666      8.3069      7.7965      9.9780    143.5365
  1208.5000    -29.5056      8.3035      7.7918     10.0641    145.1232
  1208.7500    -28.9406      8.2963      7.8106     10.1839    146.8424
  1209.0000    -28.2805      8.2818      7.8480     10.3197    149.0260
  1209.2500    -27.6482      8.2629      7.8997     10.4664    149.5292
  1209.5000    -27.1419      8.2459      7.9621     10.6149    148.9402
  1209.7500    -26.8102      8.2373      8.0331     10.7471    148.4585
  1210.0000    -26.6374      8.2420      8.1117     10.8445    148.6681
  1210.2500    -26.5571      8.2642      8.1987     10.9037    149.0814
  1210.5000    -26.4825      8.3080      8.2959     10.9435    148.5186
  1210.7500    -26.3456      8.3787      8.4063     11.0012    146.9455
  1211.0000    -26.1275      8.4819      8.5330     11.1189    144.1720
  1211.2500    -25.8629      8.6215      8.6789     11.3284    143.5397
  1211.5000    -25.6281      8.7972      8.8456     11.6386    145.6842
  1211.7500    -25.5086      9.0034      9.0330     12.0327    148.2904
  1212.0000    -25.5688      9.2279      9.2391     12.4775    150.8166
  1212.2500    -25.8310      9.4533      9.4593     12.9402    150.3447
  1212.5000    -26.2708      9.6581      9.6870     13.3993    146.7054
  1212.7500    -26.8307      9.8214      9.9136     13.8468    143.2176
  1213.0000    -27.4420      9.9276     10.1302     14.2833    137.4818
  1213.2500    -28.0504      9.9718     10.3284     14.7116    133.7839
  1213.5000    -28.6277      9.9621     10.5022     15.1231    129.8186
  1213.7500    -29.1716      9.9161     10.6490     15.4807    129.1402
  1214.0000    -29.6926      9.8551     10.7700     15.7145    131.3334
  1214.2500    -30.1953      9.7989     10.8690     15.7485    134.1271
  1214.5000    -30.6660      9.7622     10.9512     15.5490    138.6791
  1214.7500    -31.0694      9.7554     11.0221     15.1583    141.7513
  1215.0000    -31.3510      9.7846     11.0864     14.6829    147.3001
  1215.2500    -31.4464      9.8510     11.1479     14.2429    151.9301
  1215.5000    -31.2940      9.9507     11.2103     13.9201    159.2608
  1215.7500    -30.8469     10.0741     11.2774     13.7352    163.3423
  1216.0000    -30.0913     10.2088     11.3533     13.6600    167.0202
  1216.2500    -29.0613     10.3434     11.4429     13.6505    167.7115
  1216.5000    -27.8463     10.4703     11.5503     13.6797    166.6683
  1216.7500    -26.5829     10.5856     11.6792     13.7525    165.2520
  1217.0000    -25.4282     10.6875     11.8318     13.8971    163.2134
  1217.2500    -24.5287     10.7758     12.0088     14.1385    162.1115
  1217.5000    -23.9871     10.8540     12.2094     14.4704    160.0529
  1217.7500    -23.8424     10.9330     12.4316     14.8458    157.8279
  1218.0000    -24.0639     11.0304     12.6736     15.1930    153.5344
  1218.2500    -24.5630     11.1665     12.9348     15.4465    151.1773
  1218.5000    -25.2173     11.3585     13.2171     15.5765    150.4087
  1218.7500    -25.9020     11.6156     13.5263     15.6089    151.8226
  1219.0000    -26.5216     11.9382     13.8721     15.6319    154.7681
  1219.2500    -27.0307     12.3201     14.2679     15.7913    155.7372
  1219.5000    -27.4346     12.7524     14.7298     16.2701    154.5656
  1219.7500    -27.7729     13.2260     15.2750     17.2566    152.5193
  1220.0000    -28.0944     13.7338     15.9220     18.9047    148.9852
  1220.2500    -28.4330     14.2706     16.6899     21.3013    146.7126
  1220.5000    -28.7973     14.8345     17.6004     24.4486    143.4024
  1220.7500    -29.1732     15.4295     18.6779     28.2606    141.2901
  1221.0000    -29.5343     16.0690     19.9497     32.5677    138.5502
  1221.2500    -29.8551     16.7747     21.4427     37.1314    137.1366
  1221.5000    -30.1190     17.5710     23.1775     41.6728    135.5058
  1221.7500    -30.3176     18.4767     25.1589     45.9145    134.2753
  1222.0000    -30.4472     19.5014     27.3654     49.6128    130.7158
  1222.2500    -30.5020     20.6484     29.7425     52.5695    126.4700
  1222.5000    -30.4669     21.9228     32.2071     54.6426    117.4349
  1222.7500    -30.3180     23.3337     34.6670     55.7948    110.4916
  1223.0000    -30.0324     24.8850     37.0517     56.1869    100.2973
  1223.2500    -29.6028     26.5542     39.3404     56.2578     94.1430
  1223.5000    -29.0570     28.2719     41.5737     56.7020     86.2051
  1223.7500    -28.4660     29.9227     43.8391     58.3123     82.0400
  1224.0000    -27.9345     31.3751     46.2454     61.7491     77.8897
  1224.2500    -27.5703     32.5339     48.8898     67.3595     76.2878
  1224.5000    -27.4421     33.3754     51.8372     75.1455     74.3895
  1224.7500    -27.5474     33.9480     55.0925     84.8760     72.8242
  1225.0000    -27.8036     34.3451     58.5889     96.2319     69.8680
  1225.2500    -28.0766     34.6722     62.1748    108.8541     67.6981
  1225.5000    -28.2270     35.0243     65.6063    122.2743     64.1358
  1225.7500    -28.1584     35.4601     68.5652    135.8482     61.3254
  1226.0000    -27.8411     35.9642     70.6803    148.8125     56.5269
  1226.2500    -27.3080     36.4110     71.5829    160.4218     53.4368
  1226.5000    -26.6275     36.5562     70.9619    169.9965     49.8508
  1226.7500    -25.8788     36.1062     68.6550    176.8084     48.2914
  1227.0000    -25.1372     34.8633     64.7072    179.9375     46.9720
  1227.2500    -24.4739     32.8519     59.4125    178.3027     46.7426
  1227.5000    -23.9562     30.3097     53.2607    170.9385     47.7780
  1227.7500    -23.6439     27.5539     46.8194    157.4185     49.7812
  1228.0000    -23.5744     24.8510     40.5908    138.2509     55.3812
  1228.2500    -23.7487     22.3645     34.9216    115.0531     61.0596
  1228.5000    -24.1254     20.1687     29.9848     90.3498     72.5626
  1228.7500    -24.6364     18.2779     25.8154     66.9679     82.1752
  1229.0000    -25.2108     16.6710     22.3625     47.2403     99.3047
  1229.2500    -25.8007     15.3075     19.5355     32.3984    112.0344
  1229.5000    -26.3897     14.1407     17.2338     22.4426    130.9754
  1229.7500    -26.9841     13.1283     15.3625     16.4789    141.8325
  1230.0000    -27.5898     12.2379     13.8395     13.2610    153.6351
  1230.2500    -28.1917     11.4486     12.5968     11.6467    158.6875
  1230.5000    -28.7475     10.7469     11.5795     10.8326    163.7258
  1230.7500    -29.1964     10.1245     10.7443     10.3827    166.3138
  1231.0000    -29.4795      9.5760     10.0566     10.1299    169.6666
  1231.2500    -29.5578      9.0977      9.4894     10.0357    171.4110
  1231.5000    -29.4225      8.6870      9.0211     10.0745    172.5019
  1231.7500    -29.0986      8.3408      8.6345     10.1829    171.7020
  1232.0000    -28.6385      8.0550      8.3153     10.2753    168.1127
  1232.2500    -28.1196      7.8241      8.0517     10.2865    164.8578
  1232.5000    -27.6317      7.6419      7.8336     10.1998    160.8332
  1232.7500    -27.2626      7.5022      7.6526     10.0430    159.7813
  1233.0000    -27.0790      7.3984      7.5017      9.8641    160.8562
  1233.2500    -27.1074      7.3234      7.3753      9.7064    162.3641
  1233.5000    -27.3289      7.2695      7.2688      9.5901    163.4986
  1233.7500    -27.6885      7.2295      7.1789      9.5036    162.9097
  1234.0000    -28.1175      7.1974      7.1028      9.4071    161.2463
  1234.2500    -28.5541      7.1702      7.0383      9.2532    160.9571
  1234.5000    -28.9573      7.1477      6.9839      9.0182    162.8004
