~Version Information
VERS.                      2.0: CWLS Log ASCII Standard - VERSION 2.0
WRAP.                       NO: One line per depth step
~Well Information Block
STRT.FT               258.0000: 
STOP.FT              1001.0000: 
STEP.FT                 0.2500: 
NULL.                -999.2500: 
COMP.          Pioneer Natural Resources: COMPANY
WELL.          Piggyback 33-25: WELL
FLD.           Purgatoire River: FIELD
LOC.           1600' FSL & 1800' FEL: LOCATION
PROV.                 Colorado: PROVINCE
CNTY.               Las Animas: COUNTRY
SRVC.                Patterson: SERVICE COMPANY
DATE.          Fri Apr 29 14:22:38 2005: LOG DATE
UWI.           05 071 08233 00: UNIQUE WELL ID
~Curve Information Block
DEPT.FT            0 000 00 00: Depth
SN.Ohm-m                      : IEL Short Normal
SP.mV                         : IEL Spontaneous Potential
DIR.Ohm-m                     : IEL Induction Resistivity
GR.GAPI                       : Gamma Ray
~Parameter Information Block
~A  Depth        SN          SP         DIR          GR     
# ...
   492.5000   2000.0000   2000.0000     26.4753    129.9724
   492.7500   2000.0000   2000.0000     27.4676    128.8332
   493.0000   2000.0000   2000.0000     28.3929    127.1398
   493.2500   2000.0000   2000.0000     29.2218    125.1704
   493.5000   2000.0000   2000.0000     29.9679    120.2925
   493.7500   2000.0000   2000.0000     30.6449    116.2018
   494.0000   2000.0000   2000.0000     31.2323    110.3476
   494.2500   2000.0000   2000.0000     31.6669    107.2989
   494.5000   2000.0000   2000.0000     31.8598    104.1871
   494.7500   2000.0000   2000.0000     31.7377    102.9550
   495.0000   2000.0000   2000.0000     31.2847    102.6152
   495.2500   2000.0000   2000.0000     30.5475    103.8353
   495.5000   2000.0000   2000.0000     29.5993    108.2459
   495.7500   2000.0000   2000.0000     28.5056    112.4406
   496.0000   2000.0000   2000.0000     27.3255    118.5932
   496.2500   2000.0000   2000.0000     26.1274    121.3753
   496.5000   2000.0000   2000.0000     24.9885    123.0358
   496.7500   2000.0000   2000.0000     23.9741    123.4125
   497.0000   2000.0000   2000.0000     23.1192    125.6705
   497.2500   2000.0000   2000.0000     22.4262    129.5744
   497.5000   2000.0000   2000.0000     21.8765    138.9671
   497.7500   2000.0000   2000.0000     21.4400    146.1378
   498.0000   2000.0000   2000.0000     21.0759    154.8828
   498.2500   2000.0000   2000.0000     20.7328    157.9378
   498.5000   2000.0000   2000.0000     20.3576    157.4751
   498.7500   2000.0000   2000.0000     19.9124    153.9839
   499.0000   2000.0000   2000.0000     19.3879    145.4304
   499.2500   2000.0000   2000.0000     18.8055    139.2142
   499.5000   2000.0000   2000.0000     18.2084    132.8309
   499.7500   2000.0000   2000.0000     17.6481    132.1847
   500.0000   2000.0000   2000.0000     17.1679    137.1784
   500.2500   2000.0000   2000.0000     16.7945    143.5753
   500.5000   2000.0000   2000.0000     16.5355    155.1452
   500.7500   2000.0000   2000.0000     16.3842    162.5578
   501.0000   2000.0000   2000.0000     16.3227    171.1095
   501.2500   2000.0000   2000.0000     16.3212    174.5273
   501.5000   2000.0000   2000.0000     16.3377    176.1760
   501.7500   2000.0000   2000.0000     16.3237    175.1770
   502.0000   2000.0000   2000.0000     16.2386    171.2346
   502.2500   2000.0000   2000.0000     16.0671    167.6922
   502.5000   2000.0000   2000.0000     15.8270    162.6212
   502.7500   2000.0000   2000.0000     15.5623    160.2737
   503.0000   2000.0000   2000.0000     15.3237    159.0819
   503.2500   2000.0000   2000.0000     15.1490    159.7158
   503.5000   2000.0000   2000.0000     15.0512    161.8052
   503.7500   2000.0000   2000.0000     15.0146    163.2351
   504.0000   2000.0000   2000.0000     15.0015    164.5069
   504.2500   2000.0000   2000.0000     14.9677    164.5810
   504.5000   2000.0000   2000.0000     14.8807    164.0015
   504.7500   2000.0000   2000.0000     14.7291    163.7655
   505.0000   2000.0000   2000.0000     14.5201    164.3198
   505.2500   2000.0000   2000.0000     14.2701    165.0568
   505.5000   2000.0000   2000.0000     13.9978    165.7357
   505.7500   2000.0000   2000.0000     13.7202    165.7116
   506.0000   2000.0000   2000.0000     13.4489    165.7852
   506.2500   2000.0000   2000.0000     13.1860    166.5430
   506.5000   2000.0000   2000.0000     12.9236    168.7890
   506.7500   2000.0000   2000.0000     12.6510    170.3146
   507.0000   2000.0000   2000.0000     12.3647    171.4367
   507.2500   2000.0000   2000.0000     12.0750    171.5100
   507.5000   2000.0000   2000.0000     11.8009    171.9332
   507.7500   2000.0000   2000.0000     11.5590    172.9092
   508.0000   2000.0000   2000.0000     11.3534    174.8336
   508.2500   2000.0000   2000.0000     11.1753    175.8530
   508.5000   2000.0000   2000.0000     11.0126    176.8667
   508.7500   2000.0000   2000.0000     10.8615    177.4267
   509.0000   2000.0000   2000.0000     10.7324    177.8937
   509.2500   2000.0000   2000.0000     10.6451    177.4737
   509.5000   2000.0000   2000.0000     10.6213    175.2258
   509.7500   2000.0000   2000.0000     10.6791    172.8758
   510.0000   2000.0000   2000.0000     10.8309    169.1940
   510.2500   2000.0000   2000.0000     11.0838    167.4060
   510.5000   2000.0000   2000.0000     11.4393    166.4827
   510.7500   2000.0000   2000.0000     11.8911    166.7325
   511.0000   2000.0000   2000.0000     12.4208    166.5236
   511.2500   2000.0000   2000.0000     12.9959    164.6974
   511.5000   2000.0000   2000.0000     13.5709    158.1977
   511.7500   2000.0000   2000.0000     14.0940    151.3811
   512.0000   2000.0000   2000.0000     14.5177    138.2866
   512.2500   2000.0000   2000.0000     14.8103    128.4763
   512.5000   2000.0000   2000.0000     14.9652    113.8615
   512.7500   2000.0000   2000.0000     15.0059    104.9996
   513.0000   2000.0000   2000.0000     14.9794     94.0417
   513.2500   2000.0000   2000.0000     14.9397     89.1309
   513.5000   2000.0000   2000.0000     14.9287     87.3918
   513.7500   2000.0000   2000.0000     14.9629     90.7273
   514.0000   2000.0000   2000.0000     15.0315    101.5576
   514.2500   2000.0000   2000.0000     15.1068    111.0019
   514.5000   2000.0000   2000.0000     15.1605    125.1460
   514.7500   2000.0000   2000.0000     15.1786    132.9148
   515.0000   2000.0000   2000.0000     15.1654    140.3129
   515.2500   2000.0000   2000.0000     15.1370    142.1420
   515.5000   2000.0000   2000.0000     15.1121    140.9929
   515.7500   2000.0000   2000.0000     15.1066    138.4110
   516.0000   2000.0000   2000.0000     15.1354    132.8857
   516.2500   2000.0000   2000.0000     15.2176    128.3763
   516.5000   2000.0000   2000.0000     15.3809    120.4205
   516.7500   2000.0000   2000.0000     15.6604    114.3935
   517.0000   2000.0000   2000.0000     16.0911    105.0440
   517.2500   2000.0000   2000.0000     16.6996     99.3666
   517.5000   2000.0000   2000.0000     17.5032     92.5793
   517.7500   2000.0000   2000.0000     18.5164     89.2224
   518.0000   2000.0000   2000.0000     19.7561     85.8161
   518.2500   2000.0000   2000.0000     21.2322     84.8639
   518.5000   2000.0000   2000.0000     22.9206     85.8094
   518.7500   2000.0000   2000.0000     24.7350     96.9368
   519.0000   2000.0000   2000.0000     26.5273    100.5370
   519.2500   2000.0000   2000.0000     28.1371    102.3062
   519.5000   2000.0000   2000.0000     29.4669    103.4167
   519.7500   2000.0000   2000.0000     30.5226    113.2121
   520.0000   2000.0000   2000.0000     31.3813    112.5904
   520.2500   2000.0000   2000.0000     32.1142    111.9591
   520.5000     43.3379      0.9194     32.7332    110.1702
   520.7500     43.6997      1.0079     33.2060    108.0481
   521.0000     43.8202      1.0687     33.5205    103.7225
   521.2500     43.6231      1.0868     33.7330    100.8031
   521.5000     43.5099      1.0521     33.9505     97.6171
   521.7500     43.9624      0.9622     34.2660     96.4636
   522.0000     45.0145      0.8248     34.7006     95.5791
   522.2500     46.1855      0.6586     35.1921     95.1630
   522.5000     47.0882      0.4894     35.6237     94.6908
   522.7500     47.8345      0.3407     35.8801     94.6002
   523.0000     48.3302      0.2253     35.9032     94.9437
   523.2500     48.0602      0.1448     35.7186     95.5647
   523.5000     47.1522      0.0955     35.4108     97.1071
   523.7500     46.3510      0.0747     35.0604     98.2478
   524.0000     45.9397      0.0795     34.6826     99.1906
   524.2500     45.6033      0.1016     34.2045     99.0795
   524.5000     44.9871      0.1301     33.4989     98.7296
   524.7500     44.0851      0.1616     32.4696     99.3481
   525.0000     43.0022      0.2022     31.1337    102.6054
   525.2500     41.5723      0.2557     29.6235    106.2297
   525.5000     39.6933      0.3118     28.0984    112.9474
   525.7500     37.5173      0.3490     26.6513    117.7240
