~Version Information
VERS.                      2.0: CWLS Log ASCII Standard - VERSION 2.0
WRAP.                       NO: One line per depth step
~Well Information Block
STRT.FT                -8.0000: 
STOP.FT               973.2500: 
STEP.FT                 0.2500: 
NULL.                -999.2500: 
COMP.          Pioneer Natural Resources: COMPANY
WELL.              Oscar 41-31: WELL
FLD.           Purgatorie River: FIELD
LOC.           412' FNL & 1216' FEL--: LOCATION
PROV.                       CO: PROVINCE
CNTY.               Las Animas: COUNTRY
SRVC.          Patterson Wireline: SERVICE COMPANY
DATE.          Wed Mar 02 12:29:08 2005: LOG DATE
UWI.           05 071 08290 00: UNIQUE WELL ID
~Curve Information Block
DEPT.FT            0 000 00 00: Depth
CCL.                          : Casing Collar Locator
TT5.usec                      : CBL 5' Travel Time
AMP3.mV                       : CBL 3' Amplitude
GR.GAPI                       : Gamma Ray
~Parameter Information Block
~A  Depth       CCL         TT5         AMP3         GR     
# ...
   796.0000      0.0000   1112.8695      3.2777     60.0353
   796.2500      0.0000   1157.5046      3.3051     58.8466
   796.5000      0.0000   1160.8422      3.3069     58.7767
   796.7500      0.0000   1200.0000      3.2899     60.4396
   797.0000      0.0000   1200.0000      3.2683     63.2668
   797.2500      0.0000   1200.0000      3.2534     65.7801
   797.5000      0.0000   1200.0000      3.2481     66.6726
   797.7500      0.0000   1200.0000      3.2525     65.7611
   798.0000      0.0000   1157.6471      3.2664     64.1144
   798.2500      0.0000   1154.9487      3.2837     63.1824
   798.5000      0.0000   1155.2061      3.2892     63.5341
   798.7500      0.0000   1155.3306      3.2693     64.3251
   799.0000      0.0000   1154.0510      3.2259     64.1245
   799.2500      0.0000   1153.9033      3.1780     62.2767
   799.5000      0.0000   1157.1666      3.1454     59.2707
   799.7500      0.0000   1200.0000      3.1332     55.8590
   800.0000      0.0000   1200.0000      3.1309     52.3443
   800.2500      0.0000   1200.0000      3.1252     48.9096
   800.5000      0.0000   1153.1379      3.1093     46.1064
   800.7500      0.0000   1154.0476      3.0834     44.5366
   801.0000      0.0000   1155.3182      3.0517     44.2009
   801.2500      0.0000   1153.1575      3.0193     44.4062
   801.5000      0.0000   1152.0968      2.9898     44.2298
   801.7500      0.0000   1151.0415      2.9659     43.0267
   802.0000      0.0000   1149.8298      2.9502     40.8162
   802.2500      0.0000   1152.6487      2.9444     38.4624
   802.5000      0.0000   1200.0000      2.9482     37.3194
   802.7500      0.0000   1200.0000      2.9571     38.2354
   803.0000      0.0000   1200.0000      2.9628     40.6982
   803.2500      0.0000   1200.0000      2.9595     43.1598
   803.5000      0.0000   1156.4445      2.9530     44.3131
   803.7500      0.0000   1153.7250      2.9616     43.9616
   804.0000      0.0000   1150.6804      3.0016     42.7730
   804.2500      0.0000   1153.1525      3.0716     41.5478
   804.5000      0.0000   1154.5878      3.1494     40.8247
   804.7500      0.0000   1200.0000      3.2090     40.8799
   805.0000      0.0000   1200.0000      3.2364     41.7417
   805.2500      0.0000   1109.6552      3.2324     43.1499
   805.5000      0.0000   1200.0000      3.2004     44.8119
   805.7500      0.0000   1200.0000      3.1424     46.8986
   806.0000      0.0000   1200.0000      3.0655     50.1745
   806.2500      0.0000   1200.0000      2.9871     55.4017
   806.5000      0.0000   1200.0000      2.9245     62.5801
   806.7500      0.0000   1200.0000      2.8826     70.7742
   807.0000      0.0000   1200.0000      2.8555     78.4811
   807.2500      0.0000   1200.0000      2.8379     84.1555
   807.5000      0.0000   1152.4736      2.8304     86.9833
   807.7500      0.0000   1151.4445      2.8352     87.6858
   808.0000      0.0000   1149.7670      2.8533     88.2985
   808.2500      0.0000   1200.0000      2.8861     90.5679
   808.5000      0.0000   1200.0000      2.9323     94.2849
   808.7500      0.0000   1200.0000      2.9785     97.1879
   809.0000      0.0000   1200.0000      3.0010     96.6411
   809.2500      0.0000   1154.1305      2.9849     91.6771
   809.5000      0.0000   1200.0000      2.9407     83.7281
   809.7500      0.0000   1200.0000      2.8961     75.6193
   810.0000      0.0000   1200.0000      2.8724     69.7699
   810.2500      0.0000   1200.0000      2.8713     66.8775
   810.5000      0.0000   1157.8695      2.8802     65.9968
   810.7500      0.0000   1200.0000      2.8850     65.8852
   811.0000      0.0000   1200.0000      2.8775     66.2587
   811.2500      0.0000   1148.8928      2.8523     67.6598
   811.5000      0.0000   1192.1270      2.8007     70.3804
   811.7500      0.0000   1183.6034      2.7122     73.8099
   812.0000      0.0000   1181.5161      2.5865     76.6566
   812.2500      0.0000   1196.8334      2.4478     77.5036
   812.5000      0.0000   1147.3861      2.3441     75.4437
   812.7500      0.0000   1200.0000      2.3158     70.7874
   813.0000      0.0000   1200.0000      2.3593     65.2666
   813.2500      0.0000   1154.3422      2.4279     60.9868
   813.5000      0.0000   1144.3057      2.4752     58.8669
   813.7500      0.0000   1200.0000      2.4873     58.3008
   814.0000      0.0000   1200.0000      2.4774     58.3567
   814.2500     -2.0000   1200.0000      2.4651     58.8955
   814.5000     -2.0000   1200.0000      2.4694     60.3642
   814.7500     -2.0000   1200.0000      2.5071     62.8499
   815.0000      0.0000   1200.0000      2.5860     65.8092
   815.2500      0.0000   1200.0000      2.6944     68.9522
   815.5000      0.0000   1200.0000      2.7960     73.0370
   815.7500      0.0000   1200.0000      2.8420     79.0414
   816.0000      0.0000   1200.0000      2.8072     86.3591
   816.2500      0.0000   1200.0000      2.7240     92.5692
   816.5000      0.0000   1114.3684      2.6661     95.5988
   816.7500      0.0000   1115.2021      2.6879     95.7896
   817.0000      0.0000   1087.3334      2.7834     95.3312
   817.2500      0.0000   1129.8976      2.9036     95.9130
   817.5000      0.0000   1200.0000      2.9968     97.3606
   817.7500      0.0000   1200.0000      3.0364     98.2806
   818.0000      0.0000   1200.0000      3.0277     97.4672
   818.2500      0.0000   1200.0000      2.9989     94.7014
   818.5000      0.0000   1200.0000      2.9795     90.6961
   818.7500      0.0000   1200.0000      2.9778     86.5190
   819.0000      0.0000   1200.0000      2.9817     82.8815
   819.2500      0.0000   1200.0000      2.9788     79.8413
   819.5000      0.0000   1200.0000      2.9719     77.1340
   819.7500      0.0000   1200.0000      2.9725     74.5767
   820.0000      0.0000   1200.0000      2.9848     72.1488
   820.2500      0.0000   1200.0000      3.0021     70.0647
   820.5000      0.0000   1200.0000      3.0172     68.8516
   820.7500      0.0000   1200.0000      3.0313     69.0006
   821.0000      0.0000   1200.0000      3.0497     70.3874
   821.2500      0.0000   1200.0000      3.0736     72.2107
   821.5000      0.0000   1153.6753      3.0974     73.6010
   821.7500      0.0000   1200.0000      3.1173     74.2334
   822.0000      0.0000   1200.0000      3.1372     74.3596
   822.2500      0.0000   1200.0000      3.1638     74.4434
   822.5000      0.0000   1200.0000      3.1948     74.8300
   822.7500      0.0000   1200.0000      3.2176     75.4355
   823.0000      0.0000   1200.0000      3.2203     75.4673
   823.2500      0.0000   1200.0000      3.2018     73.8442
   823.5000      0.0000   1200.0000      3.1713     70.3479
   823.7500      0.0000   1200.0000      3.1406     66.1249
   824.0000      0.0000   1200.0000      3.1190     62.7663
   824.2500      0.0000   1200.0000      3.1105     61.0525
   824.5000      0.0000   1200.0000      3.1099     60.5855
   824.7500      0.0000   1200.0000      3.1066     60.2718
   825.0000      0.0000   1200.0000      3.0985     59.1642
   825.2500      0.0000   1200.0000      3.0966     57.1932
   825.5000      0.0000   1200.0000      3.1131     55.1268
   825.7500      0.0000   1200.0000      3.1435     53.6851
   826.0000      0.0000   1200.0000      3.1676     52.9487
   826.2500      0.0000   1200.0000      3.1682     52.7711
   826.5000      0.0000   1200.0000      3.1421     53.3468
   826.7500      0.0000   1200.0000      3.0954     54.9640
   827.0000      0.0000   1200.0000      3.0369     57.4455
   827.2500      0.0000   1200.0000      2.9816     60.3191
   827.5000      0.0000   1200.0000      2.9461     63.4352
   827.7500      0.0000   1200.0000      2.9214     66.8893
   828.0000      0.0000   1200.0000      2.8614     70.2148
   828.2500      0.0000   1200.0000      2.7345     72.1851
   828.5000      0.0000   1200.0000      2.5890     71.9250
   828.7500      0.0000   1200.0000      2.5324     70.0271
   829.0000      0.0000   1200.0000      2.6275     68.0925
   829.2500      0.0000   1200.0000      2.8228     67.1211
