~Version Information
 VERS.                                  2.0 : CWLS LAS VERSION
 WRAP.                                   NO : WRAPING MODE
 SWARE .                 MController 2.5.0E : SOFTWARE VERSION
~Well Information
 WELL.                        Labrador 34-30: WELL
 COMP.             Pioneer Natural Resources: COMPANY
 FLD.                       Purgatoire River: FIELD
 LOC.                SW/SE Sec 30 T34S R65W : LOCATION
 DATE.                            12/05/2004: DATE(S) LOGGED
 SRVC.       Blanco Geological Services LLC : SERVICE COMPANY
 STAT.                                    CO: STATE
 CNTY.                            Las Animas: COUNTY
 CTRY.                                   USA: COUNTRY
 API.                           05-071-08202: API NUMBER
 STRT.FT                             302.00 : START DEPTH
 STOP.FT                            1765.00 : STOP DEPTH
 STEP.FT                               1.00 : DEPTH INCREMENT
 NULL.                                -9999 : NULL VALUE
~Curve information
 DEPTH.FT                                   :
 ROP.MIN/FT                                 :
 GAS.UNITS                                  :
~ASCII Log data
# ...
     1102.00        0.167          4.7 
     1103.00        0.300          5.0 
     1104.00        0.167          5.1 
     1105.00        0.200          6.5 
     1106.00        3.917        149.2 
     1107.00        0.333         21.4 
     1108.00        0.333         15.3 
     1109.00        0.300         12.3 
     1110.00        0.233         10.5 
     1111.00        0.200         11.1 
     1112.00        0.217         10.8 
     1113.00        0.200         10.1 
     1114.00        0.200         10.0 
     1115.00        0.167         10.2 
     1116.00        0.100         10.6 
     1117.00        0.133         10.7 
     1118.00        0.167         10.6 
     1119.00        0.167         10.1 
     1120.00        0.233         11.6 
     1121.00        0.167         11.7 
     1122.00        0.167         11.1 
     1123.00        0.200         11.5 
     1124.00        0.200         10.1 
     1125.00        0.200          9.6 
     1126.00        0.167          8.6 
     1127.00        0.200          8.3 
     1128.00        0.233          7.6 
     1129.00        0.233          6.1 
     1130.00        0.183          5.4 
     1131.00        0.200          4.5 
     1132.00        0.167          5.0 
     1133.00        0.167          5.1 
     1134.00        0.167          4.6 
     1135.00        0.200          5.8 
     1136.00        6.433         35.0 
     1137.00        0.333         18.6 
     1138.00        0.267         17.5 
     1139.00        0.267         15.5 
     1140.00        0.133         15.3 
     1141.00        0.200         14.7 
     1142.00        0.233         14.0 
     1143.00        0.200         12.6 
     1144.00        0.200         11.5 
     1145.00        0.233         10.3 
     1146.00        0.267          9.4 
     1147.00        0.200          9.4 
     1148.00        0.250          9.4 
     1149.00        0.200          9.0 
     1150.00        0.200          8.0 
     1151.00        0.200          7.8 
     1152.00        0.233          7.9 
     1153.00        0.133          7.0 
     1154.00        0.200          6.2 
     1155.00        0.167          6.0 
     1156.00        0.233          4.6 
     1157.00        0.133          4.2 
     1158.00        0.133          3.8 
     1159.00        0.167          3.9 
     1160.00        0.167          4.0 
     1161.00        0.167          4.0 
     1162.00        0.167          3.9 
     1163.00        0.167          4.1 
     1164.00        0.167          4.2 
     1165.00        0.333          6.0 
     1166.00        3.283         58.8 
     1167.00        0.117         15.7 
     1168.00        0.233         14.8 
     1169.00        0.300         14.4 
     1170.00        0.067         11.6 
     1171.00        0.267         12.0 
     1172.00        0.633         14.4 
     1173.00        0.067         15.0 
     1174.00        0.100         15.3 
     1175.00        0.400         16.2 
     1176.00        0.233         16.9 
     1177.00        0.400         18.1 
     1178.00        0.367         15.7 
     1179.00        0.167         12.0 
     1180.00        0.183         11.7 
     1181.00        0.200         10.8 
     1182.00        0.167          8.7 
     1183.00       13.567         10.9 
     1184.00        9.417         12.4 
     1185.00        0.433          2.8 
     1186.00        0.567          2.8 
     1187.00        0.400          2.9 
     1188.00        0.333          2.9 
     1189.00        0.333          2.8 
     1190.00        0.333          2.9 
     1191.00        0.300          2.3 
     1192.00        0.300          3.0 
     1193.00        0.350          2.9 
     1194.00        0.300          2.4 
     1195.00        0.300          3.0 
     1196.00        0.667          5.3 
     1197.00        0.233          9.2 
     1198.00        0.233         10.1 
     1199.00        0.267         10.1 
     1200.00        0.267          7.8 
     1201.00        0.267          6.3 
     1202.00        0.233          4.8 
     1203.00        0.300          4.5 
     1204.00        0.167          4.1 
     1205.00        0.317          3.8 
     1206.00        0.233          3.5 
     1207.00        0.300          3.4 
     1208.00        0.233          2.8 
     1209.00        0.233          3.1 
     1210.00        0.367          3.0 
     1211.00        0.267          2.7 
     1212.00        0.267          2.4 
     1213.00        0.233          3.0 
     1214.00        0.233          2.6 
     1215.00        0.300          3.5 
     1216.00        0.167          7.8 
     1217.00        0.233         20.4 
     1218.00        0.283         32.9 
     1219.00        0.267         44.7 
     1220.00        0.267         52.2 
     1221.00        0.267         54.1 
     1222.00        0.333         53.5 
     1223.00        0.267         45.9 
     1224.00        0.233         40.5 
     1225.00        0.533         36.4 
     1226.00        0.200         31.1 
     1227.00        0.267         28.8 
     1228.00        0.467         25.1 
     1229.00        0.317         19.7 
     1230.00        0.367         17.7 
     1231.00        0.300         15.0 
     1232.00        0.267         13.1 
     1233.00        0.267         10.3 
     1234.00        0.200          9.4 
     1235.00        0.133          8.9 
     1236.00        0.133          8.4 
     1237.00        0.200          7.9 
     1238.00        0.233          8.4 
     1239.00        0.267          9.3 
     1240.00        0.233          9.4 
     1241.00        0.233          8.2 
     1242.00        0.217          8.0 
     1243.00        0.167          7.3 
     1244.00        0.133          6.9 
     1245.00        0.133          7.8 
     1246.00        0.133          6.9 
     1247.00        0.133          7.7 
     1248.00        0.100          7.7 
     1249.00        0.100          7.5 
     1250.00        0.233          7.3 
     1251.00        0.233          6.6 
     1252.00        0.233          6.0 
     1253.00        0.333          6.1 
     1254.00        0.200          5.0 
     1255.00        0.333          5.0 
     1256.00        2.683         24.2 
     1257.00        0.133         23.4 
     1258.00        0.300         23.1 
     1259.00        0.267         21.9 
     1260.00        0.267         21.4 
     1261.00        0.233         21.0 
     1262.00        0.200         19.3 
     1263.00        0.217         17.4 
     1264.00        0.133         16.9 
     1265.00        0.267         16.8 
     1266.00        0.267         16.0 
     1267.00        0.333         13.4 
     1268.00        0.233         11.3 
     1269.00        0.267         10.3 
     1270.00        0.200          8.2 
     1271.00        0.233          8.2 
     1272.00        0.200          8.8 
     1273.00        0.233          7.8 
     1274.00        0.300          9.3 
     1275.00        0.200         10.6 
     1276.00        0.200         14.6 
     1277.00        0.217         17.0 
     1278.00        0.167         18.3 
     1279.00        0.200         18.7 
     1280.00        0.133         18.1 
     1281.00        0.200         18.1 
     1282.00        0.200         17.0 
     1283.00        0.200         15.2 
     1284.00        0.267         14.6 
     1285.00        0.233         13.2 
     1286.00        3.817         73.4 
     1287.00        0.200         52.7 
     1288.00        0.400         49.3 
     1289.00        0.233         44.1 
     1290.00        0.250         41.3 
     1291.00        0.233         38.3 
     1292.00        0.233         36.3 
     1293.00        0.233         34.2 
     1294.00        0.200         32.9 
     1295.00        0.200         31.8 
     1296.00        0.200         29.6 
     1297.00        0.200         29.4 
     1298.00        0.267         28.5 
     1299.00        0.300         30.6 
     1300.00        0.267         30.2 
     1301.00        0.233         26.4 
