~Version Information
VERS.                      2.0: CWLS Log ASCII Standard - VERSION 2.0
WRAP.                       NO: One line per depth step
~Well Information Block
STRT.FT                -8.2500: 
STOP.FT              2239.2500: 
STEP.FT                 0.2500: 
NULL.                -999.2500: 
COMP.          Pioneer Natural Resources: COMPANY
WELL.            Moo Moo 31-36: WELL
FLD.           Purgatorie River: FIELD
LOC.           612' FNL & 2326' FEL--: LOCATION
PROV.                       CO: PROVINCE
CNTY.               Las Animas: COUNTRY
SRVC.          Patterson Wireline: SERVICE COMPANY
DATE.          Thu Jun 23 10:04:07 2005: LOG DATE
UWI.           05 071 08395 00: UNIQUE WELL ID
~Curve Information Block
DEPT.FT            0 000 00 00: Depth
CCL.                          : Casing Collar Locator
TT3.usec                      : CBL 3' Travel Time
AMP3.mV                       : CBL 3' Amplitude
GR.GAPI                       : Gamma Ray
~Parameter Information Block
~A  Depth       CCL         TT3         AMP3         GR     
# ...
  1901.2500      0.0000    718.8520      4.2549    115.0283
  1901.5000      0.0000    726.1387      4.3302    113.1886
  1901.7500      0.0000    736.8179      4.3664    109.8552
  1902.0000      0.0000    749.2133      4.4009    105.6374
  1902.2500      0.0000    761.4389      4.4763    101.0531
  1902.5000      0.0000    772.2579      4.6114     96.5154
  1902.7500      0.0000    780.4614      4.7907     92.3223
  1903.0000      0.0000    784.3631      4.9683     88.7849
  1903.2500      0.0000    782.7006      5.0866     86.4037
  1903.5000      0.0000    775.7556      5.1045     85.7564
  1903.7500      0.0000    765.6071      5.0206     86.9447
  1904.0000      0.0000    755.4503      4.8684     89.0162
  1904.2500      0.0000    747.6457      4.6867     90.2058
  1904.5000      0.0000    741.3400      4.4980     89.1367
  1904.7500      0.0000    732.3004      4.3171     85.7024
  1905.0000      0.0000    715.0072      4.1639     80.7718
  1905.2500      0.0000    684.2502      4.0537     75.5941
  1905.5000      0.0000    636.6226      3.9792     71.6416
  1905.7500      0.0000    574.4146      3.9213     70.2856
  1906.0000      0.0000    508.4863      3.8795     71.9671
  1906.2500      0.0000    453.3879      3.8772     75.7624
  1906.5000      0.0000    417.4947      3.9350     80.0893
  1906.7500      0.0000    398.9656      4.0431     83.9163
  1907.0000      0.0000    390.7603      4.1621     87.0612
  1907.2500      0.0000    387.0609      4.2467     89.2045
  1907.5000      0.0000    384.9498      4.2742     89.1995
  1907.7500      0.0000    382.9567      4.2575     86.0601
  1908.0000      0.0000    380.1152      4.2278     80.2785
  1908.2500      0.0000    376.1863      4.2008     73.4542
  1908.5000      0.0000    371.7557      4.1638     66.9477
  1908.7500      0.0000    367.6891      4.1011     61.5047
  1909.0000      0.0000    364.5015      4.0251     57.6690
  1909.2500      0.0000    362.2520      3.9648     55.6889
  1909.5000      0.0000    360.7890      3.9228     55.1697
  1909.7500      0.0000    359.9584      3.8712     55.4064
  1910.0000      0.0000    359.7370      3.8042     55.9666
  1910.2500      0.0000    360.3879      3.7756     56.7461
  1910.5000      0.0000    362.5227      3.8551     57.6624
  1910.7500      0.0000    366.7457      4.0501     58.3851
  1911.0000      0.0000    372.9440      4.2883     58.2682
  1911.2500      0.0000    379.9222      4.4790     56.8238
  1911.5000      0.0000    386.0121      4.5802     54.4915
  1911.7500      0.0000    390.1628      4.6066     52.6553
  1912.0000      0.0000    392.3829      4.5922     52.6489
  1912.2500      0.0000    393.2701      4.5530     54.7698
  1912.5000      0.0000    393.3820      4.4842     58.0474
  1912.7500      0.0000    393.0403      4.3834     60.6711
  1913.0000      0.0000    392.4471      4.2709     60.8534
  1913.2500      0.0000    391.7804      4.1816     57.8401
  1913.5000      0.0000    391.1689      4.1361     52.4532
  1913.7500      0.0000    390.6497      4.1235     46.6883
  1914.0000      0.0000    390.1886      4.1136     42.5279
  1914.2500      0.0000    389.7542      4.0864     40.7990
  1914.5000      0.0000    389.3672      4.0456     41.0014
  1914.7500      0.0000    389.0905      4.0099     42.1713
  1915.0000      0.0000    388.9862      4.0003     43.7760
  1915.2500      0.0000    389.0831      4.0315     45.7692
  1915.5000      0.0000    389.3643      4.0983     47.9866
  1915.7500      0.0000    389.7673      4.1638     49.8305
  1916.0000      0.0000    390.1749      4.1779     50.7062
  1916.2500      0.0000    390.3944      4.1184     50.5898
  1916.5000      0.0000    390.1113      4.0094     49.9769
  1916.7500      0.0000    388.9203      3.8962     49.4078
  1917.0000      0.0000    386.5907      3.8106     49.1206
  1917.2500      0.0000    383.4577      3.7678     48.9450
  1917.5000      0.0000    380.4633      3.7797     48.4733
  1917.7500      0.0000    378.5412      3.8519     47.4830
  1918.0000      0.0000    377.8635      3.9628     46.1116
  1918.2500      0.0000    377.7605      4.0634     44.5487
  1918.5000      0.0000    377.4965      4.1076     42.9396
  1918.7500      0.0000    377.1314      4.0797     41.7329
  1919.0000      0.0000    377.6460      4.0007     41.6863
  1919.2500      0.0000    380.3563      3.9223     43.2118
  1919.5000      0.0000    386.6225      3.9055     45.7338
  1919.7500      0.0000    398.2239      3.9740     47.8888
  1920.0000      0.0000    417.7145      4.0871     48.6039
  1920.2500      0.0000    447.9202      4.1721     48.0211
  1920.5000      0.0000    490.4453      4.1896     47.1469
  1920.7500      0.0000    543.5312      4.1616     46.6723
  1921.0000      0.0000    600.5885      4.1502     46.5339
  1921.2500      0.0000    651.9277      4.2210     46.5823
  1921.5000      0.0000    689.6103      4.4072     47.1846
  1921.7500      0.0000    711.1220      4.6840     48.9904
  1922.0000      0.0000    719.0837      4.9701     52.5240
  1922.2500      0.0000    718.7021      5.1724     58.3104
  1922.5000      0.0000    715.2302      5.2489     66.8857
  1922.7500      0.0000    712.1783      5.2264     77.8400
  1923.0000      0.0000    710.7834      5.1582     88.8906
  1923.2500      0.0000    710.7310      5.0726     96.7561
  1923.5000      0.0000    711.2367      4.9636     99.5664
  1923.7500      0.0000    711.6223      4.8161     98.3604
  1924.0000      0.0000    711.4914      4.6327     96.0168
  1924.2500      0.0000    710.7388      4.4426     94.7057
  1924.5000      0.0000    709.4821      4.2879     94.4685
  1924.7500      0.0000    707.9399      4.1940     94.0215
  1925.0000      0.0000    706.3292      4.1442     92.4840
  1925.2500      0.0000    704.8222      4.0897     90.2410
  1925.5000      0.0000    703.5542      3.9971     88.4885
  1925.7500      0.0000    702.6303      3.8844     88.1205
  1926.0000      0.0000    702.1102      3.8044     88.8857
  1926.2500      0.0000    702.0015      3.8002     89.5780
  1926.5000      0.0000    702.2832      3.8793     89.1898
  1926.7500      0.0000    702.9250      4.0188     87.9163
  1927.0000      0.0000    703.8810      4.1743     87.0790
  1927.2500      0.0000    705.0731      4.2869     88.1098
  1927.5000      0.0000    706.3752      4.3061     91.4132
  1927.7500      0.0000    707.6100      4.2212     96.0092
  1928.0000      0.0000    708.5947      4.0646    100.3822
  1928.2500      0.0000    709.2274      3.8870    103.6851
  1928.5000      0.0000    709.5330      3.7388    106.0291
  1928.7500      0.0000    709.6271      3.6624    107.7459
  1929.0000      0.0000    709.6640      3.6778    108.7826
  1929.2500      0.0000    709.8094      3.7682    109.0217
  1929.5000      0.0000    710.1897      3.8893    108.9206
  1929.7500      0.0000    710.8073      3.9992    109.3471
  1930.0000      0.0000    711.5283      4.0753    110.6055
  1930.2500      0.0000    712.1961      4.1057    111.9154
  1930.5000      0.0000    712.8627      4.0837    111.9237
  1930.7500      0.0000    714.0179      4.0163    109.5679
  1931.0000      0.0000    716.7255      3.9221    104.8193
  1931.2500      0.0000    722.3651      3.8132     99.0725
  1931.5000      0.0000    731.7118      3.6849     94.4289
  1931.7500      0.0000    744.2089      3.5268     91.9375
  1932.0000      0.0000    758.8530      3.3408     90.6714
  1932.2500      0.0000    775.8989      3.1553     88.8419
  1932.5000      0.0000    796.0206      3.0214     85.5700
  1932.7500      0.0000    816.6249      2.9827     81.2738
  1933.0000      0.0000    830.8381      3.0479     76.8836
  1933.2500      0.0000    832.8928      3.2042     73.4178
  1933.5000      0.0000    824.4803      3.4414     71.9446
  1933.7500      0.0000    813.5206      3.7404     72.8879
  1934.0000      0.0000    806.2183      4.0432     75.2658
  1934.2500      0.0000    802.2832      4.2650     77.3880
  1934.5000      0.0000    798.0176      4.3495     78.3706
