~Version Information
VERS.                      2.0: CWLS Log ASCII Standard - VERSION 2.0
WRAP.                       NO: One line per depth step
~Well Information Block
STRT.FT                12.0000: 
STOP.FT              1671.7500: 
STEP.FT                 0.2500: 
NULL.                -999.2500: 
COMP.          Pioneer Natural Resources: COMPANY
WELL.          Scott Canyon 11-18 Tr: WELL
FLD.           Purgatoire River: FIELD
LOC.           411' FNL & 580' FWL: LOCATION
PROV.                 Colorado: PROVINCE
CNTY.               Las Animas: COUNTRY
SRVC.                Patterson: SERVICE COMPANY
DATE.          Tue Feb 22 09:52:18 2005: LOG DATE
UWI.           05 071 08286 00: UNIQUE WELL ID
~Curve Information Block
DEPT.FT            0 000 00 00: Depth
GR.GAPI                       : Gamma Ray
CCL.                          : Casing Collar Locator
TT3.usec                      : CBL 3' Travel Time
AMP3.mV                       : CBL 3' Amplitude
~Parameter Information Block
~A  Depth        GR         CCL         TT3         AMP3    
# ...
   347.0000     83.2495      0.0000   1458.0000     26.4173
   347.2500     85.8543      0.0000   1458.0000     26.9574
   347.5000     88.4639      0.0000   1458.0000     27.5854
   347.7500     89.8744      0.0000   1458.0000     28.1625
   348.0000     89.1836      0.0000   1458.0000     28.6271
   348.2500     86.4435      0.0000   1458.0000     29.0066
   348.5000     82.5199      0.0000   1458.0000     29.3748
   348.7500     78.4018      0.0000   1458.0000     29.7871
   349.0000     74.5364      0.0000   1458.0000     30.2399
   349.2500     70.6580      0.0000   1458.0000     30.6832
   349.5000     66.3309      0.0000   1458.0000     31.0691
   349.7500     61.7605      0.0000   1458.0000     31.3882
   350.0000     58.0992      0.0000   1458.0000     31.6727
   350.2500     56.9393      0.0000   1458.0000     31.9728
   350.5000     59.3608      0.0000   1458.0000     32.3186
   350.7500     65.0977      0.0000   1458.0000     32.6950
   351.0000     72.3170      0.0000   1458.0000     33.0601
   351.2500     78.2572      0.0000   1458.0000     33.3846
   351.5000     80.6043      0.0000   1458.0000     33.6576
   351.7500     78.8847      0.0000   1458.0000     33.8626
   352.0000     74.8028      0.0000   1458.0000     33.9696
   352.2500     71.0912      0.0000   1458.0000     33.9669
   352.5000     69.7387      0.0000   1458.0000     33.8864
   352.7500     70.9184      0.0000   1458.0000     33.7818
   353.0000     73.2211      0.0000   1458.0000     33.6838
   353.2500     74.8633      0.0000   1458.0000     33.5835
   353.5000     75.0148      0.0000   1458.0000     33.4505
   353.7500     74.1520      0.0000   1458.0000     33.2565
   354.0000     73.0656      0.0000   1458.0000     32.9879
   354.2500     71.7682      0.0000   1458.0000     32.6535
   354.5000     69.7334      0.0000   1458.0000     32.2888
   354.7500     66.9583      0.0000   1458.0000     31.9394
   355.0000     64.2454      0.0000   1458.0000     31.6290
   355.2500     62.4519      0.0000   1458.0000     31.3496
   355.5000     61.8441      0.0000   1458.0000     31.0978
   355.7500     62.0392      0.0000   1458.0000     30.9083
   356.0000     62.2274      0.0000   1458.0000     30.8261
   356.2500     61.6963      0.0000   1458.0000     30.8460
   356.5000     60.4898      0.0000   1458.0000     30.9008
   356.7500     59.4731      0.0000   1458.0000     30.9091
   357.0000     59.6204      0.0000   1458.0000     30.8231
   357.2500     61.3329      0.0000   1458.0000     30.6330
   357.5000     64.3868      0.0000   1458.0000     30.3422
   357.7500     68.2596      0.0000   1458.0000     29.9502
   358.0000     72.5101      0.0000   1458.0000     29.4644
   358.2500     77.1892      0.0000   1458.0000     28.9304
   358.5000     82.8787      0.0000   1458.0000     28.4389
   358.7500     89.8885      0.0000   1458.0000     28.0820
   359.0000     97.2465      0.0000   1458.0000     27.8953
   359.2500    102.6842      0.0000   1458.0000     27.8483
   359.5000    103.8821      0.0000   1458.0000     27.8836
   359.7500    100.0845      0.0000   1458.0000     27.9576
   360.0000     92.8056      0.0000   1458.0000     28.0511
   360.2500     84.9109      0.0000   1458.0000     28.1636
   360.5000     78.8150      0.0000   1458.0000     28.3071
   360.7500     75.3684      0.0000   1458.0000     28.5030
   361.0000     74.0166      0.0000   1458.0000     28.7803
   361.2500     73.5701      0.0000   1458.0000     29.1659
   361.5000     72.9812      0.0000   1458.0000     29.6642
   361.7500     71.9305      0.0000   1458.0000     30.2386
   362.0000     70.8858      0.0000   1458.0000     30.8163
   362.2500     70.4874      0.0000   1458.0000     31.3181
   362.5000     70.8923      0.0000   1458.0000     31.6907
   362.7500     71.7789      0.0000   1458.0000     31.9220
   363.0000     72.7550      0.0000   1458.0000     32.0361
   363.2500     73.4322      0.0000   1458.0000     32.0716
   363.5000     73.3660      0.0000   1458.0000     32.0573
   363.7500     72.4392      0.0000   1458.0000     32.0058
   364.0000     71.1926      0.0000   1458.0000     31.9290
   364.2500     70.3057      0.0000   1458.0000     31.8575
   364.5000     69.7222      0.0000   1458.0000     31.8411
   364.7500     68.7136      0.0000   1458.0000     31.9249
   365.0000     66.8645      0.0000   1458.0000     32.1184
   365.2500     64.6647      0.0000   1458.0000     32.3813
   365.5000     63.1649      0.0000   1458.0000     32.6435
   365.7500     63.3932      0.0000   1458.0000     32.8457
   366.0000     66.0646      0.0000   1458.0000     32.9646
   366.2500     71.3941      0.0000   1458.0000     33.0037
   366.5000     78.8879      0.0000   1458.0000     32.9761
   366.7500     87.2456      0.0000   1458.0000     32.8952
   367.0000     94.6007      0.0000   1458.0000     32.7680
   367.2500     99.2623      0.0000   1458.0000     32.5866
   367.5000    100.6222      0.0000   1458.0000     32.3325
   367.7500     99.3484      0.0000   1458.0000     31.9954
   368.0000     96.7656      0.0000   1458.0000     31.5937
   368.2500     94.2657      0.0000   1458.0000     31.1790
   368.5000     93.0270      0.0000   1458.0000     30.8208
   368.7500     93.6829      0.0000   1458.0000     30.5773
   369.0000     95.9557      0.0000   1458.0000     30.4714
   369.2500     98.7117      0.0000   1458.0000     30.4922
   369.5000    100.6189      0.0000   1458.0000     30.6144
   369.7500    101.0250      0.0000   1458.0000     30.8121
   370.0000    100.2377      0.0000   1458.0000     31.0536
   370.2500     98.9756      0.0000   1458.0000     31.2885
   370.5000     97.7718      0.0000   1458.0000     31.4549
   370.7500     96.9246      0.0000   1458.0000     31.5093
   371.0000     96.7247      0.0000   1458.0000     31.4487
   371.2500     97.4564      0.0000   1458.0000     31.3006
   371.5000     99.1337      0.0000   1458.0000     31.0895
   371.7500    101.3779      0.0000   1458.0000     30.8201
   372.0000    103.8228      0.0000   1458.0000     30.4899
   372.2500    106.7021      0.0000   1458.0000     30.1097
   372.5000    110.7210      0.0000   1458.0000     29.7084
   372.7500    115.9509      0.0000   1458.0000     29.3135
   373.0000    120.8966      0.0000   1458.0000     28.9246
   373.2500    123.2743      0.0000   1458.0000     28.5111
   373.5000    122.1043      0.0000   1458.0000     28.0477
   373.7500    118.7246      0.0000   1458.0000     27.5540
   374.0000    115.3622      0.0000   1458.0000     27.0836
   374.2500    113.0453      0.0000   1458.0000     26.6709
   374.5000    111.4648      0.0000   1458.0000     26.3000
   374.7500    110.4420      0.0000   1458.0000     25.9299
   375.0000    110.4341      0.0000   1458.0000     25.5444
   375.2500    111.5165      0.0000   1458.0000     25.1741
   375.5000    112.8796      0.0000   1458.0000     24.8763
   375.7500    113.6451      0.0000   1458.0000     24.6967
   376.0000    113.6650      0.0000   1458.0000     24.6420
   376.2500    113.3187      0.0000   1458.0000     24.6775
   376.5000    112.7745      0.0000   1458.0000     24.7506
   376.7500    111.6372      0.0000   1458.0000     24.8166
   377.0000    109.4500      0.0000   1458.0000     24.8424
   377.2500    106.5184      0.0000   1458.0000     24.7918
   377.5000    103.9672      0.0000   1458.0000     24.6183
   377.7500    102.8519      0.0000   1458.0000     24.2828
   378.0000    103.3855      0.0000   1458.0000     23.7951
   378.2500    104.9758      0.0000   1458.0000     23.2113
   378.5000    106.6430      0.0000   1458.0000     22.5277
   378.7500    107.4700      0.0000   1458.0000     21.5893
   379.0000    107.1987      0.0000   1458.0000     20.2278
   379.2500    106.4771      0.0000   1458.0000     18.5423
   379.5000    106.1049      0.0000   1458.0000     16.9279
   379.7500    105.9275      0.0000   1458.0000     15.7643
   380.0000    104.9321      0.0000   1457.9424     15.1494
   380.2500    102.5955      0.0000   1457.6243     14.9410
