~Version Information
VERS.                      2.0: CWLS Log ASCII Standard - VERSION 2.0
WRAP.                       NO: One line per depth step
~Well Information Block
STRT.FT                37.7500: 
STOP.FT              1898.5000: 
STEP.FT                 0.2500: 
NULL.                -999.2500: 
COMP.          Petrogulf Corporation: COMPANY
WELL.           Montoya 12-41R: WELL
FLD.           Purgatorie River: FIELD
LOC.           1086' FNL & 610' FEL--: LOCATION
PROV.                       CO: PROVINCE
CNTY.               Las Animas: COUNTRY
SRVC.                         : SERVICE COMPANY
DATE.          Wed Feb 09 11:45:45 2005: LOG DATE
UWI.         005 071 08241 : UNIQUE WELL ID
~Curve Information Block
DEPT.FT            0 000 00 00: Depth
CCL.                          : Casing Collar Locator
TT3.usec                      : CBL 3' Travel Time
AMP3.mV                       : CBL 3' Amplitude
GR.GAPI                       : Gamma Ray
~Parameter Information Block
~A  Depth       CCL         TT3         AMP3         GR     
# ...
   540.2500      0.0000    265.3709     85.1348    108.2786
   540.5000      0.0000    265.3620     85.1666    107.8246
   540.7500      0.0000    265.3512     85.1548    107.7769
   541.0000      0.0000    265.3377     85.1250    109.1902
   541.2500      0.0000    265.3249     85.1189    112.9083
   541.5000      0.0000    265.3167     85.1688    118.2401
   541.7500      0.0000    265.3159     85.2566    122.7857
   542.0000      0.0000    265.3248     85.3137    124.2753
   542.2500      0.0000    265.3426     85.2847    122.4817
   542.5000      0.0000    265.3629     85.1861    118.9203
   542.7500      0.0000    265.3782     85.0851    115.2516
   543.0000      0.0000    265.3898     85.0266    112.6247
   543.2500      0.0000    265.4082     84.9977    112.2115
   543.5000      0.0000    265.4378     84.9620    115.3985
   543.7500      0.0000    265.4680     84.9048    122.6594
   544.0000      0.0000    265.4819     84.8471    132.2354
   544.2500      0.0000    265.4741     84.8294    140.5755
   544.5000      0.0000    265.4532     84.8705    144.5456
   544.7500      0.0000    265.4355     84.8769    143.4399
   545.0000      0.0000    265.4554     84.5389    139.1208
   545.2500      0.0000    265.5941     83.3103    134.4029
   545.5000      0.0000    265.9825     80.6639    131.2655
   545.7500      0.0000    266.7360     76.6236    130.2851
   546.0000      0.0000    267.8488     72.0737    131.1059
   546.2500      0.0000    269.1444     68.2554    132.8125
   546.5000      0.0000    270.3601     65.8074    133.9971
   546.7500      0.0000    271.3023     64.4466    133.2864
   547.0000      0.0000    271.9281     63.5515    130.4298
   547.2500      0.0000    272.3041     62.7803    126.8784
   547.5000      0.0000    272.5258     62.1191    124.8729
   547.7500     -2.0000    272.6730     61.6334    125.5980
   548.0000     -2.0000    272.7979     61.3105    128.1920
   548.2500      0.0000    272.9055     61.1131    130.5253
   548.5000      0.0000    272.9071     61.1417    130.9073
   548.7500      0.0000    272.5958     61.7095    129.2805
   549.0000      0.0000    271.7450     63.2002    127.1574
   549.2500      0.0000    270.3332     65.8342    126.3706
   549.5000      0.0000    268.6688     69.5504    127.5454
   549.7500      0.0000    267.2105     73.9253    129.6345
   550.0000      0.0000    266.2435     78.1635    130.7755
   550.2500      0.0000    265.7551     81.4375    129.4932
   550.5000      0.0000    265.5705     83.3991    125.5508
   550.7500      0.0000    265.5261     84.2853    120.3209
   551.0000      0.0000    265.5278     84.5743    116.1374
   551.2500      0.0000    265.5298     84.6516    114.5226
   551.5000      0.0000    265.5133     84.7139    114.9015
   551.7500      0.0000    265.4806     84.8073    115.4449
   552.0000      0.0000    265.4467     84.8899    115.1970
   552.2500      0.0000    265.4268     84.9168    115.1422
   552.5000      0.0000    265.4255     84.8938    117.2467
   552.7500      0.0000    265.4374     84.8698    122.5087
   553.0000      0.0000    265.4539     84.8903    129.9337
   553.2500      0.0000    265.4708     84.9642    137.3462
   553.5000      0.0000    265.4888     85.0649    142.9538
   553.7500      0.0000    265.5088     85.1529    146.1656
   554.0000      0.0000    265.5276     85.2045    147.5997
   554.2500      0.0000    265.5416     85.2276    148.6169
   554.5000      0.0000    265.5507     85.2546    150.0184
   554.7500      0.0000    265.5588     85.3181    150.8762
   555.0000      0.0000    265.5700     85.4284    149.4753
   555.2500      0.0000    265.5847     85.5668    145.6799
   555.5000      0.0000    265.5990     85.6996    141.4301
   555.7500      0.0000    265.6081     85.7990    138.5597
   556.0000      0.0000    265.6088     85.8531    136.7487
   556.2500      0.0000    265.5984     85.8659    134.0768
   556.5000      0.0000    265.5738     85.8547    129.6535
   556.7500      0.0000    265.5379     85.8353    125.4429
   557.0000      0.0000    265.5046     85.8065    124.9637
   557.2500      0.0000    265.4914     85.7570    130.1174
   557.5000      0.0000    265.5045     85.6866    139.6629
   557.7500      0.0000    265.5301     85.6156    150.5497
   558.0000      0.0000    265.5430     85.5738    160.2080
   558.2500      0.0000    265.5277     85.5704    167.5824
   558.5000      0.0000    265.4936     85.5688    172.3967
   558.7500      0.0000    265.4671     85.5125    174.0837
   559.0000      0.0000    265.4663     85.3963    172.0308
   559.2500      0.0000    265.4856     85.2866    166.7681
   559.5000      0.0000    265.5091     85.2536    159.9507
   559.7500      0.0000    265.5302     85.2988    152.8040
   560.0000      0.0000    265.5522     85.3640    145.3870
   560.2500      0.0000    265.5737     85.3975    137.8140
   560.5000      0.0000    265.5845     85.3982    131.2747
   560.7500      0.0000    265.5774     85.4024    127.0322
   561.0000      0.0000    265.5589     85.4397    124.9834
   561.2500      0.0000    265.5436     85.5007    124.0291
   561.5000      0.0000    265.5406     85.5488    123.4604
   561.7500      0.0000    265.5455     85.5620    123.1627
   562.0000      0.0000    265.5473     85.5609    123.0249
   562.2500      0.0000    265.5388     85.5869    123.2071
   562.5000      0.0000    265.5255     85.6554    124.4288
   562.7500      0.0000    265.5229     85.7364    126.8032
   563.0000      0.0000    265.5442     85.7793    128.8378
   563.2500      0.0000    265.5862     85.7487    128.8353
   563.5000      0.0000    265.6299     85.6390    127.2589
   563.7500      0.0000    265.6559     85.4756    126.6991
   564.0000      0.0000    265.6574     85.3157    129.0683
   564.2500      0.0000    265.6385     85.2335    133.3736
   564.5000      0.0000    265.6078     85.2701    136.5712
   564.7500      0.0000    265.5768     85.3883    136.1137
   565.0000      0.0000    265.5540     85.4913    131.4313
   565.2500      0.0000    265.5401     85.4976    123.8451
   565.5000      0.0000    265.5288     85.4008    115.9090
   565.7500      0.0000    265.5170     85.2641    110.3726
   566.0000      0.0000    265.5083     85.1651    108.7840
   566.2500      0.0000    265.5075     85.1396    110.6288
   566.5000      0.0000    265.5144     85.1678    113.8334
   566.7500      0.0000    265.5237     85.2031    116.2923
   567.0000      0.0000    265.5294     85.2128    117.3056
   567.2500      0.0000    265.5292     85.1953    117.8180
   567.5000      0.0000    265.5273     85.1641    119.0316
   567.7500      0.0000    265.5316     85.1242    120.7643
   568.0000      0.0000    265.5467     85.0735    121.7671
   568.2500      0.0000    265.5661     85.0313    121.6476
   568.5000      0.0000    265.5776     85.0454    121.5786
   568.7500      0.0000    265.5744     85.1500    122.8612
   569.0000      0.0000    265.5602     85.3186    125.4818
   569.2500      0.0000    265.5439     85.4725    128.2356
   569.5000      0.0000    265.5311     85.5383    129.6944
   569.7500      0.0000    265.5207     85.4946    129.1014
   570.0000      0.0000    265.5096     85.3810    126.8405
   570.2500      0.0000    265.4973     85.2647    123.9927
   570.5000      0.0000    265.4888     85.1815    121.2185
   570.7500      0.0000    265.4905     85.1078    118.2905
   571.0000      0.0000    265.5044     85.0080    114.8691
   571.2500      0.0000    265.5241     84.9062    111.5231
   571.5000      0.0000    265.5370     84.8822    109.9912
   571.7500      0.0000    265.5299     84.9870    112.3909
   572.0000      0.0000    265.4970     85.1756    119.5762
   572.2500      0.0000    265.4471     85.3277    129.8383
   572.5000      0.0000    265.4014     85.3342    139.5051
   572.7500      0.0000    265.3807     85.1729    145.1030
   573.0000      0.0000    265.3926     84.9137    145.0765
   573.2500      0.0000    265.4307     84.6568    140.0343
   573.5000      0.0000    265.4791     84.4729    132.1343
