~Version Information
VERS.                      2.0: CWLS Log ASCII Standard - VERSION 2.0
WRAP.                       NO: One line per depth step
~Well Information Block
STRT.FT               890.0000: 
STOP.FT              1589.0000: 
STEP.FT                 0.2500: 
NULL.                -999.2500: 
COMP.          Evergreen Operating Corporation: COMPANY
WELL.            Tomahawk 44-9: WELL
FLD.           Purgatorie River: FIELD
LOC.           434' FSL & 491' FEL: LOCATION
PROV.                 Colorado: PROVINCE
CNTY.               Las Animas: COUNTRY
SRVC.                         : SERVICE COMPANY
DATE.          Sat Sep 11 23:05:26 2004: LOG DATE
UWI.           05 071 08133 00: UNIQUE WELL ID
~Curve Information Block
DEPT.FT            0 000 00 00: Depth
LTEN.lb                       : Surface Line Tension
SN.Ohm-m                      : IEL Short Normal
SP.mV                         : IEL Spontaneous Potential
DIR.Ohm-m                     : IEL Induction Resistivity
GR.GAPI                       : Gamma Ray
~Parameter Information Block
~A  Depth       LTEN         SN          SP         DIR          GR     
# ...
  1422.0000    818.0106     18.6697    -65.8009     13.9763     89.6065
  1422.2500    820.6480     18.5618    -64.8539     14.2002     90.9870
  1422.5000    823.1221     18.4384    -63.8355     14.3622     92.3811
  1422.7500    825.5740     18.3024    -62.8316     14.3852     92.9257
  1423.0000    828.8549     18.1536    -61.9403     14.2194     93.5897
  1423.2500    832.9977     17.9854    -61.2574     13.8837     94.2665
  1423.5000    836.3702     17.7874    -60.8503     13.4608     96.0218
  1423.7500    836.8616     17.5550    -60.7396     13.0509     97.6403
  1424.0000    833.6656     17.2993    -60.8875     12.7284    100.3391
  1424.2500    827.8362     17.0475    -61.2064     12.5312    102.1889
  1424.5000    821.6219     16.8325    -61.5757     12.4733    105.3001
  1424.7500    817.3495     16.6815    -61.8686     12.5607    107.7487
  1425.0000    816.3722     16.6114    -61.9735     12.7934    111.4598
  1425.2500    818.5018     16.6352    -61.8073     13.1561    113.2775
  1425.5000    822.1666     16.7736    -61.3250     13.6080    114.2677
  1425.7500    825.1061     17.0634    -60.5147     14.0884    113.9582
  1426.0000    825.4909     17.5552    -59.3950     14.5388    113.0114
  1426.2500    823.0219     18.3036    -58.0200     14.9288    112.4033
  1426.5000    818.9671     19.3566    -56.4767     15.2642    110.7755
  1426.7500    815.2081     20.7458    -54.8837     15.5787    108.0286
  1427.0000    813.3853     22.4679    -53.3750     15.9150     99.5962
  1427.2500    814.1935     24.4472    -52.0783     16.3053     91.1703
  1427.5000    816.7056     26.4957    -51.0880     16.7542     76.8345
  1427.7500    818.8537     28.3127    -50.4318     17.2389     68.3175
  1428.0000    819.2388     29.5598    -50.0596     17.7352     60.3846
  1428.2500    818.1282     29.9919    -49.8426     18.2484     59.5010
  1428.5000    816.6188     29.5725    -49.6004     18.8120     65.2732
  1428.7500    815.5505     28.4944    -49.1415     19.4452     73.1335
  1429.0000    815.3287     27.0933    -48.3100     20.1040     87.9385
  1429.2500    815.9828     25.7103    -47.0247     20.6678     97.5124
  1429.5000    817.0224     24.5824    -45.2894     20.9766    108.2180
  1429.7500    817.6656     23.8073    -43.1930     20.9073    112.0638
  1430.0000    817.5893     23.3729    -40.8749     20.4406    112.8490
  1430.2500    817.2250     23.2125    -38.5005     19.6770    110.4130
  1430.5000    817.0823     23.2496    -36.2234     18.7834    103.4051
  1430.7500    817.0672     23.4153    -34.1706     17.9139     97.4716
  1431.0000    816.8527     23.6439    -32.4249     17.1617     88.6220
  1431.2500    816.7807     23.8591    -31.0301     16.5603     83.6646
  1431.5000    817.9768     23.9708    -29.9855     16.1077     78.4054
  1431.7500    821.3729     23.8895    -29.2589     15.7810     76.4192
  1432.0000    826.6196     23.5511    -28.7897     15.5378     75.6784
  1432.2500    831.8863     22.9349    -28.5058     15.3231     76.7833
  1432.5000    834.8535     22.0628    -28.3336     15.0961     81.2079
  1432.7500    834.2837     20.9842    -28.2153     14.8567     85.9864
  1433.0000    830.8595     19.7619    -28.1147     14.6390     94.9034
  1433.2500    826.4869     18.4634    -28.0204     14.4689    101.1088
  1433.5000    822.8759     17.1580    -27.9399     14.3320    109.7940
  1433.7500    820.8932     15.9140    -27.8927     14.1847    115.1215
  1434.0000    820.8792     14.7938    -27.8996     13.9951    122.7014
  1434.2500    822.9938     13.8518    -27.9756     13.7700    127.4369
  1434.5000    827.0813     13.1345    -28.1206     13.5459    133.3479
  1434.7500    832.2933     12.6824    -28.3179     13.3643    135.9529
  1435.0000    837.0746     12.5267    -28.5397     13.2579    137.6372
  1435.2500    839.9055     12.6846    -28.7536     13.2525    137.6555
  1435.5000    840.2234     13.1559    -28.9234     13.3679    136.3760
  1435.7500    838.4858     13.9224    -29.0152     13.6119    134.1661
  1436.0000    835.5058     14.9456    -28.9970     13.9679    127.5988
  1436.2500    832.0598     16.1578    -28.8294     14.3874    120.9953
  1436.5000    828.9136     17.4527    -28.4732     14.8044    109.3017
  1436.7500    826.6070     18.6905    -27.8903     15.1758    101.7325
  1437.0000    825.0333     19.7265    -27.0628     15.5239     92.9767
  1437.2500    823.5690     20.4538    -25.9962     15.9356     89.6896
  1437.5000    821.8322     20.8365    -24.7231     16.5132     88.5819
  1437.7500    820.1382     20.9143    -23.2957     17.3085     89.5235
  1438.0000    819.0888     20.7758    -21.7690     18.2714     91.5170
  1438.2500    818.9399     20.5232    -20.1892     19.2343     92.6779
  1438.5000    819.4839     20.2437    -18.5941     19.9642     94.5313
  1438.7500    820.3267     19.9958    -17.0272     20.2883     96.1865
  1439.0000    821.0705     19.8044    -15.5525     20.2054     99.0903
  1439.2500    821.2276     19.6606    -14.2676     19.8743    100.8619
  1439.5000    820.3331     19.5297    -13.2888     19.4942    102.8147
  1439.7500    818.6480     19.3703    -12.7319     19.1923    103.7382
  1440.0000    817.6299     19.1566    -12.6703     18.9869    104.8823
  1440.2500    818.8546     18.8924    -13.1073     18.8285    105.4320
  1440.5000    822.0997     18.6091    -13.9594     18.6818    105.2882
  1440.7500    825.0307     18.3538    -15.0725     18.5847    104.1404
  1441.0000    825.1435     18.1720    -16.2489     18.6310    100.7341
  1441.2500    821.9084     18.0904    -17.2986     18.8994     97.7275
  1441.5000    817.0331     18.1054    -18.0814     19.3937     93.3960
  1441.7500    812.9294     18.1817    -18.5347     20.0254     91.5498
  1442.0000    811.1680     18.2644    -18.6868     20.6428     91.5247
  1442.2500    812.2333     18.3003    -18.6471     21.0992     93.4396
  1442.5000    816.0908     18.2583    -18.5738     21.3324     98.4880
  1442.7500    822.2633     18.1395    -18.6316     21.3888    102.8270
  1443.0000    829.3254     17.9720    -18.9486     21.3715    110.3561
  1443.2500    834.9764     17.7927    -19.5730     21.3477    115.6301
  1443.5000    837.2947     17.6297    -20.4477     21.2836    121.7971
  1443.7500    836.0832     17.4957    -21.4234     21.0538    122.8842
  1444.0000    832.8553     17.3932    -22.2861     20.5439    117.9680
  1444.2500    829.5390     17.3235    -22.8141     19.7783    110.9115
  1444.5000    827.3921     17.2903    -22.8422     18.9367     98.2321
  1444.7500    826.7981     17.2973    -22.2976     18.2349     90.6930
  1445.0000    827.3181     17.3412    -21.2189     17.8001     83.0856
  1445.2500    827.8405     17.4087    -19.7366     17.6309     80.6364
  1445.5000    827.2510     17.4803    -18.0310     17.6261     79.7771
  1445.7500    825.3232     17.5403    -16.2833     17.6472     80.1574
  1446.0000    822.9966     17.5837    -14.6404     17.5930     80.9624
  1446.2500    821.7261     17.6197    -13.1994     17.4445     81.4100
  1446.5000    822.3002     17.6665    -12.0160     17.2583     82.1076
  1446.7500    824.0638     17.7397    -11.1154     17.1160     82.7250
  1447.0000    825.4229     17.8393    -10.5117     17.0728     83.8271
  1447.2500    825.2885     17.9459    -10.2136     17.1346     84.4891
  1447.5000    823.9803     18.0337    -10.2154     17.2671     85.0384
  1447.7500    822.6819     18.0904    -10.4875     17.4311     85.1193
  1448.0000    822.2328     18.1275    -10.9581     17.6174     85.3809
  1448.2500    822.6332     18.1703    -11.5201     17.8463     86.1190
  1448.5000    823.5397     18.2361    -12.0380     18.1264     88.3119
  1448.7500    824.7721     18.3206    -12.3747     18.4092     90.0821
  1449.0000    826.1331     18.4055    -12.4195     18.5901     92.1512
  1449.2500    827.1906     18.4760    -12.1172     18.5755     92.8806
  1449.5000    827.6204     18.5300    -11.4753     18.3664     93.3728
  1449.7500    827.5081     18.5721    -10.5656     18.0782     93.6684
