~Version Information
VERS.                      2.0: CWLS Log ASCII Standard - VERSION 2.0
WRAP.                       NO: One line per depth step
~Well Information Block
STRT.FT               780.0000: 
STOP.FT              3152.2500: 
STEP.FT                 0.2500: 
NULL.                -999.2500: 
COMP.          Pioneer Natural Resources: COMPANY
WELL.            Paradise 13-8: WELL
FLD.           Purgatoire River: FIELD
LOC.           1896' FSL & 1120' FWL: LOCATION
PROV.                 Colorado: PROVINCE
CNTY.               Las Animas: COUNTRY
SRVC.                Patterson: SERVICE COMPANY
DATE.          Sat Jan 22 20:39:47 2005: LOG DATE
UWI.           05 071 07946 00: UNIQUE WELL ID
~Curve Information Block
DEPT.FT            0 000 00 00: Depth
SN.Ohm-m                      : IEL Short Normal
SP.mV                         : IEL Spontaneous Potential
DIR.Ohm-m                     : IEL Induction Resistivity
GR.GAPI                       : Gamma Ray
~Parameter Information Block
~A  Depth        SN          SP         DIR          GR     
# ...
  2187.0000     39.7522   -213.9127     27.6329     97.5975
  2187.2500     38.6140   -211.8078     26.9672     96.7706
  2187.5000     37.6083   -209.8443     26.3937     96.8024
  2187.7500     36.7796   -207.9548     25.9784     97.7515
  2188.0000     36.1120   -206.1107     25.7298     99.4230
  2188.2500     35.5529   -204.3284     25.6032    100.2006
  2188.5000     35.0468   -202.6624     25.5240    101.3369
  2188.7500     34.5585   -201.1845     25.4226    102.6933
  2189.0000     34.0767   -199.9587     25.2661    105.6940
  2189.2500     33.6085   -199.0183     25.0685    107.6048
  2189.5000     33.1707   -198.3530     24.8694    108.8398
  2189.7500     32.7740   -197.9104     24.6992    108.1261
  2190.0000     32.4098   -197.6073     24.5523    104.8590
  2190.2500     32.0572   -197.3461     24.3869    101.5863
  2190.5000     31.7049   -197.0304     24.1520     95.7055
  2190.7500     31.3673   -196.5799     23.8278     91.4411
  2191.0000     31.0776   -195.9424     23.4503     85.2883
  2191.2500     30.8665   -195.1061     23.0970     82.1661
  2191.5000     30.7439   -194.1066     22.8460     80.5781
  2191.7500     30.6993   -193.0248     22.7363     82.0719
  2192.0000     30.7179   -191.9711     22.7570     87.5957
  2192.2500     30.7922   -191.0625     22.8666     92.5994
  2192.5000     30.9139   -190.4025     23.0236    100.4483
  2192.7500     31.0596   -190.0740     23.2053    105.0067
  2193.0000     31.1946   -190.1453     23.4070    109.2484
  2193.2500     31.2976   -190.6782     23.6320    109.4961
  2193.5000     31.3801   -191.7225     23.8873    105.4449
  2193.7500     31.4885   -193.2892     24.1854    100.4566
  2194.0000     31.6911   -195.3103     24.5446     92.2034
  2194.2500     32.0501   -197.6099     24.9799     87.8094
  2194.5000     32.5800   -199.9066     25.4872     84.1761
  2194.7500     33.2071   -201.8600     26.0317     83.4762
  2195.0000     33.7673   -203.1482     26.5479     83.7911
  2195.2500     34.0687   -203.5526     26.9542     84.3041
  2195.5000     33.9988   -203.0160     27.1809     85.2563
  2195.7500     33.6055   -201.6573     27.1992     86.3870
  2196.0000     33.0804   -199.7369     27.0380     90.0345
  2196.2500     32.6434   -197.5906     26.7741     94.3441
  2196.5000     32.4085   -195.5547     26.4999    103.4033
  2196.7500     32.3312   -193.9064     26.2865    110.0700
  2197.0000     32.2693   -192.8296     26.1581    117.9171
  2197.2500     32.1007   -192.4059     26.0903    119.9545
  2197.5000     31.8077   -192.6224     26.0336    116.9299
  2197.7500     31.4813   -193.3876     25.9540    111.5875
  2198.0000     31.2653   -194.5528     25.8666    101.7804
  2198.2500     31.2806   -195.9364     25.8340     96.1832
  2198.5000     31.5648   -197.3530     25.9274     91.6790
  2198.7500     32.0514   -198.6407     26.1782     91.5278
  2199.0000     32.5970   -199.6824     26.5504     94.2744
  2199.2500     33.0451   -200.4170     26.9465     97.0720
  2199.5000     33.2890   -200.8385     27.2398    101.7221
  2199.7500     33.2986   -200.9882     27.3132    104.8825
  2200.0000     33.1010   -200.9401     27.0890    109.0601
  2200.2500     32.7420   -200.7834     26.5560    111.0028
  2200.5000     32.2599   -200.6030     25.7924    112.5116
  2200.7500     31.6828   -200.4597     24.9542    112.9436
  2201.0000     31.0340   -200.3755     24.2162    113.3067
  2201.2500     30.3298   -200.3263     23.6959    113.3635
  2201.5000     29.5720   -200.2449     23.4125    112.8699
  2201.7500     28.7531   -200.0367     23.2948    112.0817
  2202.0000     27.8772   -199.6019     23.2246    110.5100
  2202.2500     26.9719   -198.8612     23.0900    109.5500
  2202.5000     26.0741   -197.7749     22.8222    108.7792
  2202.7500     25.2075   -196.3500     22.4058    108.9102
  2203.0000     24.3786   -194.6340     21.8673    110.4872
  2203.2500     23.5853   -192.6988     21.2548    112.8093
  2203.5000     22.8202   -190.6233     20.6154    118.4785
  2203.7500     22.0623   -188.4801     19.9785    123.3491
  2204.0000     21.2766   -186.3293     19.3464    130.7703
  2204.2500     20.4281   -184.2184     18.6990    134.7504
  2204.5000     19.5048   -182.1820     18.0087    138.1431
  2204.7500     18.5319   -180.2410     17.2610    138.8134
  2205.0000     17.5671   -178.4023     16.4678    138.9461
  2205.2500     16.6776   -176.6605     15.6630    139.5278
  2205.5000     15.9093   -175.0067     14.8871    142.1441
  2205.7500     15.2678   -173.4380     14.1720    144.9451
  2206.0000     14.7205   -171.9646     13.5352    149.7255
  2206.2500     14.2193   -170.6086     12.9791    152.6045
  2206.5000     13.7280   -169.3955     12.4947    155.6787
  2206.7500     13.2365   -168.3427     12.0656    156.7099
  2207.0000     12.7540   -167.4524     11.6753    156.4630
  2207.2500     12.2931   -166.7096     11.3125    154.8694
  2207.5000     11.8636   -166.0853     10.9744    150.2756
  2207.7500     11.4754   -165.5405     10.6649    146.3269
  2208.0000     11.1390   -165.0293     10.3887    141.2917
  2208.2500     10.8587   -164.5013     10.1470    139.9365
  2208.5000     10.6264   -163.9073      9.9338    141.8001
  2208.7500     10.4227   -163.2088      9.7363    144.9033
  2209.0000     10.2211   -162.3883      9.5382    149.9925
  2209.2500      9.9963   -161.4571      9.3241    152.5107
  2209.5000      9.7330   -160.4548      9.0854    153.9669
  2209.7500      9.4329   -159.4413      8.8246    153.3991
  2210.0000      9.1164   -158.4841      8.5557    151.4147
  2210.2500      8.8171   -157.6470      8.2996    150.4691
  2210.5000      8.5711   -156.9819      8.0762    151.0133
  2210.7500      8.4054   -156.5262      7.8990    152.6443
  2211.0000      8.3306   -156.3015      7.7741    155.8045
  2211.2500      8.3421   -156.3120      7.7025    157.6325
  2211.5000      8.4273   -156.5432      7.6827    159.2603
  2211.7500      8.5708   -156.9623      7.7116    159.5192
  2212.0000      8.7560   -157.5225      7.7838    158.7260
  2212.2500      8.9634   -158.1709      7.8909    157.4950
  2212.5000      9.1718   -158.8580      8.0226    155.0877
  2212.7500      9.3621   -159.5452      8.1699    153.6184
  2213.0000      9.5240   -160.2082      8.3273    152.3419
  2213.2500      9.6619   -160.8367      8.4939    152.1217
  2213.5000      9.7925   -161.4322      8.6714    152.2552
  2213.7500      9.9330   -162.0039      8.8603    152.5489
  2214.0000     10.0912   -162.5649      9.0560    153.6635
  2214.2500     10.2634   -163.1300      9.2475    154.8339
  2214.5000     10.4371   -163.7151      9.4197    156.0288
  2214.7500     10.5931   -164.3401      9.5589    155.6710
  2215.0000     10.7127   -165.0319      9.6584    153.7562
  2215.2500     10.7898   -165.8248      9.7229    152.7180
  2215.5000     10.8392   -166.7512      9.7699    152.9254
  2215.7500     10.8924   -167.8251      9.8264    153.8672
  2216.0000     10.9791   -169.0221      9.9218    154.6295
  2216.2500     11.1061   -170.2691     10.0784    153.8148
  2216.5000     11.2477   -171.4489     10.3041    149.6262
  2216.7500     11.3518   -172.4214     10.5881    144.1873
  2217.0000     11.3640   -173.0481     10.8998    131.1846
  2217.2500     11.2606   -173.2116     11.1959    119.8848
  2217.5000     11.0788   -172.8264     11.4343    102.6392
  2217.7500     10.9194   -171.8448     11.5912     93.6800
  2218.0000     10.9041   -170.2661     11.6687     87.0363
  2218.2500     11.1030   -168.1475     11.6872     87.1329
  2218.5000     11.4809   -165.6110     11.6682     91.7645
  2218.7500     11.9082   -162.8338     11.6217     96.0853
  2219.0000     12.2345   -160.0217     11.5431    101.9599
  2219.2500     12.3716   -157.3710     11.4205    104.6614
  2219.5000     12.3175   -155.0323     11.2436    106.7224
  2219.7500     12.1219   -153.0880     11.0112    107.2571
  2220.0000     11.8414   -151.5497     10.7337    107.8980
  2220.2500     11.5241   -150.3724     10.4321    108.5996
