~Version Information
VERS.                      2.0: CWLS Log ASCII Standard - VERSION 2.0
WRAP.                       NO: One line per depth step
~Well Information Block
STRT.FT               -12.0000: 
STOP.FT              2137.5000: 
STEP.FT                 0.2500: 
NULL.                -999.2500: 
COMP.          Pioneer Natural Resources: COMPANY
WELL.           Ogallela 44-12: WELL
FLD.           Purgatorie River: FIELD
LOC.           610' FSL & 671' FEL------------: LOCATION
PROV.                       CO: PROVINCE
CNTY.               Las Animas: COUNTRY
SRVC.          Patterson Wireline: SERVICE COMPANY
DATE.          Thu Apr 07 14:25:46 2005: LOG DATE
UWI.           05 071 08283 00: UNIQUE WELL ID
~Curve Information Block
DEPT.FT            0 000 00 00: Depth
CCL.                          : Casing Collar Locator
TT3.usec                      : CBL 3' Travel Time
AMP3.mV                       : CBL 3' Amplitude
ATT3.db/ft                    : CBL 3' Attenuation
GR.GAPI                       : Gamma Ray
~Parameter Information Block
~A  Depth       CCL         TT3         AMP3        ATT3         GR     
# ...
  1136.0000      0.0000    723.1212      4.0763     -9.1106    100.7158
  1136.2500      0.0000    727.1585      3.9221     -9.2223    100.9251
  1136.5000      0.0000    734.0754      3.7745     -9.3333    100.9251
  1136.7500      0.0000    743.8752      3.6411     -9.4375    101.0002
  1137.0000      0.0000    754.1237      3.5034     -9.5491    100.7527
  1137.2500      0.0000    760.8578      3.3577     -9.6721     98.9137
  1137.5000      0.0000    761.0242      3.2229     -9.7908     94.4900
  1137.7500      0.0000    754.5564      3.1027     -9.9008     88.0888
  1138.0000      0.0000    744.4042      2.9796    -10.0180     81.8029
  1138.2500      0.0000    734.5229      2.8517    -10.1450     77.8621
  1138.5000      0.0000    727.5095      2.7511    -10.2490     77.2866
  1138.7500      0.0000    723.7256      2.7249    -10.2767     79.3483
  1139.0000      0.0000    722.0834      2.8158    -10.1817     82.0131
  1139.2500      0.0000    721.2027      3.0404     -9.9595     83.1104
  1139.5000      0.0000    719.9480      3.3602     -9.6699     81.5830
  1139.7500      0.0000    717.4854      3.6913     -9.3978     78.2436
  1140.0000      0.0000    713.4958      3.9663     -9.1898     75.5702
  1140.2500      0.0000    708.6360      4.1826     -9.0361     76.2451
  1140.5000      0.0000    704.3838      4.3734     -8.9069     81.2271
  1140.7500      0.0000    701.6703      4.5422     -8.7972     89.0730
  1141.0000      0.0000    699.5007      4.6467     -8.7314     97.0197
  1141.2500      0.0000    695.5103      4.6501     -8.7293    102.5891
  1141.5000      0.0000    687.9123      4.5730     -8.7777    104.4723
  1141.7500      0.0000    676.6646      4.4815     -8.8362    102.6201
  1142.0000      0.0000    663.5782      4.4322     -8.8682     98.0953
  1142.2500      0.0000    652.2688      4.4338     -8.8672     92.9634
  1142.5000      0.0000    646.9055      4.4586     -8.8511     89.8175
  1142.7500      0.0000    649.1209      4.4860     -8.8333     90.6709
  1143.0000      0.0000    656.2885      4.5320     -8.8038     95.7923
  1143.2500      0.0000    663.8589      4.6235     -8.7459    103.5107
  1143.5000      0.0000    668.9909      4.7414     -8.6730    111.4362
  1143.7500      0.0000    671.5114      4.8078     -8.6328    118.2143
  1144.0000      0.0000    672.4606      4.7386     -8.6747    124.0258
  1144.2500      0.0000    672.7278      4.5150     -8.8146    129.2432
  1144.5000      0.0000    672.7374      4.2119     -9.0159    133.0822
  1144.7500      0.0000    672.6469      3.9601     -9.1944    134.1635
  1145.0000      0.0000    672.5204      3.8639     -9.2655    132.1412
  1145.2500      0.0000    672.4097      3.9417     -9.2078    128.2476
  1145.5000      0.0000    672.3569      4.1296     -9.0730    124.3588
  1145.7500      0.0000    672.3968      4.3220     -8.9411    121.7641
  1146.0000      0.0000    672.5508      4.4106     -8.8824    120.4979
  1146.2500      0.0000    672.8243      4.3237     -8.9400    119.5447
  1146.5000      0.0000    673.1838      4.0574     -9.1241    117.9452
  1146.7500      0.0000    673.5122      3.6749     -9.4108    115.8003
  1147.0000      0.0000    673.6048      3.2758     -9.7436    113.8763
  1147.2500      0.0000    673.0552      2.9505    -10.0464    112.3344
  1147.5000      0.0000    670.7505      2.7425    -10.2581    110.4211
  1147.7500      0.0000    663.9251      2.6495    -10.3580    107.5389
  1148.0000      0.0000    647.9061      2.6570    -10.3497    104.1528
  1148.2500      0.0000    618.4022      2.7531    -10.2469    101.4190
  1148.5000      0.0000    576.2628      2.9011    -10.0953    100.2070
  1148.7500      0.0000    530.2691      3.0314     -9.9680    100.5925
  1149.0000      0.0000    493.4300      3.0912     -9.9116    101.9850
  1149.2500      0.0000    474.6763      3.0936     -9.9093    103.3849
  1149.5000      0.0000    472.8680      3.0986     -9.9046    103.4938
  1149.7500      0.0000    477.9315      3.1471     -9.8596    101.2140
  1150.0000      0.0000    478.8905      3.2342     -9.7806     96.8900
  1150.2500      0.0000    473.6502      3.3425     -9.6853     92.9166
  1150.5000      0.0000    471.8347      3.4704     -9.5765     92.0423
  1150.7500      0.0000    486.5732      3.6048     -9.4665     94.6615
  1151.0000      0.0000    522.4340      3.6881     -9.4003     98.4534
  1151.2500      0.0000    571.1661      3.6606     -9.4220    100.8953
  1151.5000      0.0000    618.7339      3.5398     -9.5192    101.4697
  1151.7500      0.0000    655.6444      3.4295     -9.6108    101.3085
  1152.0000      0.0000    680.6902      3.4335     -9.6075    101.6345
  1152.2500      0.0000    697.2236      3.5613     -9.5017    103.2045
  1152.5000      0.0000    708.7770      3.7202     -9.3753    106.6294
  1152.7500      0.0000    718.3367      3.8028     -9.3116    112.1216
  1153.0000      0.0000    729.4542      3.7887     -9.3224    118.7768
  1153.2500      0.0000    745.7839      3.7546     -9.3486    124.8505
  1153.5000      0.0000    768.6124      3.7786     -9.3302    129.1650
  1153.7500      0.0000    794.8840      3.8481     -9.2774    131.9380
  1154.0000      0.0000    818.2751      3.8812     -9.2526    134.1243
  1154.2500      0.0000    832.5959      3.8347     -9.2875    136.3375
  1154.5000      0.0000    834.2425      3.7669     -9.3391    138.5455
  1154.7500      0.0000    822.6086      3.7717     -9.3355    140.2343
  1155.0000      0.0000    800.0970      3.8604     -9.2682    140.4906
  1155.2500      0.0000    772.0769      3.9412     -9.2082    138.3070
  1155.5000      0.0000    745.2020      3.9199     -9.2239    133.3826
  1155.7500      0.0000    724.6154      3.7967     -9.3164    126.7432
  1156.0000      0.0000    712.7180      3.6510     -9.4296    120.3165
  1156.2500      0.0000    710.0272      3.5525     -9.5088    115.6800
  1156.5000      0.0000    715.7336      3.5094     -9.5441    113.2913
  1156.7500      0.0000    726.9384      3.5024     -9.5499    113.0171
  1157.0000      0.0000    738.9439      3.5322     -9.5254    115.0768
  1157.2500      2.0000    748.1537      3.6061     -9.4654    119.9422
  1157.5000      2.0000    754.1656      3.6997     -9.3913    127.1009
  1157.7500      0.0000    757.6085      3.7775     -9.3310    134.2988
  1158.0000      0.0000    757.6942      3.8464     -9.2787    138.7007
  1158.2500      0.0000    754.7473      3.9516     -9.2005    139.1322
  1158.5000      0.0000    753.4933      4.1186     -9.0807    137.0038
  1158.7500      0.0000    759.5889      4.3244     -8.9395    134.7325
  1159.0000      0.0000    772.6423      4.5222     -8.8101    133.4383
  1159.2500      0.0000    785.5873      4.6743     -8.7143    132.5443
  1159.5000      0.0000    791.4669      4.7647     -8.6588    131.4250
  1159.7500      0.0000    789.2128      4.7916     -8.6425    130.7724
  1160.0000      0.0000    782.9726      4.7533     -8.6657    132.1523
  1160.2500      0.0000    777.6217      4.6548     -8.7264    136.5029
  1160.5000      0.0000    775.3258      4.5315     -8.8041    143.0445
  1160.7500      0.0000    775.1399      4.4331     -8.8677    149.4957
  1161.0000      0.0000    774.6536      4.3548     -8.9193    153.4720
  1161.2500      0.0000    771.8176      4.2184     -9.0114    153.9804
  1161.5000      0.0000    766.0560      3.9664     -9.1898    151.7447
  1161.7500      0.0000    758.6354      3.6613     -9.4215    148.3166
  1162.0000      0.0000    751.8382      3.4512     -9.5926    144.9944
  1162.2500      0.0000    746.7094      3.4282     -9.6120    142.3843
  1162.5000      0.0000    741.4745      3.5355     -9.5227    140.5213
  1162.7500      0.0000    733.3895      3.6161     -9.4575    139.0336
  1163.0000      0.0000    722.7465      3.5475     -9.5129    137.2496
  1163.2500      0.0000    714.2686      3.3419     -9.6858    134.3073
  1163.5000      0.0000    713.8774      3.1301     -9.8754    129.2933
  1163.7500      0.0000    724.0320      3.0469     -9.9533    121.8172
