~Version Information
VERS.                      2.0: CWLS Log ASCII Standard - VERSION 2.0
WRAP.                       NO: One line per depth step
~Well Information Block
STRT.FT                -7.5000: 
STOP.FT              1129.7500: 
STEP.FT                 0.2500: 
NULL.                -999.2500: 
COMP.          Pioneer Natural Resources: COMPANY
WELL.          Drewmeister 34-34: WELL
FLD.           Purgatorie River: FIELD
LOC.           958' FSL & 1857' FEL: LOCATION
STAT.                       CO: State
CNTY.               Las Animas: COUNTRY
CTRY. USA : Country
SECT. 34 : Section
TOWN. 32S : Township
RANG. 65W : Range
SRVC.          Patterson Wireline: SERVICE COMPANY
DATE.          Fri Oct 14 14:02:00 2005: LOG DATE
API.           05 071 08131 00: UNIQUE WELL ID
~Curve Information Block
DEPT.FT            0 000 00 00: Depth
CCL.                          : Casing Collar Locator
TT3.usec                      : CBL 3' Travel Time
AMP3.mV                       : CBL 3' Amplitude
GR.GAPI                       : Gamma Ray
~Parameter Information Block
~A  Depth       CCL         TT3         AMP3         GR     
# ...
   595.5000      0.0000    925.8066      4.5585    113.1187
   595.7500      0.0000    949.6279      4.5777    115.3350
   596.0000      0.0000    952.4337      4.5680    118.0286
   596.2500      0.0000    923.2225      4.5482    119.7722
   596.5000      0.0000    866.1832      4.5180    120.5572
   596.7500      0.0000    801.8074      4.4321    121.3910
   597.0000      0.0000    752.5764      4.2538    123.1800
   597.2500      0.0000    728.2759      4.0174    125.8369
   597.5000      0.0000    723.8383      3.8039    128.4465
   597.7500      0.0000    728.1196      3.6643    130.0516
   598.0000      0.0000    732.9427      3.5907    130.0735
   598.2500      0.0000    735.5934      3.5534    128.4652
   598.5000      0.0000    736.4982      3.5385    125.9077
   598.7500      0.0000    736.6516      3.5531    123.4838
   599.0000      0.0000    736.6269      3.6182    121.6993
   599.2500      0.0000    736.6241      3.7585    120.0124
   599.5000      0.0000    736.6844      3.9816    117.5627
   599.7500      0.0000    736.8337      4.2581    114.2169
   600.0000      0.0000    737.0911      4.5208    110.7078
   600.2500      0.0000    737.4726      4.6890    107.6631
   600.5000      0.0000    738.1658      4.7019    104.7020
   600.7500      0.0000    739.9301      4.5477    100.9125
   601.0000      0.0000    744.5035      4.2756     96.3447
   601.2500      0.0000    754.0532      3.9770     92.5124
   601.5000      0.0000    768.7771      3.7428     91.0259
   601.7500      0.0000    784.2698      3.6307     92.0384
   602.0000      0.0000    792.9430      3.6586     94.3686
   602.2500      0.0000    790.2558      3.8056     96.8080
   602.5000      0.0000    778.9931      4.0108     98.8687
   602.7500      0.0000    765.9788      4.1918    100.5995
   603.0000      0.0000    755.7667      4.2941    102.1620
   603.2500      0.0000    748.9191      4.3225    103.5033
   603.5000      0.0000    744.8642      4.3210    104.2316
   603.7500      0.0000    744.3915      4.3304    104.0649
   604.0000      0.0000    749.8350      4.3706    103.4783
   604.2500      0.0000    763.5884      4.4508    103.3265
   604.5000      0.0000    785.3402      4.5801    103.5863
   604.7500      0.0000    810.1147      4.7707    103.1058
   605.0000      0.0000    830.9965      5.0242    100.8956
   605.2500      0.0000    845.2910      5.3085     97.1541
   605.5000      0.0000    855.9835      5.5545     92.9811
   605.7500      0.0000    865.3223      5.6952     89.5565
   606.0000      0.0000    869.4344      5.7159     87.5953
   606.2500      0.0000    862.2125      5.6615     87.1610
   606.5000      0.0000    843.4127      5.5918     87.6580
   606.7500      0.0000    820.2463      5.5383     87.9046
   607.0000      0.0000    801.0988      5.4998     86.4597
   607.2500      0.0000    789.5593      5.4682     82.3961
   607.5000      0.0000    784.3127      5.4475     75.9495
   607.7500      0.0000    782.4012      5.4546     68.4324
   608.0000      0.0000    781.5099      5.5031     61.7764
   608.2500      0.0000    780.2089      5.5846     58.0998
   608.5000      0.0000    777.4928      5.6656     58.9751
   608.7500      0.0000    772.8308      5.7096     64.6173
   609.0000      0.0000    766.7146      5.7033     73.7011
   609.2500      0.0000    760.7607      5.6612     83.8032
   609.5000      0.0000    756.7613      5.6048     92.1625
   609.7500      0.0000    755.7188      5.5402     96.7772
   610.0000      0.0000    758.1227      5.4596     97.4061
   610.2500      0.0000    764.7612      5.3593     95.4342
   610.5000      0.0000    776.9116      5.2493     92.5854
   610.7500      0.0000    795.4382      5.1350     89.9711
   611.0000      0.0000    818.4650      4.9952     88.2509
   611.2500      0.0000    839.3531      4.7956     87.8629
   611.5000      0.0000    850.0898      4.5301     88.3677
   611.7500      0.0000    849.8878      4.2340     88.0594
   612.0000      0.0000    848.1840      3.9520     85.2954
   612.2500      0.0000    855.0598      3.7021     80.2711
   612.5000      0.0000    869.8184      3.4804     74.7955
   612.7500      0.0000    882.0313      3.2930     70.5667
   613.0000      0.0000    882.9039      3.1717     68.4305
   613.2500      0.0000    873.8530      3.1498     69.0946
   613.5000      0.0000    865.4154      3.2207     73.4630
   613.7500      0.0000    869.4108      3.3274     81.4653
   614.0000      0.0000    889.5361      3.4059     90.7781
   614.2500      0.0000    916.1563      3.4470     97.7641
   614.5000      0.0000    931.5995      3.5088    100.3570
   614.7500      0.0000    924.4518      3.6667     99.6774
   615.0000      0.0000    899.5020      3.9483     98.5442
   615.2500      0.0000    871.6536      4.3140     98.9380
   615.5000      0.0000    850.6029      4.6836    101.0704
   615.7500      0.0000    834.7275      4.9775    104.1925
   616.0000      0.0000    820.1545      5.1463    107.4854
   616.2500      0.0000    810.0287      5.1849    109.9995
   616.5000      0.0000    810.2398      5.1259    110.5402
   616.7500      0.0000    818.4232      5.0123    108.6933
   617.0000      0.0000    822.9840      4.8754    105.7745
   617.2500      0.0000    814.6318      4.7396    103.7477
   617.5000      0.0000    795.4540      4.6367    103.0976
   617.7500      0.0000    774.9308      4.5967    102.3931
   618.0000      0.0000    759.9633      4.6225     99.8784
   618.2500      0.0000    750.9491      4.6899     95.1094
   618.5000      0.0000    745.0920      4.7724     89.5422
   618.7500      0.0000    740.4717      4.8619     85.9835
   619.0000      0.0000    736.8658      4.9635     86.7434
   619.2500      0.0000    734.5453      5.0816     91.6014
   619.5000      0.0000    733.4432      5.2053     97.9512
   619.7500      0.0000    733.1989      5.2975    103.1717
   620.0000      0.0000    733.6550      5.3153    106.3548
   620.2500      0.0000    735.2960      5.2548    107.8489
   620.5000      0.0000    739.5923      5.1601    108.1096
   620.7500      0.0000    748.5950      5.0766    107.2751
   621.0000      0.0000    763.0147      5.0114    105.3490
   621.2500      0.0000    780.0194      4.9547    102.6550
   621.5000      0.0000    794.2839      4.9199    100.1642
   621.7500      0.0000    803.2219      4.9415     99.0765
   622.0000      0.0000    810.9130      5.0302     99.8566
   622.2500      0.0000    824.9626      5.1420    101.7774
   622.5000      0.0000    848.7764      5.1996    103.4290
   622.7500      0.0000    877.3404      5.1484    103.6023
   623.0000      0.0000    900.6717      4.9883    101.8639
   623.2500      0.0000    910.8958      4.7551     98.5200
   623.5000      0.0000    905.9945      4.4883     93.9984
   623.7500      0.0000    888.4769      4.2265     88.2199
   624.0000      0.0000    862.9371      4.0219     80.7889
   624.2500      0.0000    835.0391      3.9340     71.9307
   624.5000      0.0000    810.2526      3.9946     62.9969
   624.7500      0.0000    791.4355      4.1775     55.7161
   625.0000      0.0000    777.9515      4.4072     50.9558
   625.2500      0.0000    767.9044      4.6051     48.3808
   625.5000      0.0000    760.8865      4.7343     47.1869
   625.7500      0.0000    758.0648      4.8120     46.8315
   626.0000      0.0000    759.9077      4.8825     47.1064
   626.2500      0.0000    764.5190      4.9762     47.8794
   626.5000      0.0000    768.5057      5.0884     48.9828
   626.7500      0.0000    769.4376      5.1957     50.2260
   627.0000      0.0000    767.6233      5.2866     51.3325
   627.2500      0.0000    765.6712      5.3705     51.9081
   627.5000      0.0000    766.1758      5.4593     51.6171
   627.7500      0.0000    769.5724      5.5498     50.5547
   628.0000      0.0000    774.1674      5.6256     49.5313
   628.2500      0.0000    777.9797      5.6720     49.7816
   628.5000      0.0000    780.1881      5.6873     51.8861
   628.7500      0.0000    781.0732      5.6837     54.8590
