~Version Information
VERS.                      2.0: CWLS Log ASCII Standard - VERSION 2.0
WRAP.                       NO: One line per depth step
~Well Information Block
STRT.FT               234.0000: 
STOP.FT              1773.2000: 
STEP.FT                 0.1000: 
NULL.                -999.2500: 
COMP.          Pioneer Natural Resources: COMPANY
WELL.             Tami J 23-18: WELL
FLD.           Purgatorie River: FIELD
LOC.           2250' FSL & 2400' FWL: LOCATION
PROV.                 Colorado: PROVINCE
CNTY.               Las Animas: COUNTRY
SRVC.                         : SERVICE COMPANY
DATE.          Mon Dec 13 07:02:50 2004: LOG DATE
UWI.           05 071 08073 00: UNIQUE WELL ID
~Curve Information Block
DEPT.FT            0 000 00 00: Depth
LTEN.lb                       : Surface Line Tension
DCAL.in                       : CDL Caliper
RHOB.g/cc                     : CDL Bulk Density
RHOC.g/cc                     : CDL Density Correction
DPOR.pu                       : CDL Density Porosity
GR.GAPI                       : Gamma Ray
NPOR.pu                       : Neutron Porosity
~Parameter Information Block
~A  Depth       LTEN        DCAL        RHOB        RHOC        DPOR         GR         NPOR    
# ...
   746.4000    917.2184      7.9215      2.7489      0.2489     -5.9949    136.0884     28.9370
   746.5000    865.7131      7.9095      2.7770      0.2556     -7.6996    136.0228     28.5515
   746.6000    865.7131      7.9095      2.7853      0.2287     -8.2000    135.7032     28.2236
   746.7000    865.7131      7.9095      2.7834      0.2125     -8.0869    130.2125     28.3009
   746.8000    744.5740      7.8907      2.7759      0.1677     -7.6305    117.7464     28.6167
   746.9000    744.5740      7.8907      2.7649      0.1152     -6.9621    101.2595     28.6301
   747.0000    842.0902      7.8814      2.7553      0.0640     -6.3845     82.6502     28.2118
   747.1000    842.0902      7.8814      2.7477      0.0549     -5.9241     65.6825     27.7482
   747.2000    842.0902      7.8814      2.7403      0.0396     -5.4757     54.6498     27.4214
   747.3000    946.1231      7.8848      2.7368      0.0546     -5.2596     49.8930     27.1098
   747.4000    946.1231      7.8848      2.7374      0.0542     -5.2998     48.1690     26.5985
   747.5000    847.3688      7.8912      2.7367      0.0653     -5.2552     47.0211     25.9177
   747.6000    847.3688      7.8912      2.7348      0.0468     -5.1395     45.9177     25.4879
   747.7000    847.3688      7.8912      2.7394      0.0409     -5.4203     44.8395     25.5966
   747.8000    823.9058      7.8920      2.7484      0.0746     -5.9628     42.5545     25.9522
   747.9000    823.9058      7.8920      2.7484      0.0647     -5.9608     38.9234     25.9180
   748.0000    918.6784      7.8875      2.7323      0.0474     -4.9892     35.9622     25.4107
   748.1000    918.6784      7.8875      2.7080      0.0468     -3.5141     33.5248     24.8539
   748.2000    918.6784      7.8875      2.6952      0.0477     -2.7422     30.5464     24.5747
   748.3000    850.5585      7.8836      2.7101      0.0271     -3.6445     27.9673     24.7176
   748.4000    850.5585      7.8836      2.7490      0.0521     -5.9984     27.4961     25.1357
   748.5000    866.9799      7.8866      2.7863      0.1022     -8.2614     29.0337     25.4089
   748.6000    866.9799      7.8866      2.7949      0.1295     -8.7796     29.9109     25.1653
   748.7000    866.9799      7.8866      2.7778      0.0829     -7.7435     29.2068     24.5652
   748.8000    811.3611      7.8942      2.7612      0.0789     -6.7389     28.8342     24.0216
   748.9000    811.3611      7.8942      2.7524      0.0669     -6.2072     30.8461     23.5916
   749.0000    901.8835      7.8970      2.7433      0.0673     -5.6524     34.1822     23.2250
   749.1000    901.8835      7.8970      2.7252      0.0586     -4.5563     34.8566     22.9511
   749.2000    901.8835      7.8970      2.6893      0.0207     -2.3820     32.1813     22.6384
   749.3000    910.7043      7.8895      2.6452     -0.0273      0.2884     30.2980     22.2382
   749.4000    910.7043      7.8895      2.6197     -0.0290      1.8383     30.6348     22.0031
   749.5000    882.5992      7.8837      2.6251     -0.0200      1.5100     30.9251     21.8057
   749.6000    882.5992      7.8837      2.6378      0.0560      0.7384     30.7958     21.4292
   749.7000    882.5992      7.8837      2.6292      0.0276      1.2597     31.0491     21.0392
   749.8000    872.4998      7.8898      2.6054      0.0221      2.7058     31.9774     20.6414
   749.9000    872.4998      7.8898      2.5765      0.0460      4.4574     32.8981     19.9859
   750.0000    885.4030      7.8968      2.5289      0.0438      7.3383     30.8281     18.8875
   750.1000    885.4030      7.8968      2.4564     -0.0068     11.7324     27.0367     17.5187
   750.2000    885.4030      7.8968      2.3799     -0.0429     16.3714     25.7518     16.3658
   750.3000    902.6509      7.8872      2.3189     -0.0728     20.0646     26.3885     15.5465
   750.4000    902.6509      7.8872      2.2687      0.0111     23.1093     27.4831     14.9893
   750.5000    876.8815      7.8780      2.2088     -0.0226     26.7374     29.0884     14.7411
   750.6000    876.8815      7.8780      2.1280     -0.0587     31.6392     31.1580     14.5935
   750.7000    876.8815      7.8780      2.0394     -0.0639     37.0054     34.3224     14.2869
   750.8000    845.5571      7.8886      1.9752     -0.0662     40.8952     39.0799     13.9835
   750.9000    845.5571      7.8886      1.9520     -0.0178     42.3058     44.6891     13.9968
   751.0000    901.2833      7.9028      1.9530      0.0511     42.2446     50.3395     14.2791
   751.1000    901.2833      7.9028      1.9556      0.0810     42.0864     54.8884     14.7266
   751.2000    901.2833      7.9028      1.9538      0.1028     42.1940     60.1000     15.1950
   751.3000    918.5764      7.9120      1.9563      0.0989     42.0436     67.5847     15.3669
   751.4000    918.5764      7.9120      1.9734      0.1206     41.0058     73.3696     15.4034
   751.5000    870.8718      7.9127      2.0058      0.1239     39.0445     75.4812     15.7355
   751.6000    870.8718      7.9127      2.0454      0.1377     36.6439     77.4147     16.1905
   751.7000    870.8718      7.9127      2.0822      0.1121     34.4123     81.9022     16.3761
   751.8000    891.6553      7.9024      2.1059      0.1466     32.9744     88.3684     16.6071
   751.9000    891.6553      7.9024      2.1124      0.1017     32.5833     94.7274     17.3853
   752.0000    920.2009      7.8948      2.1095      0.0852     32.7596     99.2906     18.2897
   752.1000    920.2009      7.8948      2.1012      0.0879     33.2628    103.3251     18.5911
   752.2000    920.2009      7.8948      2.0864      0.0399     34.1579    109.3113     18.4966
   752.3000    891.5739      7.8947      2.0712      0.0124     35.0813    117.2361     18.6827
   752.4000    891.5739      7.8947      2.0624      0.0644     35.6105    124.5561     19.1628
   752.5000    852.6473      7.8940      2.0679      0.0486     35.2784    129.2678     19.5122
   752.6000    852.6473      7.8940      2.0974      0.0989     33.4882    130.5995     19.6357
   752.7000    852.6473      7.8940      2.1426      0.1558     30.7507    128.8167     19.7524
   752.8000    812.2361      7.8934      2.1853      0.1789     28.1626    126.7314     19.9497
   752.9000    812.2361      7.8934      2.2343      0.1642     25.1951    126.9380     20.0518
   753.0000    859.5694      7.8962      2.3074      0.2234     20.7641    127.8502     20.2064
   753.1000    859.5694      7.8962      2.3910      0.2302     15.6952    128.6224     20.7151
   753.2000    859.5694      7.8962      2.4554      0.3206     11.7937    129.8871     21.3891
   753.3000    866.8227      7.9005      2.4856      0.3242      9.9643    129.3419     21.8298
   753.4000    866.8227      7.9005      2.4908      0.3081      9.6505    122.8037     21.7669
   753.5000    805.6396      7.8975      2.4971      0.2890      9.2659    110.9666     21.3978
   753.6000    805.6396      7.8975      2.5288      0.2446      7.3431    101.1280     21.1170
   753.7000    805.6396      7.8975      2.5755      0.2905      4.5166     97.0766     20.9540
   753.8000    793.2657      7.8854      2.5900      0.3156      3.6389     96.3884     20.9382
   753.9000    793.2657      7.8854      2.5578      0.1885      5.5857     96.5624     21.2151
   754.0000    791.3199      7.8848      2.5174      0.1713      8.0363     94.3858     21.6764
   754.1000    791.3199      7.8848      2.4761      0.2740     10.5388     88.9461     22.0690
   754.2000    791.3199      7.8848      2.4024      0.2218     15.0070     83.0658     22.2836
   754.3000    785.7565      7.8942      2.3095      0.0450     20.6358     76.9158     22.3563
   754.4000    785.7565      7.8942      2.2450      0.0103     24.5450     69.6352     22.3363
   754.5000    825.6234      7.8934      2.2207     -0.0100     26.0174     63.0434     22.1854
   754.6000    825.6234      7.8934      2.2267     -0.0319     25.6529     58.5465     21.8624
   754.7000    825.6234      7.8934      2.2687     -0.0455     23.1071     56.0748     21.6017
