~Version Information
VERS.                      2.0: CWLS Log ASCII Standard - VERSION 2.0
WRAP.                       NO: One line per depth step
~Well Information Block
STRT.FT               -12.5000: 
STOP.FT              1647.5000: 
STEP.FT                 0.2500: 
NULL.                -999.2500: 
COMP.          Pioneer Natural Resources: COMPANY
WELL.            Harlee L 34-9: WELL
FLD.           Purgatorie River`: FIELD
LOC.           600' FSL & 2125' FEL----: LOCATION
PROV.                       CO: PROVINCE
CNTY.               Las Animas: COUNTRY
SRVC.                Patterson: SERVICE COMPANY
DATE.          Sat Feb 12 09:31:33 2005: LOG DATE
UWI.           05 071 08009 00: UNIQUE WELL ID
~Curve Information Block
DEPT.FT            0 000 00 00: Depth
CCL.                          : Casing Collar Locator
TT3.usec                      : CBL 3' Travel Time
AMP3.mV                       : CBL 3' Amplitude
AMP5.mV                       : CBL 5' Amplitude
GR.GAPI                       : Gamma Ray
~Parameter Information Block
~A  Depth       CCL         TT3         AMP3        AMP5         GR     
   -12.5000   -999.2500   -999.2500   -999.2500   -999.2500   -999.2500
   -12.2500   -999.2500   -999.2500   -999.2500   -999.2500     64.3521
   -12.0000   -999.2500   -999.2500   -999.2500   -999.2500     67.8101
   -11.7500   -999.2500   -999.2500   -999.2500   -999.2500     69.1845
   -11.5000   -999.2500   -999.2500   -999.2500   -999.2500     67.9829
   -11.2500   -999.2500   -999.2500   -999.2500   -999.2500     64.7792
   -11.0000   -999.2500   -999.2500   -999.2500   -999.2500     60.6596
   -10.7500   -999.2500   -999.2500   -999.2500   -999.2500     56.9551
   -10.5000   -999.2500   -999.2500   -999.2500   -999.2500     55.1035
   -10.2500   -999.2500   -999.2500   -999.2500   -999.2500     55.9639
   -10.0000   -999.2500   -999.2500   -999.2500      0.3574     58.9818
    -9.7500   -999.2500   -999.2500   -999.2500      0.3956     62.4145
    -9.5000   -999.2500   -999.2500   -999.2500      0.4720     64.6877
    -9.2500   -999.2500   -999.2500   -999.2500      0.3192     65.4679
    -9.0000   -999.2500   -999.2500   -999.2500      0.3956     65.4788
    -8.7500   -999.2500   -999.2500   -999.2500      0.4720     65.5793
    -8.5000   -999.2500   -999.2500   -999.2500      0.2429     66.1129
    -8.2500   -999.2500   -999.2500   -999.2500      0.0137     66.9345
    -8.0000   -999.2500   -999.2500   -999.2500      0.3192     67.7896
    -7.7500   -999.2500   -999.2500   -999.2500      0.4720     68.4185
    -7.5000   -999.2500   -999.2500   -999.2500      0.0519     68.2611
    -7.2500   -999.2500   -999.2500   -999.2500      0.4338     66.5159
    -7.0000   -999.2500    881.0327     44.9372      0.0519     62.9848
    -6.7500   -999.2500    787.0599     55.4921      0.5102     58.6781
    -6.5000   -999.2500    703.6227     64.8556      0.0901     55.1692
    -6.2500   -999.2500    668.7759     68.7562      0.3956     53.4025
    -6.0000   -999.2500    703.6285     64.8270      0.2811     53.2571
    -5.7500   -999.2500    787.0723     55.4429      0.7011     53.9870
    -5.5000   -999.2500    881.0511     44.8812      0.4338     54.8081
    -5.2500   -999.2500    968.5382     35.0546      0.2429     55.2071
    -5.0000   -999.2500   1052.9812     25.5743      0.3574     54.9984
    -4.7500   -999.2500   1133.0662     16.5859      0.3192     54.2810
    -4.5000   -999.2500   1196.7798      9.4382      0.3574     53.2487
    -4.2500   -999.2500   1236.0138      5.0428      0.4720     51.9274
    -4.0000   -999.2500   1254.3335      3.0000      0.3574     50.3509
    -3.7500   -999.2500   1260.8254      2.2868      0.4338     49.0826
    -3.5000   -999.2500   1262.5718      2.1029      0.1665     49.0783
    -3.2500   -999.2500   1262.9343      2.0672      0.2429     50.7017
    -3.0000   -999.2500   1263.0000      2.0577      0.5102     53.1329
    -2.7500   -999.2500   1263.0000      2.0515      0.3956     54.9464
    -2.5000   -999.2500   1263.0000      2.0453      0.3192     55.2592
    -2.2500   -999.2500   1263.0000      2.0419      0.3192     54.4124
    -2.0000   -999.2500   1263.0000      2.0415      0.4720     53.6790
    -1.7500   -999.2500   1263.0000      2.0420      0.4720     54.1357
    -1.5000   -999.2500   1263.0000      2.0423      0.3574     55.5321
    -1.2500      0.0000   1263.0000      2.0438      0.3192     56.2061
    -1.0000      0.0000   1263.0000      2.0476      0.4720     54.2661
    -0.7500      0.0000   1263.0000      2.0522      0.3574     49.1015
    -0.5000     -2.9507   1263.0000      2.0539      0.2811     41.8706
    -0.2500     -4.1321   1263.0000      2.0507      0.2047     34.5209
     0.0000     -5.0000   1263.0000      2.0439      0.4338     28.4237
     0.2500      0.0000   1263.0000      2.0375      0.2811     23.9627
     0.5000     -5.0000   1263.0000      2.0349      0.2047     21.0992
     0.7500      5.0000   1263.0000      2.0365      0.3574     19.9311
     1.0000     -5.0000   1263.0000      2.0400      0.4720     20.6928
     1.2500      4.2810   1263.0000      2.0422      0.3574     23.3584
     1.5000     -5.0000   1263.0000      2.0411      0.2811     27.3261
     1.7500      5.0000   1263.0000      2.0374      0.4720     31.5372
     2.0000      1.6708   1262.9932      2.0322      0.4720     34.9934
     2.2500      0.0000   1262.9420      2.0264      0.0901     37.1835
     2.5000      4.7348   1262.6512      2.0203      0.2811     38.1281
     2.7500      0.0000   1261.3976      2.0135      0.3192     38.1990
     3.0000      0.0000   1257.0646      2.0048      0.1665     37.9852
     3.2500      0.0000   1244.9646      1.9943      0.3192     38.1905
     3.5000      0.0000   1217.5015      1.9839      0.2811     39.4007
     3.7500      1.7621   1166.6738      1.9762      0.2047     41.6639
     4.0000     -1.7932   1089.9781      1.9713      0.3192     44.2777
     4.2500      2.2806    995.9395      1.9769      0.2811     46.3312
     4.5000      1.8509    902.2780      2.0458      0.4338     47.6984
     4.7500     -1.8665    824.7026      2.3737      0.3574     49.3001
     5.0000      0.0000    764.9899      3.4840      0.1283     52.1787
     5.2500      0.0000    710.0641      6.4351      0.1665     56.3975
     5.5000      1.7688    643.5829     12.7131      0.4338     61.0088
     5.7500      0.0000    560.0688     23.3911      0.5484     64.9682
     6.0000      0.0000    469.9245     37.8485      0.1283     67.7502
     6.2500      0.0000    391.3936     53.3773      1.0448     69.0806
     6.5000      0.0000    337.0893     66.5927      1.5412     68.7372
     6.7500      0.0000    307.4358     75.5204     21.1308     67.1491
     7.0000      0.0000    294.6761     80.3401     70.0092     65.7018
     7.2500      0.0000    290.3637     82.4461     69.5128     65.8191
     7.5000      0.0000    289.2315     83.2028     69.2455     67.8911
     7.7500      0.0000    289.0123     83.4274     69.8947     71.3609
     8.0000      0.0000    288.9893     83.4822     69.6274     75.6194
     8.2500      0.0000    288.9960     83.4971     70.7348     80.3895
     8.5000      0.0000    288.9974     83.5146     70.8111     85.1299
     8.7500      0.0000    288.9935     83.5530     70.4675     88.4532
     9.0000      0.0000    288.9874     83.6146     70.5057     88.8231
     9.2500      0.0000    288.9814     83.6846     70.2765     86.0951
     9.5000      0.0000    288.9749     83.7405     70.4675     81.8996
     9.7500      0.0000    288.9655     83.7649     70.8875     78.0999
    10.0000      0.0000    288.9514     83.7496     70.6202     75.2440
    10.2500      0.0000    288.9352     83.6968     71.2312     72.7950
    10.5000      0.0000    288.9228     83.6269     70.6966     70.3894
    10.7500      0.0000    288.9204     83.5754     70.1238     68.4447
    11.0000      0.0000    288.9310     83.5673     69.8183     67.6896
    11.2500      0.0000    288.9520     83.5962     70.0474     68.4772
    11.5000      0.0000    288.9760     83.6318     69.3601     70.5823
    11.7500      0.0000    288.9935     83.6453     70.5820     73.3798
    12.0000      0.0000    288.9973     83.6271     71.2312     76.0087
    12.2500      0.0000    288.9848     83.5905     70.4293     77.5552
    12.5000      0.0000    288.9586     83.5656     70.7348     77.4512
    12.7500      0.0000    288.9262     83.5789     70.1238     75.8892
    13.0000      0.0000    288.8972     83.6283     71.0021     73.8721
    13.2500      0.0000    288.8794     83.6812     70.5438     72.7888
    13.5000      0.0000    288.8759     83.7049     70.8493     73.7023
    13.7500      0.0000    288.8863     83.6974     69.7419     76.6755
    14.0000      0.0000    288.9087     83.6851     70.6584     80.5771
    14.2500      0.0000    288.9395     83.6963     70.0856     83.7437
    14.5000      0.0000    288.9739     83.7341     70.3911     85.2274
    14.7500      0.0000    289.0076     83.7601     70.1620     85.5210
    15.0000      0.0000    289.0421     83.6647     70.0474     85.9052
    15.2500      0.0000    289.0961     83.2089     65.5796     87.2509
