~Version Information
VERS.                      2.0: CWLS Log ASCII Standard - VERSION 2.0
WRAP.                       NO: One line per depth step
~Well Information Block
STRT.FT               456.0000: 
STOP.FT              1703.0000: 
STEP.FT                 0.2500: 
NULL.                -999.2500: 
COMP.          Pioneer Natural Resources: COMPANY
WELL.                Mead 11-9: WELL
FLD.           Purgatoire River: FIELD
LOC.           1127' FNL & 668' FWL: LOCATION
PROV.                 Colorado: PROVINCE
CNTY.               Las Animas: COUNTRY
SRVC.                Patterson: SERVICE COMPANY
DATE.          Fri Feb 18 16:14:34 2005: LOG DATE
UWI.           05 071 08160 00: UNIQUE WELL ID
~Curve Information Block
DEPT.FT            0 000 00 00: Depth
SN.Ohm-m                      : IEL Short Normal
SP.mV                         : IEL Spontaneous Potential
DIR.Ohm-m                     : IEL Induction Resistivity
GR.GAPI                       : Gamma Ray
~Parameter Information Block
~A  Depth        SN          SP         DIR          GR     
# ...
  1193.0000      8.4867   -158.4080      9.5547    105.1137
  1193.2500      8.1376   -158.3652      9.4907    105.2228
  1193.5000      7.9563   -158.3042      9.4413    107.2037
  1193.7500      7.9968   -158.2492      9.4013    109.2668
  1194.0000      8.2162   -158.2337      9.3609    112.9589
  1194.2500      8.4842   -158.2823      9.3116    115.8179
  1194.5000      8.6525   -158.3945      9.2504    120.6092
  1194.7500      8.6455   -158.5420      9.1799    123.6478
  1195.0000      8.4868   -158.6814      9.1049    126.3221
  1195.2500      8.2605   -158.7749      9.0291    125.9180
  1195.5000      8.0526   -158.8056      8.9541    121.7938
  1195.7500      7.9024   -158.7785      8.8800    117.6034
  1196.0000      7.7985   -158.7137      8.8072    111.5521
  1196.2500      7.7163   -158.6387      8.7377    108.7664
  1196.5000      7.6538   -158.5783      8.6745    107.0166
  1196.7500      7.6263   -158.5459      8.6206    107.1529
  1197.0000      7.6357   -158.5370      8.5777    108.3935
  1197.2500      7.6630   -158.5329      8.5458    109.4092
  1197.5000      7.6921   -158.5101      8.5232    110.5043
  1197.7500      7.7226   -158.4487      8.5068    110.7150
  1198.0000      7.7540   -158.3394      8.4941    110.4453
  1198.2500      7.7648   -158.1885      8.4841    110.2077
  1198.5000      7.7268   -158.0187      8.4789    110.0050
  1198.7500      7.6556   -157.8612      8.4813    109.7689
  1199.0000      7.6101   -157.7419      8.4928    108.8903
  1199.2500      7.6189   -157.6667      8.5123    108.0700
  1199.5000      7.6553   -157.6197      8.5360    107.1301
  1199.7500      7.6929   -157.5728      8.5601    106.9728
  1200.0000      7.7363   -157.5016      8.5826    107.4530
  1200.2500      7.7963   -157.3964      8.6038    108.1130
  1200.5000      7.8624   -157.2676      8.6241    109.3046
  1200.7500      7.9038   -157.1377      8.6428    110.0153
  1201.0000      7.9024   -157.0251      8.6572    110.6722
  1201.2500      7.8751   -156.9341      8.6654    110.8265
  1201.5000      7.8497   -156.8596      8.6681    110.7221
  1201.7500      7.8319   -156.7979      8.6688    110.4172
  1202.0000      7.8109   -156.7527      8.6714    109.7078
  1202.2500      7.7805   -156.7339      8.6776    109.4280
  1202.5000      7.7483   -156.7529      8.6858    110.1091
  1202.7500      7.7267   -156.8160      8.6913    111.3310
  1203.0000      7.7132   -156.9171      8.6889    113.2832
  1203.2500      7.6968   -157.0354      8.6778    113.9340
  1203.5000      7.6849   -157.1423      8.6643    113.4969
  1203.7500      7.7002   -157.2145      8.6607    112.5708
  1204.0000      7.7518   -157.2457      8.6780    111.3203
  1204.2500      7.8246   -157.2484      8.7198    111.2320
  1204.5000      7.8924   -157.2456      8.7796    112.6036
  1204.7500      7.9354   -157.2544      8.8452    114.0477
  1205.0000      7.9541   -157.2733      8.9056    115.5066
  1205.2500      7.9674   -157.2821      8.9554    115.4098
  1205.5000      7.9960   -157.2560      8.9933    113.8431
  1205.7500      8.0479   -157.1781      9.0185    112.3759
  1206.0000      8.1225   -157.0446      9.0271    110.2279
  1206.2500      8.2179   -156.8658      9.0133    108.9926
  1206.5000      8.3251   -156.6649      8.9738    107.6884
  1206.7500      8.4167   -156.4709      8.9096    107.4169
  1207.0000      8.4565   -156.3053      8.8247    108.1575
  1207.2500      8.4197   -156.1721      8.7217    109.2223
  1207.5000      8.2906   -156.0614      8.6007    110.6346
  1207.7500      8.0553   -155.9622      8.4622    110.7218
  1208.0000      7.7382   -155.8719      8.3109    109.0210
  1208.2500      7.4314   -155.7954      8.1553    107.0630
  1208.5000      7.2334   -155.7373      8.0040    104.4952
  1208.7500      7.1607   -155.6944      7.8624    103.9676
  1209.0000      7.1531   -155.6576      7.7313    105.6056
  1209.2500      7.1324   -155.6203      7.6091    108.0299
  1209.5000      7.0334   -155.5852      7.4943    112.6606
  1209.7500      6.8346   -155.5635      7.3865    115.9836
  1210.0000      6.5867   -155.5684      7.2860    121.0426
  1210.2500      6.3691   -155.6095      7.1937    124.2150
  1210.5000      6.2194   -155.6915      7.1115    127.6001
  1210.7500      6.1280   -155.8122      7.0423    128.2818
  1211.0000      6.0743   -155.9594      6.9891    126.9031
  1211.2500      6.0472   -156.1092      6.9538    125.1325
  1211.5000      6.0535   -156.2332      6.9365    122.8704
  1211.7500      6.1162   -156.3114      6.9361    122.2075
  1212.0000      6.2400   -156.3407      6.9508    122.3783
  1212.2500      6.3885   -156.3336      6.9785    122.7927
  1212.5000      6.5169   -156.3090      7.0160    123.1477
  1212.7500      6.5995   -156.2804      7.0587    123.0509
  1213.0000      6.6177   -156.2516      7.1014    122.3964
  1213.2500      6.5496   -156.2200      7.1410    121.7342
  1213.5000      6.3926   -156.1789      7.1773    120.9794
  1213.7500      6.1866   -156.1160      7.2130    121.0177
  1214.0000      6.0023   -156.0156      7.2505    121.9352
  1214.2500      5.9118   -155.8708      7.2890    122.8096
  1214.5000      5.9717   -155.6921      7.3246    124.1081
  1214.7500      6.1933   -155.5056      7.3530    124.9175
  1215.0000      6.5012   -155.3439      7.3723    125.7910
  1215.2500      6.7682   -155.2355      7.3836    125.6836
  1215.5000      6.9234   -155.1931      7.3898    123.7058
  1215.7500      6.9896   -155.2054      7.3942    121.3065
  1216.0000      7.0242   -155.2405      7.4008    117.5663
  1216.2500      7.0598   -155.2623      7.4135    115.9479
  1216.5000      7.1000   -155.2479      7.4360    115.3971
  1216.7500      7.1472   -155.1954      7.4699    115.9856
  1217.0000      7.2140   -155.1208      7.5142    117.7397
  1217.2500      7.2993   -155.0488      7.5653    119.4589
  1217.5000      7.3641   -155.0007      7.6185    122.9630
  1217.7500      7.3688   -154.9813      7.6701    125.7085
  1218.0000      7.3154   -154.9767      7.7176    129.5640
  1218.2500      7.2104   -154.9671      7.7593    131.4482
  1218.5000      7.0290   -154.9438      7.7944    132.9016
  1218.7500      6.7552   -154.9143      7.8248    133.1037
  1219.0000      6.4352   -154.8956      7.8556    132.7810
  1219.2500      6.1678   -154.9076      7.8950    132.3891
  1219.5000      6.0579   -154.9610      7.9507    131.6913
  1219.7500      6.1878   -155.0410      8.0268    131.1933
  1220.0000      6.5803   -155.1069      8.1223    130.4749
  1220.2500      7.1629   -155.1212      8.2336    129.9955
  1220.5000      7.8036   -155.0812      8.3563    129.1908
  1220.7500      8.3761   -155.0163      8.4860    128.7946
  1221.0000      8.7901   -154.9600      8.6159    129.4485
  1221.2500      9.0234   -154.9248      8.7368    131.4452
  1221.5000      9.1150   -154.8981      8.8392    137.2620
  1221.7500      9.0756   -154.8491      8.9173    142.4814
  1222.0000      8.8471   -154.7431      8.9709    149.7658
  1222.2500      8.3841   -154.5590      9.0055    152.1543
  1222.5000      7.7593   -154.2998      9.0304    149.3771
  1222.7500      7.1775   -153.9897      9.0552    143.4649
  1223.0000      6.8883   -153.6651      9.0860    131.6887
  1223.2500      7.0522   -153.3666      9.1233    124.1547
  1223.5000      7.6236   -153.1298      9.1611    115.8419
  1223.7500      8.3656   -152.9705      9.1886    112.7717
  1224.0000      9.0205   -152.8764      9.1921    111.3481
  1224.2500      9.4510   -152.8158      9.1580    111.6915
  1224.5000      9.6362   -152.7583      9.0783    112.7394
  1224.7500      9.6112   -152.6918      8.9555    113.4416
  1225.0000      9.4365   -152.6217      8.8055    114.5949
  1225.2500      9.1848   -152.5603      8.6524    115.4436
  1225.5000      8.9209   -152.5147      8.5189    116.3806
  1225.7500      8.6862   -152.4821      8.4180    116.4567
  1226.0000      8.5057   -152.4507      8.3521    115.7120
  1226.2500      8.3897   -152.4103      8.3190    115.0441
