~Version Information
VERS.                      2.0: CWLS Log ASCII Standard - VERSION 2.0
WRAP.                       NO: One line per depth step
~Well Information Block
STRT.FT               -14.0000: 
STOP.FT              2565.5000: 
STEP.FT                 0.5000: 
NULL.                -999.2500: 
COMP.          Pioneer Natural Resources: COMPANY
WELL.             Carbon 34-21: WELL
FLD.           Purgatorie River: FIELD
LOC.           56' FSL & 2304' FEL: LOCATION
PROV.                 Colorado: PROVINCE
CNTY.               Las Animas: COUNTRY
SRVC.          Patterson Wireline: SERVICE COMPANY
DATE.          Mon Nov 08 08:55:10 2004: LOG DATE
UWI.           05-071-08117-00: UNIQUE WELL ID
~Curve Information Block
DEPT.FT            0 000 00 00: Depth
TT3.usec                      : CBL 3' Travel Time
AMP3.mV                       : CBL 3' Amplitude
GR.GAPI                       : Gamma Ray
CCL.                          : Casing Collar Locator
~Parameter Information Block
~A  Depth       TT3         AMP3         GR         CCL     
# ...
   656.0000    281.5197     72.3505    167.9231      0.0000
   656.5000    281.5677     72.3366    160.3015      0.0000
   657.0000    281.5704     71.8883    148.0102      0.0000
   657.5000    281.5732     71.7174    136.0707      0.0000
   658.0000    281.5929     72.0528    136.8848      0.0000
   658.5000    281.6110     72.3653    143.1747      0.0000
   659.0000    281.6189     72.3004    147.0129      0.0000
   659.5000    281.6258     71.9548    150.6454      0.0000
   660.0000    281.6705     71.7208    161.5401      0.0000
   660.5000    281.7006     71.8185    177.5915      0.0000
   661.0000    281.7222     72.1589    190.5317      0.0000
   661.5000    281.7318     72.9343    192.4025      0.0000
   662.0000    281.7307     73.7363    190.0796      0.0000
   662.5000    281.7771     74.1153    193.9302      0.0000
   663.0000    281.8263     74.2338    200.8616      0.0000
   663.5000    281.8438     74.1663    203.1714      0.0000
   664.0000    281.8654     74.1135    195.7945      0.0000
   664.5000    281.8918     74.3281    186.9199      0.0000
   665.0000    281.9102     74.5527    183.0868      0.0000
   665.5000    281.9212     75.0673    176.6588      0.0000
   666.0000    281.9220     75.5860    170.5218      0.0000
   666.5000    281.8965     75.5015    175.5227      0.0000
   667.0000    281.9148     75.2118    183.3661      0.0000
   667.5000    282.0085     75.0530    184.5911      0.0000
   668.0000    282.0573     75.2881    181.4353      0.0000
   668.5000    282.0684     75.7517    176.5250      0.0000
   669.0000    282.0985     76.2968    178.1850      0.0000
   669.5000    282.0932     76.9690    184.6899      0.0000
   670.0000    282.0929     77.6235    189.1626      0.0000
   670.5000    282.1190     78.1315    189.2999      0.0000
   671.0000    282.1815     78.4203    190.4069      0.0000
   671.5000    282.2479     78.7266    198.3056      0.0000
   672.0000    282.2625     78.9052    205.2476      0.0000
   672.5000    282.3261     78.7156    203.7449      0.0000
   673.0000    282.4136     79.0154    192.1878      0.0000
   673.5000    282.4495     79.7998    177.1437      0.0000
   674.0000    282.4424     80.4777    167.2492      0.0000
   674.5000    282.4349     81.0520    159.1145      0.0000
   675.0000    282.5330     81.0990    141.6557      0.0000
   675.5000    282.6367     81.4483    120.2148      0.0000
   676.0000    282.5925     82.5985    115.2659      0.0000
   676.5000    282.5284     83.1854    125.6172      0.0000
   677.0000    282.5713     83.1147    134.1497      0.0000
   677.5000    282.5786     84.0202    138.9437      0.0000
   678.0000    282.4891     84.8269    148.8433      0.0000
   678.5000    282.4915     83.9977    157.1286      0.0000
   679.0000    282.6540     83.4644    163.0002      0.0000
   679.5000    282.6993     84.7779    170.0880      0.0000
   680.0000    282.6037     85.6307    171.5009      0.0000
   680.5000    282.5314     85.8135    166.2780      0.0000
   681.0000    282.5201     85.8581    158.5274      0.0000
   681.5000    282.6195     84.8014    147.4506      0.0000
   682.0000    282.7031     83.9958    139.3181      0.0000
   682.5000    282.6939     84.2664    135.1076      0.0000
   683.0000    282.6652     84.6252    137.3440      0.0000
   683.5000    282.6420     84.9300    146.6265      0.0000
   684.0000    282.6054     84.7797    151.9241      0.0000
   684.5000    282.6161     84.1079    148.2794      0.0000
   685.0000    282.6377     83.9883    144.3583      0.0000
   685.5000    282.6811     83.4559    139.7848      0.0000
   686.0000    282.7274     82.9701    133.2677      0.0000
   686.5000    282.8289     82.5328    125.2535      0.0000
   687.0000    283.6887     79.1624    114.5358      0.0000
   687.5000    286.3658     71.9854    109.3105      0.0000
   688.0000    289.4599     65.0582    111.1056      0.0000
   688.5000    290.4978     63.0100    109.0975      0.0000
   689.0000    290.4046     63.5883    103.5892      2.5562
   689.5000    290.4274     63.7732    105.0236      0.0000
   690.0000    290.6768     63.2390    114.2939      0.0000
   690.5000    289.8807     65.3604    129.2918      0.0000
   691.0000    286.7602     72.5776    154.8279      0.0000
   691.5000    283.8944     78.8644    178.2764      0.0000
   692.0000    282.9364     81.1132    187.3834      0.0000
   692.5000    282.7952     81.4576    194.2030      0.0000
   693.0000    282.7357     81.8856    201.2493      0.0000
   693.5000    282.6559     82.4360    192.1215      0.0000
   694.0000    282.6207     82.1264    173.2190      0.0000
   694.5000    282.6318     81.1595    169.4953      0.0000
   695.0000    282.6353     80.5875    175.3076      0.0000
   695.5000    282.6276     80.3747    173.7625      0.0000
   696.0000    282.5976     80.1699    165.7525      0.0000
   696.5000    282.5745     79.6540    160.7909      0.0000
   697.0000    282.5456     79.0213    159.5253      0.0000
   697.5000    282.4753     78.6119    156.9542      0.0000
   698.0000    282.4072     78.4470    159.4830      0.0000
   698.5000    282.3669     78.1594    165.8395      0.0000
   699.0000    282.3291     77.8174    167.7253      0.0000
   699.5000    282.3080     77.3013    164.2777      0.0000
   700.0000    282.2876     76.9370    172.6110      0.0000
   700.5000    282.2210     76.7062    188.2698      0.0000
   701.0000    282.1797     75.8755    189.6290      0.0000
   701.5000    282.1531     75.3706    185.0739      0.0000
   702.0000    282.1331     75.4488    177.3365      0.0000
   702.5000    282.1334     75.2333    164.8317      0.0000
   703.0000    282.1118     74.8859    150.6162      0.0000
   703.5000    282.0763     74.7538    139.3691      0.0000
   704.0000    282.0651     74.4278    140.5591      0.0000
   704.5000    282.0845     73.9344    149.8193      0.0000
   705.0000    282.1533     73.3276    151.0494      0.0000
   705.5000    282.2503     72.4425    143.9313      0.0000
   706.0000    282.3318     71.3925    134.2309      0.0000
   706.5000    282.4161     70.5416    126.0583      0.0000
   707.0000    282.5110     70.3310    122.0842      0.0000
   707.5000    282.5327     71.1254    121.3844      0.0000
   708.0000    282.5484     71.8653    124.1225      0.0000
   708.5000    282.6410     71.8395    130.8489      0.0000
   709.0000    282.7657     71.4307    144.0153      0.0000
   709.5000    282.9388     70.4034    160.0495      0.0000
   710.0000    283.1255     68.8753    173.0458      0.0000
   710.5000    283.1704     68.3178    176.2095      0.0000
   711.0000    283.0432     69.3602    165.7529      0.0000
   711.5000    282.9349     70.6536    152.2100      0.0000
   712.0000    282.8730     71.5830    147.8666      0.0000
   712.5000    282.8221     72.4258    150.2603      0.0000
   713.0000    282.8438     72.7203    152.8708      0.0000
   713.5000    282.9113     72.2878    152.0045      0.0000
   714.0000    282.9377     71.7928    155.0817      0.0000
   714.5000    282.8575     72.1081    162.0212      0.0000
   715.0000    282.7289     73.2064    170.7700      0.0000
   715.5000    282.6375     73.8704    174.7040      0.0000
   716.0000    282.5622     73.7626    172.9101      0.0000
   716.5000    282.6251     72.8935    173.0344      0.0000
   717.0000    283.4337     69.3809    170.6819      0.0000
   717.5000    285.8138     62.9299    158.8680      0.0000
   718.0000    288.6613     56.7720    148.3808      0.0000
   718.5000    290.0249     53.5725    150.7734      0.0000
   719.0000    290.2810     52.6102    155.5394     -5.0000
   719.5000    290.1024     52.9101    164.8674      0.0000
   720.0000    289.0789     55.3633    176.8474      0.0000
   720.5000    286.5355     60.3101    182.1865      0.0000
   721.0000    283.6696     66.2726    185.2621      0.0000
   721.5000    282.2258     70.8043    187.6216      0.0000
   722.0000    281.8707     72.3995    184.1558      0.0000
   722.5000    281.8230     72.5110    174.3601      0.0000
