~Version Information
VERS.                      2.0: CWLS Log ASCII Standard - VERSION 2.0
WRAP.                       NO: One line per depth step
~Well Information Block
STRT.FT                -6.5000: 
STOP.FT              2698.5000: 
STEP.FT                 0.2500: 
NULL.                -999.2500: 
COMP.          Pioneer Natural Resources: COMPANY
WELL.              Cluck 21-25: WELL
FLD.           Purgatorie River: FIELD
LOC.           91' FNL & 1834' FWL--: LOCATION
PROV.                       CO: PROVINCE
CNTY.               Las Animas: COUNTRY
SRVC.          Patterson Wireline: SERVICE COMPANY
DATE.          Mon Jun 13 14:54:35 2005: LOG DATE
UWI.           05 071 08397 00: UNIQUE WELL ID
~Curve Information Block
DEPT.FT            0 000 00 00: Depth
CCL.                          : Casing Collar Locator
TT3.usec                      : CBL 3' Travel Time
AMP3.mV                       : CBL 3' Amplitude
GR.GAPI                       : Gamma Ray
~Parameter Information Block
~A  Depth       CCL         TT3         AMP3         GR     
# ...
  2305.0000      0.0000    448.6239      3.4451    116.4028
  2305.2500      0.0000    464.7185      3.3906    123.3718
  2305.5000      0.0000    480.5884      3.3420    127.2626
  2305.7500      0.0000    488.2506      3.2671    127.1824
  2306.0000      0.0000    484.9448      3.1375    124.4334
  2306.2500      0.0000    478.4071      2.9563    121.2424
  2306.5000      0.0000    482.7144      2.7890    119.1102
  2306.7500      0.0000    508.2209      2.7401    118.0844
  2307.0000      0.0000    553.9322      2.8633    116.9684
  2307.2500      0.0000    607.3903      3.0992    114.1554
  2307.5000      0.0000    652.0363      3.3164    108.8986
  2307.7500      0.0000    676.1268      3.4038    102.2899
  2308.0000      0.0000    675.9943      3.3234     96.7229
  2308.2500      0.0000    654.5305      3.1231     93.9489
  2308.5000      0.0000    620.4720      2.9218     93.7713
  2308.7500      0.0000    587.8636      2.8424     94.9042
  2309.0000      0.0000    570.7716      2.9173     96.7474
  2309.2500      0.0000    575.7568      3.0667     99.6391
  2309.5000      0.0000    599.4429      3.1779    103.3554
  2309.7500      0.0000    632.1615      3.1901    106.3662
  2310.0000      0.0000    663.3430      3.1049    107.4513
  2310.2500      0.0000    686.0634      2.9516    107.4650
  2310.5000      0.0000    699.0618      2.7767    108.4239
  2310.7500      0.0000    705.1244      2.6528    111.1705
  2311.0000      0.0000    707.7570      2.6491    114.8382
  2311.2500      0.0000    709.1661      2.7748    118.0967
  2311.5000      0.0000    710.2170      2.9685    119.8086
  2311.7500      0.0000    711.1277      3.1534    118.8822
  2312.0000      0.0000    711.9301      3.2874    114.7816
  2312.2500      0.0000    712.6290      3.3648    108.3381
  2312.5000      0.0000    713.1905      3.3927    101.4664
  2312.7500      0.0000    713.5779      3.3820     96.1473
  2313.0000      0.0000    713.7870      3.3534     93.6381
  2313.2500      0.0000    713.8496      3.3257     93.9183
  2313.5000      0.0000    713.8179      3.2926     95.6414
  2313.7500      0.0000    713.7514      3.2318     97.1649
  2314.0000      0.0000    713.6938      3.1421     97.9006
  2314.2500      0.0000    713.6479      3.0546     98.4449
  2314.5000      0.0000    713.5784      3.0038     99.5204
  2314.7500      0.0000    713.4438      3.0049    101.0880
  2315.0000      0.0000    713.2217      3.0466    102.2338
  2315.2500      0.0000    712.9144      3.0933    101.5536
  2315.5000      0.0000    712.5456      3.1063     98.0362
  2315.7500      0.0000    712.1608      3.0798     92.0776
  2316.0000      0.0000    711.8311      3.0520     85.4007
  2316.2500      0.0000    711.7095      3.0755     79.8095
  2316.5000      0.0000    712.1249      3.1749     76.3127
  2316.7500      0.0000    713.6362      3.3279     75.0984
  2317.0000      0.0000    716.7925      3.4727     75.4993
  2317.2500      0.0000    721.3936      3.5377     76.1283
  2317.5000      0.0000    725.7961      3.4789     75.9519
  2317.7500      0.0000    727.5497      3.3109     75.5223
  2318.0000      0.0000    725.4323      3.1086     76.7178
  2318.2500      0.0000    720.6754      2.9726     80.9074
  2318.5000      0.0000    715.7399      2.9704     87.4131
  2318.7500      0.0000    712.1820      3.0980     93.9352
  2319.0000      0.0000    709.7693      3.2912     98.5042
  2319.2500      0.0000    706.6722      3.4692    100.9731
  2319.5000      0.0000    699.3488      3.5720    102.7169
  2319.7500      0.0000    682.7161      3.5829    105.0938
  2320.0000      0.0000    653.0039      3.5280    108.1805
  2320.2500      0.0000    613.5280      3.4559    110.8325
  2320.5000      0.0000    577.5410      3.4182    111.9826
  2320.7500      0.0000    561.4195      3.4575    111.8791
  2321.0000      0.0000    571.3154      3.5784    111.8360
  2321.2500      0.0000    597.0632      3.7229    112.5627
  2321.5000      0.0000    621.6857      3.8020    113.0088
  2321.7500      0.0000    636.8805      3.7711    111.3716
  2322.0000      0.0000    647.2851      3.6622    107.1143
  2322.2500      0.0000    660.5477      3.5358    101.4198
  2322.5000      0.0000    677.5091      3.4213     95.8657
  2322.7500      0.0000    693.4408      3.3141     91.5229
  2323.0000      0.0000    705.0122      3.2064     89.2093
  2323.2500      0.0000    712.9910      3.1012     89.5759
  2323.5000      0.0000    719.4780      3.0056     92.4372
  2323.7500      0.0000    724.9405      2.9253     96.4398
  2324.0000      0.0000    728.6336      2.8677     99.8176
  2324.2500      0.0000    731.1877      2.8482    101.4214
  2324.5000      0.0000    735.0812      2.8952    100.9447
  2324.7500      0.0000    741.8328      3.0397     98.6289
  2325.0000      0.0000    750.1960      3.2794     95.2263
  2325.2500      0.0000    758.1646      3.5467     92.0465
  2325.5000     -2.0000    764.7357      3.7271     90.5553
  2325.7500      0.0000    768.4590      3.7333     91.5730
  2326.0000      0.0000    766.6819      3.5704     94.6152
  2326.2500      0.0000    758.2834      3.3337     98.0794
  2326.5000      0.0000    745.8199      3.1363    100.4486
  2326.7500      0.0000    733.5507      3.0274    101.4532
  2327.0000      0.0000    724.1382      2.9739    101.8236
  2327.2500      0.0000    717.8669      2.9083    102.0946
  2327.5000      0.0000    714.0311      2.7786    102.2766
  2327.7500      0.0000    712.1116      2.5709    102.6320
  2328.0000      0.0000    712.0276      2.3278    103.7825
  2328.2500      0.0000    713.9564      2.1511    105.6888
  2328.5000      0.0000    717.8547      2.1457    107.3373
  2328.7500      0.0000    722.5667      2.3401    108.0031
  2329.0000      0.0000    725.3192      2.6713    108.1793
  2329.2500      0.0000    722.8354      3.0466    108.6193
  2329.5000      0.0000    713.8642      3.4032    108.8692
  2329.7500      0.0000    700.8232      3.7015    107.3881
  2330.0000      0.0000    688.4615      3.8895    103.0700
  2330.2500      0.0000    680.4523      3.9114     96.3868
  2330.5000      0.0000    677.3037      3.7592     89.0920
  2330.7500      0.0000    677.5425      3.4963     82.9922
  2331.0000      0.0000    679.9147      3.2164     78.9071
  2331.2500      0.0000    683.4744      2.9851     76.4658
  2331.5000      0.0000    685.8647      2.8154     74.6035
  2331.7500      0.0000    683.3364      2.6909     72.2036
  2332.0000      0.0000    674.3495      2.6158     68.5272
  2332.2500      0.0000    663.3824      2.6297     63.5864
  2332.5000      0.0000    658.9189      2.7533     58.4031
  2332.7500      0.0000    665.3381      2.9382     54.5928
  2333.0000      0.0000    677.7025      3.1006     53.3581
  2333.2500      0.0000    685.4783      3.1855     54.9808
  2333.5000      0.0000    679.9274      3.1872     59.1375
  2333.7500      0.0000    657.9193      3.1303     65.1942
  2334.0000      0.0000    621.8641      3.0485     72.1640
  2334.2500      0.0000    577.8165      2.9599     78.8617
  2334.5000      0.0000    533.2430      2.8641     84.2294
  2334.7500      0.0000    496.6130      2.7837     87.4424
  2335.0000      0.0000    477.4718      2.7860     88.1040
  2335.2500      0.0000    482.2895      2.9244     86.7201
  2335.5000      0.0000    507.7834      3.1718     84.6967
  2335.7500      0.0000    540.8748      3.4405     83.4606
  2336.0000      0.0000    567.5991      3.6548     83.6358
  2336.2500      0.0000    581.0034      3.7980     85.1589
  2336.5000      0.0000    580.9966      3.8954     87.7567
  2336.7500      0.0000    572.3935      3.9577     90.8889
  2337.0000      0.0000    565.5870      3.9504     93.5931
  2337.2500      0.0000    572.3000      3.8393     95.0651
  2337.5000      0.0000    595.3911      3.6525     95.2600
  2337.7500      0.0000    625.3928      3.4725     94.5042
  2338.0000      0.0000    649.2681      3.3792     92.8426
  2338.2500      0.0000    660.2823      3.4137     90.2041
