~Version Information
VERS.                      2.0: CWLS Log ASCII Standard - VERSION 2.0
WRAP.                       NO: One line per depth step
~Well Information Block
STRT.FT               819.0000: 
STOP.FT              2499.5000: 
STEP.FT                 0.2500: 
NULL.                -999.2500: 
COMP.          Petrogulf Corporation: COMPANY
WELL.             State 16-21V: WELL
FLD.           Purgatorie River: FIELD
LOC.           1738' FWL & 332' FWL: LOCATION
PROV.                 Colorado: PROVINCE
CNTY.               Las Animas: COUNTRY
SRVC.          Patterson Wireline: SERVICE COMPANY
DATE.          Sun Jul 13 13:34:36 2003: LOG DATE
UWI.           05 071 08829 00: UNIQUE WELL ID
~Curve Information Block
DEPT.FT            0 000 00 00: Depth
SP.mV                         : DIL Spontaneous Potential
RILD.Ohm-m                    : DIL Deep Resistivity
RILM.Ohm-m                    : DIL Medium Resistivity
RLL3.Ohm-m                    : DIL Shallow Resistivity
GR.GAPI                       : Gamma Ray
~Parameter Information Block
~A  Depth        SP         RILD        RILM        RLL3         GR     
# ...
  1939.0000    -45.2835     17.4393     21.8264     52.1957     47.5581
  1939.2500    -45.0993     16.5874     20.3956     50.6567     48.9921
  1939.5000    -44.7717     15.7882     18.9688     45.5208     54.4174
  1939.7500    -44.3279     15.0632     17.6224     37.5609     61.1502
  1940.0000    -43.8346     14.4157     16.4047     28.7850     76.4543
  1940.2500    -43.3727     13.8399     15.3392     21.3384     89.3467
  1940.5000    -43.0034     13.3269     14.4319     16.3745    109.7234
  1940.7500    -42.7482     12.8678     13.6774     13.7948    122.0450
  1941.0000    -42.5900     12.4553     13.0639     12.8221    136.4448
  1941.2500    -42.4854     12.0849     12.5766     12.6759    143.0121
  1941.5000    -42.3805     11.7550     12.1996     12.8675    149.0220
  1941.7500    -42.2249     11.4668     11.9171     13.1765    151.1671
  1942.0000    -41.9829     11.2223     11.7140     13.5512    152.4081
  1942.2500    -41.6400     11.0228     11.5757     14.0364    151.9156
  1942.5000    -41.2058     10.8678     11.4881     14.7092    148.8102
  1942.7500    -40.7106     10.7554     11.4380     15.5998    145.1821
  1943.0000    -40.1970     10.6833     11.4128     16.6178    138.2551
  1943.2500    -39.7099     10.6492     11.4008     17.5326    133.5220
  1943.5000    -39.2874     10.6491     11.3918     18.0459    127.9097
  1943.7500    -38.9524     10.6751     11.3772     17.9544    125.8740
  1944.0000    -38.7058     10.7145     11.3509     17.2968    125.6630
  1944.2500    -38.5270     10.7520     11.3088     16.3450    127.0180
  1944.5000    -38.3850     10.7739     11.2498     15.4272    130.1301
  1944.7500    -38.2545     10.7721     11.1746     14.7379    132.3659
  1945.0000    -38.1288     10.7441     11.0862     14.2765    135.6181
  1945.2500    -38.0213     10.6900     10.9884     13.9204    137.6968
  1945.5000    -37.9563     10.6118     10.8857     13.5503    140.3934
  1945.7500    -37.9545     10.5139     10.7827     13.1418    141.6427
  1946.0000    -38.0220     10.4046     10.6834     12.7692    142.5403
  1946.2500    -38.1460     10.2944     10.5910     12.5347    142.5632
  1946.5000    -38.3013     10.1918     10.5079     12.4967    141.5593
  1946.7500    -38.4663     10.1002     10.4356     12.6475    139.8732
  1947.0000    -38.6376     10.0180     10.3746     12.9324    135.6817
  1947.2500    -38.8302      9.9421     10.3250     13.2722    132.2513
  1947.5000    -39.0645      9.8715     10.2863     13.5758    127.2888
  1947.7500    -39.3504      9.8087     10.2578     13.7600    124.4757
  1948.0000    -39.6790      9.7585     10.2387     13.7879    121.2419
  1948.2500    -40.0252      9.7255     10.2285     13.6960    119.9232
  1948.5000    -40.3586      9.7117     10.2269     13.5701    119.2784
  1948.7500    -40.6594      9.7157     10.2338     13.4822    119.3125
  1949.0000    -40.9283      9.7348     10.2496     13.4503    118.9057
  1949.2500    -41.1863      9.7669     10.2754     13.4560    118.0381
  1949.5000    -41.4661      9.8127     10.3126     13.4830    116.5579
  1949.7500    -41.7992      9.8761     10.3635     13.5295    116.2661
  1950.0000    -42.2019      9.9617     10.4306     13.5924    117.8424
  1950.2500    -42.6630     10.0714     10.5172     13.6553    120.0552
  1950.5000    -43.1415     10.2034     10.6268     13.7034    123.5058
  1950.7500    -43.5793     10.3550     10.7636     13.7548    124.9139
  1951.0000    -43.9228     10.5265     10.9317     13.8745    125.4309
  1951.2500    -44.1405     10.7232     11.1357     14.1472    125.3089
  1951.5000    -44.2291     10.9526     11.3805     14.6179    125.1781
  1951.7500    -44.2122     11.2218     11.6712     15.2512    143.6870
  1952.0000    -44.1319     11.5358     12.0134     15.9511    142.3501
  1952.2500    -44.0349     11.8994     12.4130     16.6243    140.9200
  1952.5000    -43.9548     12.3192     12.8768     17.2249    138.8479
  1952.7500    -43.9004     12.8017     13.4116     17.7558    155.7689
  1953.0000    -43.8556     13.3492     14.0248     18.2599    153.7722
  1953.2500    -43.7937     13.9551     14.7233     18.8422    151.4902
  1953.5000    -43.6971     14.6042     15.5128     19.7507    145.9969
  1953.7500    -43.5689     15.2783     16.3973     21.4983    157.4450
  1954.0000    -43.4282     15.9646     17.3769     24.8720    147.7414
  1954.2500    -43.2928     16.6599     18.4465     30.5376    139.8519
  1954.5000    -43.1654     17.3649     19.5938     38.2093    124.7880
  1954.7500    -43.0338     18.0750     20.7971     46.0713    112.4831
  1955.0000    -42.8850     18.7746     22.0234     51.4209     92.4756
  1955.2500    -42.7226     19.4364     23.2269     52.4223     80.1734
  1955.5000    -42.5728     20.0240     24.3492     49.4145     66.7344
  1955.7500    -42.4756     20.4932     25.3205     44.5011     62.0116
  1956.0000    -42.4687     20.7940     26.0653     40.0600     60.2699
  1956.2500    -42.5689     20.8776     26.5112     37.7494     61.1682
  1956.5000    -42.7592     20.7111     26.6017     38.4703     62.9554
  1956.7500    -42.9857     20.2928     26.3099     42.4634     63.3607
  1957.0000    -43.1699     19.6606     25.6480     48.9225     62.1596
  1957.2500    -43.2323     18.8839     24.6679     55.5962     60.5058
  1957.5000    -43.1209     18.0437     23.4523     59.3315     58.3461
  1957.7500    -42.8319     17.2108     22.0976     57.7216     58.5326
  1958.0000    -42.4123     16.4311     20.6971     50.6907     64.0900
  1958.2500    -41.9423     15.7234     19.3285     40.5564     72.4457
  1958.5000    -41.5051     15.0858     18.0479     30.4824     91.1028
  1958.7500    -41.1576     14.5088     16.8906     22.7192    105.3367
  1959.0000    -40.9152     13.9855     15.8745     17.9201    124.7850
  1959.2500    -40.7535     13.5169     15.0055     15.5663    135.0368
  1959.5000    -40.6252     13.1100     14.2819     14.7304    146.5666
  1959.7500    -40.4818     12.7729     13.6985     14.5856    152.2575
  1960.0000    -40.2900     12.5130     13.2488     14.5808    157.7011
  1960.2500    -40.0397     12.3364     12.9269     14.4443    158.8620
  1960.5000    -39.7441     12.2482     12.7284     14.1312    157.0916
  1960.7500    -39.4336     12.2528     12.6508     13.7442    154.3252
  1961.0000    -39.1492     12.3524     12.6937     13.4586    149.1250
  1961.2500    -38.9331     12.5472     12.8584     13.4941    145.2830
  1961.5000    -38.8158     12.8338     13.1476     14.1249    138.7546
  1961.7500    -38.8043     13.2074     13.5645     15.6646    133.5279
  1962.0000    -38.8797     13.6627     14.1121     18.3600    123.6417
  1962.2500    -39.0066     14.1942     14.7907     22.2093    115.4573
  1962.5000    -39.1443     14.7943     15.5958     26.8363    101.3737
  1962.7500    -39.2594     15.4505     16.5140     31.5776     91.6920
  1963.0000    -39.3348     16.1419     17.5181     35.7878     78.2394
  1963.2500    -39.3722     16.8353     18.5618     39.1337     70.2265
  1963.5000    -39.3856     17.4812     19.5756     41.6402     59.0709
  1963.7500    -39.3892     18.0137     20.4672     43.5209     51.9544
  1964.0000    -39.3861     18.3602     21.1310     45.0433     42.3051
  1964.2500    -39.3672     18.4600     21.4680     46.5295     37.2586
  1964.5000    -39.3182     18.2869     21.4123     48.2869     32.7328
  1964.7500    -39.2289     17.8607     20.9537     50.2667     31.8704
  1965.0000    -39.0971     17.2404     20.1426     51.6648     33.4509
  1965.2500    -38.9280     16.5016     19.0749     51.0239     36.3131
  1965.5000    -38.7360     15.7118     17.8640     47.1069     44.2125
  1965.7500    -38.5436     14.9185     16.6142     39.9827     52.9607
  1966.0000    -38.3754     14.1487     15.4054     31.2902     72.5243
  1966.2500    -38.2489     13.4160     14.2889     23.2854     89.2905
  1966.5000    -38.1673     12.7268     13.2914     17.4950    116.6666
  1966.7500    -38.1210     12.0847     12.4217     14.1313    133.7828
