~Version Information
VERS.                      2.0: CWLS Log ASCII Standard - VERSION 2.0
WRAP.                       NO: One line per depth step
~Well Information Block
STRT.FT               948.2500: 
STOP.FT              2134.5000: 
STEP.FT                 0.2500: 
NULL.                -999.2500: 
COMP.          Petrogulf Corporation: COMPANY
WELL.             Valejo 8-12R: WELL
FLD.           Purgatorie River: FIELD
LOC.           1351'' FNL & 1562' FWL: LOCATION
CNTY.               Las Animas: COUNTY
SRVC.                         : SERVICE COMPANY
DATE.          Wed Apr 28 02:30:32 2004: LOG DATE
UWI.           05 071 08038 00: UNIQUE WELL ID
STAT.                 Colorado: STATE
~Curve Information Block
DEPT.FT            0 000 00 00: Depth
SP.mV                         : DIL Spontaneous Potential
RILD.Ohm-m                    : DIL Deep Resistivity
RILM.Ohm-m                    : DIL Medium Resistivity
RLL3.Ohm-m                    : DIL Shallow Resistivity
GR.GAPI                       : Gamma Ray
~Parameter Information Block
~A  Depth        SP         RILD        RILM        RLL3         GR     
# ...
  1424.2500     90.3349     10.1643     15.8958     30.8272     97.6434
  1424.5000     90.4158      9.7970     14.6783     29.6024     97.9859
  1424.7500     90.4983      9.4507     13.3145     27.2886     99.4082
  1425.0000     90.5597      9.1338     11.9623     24.0622    102.8615
  1425.2500     90.6110      8.8533     10.7411     20.2691    105.6214
  1425.5000     90.6686      8.6135      9.7162     16.3733    109.4785
  1425.7500     90.7354      8.4148      8.9083     12.8524    111.0830
  1426.0000     90.8135      8.2534      8.3125     10.0596    110.8169
  1426.2500     90.9223      8.1227      7.9127      8.1547    108.6221
  1426.5000     91.0880      8.0149      7.6887      7.1506    102.9551
  1426.7500     91.3126      7.9241      7.6192      6.9933     98.4192
  1427.0000     91.5535      7.8474      7.6812      7.5800     92.3238
  1427.2500     91.7414      7.7850      7.8509      8.7242     89.8134
  1427.5000     91.8252      7.7398      8.1041     10.1531     89.2747
  1427.7500     91.8049      7.7162      8.4187     11.5926     90.5654
  1428.0000     91.7254      7.7185      8.7761     12.8936     92.7093
  1428.2500     91.6400      7.7494      9.1612     14.0929     93.0154
  1428.5000     91.5814      7.8075      9.5580     15.3480     91.3595
  1428.7500     91.5543      7.8854      9.9432     16.7662     89.7481
  1429.0000     91.5452      7.9694     10.2808     18.2313     88.7886
  1429.2500     91.5399      8.0416     10.5234     19.3694     89.9029
  1429.5000     91.5396      8.0836     10.6241     19.7380     94.0809
  1429.7500     91.5659      8.0806     10.5547     19.1263     97.9278
  1430.0000     91.6486      8.0242     10.3193     17.6856    104.1346
  1430.2500     91.8010      7.9115      9.9541     15.7637    108.0981
  1430.5000     92.0049      7.7439      9.5123     13.6710    113.6016
  1430.7500     92.2203      7.5264      9.0456     11.6416    117.1886
  1431.0000     92.4126      7.2685      8.5901      9.9207    122.8971
  1431.2500     92.5697      6.9841      8.1618      8.7324    126.9884
  1431.5000     92.7016      6.6895      7.7608      8.1232    133.1384
  1431.7500     92.8293      6.4001      7.3803      7.8935    136.6774
  1432.0000     92.9739      6.1284      7.0151      7.7250    139.9002
  1432.2500     93.1465      5.8822      6.6673      7.3891    140.2603
  1432.5000     93.3430      5.6666      6.3454      6.8591    138.7654
  1432.7500     93.5487      5.4837      6.0603      6.2630    137.3363
  1433.0000     93.7489      5.3342      5.8199      5.7580    135.7972
  1433.2500     93.9392      5.2165      5.6275      5.4373    135.3193
  1433.5000     94.1294      5.1272      5.4812      5.3098    134.9305
  1433.7500     94.3366      5.0614      5.3760      5.3221    134.4949
  1434.0000     94.5751      5.0135      5.3062      5.3908    133.2348
  1434.2500     94.8524      4.9781      5.2665      5.4410    132.1422
  1434.5000     95.1681      4.9511      5.2539      5.4422    130.7752
  1434.7500     95.5111      4.9298      5.2661      5.4212    130.2956
  1435.0000     95.8542      4.9121      5.3006      5.4477    130.0556
  1435.2500     96.1567      4.8960      5.3520      5.6027    129.9158
  1435.5000     96.3739      4.8799      5.4113      5.9423    129.3600
  1435.7500     96.4655      4.8635      5.4663      6.4653    128.7299
  1436.0000     96.4001      4.8482      5.5031      7.0876    127.7685
  1436.2500     96.1657      4.8367      5.5107      7.6383    127.5828
  1436.5000     95.7900      4.8326      5.4852      7.9082    128.7894
  1436.7500     95.3486      4.8384      5.4328      7.7646    130.6845
  1437.0000     94.9332      4.8561      5.3687      7.2586    134.5454
  1437.2500     94.6009      4.8866      5.3109      6.6086    137.2698
  1437.5000     94.3597      4.9311      5.2733      6.0527    140.8075
  1437.7500     94.2035      4.9903      5.2627      5.7077    142.4537
  1438.0000     94.1464      5.0642      5.2803      5.5477    143.5856
  1438.2500     94.2115      5.1512      5.3258      5.4786    143.5990
  1438.5000     94.3951      5.2479      5.4015      5.4280    143.0882
  1438.7500     94.6546      5.3498      5.5128      5.4048    142.6218
  1439.0000     94.9343      5.4530      5.6673      5.5077    141.5748
  1439.2500     95.1916      5.5555      5.8708      5.8698    140.2727
  1439.5000     95.3994      5.6576      6.1238      6.5695    136.8605
  1439.7500     95.5377      5.7611      6.4195      7.5689    133.7981
  1440.0000     95.5944      5.8688      6.7423      8.7152    129.6144
  1440.2500     95.5702      5.9834      7.0697      9.7998    128.3544
  1440.5000     95.4766      6.1075      7.3771     10.6420    129.9499
  1440.7500     95.3348      6.2429      7.6434     11.1510    132.9297
  1441.0000     95.1788      6.3894      7.8566     11.3347    138.1173
  1441.2500     95.0521      6.5447      8.0144     11.2673    140.6928
  1441.5000     94.9900      6.7048      8.1228     11.0504    142.0060
  1441.7500     94.9971      6.8646      8.1921     10.7779    141.4010
  1442.0000     95.0385      7.0186      8.2337     10.5012    139.8389
  1442.2500     95.0585      7.1599      8.2598     10.2169    139.3161
  1442.5000     95.0166      7.2806      8.2831      9.8982    139.8073
  1442.7500     94.9140      7.3734      8.3181      9.5428    140.5260
  1443.0000     94.7891      7.4347      8.3799      9.1939    141.1384
  1443.2500     94.6892      7.4660      8.4811      8.9399    141.0712
  1443.5000     94.6450      7.4716      8.6275      8.9216    140.7200
  1443.7500     94.6672      7.4550      8.8134      9.3319    140.5475
  1444.0000     94.7618      7.4170      9.0187     10.3551    140.2770
  1444.2500     94.9394      7.3579      9.2091     12.0292    140.0000
  1444.5000     95.2053      7.2794      9.3417     14.0904    139.6573
  1444.7500     95.5431      7.1878      9.3779     15.9440    139.6789
  1445.0000     95.9142      7.0923      9.2976     16.8886    140.0188
  1445.2500     96.2751      7.0016      9.1081     16.5145    140.0990
  1445.5000     96.5943      6.9199      8.8391     14.9629    139.2678
  1445.7500     96.8557      6.8452      8.5304     12.8183    137.9175
  1446.0000     97.0519      6.7706      8.2181     10.7458    135.0904
  1446.2500     97.1811      6.6881      7.9257      9.1796    133.0854
  1446.5000     97.2524      6.5908      7.6624      8.2287    130.4455
  1446.7500     97.2924      6.4752      7.4254      7.7627    129.1077
  1447.0000     97.3388      6.3423      7.2064      7.5653    128.0639
  1447.2500     97.4230      6.1984      6.9976      7.4585    128.2209
  1447.5000     97.5493      6.0540      6.7965      7.3478    129.6579
  1447.7500     97.6872      5.9211      6.6070      7.2054    130.9271
  1448.0000     97.7860      5.8090      6.4369      7.0475    132.0754
  1448.2500     97.8047      5.7224      6.2950      6.9237    131.8083
  1448.5000     97.7338      5.6610      6.1876      6.8876    129.7637
  1448.7500     97.5986      5.6216      6.1171      6.9402    127.6872
  1449.0000     97.4494      5.5997      6.0822      7.0104    124.4863
  1449.2500     97.3453      5.5912      6.0786      7.0174    122.8251
  1449.5000     97.3324      5.5935      6.1008      6.9441    121.7321
  1449.7500     97.4249      5.6047      6.1431      6.8357    122.1633
  1450.0000     97.6027      5.6236      6.2008      6.7514    124.1868
  1450.2500     97.8231      5.6479      6.2696      6.7352    125.5768
  1450.5000     98.0360      5.6743      6.3456      6.8099    125.7021
  1450.7500     98.1981      5.6985      6.4252      6.9706    123.8908
  1451.0000     98.2887      5.7163      6.5052      7.1830    119.3616
  1451.2500     98.3171      5.7254      6.5818      7.3986    116.4689
  1451.5000     98.3147      5.7264      6.6499      7.5808    114.1507
  1451.7500     98.3163      5.7213      6.7023      7.7125    114.3375
  1452.0000     98.3435      5.7121      6.7296      7.7770    117.0141
