~Version Information
 VERS.                                  2.0 : CWLS LAS VERSION
 WRAP.                                   NO : WRAPING MODE
 SWARE .                 MController 2.5.0N : SOFTWARE VERSION
~Well Information
 WELL.                      EASTON 12-30 TR : WELL
 COMP.    PIONEER NATURAL RESOURCES USA INC : COMPANY
 FLD.                      PURGATOIRE RIVER : FIELD
 LOC.                SW/NW SEC 30 T32S R66W : LOCATION
 DATE.                             06/01/05 : DATE(S) LOGGED
 SRVC.       BLANCO GEOLOGICAL SERVICES LLC : SERVICE COMPANY
 STAT.                             COLORADO : STATE
 CNTY.                           LAS ANIMAS : COUNTY
 CTRY.                                  USA : COUNTRY
 API.                       05-071-08379-00 : API NUMBER
 STRT.FT                             307.00 : START DEPTH
 STOP.FT                            2000.00 : STOP DEPTH
 STEP.FT                               1.00 : DEPTH INCREMENT
 NULL.                                -9999 : NULL VALUE
~Curve information
 DEPTH.FT                                   :
 ROP.MIN/FT                                 :
 GAS.UNITS                                  :
~ASCII Log data
# ...
      1307.0         0.23         24.4 
      1308.0         0.17         23.4 
      1309.0         0.23         22.9 
      1310.0         0.18         22.3 
      1311.0         0.20         22.4 
      1312.0         0.17         22.5 
      1313.0         0.13         22.3 
      1314.0         0.17         23.2 
      1315.0         0.17         22.9 
      1316.0         5.18         25.8 
      1317.0         0.17         20.8 
      1318.0         0.13         20.1 
      1319.0         0.25         19.0 
      1320.0         0.30         16.2 
      1321.0         0.30         14.3 
      1322.0         0.23         13.0 
      1323.0         0.20         11.3 
      1324.0         0.27         10.9 
      1325.0         0.30          9.5 
      1326.0         0.27          8.6 
      1327.0         0.27          7.8 
      1328.0         0.27          6.8 
      1329.0         0.30          6.1 
      1330.0         0.23          6.3 
      1331.0         0.27          5.5 
      1332.0         0.28          5.6 
      1333.0         0.17          5.4 
      1334.0         0.23          4.7 
      1335.0         0.23          4.7 
      1336.0         0.23          5.0 
      1337.0         0.17          5.3 
      1338.0         0.17          5.3 
      1339.0         0.13          5.1 
      1340.0         0.17          5.0 
      1341.0         0.23          4.7 
      1342.0         0.27          4.9 
      1343.0         0.30          4.7 
      1344.0         0.37          4.7 
      1345.0         0.17          4.7 
      1346.0         3.77          5.8 
      1347.0         0.23          5.4 
      1348.0         0.30          5.6 
      1349.0         0.27          5.2 
      1350.0         0.27          5.3 
      1351.0         0.27          6.0 
      1352.0         0.27          5.6 
      1353.0         0.23          5.9 
      1354.0         0.27          5.4 
      1355.0         0.20          5.4 
      1356.0         0.27          5.0 
      1357.0         0.23          5.6 
      1358.0         0.23          5.7 
      1359.0         0.35          5.6 
      1360.0         0.20          5.4 
      1361.0         0.27          5.8 
      1362.0         0.27          5.5 
      1363.0         0.30          5.6 
      1364.0         0.37          5.6 
      1365.0         0.30          5.4 
      1366.0         0.17          6.0 
      1367.0         0.20          5.6 
      1368.0         0.20          5.5 
      1369.0         0.17          5.8 
      1370.0         0.20          6.0 
      1371.0         0.23          5.8 
      1372.0         0.17          5.8 
      1373.0         0.13          6.1 
      1374.0         0.15          6.2 
      1375.0         0.17          5.5 
      1376.0         3.52          6.6 
      1377.0         0.30          6.4 
      1378.0         0.13          6.7 
      1379.0         0.17          6.0 
      1380.0         0.23          6.7 
      1381.0         0.33          6.1 
      1382.0         0.37          6.7 
      1383.0         0.30          6.8 
      1384.0         0.33          6.2 
      1385.0         0.30          6.2 
      1386.0         0.33          6.2 
      1387.0         0.28          6.9 
      1388.0         0.27          6.8 
      1389.0         0.23          7.1 
      1390.0         0.23          6.6 
      1391.0         0.27          6.3 
      1392.0         0.23          6.9 
      1393.0         0.20          6.6 
      1394.0         0.23          6.6 
      1395.0         0.17          6.2 
      1396.0         0.17          6.9 
      1397.0         0.17          6.1 
      1398.0         0.20          6.4 
      1399.0         0.30          6.4 
      1400.0         0.47          7.0 
      1401.0         0.42          7.4 
      1402.0         0.20          6.6 
      1403.0         0.23          6.9 
      1404.0         0.20          7.2 
      1405.0         0.33          7.3 
      1406.0         3.38          7.6 
      1407.0         0.33          7.3 
      1408.0         0.33          6.8 
      1409.0         0.23          6.9 
      1410.0         0.27          7.1 
      1411.0         0.23          6.9 
      1412.0         0.23          6.7 
      1413.0         0.17          6.8 
      1414.0         0.18          6.5 
      1415.0         0.17          6.7 
      1416.0         0.17          6.6 
      1417.0         0.20          6.9 
      1418.0         0.23          7.3 
      1419.0         0.20          6.9 
      1420.0         0.17          7.2 
      1421.0         0.20          7.1 
      1422.0         0.30          6.9 
      1423.0         0.20          7.1 
      1424.0         0.23          7.9 
      1425.0         0.20          7.4 
      1426.0         0.23          7.4 
      1427.0         0.20          7.4 
      1428.0         0.27          7.6 
      1429.0         0.17          7.3 
      1430.0         0.25          7.4 
      1431.0         0.27          7.6 
      1432.0         0.20          7.5 
      1433.0         0.20          7.4 
      1434.0         0.23          7.5 
      1435.0         0.33          7.1 
      1436.0         3.55        187.4 
      1437.0         0.23        124.1 
      1438.0         0.40        117.5 
      1439.0         0.30         97.4 
      1440.0         0.30        105.3 
      1441.0         0.37        108.4 
      1442.0         0.32        108.4 
      1443.0         0.37        106.2 
      1444.0         0.13         98.7 
      1445.0         0.13         96.6 
      1446.0         0.20         93.3 
      1447.0         0.20         90.3 
      1448.0         0.17         87.8 
      1449.0         0.17         84.9 
      1450.0         0.17         82.2 
      1451.0         0.43         80.6 
      1452.0         0.40         96.3 
      1453.0         0.23         97.4 
      1454.0         0.10         97.4 
      1455.0         0.10         96.0 
      1456.0         0.20         94.2 
      1457.0         0.22         89.3 
      1458.0         0.17         81.7 
      1459.0         0.17         76.1 
      1460.0         0.17         66.0 
      1461.0         0.23         56.2 
      1462.0         0.20         47.9 
      1463.0         0.23         49.4 
      1464.0         0.17         59.0 
      1465.0         0.27         84.1 
      1466.0         3.65        213.2 
      1467.0         0.33        162.0 
      1468.0         0.30        147.8 
      1469.0         0.33        131.6 
      1470.0         0.30        117.2 
      1471.0         0.35        107.7 
      1472.0         0.30        100.2 
      1473.0         0.23         93.7 
      1474.0         0.27         88.3 
      1475.0         0.23         83.3 
      1476.0         0.23         78.4 
      1477.0         0.37         75.5 
      1478.0         0.27         73.9 
      1479.0         0.20         73.0 
      1480.0         0.17         72.3 
      1481.0         0.17         71.7 
      1482.0         0.20         70.3 
      1483.0         0.23         69.6 
      1484.0         0.22         76.1 
      1485.0         0.23         82.2 
      1486.0         0.23         83.0 
      1487.0         0.27         81.9 
      1488.0         0.23         73.5 
      1489.0         0.20         62.3 
      1490.0         0.23         51.7 
      1491.0         0.23         39.4 
      1492.0         0.23         29.6 
      1493.0         0.27         28.1 
      1494.0         0.23         36.3 
      1495.0         0.33         65.6 
      1496.0         3.58        258.6 
      1497.0         0.38        145.5 
      1498.0         0.37        141.6 
      1499.0         0.33        131.3 
      1500.0         0.33        118.4 
      1501.0         0.27        109.3 
      1502.0         0.23        103.4 
      1503.0         0.37         98.1 
      1504.0         0.23         89.2 
      1505.0         0.23         86.1 
      1506.0         0.23         83.8 
