~Version Information
VERS.                      2.0: CWLS Log ASCII Standard - VERSION 2.0
WRAP.                       NO: One line per depth step
~Well Information Block
STRT.FT               425.0000: 
STOP.FT              2461.0000: 
STEP.FT                 0.2500: 
NULL.                -999.2500: 
COMP.          Evergreen Operating Corporation: COMPANY
WELL.              Nomad 32-10: WELL
FLD.           Purgatorie River: FIELD
LOC.           2281' FNL & 1585' FEL: LOCATION
PROV.                 Colorado: PROVINCE
CNTY.               Las Animas: COUNTRY
SRVC.                Patterson: SERVICE COMPANY
DATE.          Thu Aug 12 02:01:07 2004: LOG DATE
UWI.           05 071 08127 00: UNIQUE WELL ID
~Curve Information Block
DEPT.FT            0 000 00 00: Depth
SN.Ohm-m                      : IEL Short Normal
SP.mV                         : IEL Spontaneous Potential
DIR.Ohm-m                     : IEL Induction Resistivity
GR.GAPI                       : Gamma Ray
~Parameter Information Block
~A  Depth        SN          SP         DIR          GR     
   425.0000   2000.0000   2000.0000      6.3211    100.2597
   425.2500   2000.0000   2000.0000      6.2835    100.2502
   425.5000   2000.0000   2000.0000      6.2458    102.3494
   425.7500   2000.0000   2000.0000      6.2125    103.9107
   426.0000   2000.0000   2000.0000      6.1918    105.1409
   426.2500   2000.0000   2000.0000      6.1935    105.6491
   426.5000   2000.0000   2000.0000      6.2238    107.5787
   426.7500   2000.0000   2000.0000      6.2784    109.9224
   427.0000   2000.0000   2000.0000      6.3416    114.0035
   427.2500   2000.0000   2000.0000      6.3926    116.4590
   427.5000   2000.0000   2000.0000      6.4171    119.5103
   427.7500   2000.0000   2000.0000      6.4142    121.1478
   428.0000   2000.0000   2000.0000      6.3965    122.5830
   428.2500   2000.0000   2000.0000      6.3862    122.5243
   428.5000   2000.0000   2000.0000      6.4125    120.7557
   428.7500   2000.0000   2000.0000      6.5065    118.5615
   429.0000   2000.0000   2000.0000      6.6894    114.1249
   429.2500   2000.0000   2000.0000      6.9516    110.8811
   429.5000   2000.0000   2000.0000      7.2330    106.8460
   429.7500   2000.0000   2000.0000      7.4281    105.3532
   430.0000   2000.0000   2000.0000      7.4440    105.2851
   430.2500   2000.0000   2000.0000      7.2764    106.5355
   430.5000   2000.0000   2000.0000      7.0124    109.8885
   430.7500   2000.0000   2000.0000      6.7610    112.8506
   431.0000   2000.0000   2000.0000      6.6010    117.9860
   431.2500   2000.0000   2000.0000      6.5857    121.8152
   431.5000   2000.0000   2000.0000      6.7797    128.9355
   431.7500   2000.0000   2000.0000      7.2973    135.6058
   432.0000   2000.0000   2000.0000      8.3218    112.5194
   432.2500   2000.0000   2000.0000     10.0484    121.7194
   432.5000   2000.0000   2000.0000     12.2919    135.8909
   432.7500   2000.0000   2000.0000     13.6209    143.4088
   433.0000   2000.0000   2000.0000     12.4008    149.4992
   433.2500   2000.0000   2000.0000      9.8557    150.5129
   433.5000   2000.0000   2000.0000      7.8559    150.4079
   433.7500   2000.0000   2000.0000      6.8284    151.0197
   434.0000   2000.0000   2000.0000      6.6430    154.2556
   434.2500   2000.0000   2000.0000      7.2204    157.5450
   434.5000   2000.0000   2000.0000      8.6157    162.3105
   434.7500   2000.0000   2000.0000     10.7513    164.3367
   435.0000   2000.0000   2000.0000     12.3784    165.1470
   435.2500   2000.0000   2000.0000     11.0526    164.7574
   435.5000   2000.0000   2000.0000      7.7323    164.2534
   435.7500   2000.0000   2000.0000      5.1308    164.5786
   436.0000   2000.0000   2000.0000      3.7021    166.5381
   436.2500   2000.0000   2000.0000      3.0578    168.8860
   436.5000   2000.0000   2000.0000      2.9271    173.3923
   436.7500   2000.0000   2000.0000      3.2371    176.1155
   437.0000   2000.0000   2000.0000      4.0987    177.7068
   437.2500   2000.0000   2000.0000      5.9035    176.3611
   437.5000   2000.0000   2000.0000      9.8358    171.2423
   437.7500   2000.0000   2000.0000     21.2458    166.9336
   438.0000   2000.0000   2000.0000    178.4541    161.2122
   438.2500   2000.0000   2000.0000 100000.0000    158.3853
   438.5000   2000.0000   2000.0000 100000.0000    155.0623
   438.7500   2000.0000   2000.0000 100000.0000    152.9818
   439.0000   2000.0000   2000.0000 100000.0000    150.2836
   439.2500   2000.0000   2000.0000 100000.0000    149.5506
   439.5000   2000.0000   2000.0000     56.7150    151.3782
   439.7500   2000.0000   2000.0000     25.4069    154.5466
   440.0000   2000.0000   2000.0000     18.6905    160.4011
   440.2500   2000.0000   2000.0000     16.5330    163.5181
   440.5000   2000.0000   2000.0000     15.8871    165.5038
   440.7500   2000.0000   2000.0000     15.7579    165.2014
   441.0000   2000.0000   2000.0000     15.7395    163.4362
   441.2500   2000.0000   2000.0000     15.7145    161.8173
   441.5000   2000.0000   2000.0000     15.7235    158.7266
   441.7500   2000.0000   2000.0000     15.8781    156.1027
   442.0000   2000.0000   2000.0000     16.2836    151.6458
   442.2500   2000.0000   2000.0000     16.9686    148.9667
   442.5000   2000.0000   2000.0000     17.8014    146.6404
   442.7500   2000.0000   2000.0000     18.4606    146.4157
   443.0000   2000.0000   2000.0000     18.5871    146.9800
   443.2500   2000.0000   2000.0000     18.0754    146.9298
   443.5000   2000.0000   2000.0000     17.1548    145.2149
   443.7500   2000.0000   2000.0000     16.1495    143.2371
   444.0000   2000.0000   2000.0000     15.2580    140.1965
   444.2500   2000.0000   2000.0000     14.5331    138.4894
   444.5000   2000.0000   2000.0000     13.9623    136.0881
   444.7500   2000.0000   2000.0000     13.5348    134.3787
   445.0000   2000.0000   2000.0000     13.2605    132.0886
   445.2500   2000.0000   2000.0000     13.1541    131.2913
   445.5000   2000.0000   2000.0000     13.2104    131.7502
   445.7500   2000.0000   2000.0000     13.3917    133.0439
   446.0000   2000.0000   2000.0000     13.6350    135.6447
   446.2500   2000.0000   2000.0000     13.8728    137.2113
   446.5000   2000.0000   2000.0000     14.0540    138.6051
   446.7500   2000.0000   2000.0000     14.1534    138.8793
   447.0000   2000.0000   2000.0000     14.1749    138.8277
   447.2500   2000.0000   2000.0000     14.1477    138.8189
   447.5000   2000.0000   2000.0000     14.1179    138.9878
   447.7500   2000.0000   2000.0000     14.1306    139.0247
   448.0000   2000.0000   2000.0000     14.2148    138.5454
   448.2500   2000.0000   2000.0000     14.3774    137.8328
   448.5000   2000.0000   2000.0000     14.6129    136.4056
   448.7500   2000.0000   2000.0000     14.9144    135.1931
   449.0000   2000.0000   2000.0000     15.2769    132.5167
   449.2500   2000.0000   2000.0000     15.6877    130.0673
   449.5000   2000.0000   2000.0000     16.1184    126.0498
   449.7500   2000.0000   2000.0000     16.5328    123.5725
   450.0000   2000.0000   2000.0000     16.9100    120.1101
   450.2500   2000.0000   2000.0000     17.2592    117.6746
   450.5000   2000.0000   2000.0000     17.6121    113.5574
   450.7500   2000.0000   2000.0000     17.9971    110.5038
   451.0000   2000.0000   2000.0000     18.4183    105.5994
   451.2500   2000.0000   2000.0000     18.8487    102.4117
   451.5000   2000.0000   2000.0000     19.2415     98.6128
   451.7500   2000.0000   2000.0000     19.5535     97.0689
   452.0000   2000.0000   2000.0000     19.7674     95.8375
   452.2500   2000.0000   2000.0000     19.8987     95.0391
   452.5000   2000.0000   2000.0000     19.9807     92.9781
   452.7500   2000.0000   2000.0000     20.0403     91.3122
   453.0000   2000.0000   2000.0000     20.0797     90.2930
   453.2500   2000.0000   2000.0000     20.0759     91.8039
   453.5000   2000.0000   2000.0000     19.9937     97.9613
   453.7500   2000.0000   2000.0000     19.8080    103.9117
   454.0000   2000.0000   2000.0000     19.5185    113.2844
   454.2500   2000.0000   2000.0000     19.1509    118.5486
   454.5000   2000.0000   2000.0000     18.7437    123.7730
   454.7500   2000.0000   2000.0000     18.3327    125.4706
   455.0000   2000.0000   2000.0000     17.9421    125.9862
   455.2500   2000.0000   2000.0000     17.5851    125.2791
   455.5000   2000.0000   2000.0000     17.2713    122.7323
   455.7500   2000.0000   2000.0000     17.0107    120.0912
   456.0000   2000.0000   2000.0000     16.8129    115.2734
   456.2500   2000.0000   2000.0000     16.6807    112.0466
   456.5000   2000.0000   2000.0000     16.6059    108.0514
   456.7500   2000.0000   2000.0000     16.5743    106.1597
   457.0000   2000.0000   2000.0000     16.5792    104.2111
   457.2500   2000.0000   2000.0000     16.6330    103.2125
   457.5000   2000.0000   2000.0000     16.7652    101.9474
   457.7500   2000.0000   2000.0000     17.0055    101.2408
   458.0000   2000.0000   2000.0000     17.3652    100.0246
   458.2500   2000.0000   2000.0000     17.8285     98.7196
