~Version Information
VERS.                      2.0: CWLS Log ASCII Standard - VERSION 2.0
WRAP.                       NO: One line per depth step
~Well Information Block
STRT.FT               890.0000: 
STOP.FT              1588.2000: 
STEP.FT                 0.1000: 
NULL.                -999.2500: 
COMP.          Evergreen Operating Corporation: COMPANY
WELL.            Tomahawk 44-9: WELL
FLD.           Purgatorie River: FIELD
LOC.           434' FSL & 491' FEL: LOCATION
PROV.                 Colorado: PROVINCE
CNTY.               Las Animas: COUNTRY
SRVC.                         : SERVICE COMPANY
DATE.          Mon Sep 13 10:07:57 2004: LOG DATE
UWI.           05 071 08133 00: UNIQUE WELL ID
~Curve Information Block
DEPT.FT            0 000 00 00: Depth
LTEN.lb                       : Surface Line Tension
DCAL.in                       : CDL Caliper
RHOB.g/cc                     : CDL Bulk Density
RHOC.g/cc                     : CDL Density Correction
DPOR.pu                       : CDL Density Porosity
GR.GAPI                       : Gamma Ray
NPOR.pu                       : Neutron Porosity
~Parameter Information Block
~A  Depth       LTEN        DCAL        RHOB        RHOC        DPOR         GR         NPOR    
# ...
  1167.2000   1045.5205      8.0978      2.5227      0.0932      7.7139    131.9990     24.0283
  1167.3000   1011.3839      8.0967      2.5346      0.1339      6.9929    132.3265     23.9942
  1167.4000   1011.3839      8.0967      2.5318      0.0781      7.1618    134.9391     23.6345
  1167.5000    965.8582      8.1037      2.5266      0.0604      7.4790    132.9551     23.1050
  1167.6000    965.8582      8.1037      2.5398      0.0700      6.6802    131.3353     22.6207
  1167.7000    965.8582      8.1037      2.5610      0.1483      5.3938    132.1405     22.6843
  1167.8000   1060.7542      8.1297      2.5616      0.0948      5.3582    130.2342     23.3992
  1167.9000   1060.7542      8.1297      2.5431      0.0891      6.4758    125.9356     24.0173
  1168.0000   1017.7863      8.1614      2.5265      0.0584      7.4849    124.8279     24.0452
  1168.1000   1017.7863      8.1614      2.5130      0.0768      8.3008    127.0176     23.8266
  1168.2000   1017.7863      8.1614      2.4909      0.0931      9.6417    128.6194     23.6710
  1168.3000   1023.1782      8.1633      2.4653      0.0384     11.1912    130.9180     23.4381
  1168.4000   1023.1782      8.1633      2.4533      0.0448     11.9228    134.9544     23.0842
  1168.5000   1033.6261      8.1665      2.4640      0.0282     11.2713    139.3858     23.3436
  1168.6000   1033.6261      8.1665      2.4965      0.0868      9.3030    142.5124     24.4044
  1168.7000   1033.6261      8.1665      2.5338      0.1184      7.0407    142.1636     25.4941
  1168.8000   1028.0110      8.1660      2.5574      0.0813      5.6128    140.1023     26.0308
  1168.9000   1028.0110      8.1660      2.5628      0.1453      5.2826    136.7383     26.2137
  1169.0000   1050.6853      8.1641      2.5560      0.1264      5.6987    130.8479     26.1474
  1169.1000   1050.6853      8.1641      2.5499      0.1031      6.0667    126.0460     25.6490
  1169.2000   1050.6853      8.1641      2.5485      0.1212      6.1491    128.2297     24.9341
  1169.3000   1027.5566      8.1620      2.5418      0.1192      6.5556    134.9034     24.4709
  1169.4000   1027.5566      8.1620      2.5279      0.0704      7.3970    135.9054     24.2706
  1169.5000   1070.4659      8.1484      2.5197      0.0576      7.8999    130.5056     24.0607
  1169.6000   1070.4659      8.1484      2.5234      0.0355      7.6734    128.1406     24.1493
  1169.7000   1070.4659      8.1484      2.5352      0.0860      6.9565    132.9971     24.6020
  1169.8000   1077.8450      8.1462      2.5476      0.0844      6.2064    139.5592     24.7159
  1169.9000   1077.8450      8.1462      2.5529      0.0803      5.8843    139.8194     24.3145
  1170.0000   1006.4771      8.1407      2.5483      0.0911      6.1610    133.4741     23.7443
  1170.1000   1006.4771      8.1407      2.5403      0.0559      6.6465    126.5564     22.7171
  1170.2000   1006.4771      8.1407      2.5406      0.0603      6.6311    118.6964     20.7709
  1170.3000   1048.4270      8.1387      2.5468      0.0792      6.2538    106.9835     18.5675
  1170.4000   1048.4270      8.1387      2.5477      0.0955      6.1973     99.8567     17.1038
  1170.5000   1046.4570      8.1372      2.5456      0.0840      6.3291    106.9129     16.5782
  1170.6000   1046.4570      8.1372      2.5463      0.0808      6.2832    119.1263     16.7566
  1170.7000   1046.4570      8.1372      2.5473      0.0821      6.2223    123.8471     17.1521
  1170.8000    975.4210      8.1352      2.5524      0.0020      5.9141    123.3956     17.0700
  1170.9000    975.4210      8.1352      2.5696      0.0546      4.8735    123.3203     16.5373
  1171.0000   1001.7922      8.1365      2.5913      0.0180      3.5568    123.9149     16.2859
  1171.1000   1001.7922      8.1365      2.6023      0.0763      2.8902    123.5805     16.6825
  1171.2000   1001.7922      8.1365      2.5974      0.0675      3.1852    122.6713     17.3514
  1171.3000   1028.1970      8.1359      2.5870      0.0676      3.8174    124.4397     18.0112
  1171.4000   1028.1970      8.1359      2.5808      0.1067      4.1913    130.1537     18.6938
  1171.5000    953.3195      8.1371      2.5798      0.0804      4.2539    135.4734     19.0396
  1171.6000    953.3195      8.1371      2.5799      0.0770      4.2482    134.8783     18.7726
  1171.7000    953.3195      8.1371      2.5774      0.0675      4.4030    132.4828     18.0318
  1171.8000    994.3914      8.1343      2.5745      0.0251      4.5774    135.8898     17.1027
  1171.9000    994.3914      8.1343      2.5712      0.0546      4.7751    142.5943     16.5035
  1172.0000   1011.2023      8.1345      2.5636      0.0583      5.2343    142.7602     16.4321
  1172.1000   1011.2023      8.1345      2.5595      0.0283      5.4873    132.5439     16.4216
  1172.2000   1011.2023      8.1345      2.5683      0.0712      4.9544    122.0551     16.3453
  1172.3000   1022.4920      8.1312      2.5843      0.0956      3.9824    119.8860     16.5796
  1172.4000   1022.4920      8.1312      2.5965      0.0596      3.2450    119.0608     16.8454
  1172.5000   1059.5710      8.1321      2.6050      0.0455      2.7297    114.9863     16.6500
  1172.6000   1059.5710      8.1321      2.6138      0.0450      2.1954    112.8724     16.1227
  1172.7000   1059.5710      8.1321      2.6183      0.0842      1.9211    115.4988     15.6715
  1172.8000   1069.5939      8.1295      2.6109      0.0855      2.3723    118.0420     15.4860
  1172.9000   1069.5939      8.1295      2.5951      0.0676      3.3278    115.0409     15.6182
  1173.0000   1084.8929      8.1302      2.5838      0.0741      4.0104    109.0699     16.3516
  1173.1000   1084.8929      8.1302      2.5830      0.0819      4.0604    106.8124     17.7447
  1173.2000   1084.8929      8.1302      2.5817      0.0979      4.1402    109.8688     18.9300
  1173.3000   1040.1288      8.1173      2.5677      0.0822      4.9861    114.7490     19.3763
  1173.4000   1040.1288      8.1173      2.5480      0.0385      6.1840    116.2387     19.8362
  1173.5000   1028.5397      8.1139      2.5370      0.0639      6.8510    115.9991     20.7554
  1173.6000   1028.5397      8.1139      2.5412      0.0525      6.5944    121.1887     21.2956
  1173.7000   1028.5397      8.1139      2.5566      0.1234      5.6605    130.6151     21.0466
  1173.8000   1077.4202      8.1211      2.5704      0.1370      4.8213    138.1275     20.8488
  1173.9000   1077.4202      8.1211      2.5778      0.1373      4.3774    142.5450     21.0480
  1174.0000   1009.0452      8.1293      2.5795      0.1380      4.2728    144.1582     21.1875
  1174.1000   1009.0452      8.1293      2.5683      0.1339      4.9509    142.0811     21.1023
  1174.2000   1009.0452      8.1293      2.5440      0.0979      6.4237    138.5000     20.8925
  1174.3000   1037.7627      8.1307      2.5277      0.0580      7.4111    136.4623     20.8417
  1174.4000   1037.7627      8.1307      2.5349      0.0760      6.9733    137.0964     21.1708
  1174.5000   1050.2456      8.1428      2.5531      0.1261      5.8709    141.7399     21.6338
  1174.6000   1050.2456      8.1428      2.5664      0.0926      5.0696    146.2267     22.0091
  1174.7000   1050.2456      8.1428      2.5801      0.0777      4.2339    146.8038     22.0807
  1174.8000   1008.5178      8.1606      2.6059      0.0821      2.6725    146.2402     21.8754
  1174.9000   1008.5178      8.1606      2.6307      0.1220      1.1711    143.9660     21.8913
  1175.0000   1085.5939      8.1617      2.6206      0.1289      1.7807    139.2742     22.4275
  1175.1000   1085.5939      8.1617      2.5740      0.0654      4.6055    134.7170     23.1424
  1175.2000   1085.5939      8.1617      2.5355      0.0224      6.9395    134.5012     23.3997
  1175.3000   1071.8092      8.1593      2.5339      0.0453      7.0339    141.4281     22.9362
  1175.4000   1071.8092      8.1593      2.5518      0.0314      5.9496    149.4968     22.2076
  1175.5000   1022.8353      8.1628      2.5691      0.0387      4.9033    152.3774     21.8815
