~Version Information
 VERS.                                  2.0 : CWLS LAS VERSION
 WRAP.                                   NO : WRAPING MODE
 SWARE .                 MController 2.5.0J : SOFTWARE VERSION
~Well Information
 WELL.                        Montoya 1-44R : WELL
 COMP.                       Petrogulf Corp : COMPANY
 FLD.                      Purgatoire River : FIELD
 LOC.                 SE/SE Sec 1 T33S R68W : LOCATION
 DATE.                             11/15/04 : DATE(S) LOGGED
 SRVC.       Blanco Geological Services LLC : SERVICE COMPANY
 STAT.                                   CO : STATE
 CNTY.                           Las Animas : COUNTY
 CTRY.                                  USA : COUNTRY
 API.                       05-071-08239-00 : API NUMBER
 STRT.FT                             615.00 : START DEPTH
 STOP.FT                            2140.00 : STOP DEPTH
 STEP.FT                               1.00 : DEPTH INCREMENT
 NULL.                                -9999 : NULL VALUE
~Curve information
 DEPTH.FT                                   :
 ROP.MIN/FT                                 :
 GAS.UNITS                                  :
~ASCII Log data
# ...
       815.0         0.23         10.3 
       816.0         0.17          7.7 
       817.0         0.20          7.5 
       818.0         0.17          6.2 
       819.0         0.23          5.6 
       820.0         0.20          4.1 
       821.0         0.17          3.8 
       822.0         0.17          3.3 
       823.0         0.20          3.2 
       824.0         0.23          3.5 
       825.0         0.22          2.8 
       826.0         0.23          2.0 
       827.0         0.27          3.7 
       828.0         0.23          3.7 
       829.0         0.20          4.1 
       830.0         0.17          5.1 
       831.0         0.20         11.2 
       832.0         0.17         13.2 
       833.0         0.17         20.7 
       834.0         0.17         24.9 
       835.0         0.17         29.1 
       836.0         0.13         29.1 
       837.0         0.27         31.0 
       838.0         0.33         27.1 
       839.0         0.17         26.1 
       840.0         0.13         21.5 
       841.0         0.17         16.8 
       842.0         0.20         16.8 
       843.0         0.20         16.9 
       844.0         0.20         11.5 
       845.0         0.23          8.4 
       846.0         0.23          7.4 
       847.0         0.23          5.5 
       848.0         0.32          4.9 
       849.0         0.23          5.1 
       850.0         0.30          4.2 
       851.0         0.23          5.6 
       852.0         0.27          5.1 
       853.0         0.23          5.1 
       854.0         0.23          4.0 
       855.0         0.27          4.3 
       856.0         0.23          5.0 
       857.0         0.23          5.3 
       858.0         0.17          5.3 
       859.0         0.20          5.1 
       860.0         0.17          4.9 
       861.0         0.20          5.3 
       862.0         0.17          5.3 
       863.0         0.18          4.9 
       864.0         0.17          6.5 
       865.0         0.27          9.7 
       866.0         0.30         21.5 
       867.0         0.27         26.5 
       868.0         0.27         27.6 
       869.0         0.30         30.0 
       870.0         0.20         28.6 
       871.0         0.23         27.8 
       872.0         0.22         25.1 
       873.0         0.20         21.4 
       874.0         0.20         13.4 
       875.0         0.23         11.9 
       876.0         0.23         11.3 
       877.0         0.13          9.0 
       878.0         0.10          8.5 
       879.0         0.10          7.9 
       880.0         0.10          6.5 
       881.0         0.10          6.5 
       882.0         0.10          6.3 
       883.0         0.10          6.3 
       884.0         0.17          6.2 
       885.0         0.17          5.8 
       886.0         0.13          5.8 
       887.0         0.20          5.3 
       888.0         0.17          5.4 
       889.0         0.20          3.8 
       890.0         0.17          3.1 
       891.0         0.17          3.7 
       892.0         0.20          3.4 
       893.0         0.22          3.5 
       894.0         0.13          3.5 
       895.0         0.10          3.4 
       896.0         0.13          4.0 
       897.0         0.27          6.3 
       898.0         0.27         10.5 
       899.0         0.27         20.9 
       900.0         0.27         23.8 
       901.0         0.23         25.6 
       902.0         0.17         25.4 
       903.0         0.20         23.4 
       904.0         0.17         22.9 
       905.0         0.22         18.3 
       906.0         0.23         16.9 
       907.0         0.20         13.2 
       908.0         0.20         12.4 
       909.0         0.23          9.1 
       910.0         0.20          8.2 
       911.0         0.27          6.8 
       912.0         0.27          4.7 
       913.0         0.27          4.7 
       914.0         0.10          3.8 
       915.0         0.17          3.2 
       916.0         0.20          3.6 
       917.0         0.17          3.6 
       918.0         0.17          3.3 
       919.0         0.20          3.2 
       920.0         0.20          2.7 
       921.0         0.28          2.8 
       922.0         0.30          7.3 
       923.0         0.20         12.9 
       924.0         0.13         23.9 
       925.0         0.13         23.9 
       926.0         0.20         32.8 
       927.0         0.17         33.6 
       928.0         0.27         30.5 
       929.0         0.32         29.1 
       930.0         0.23         21.1 
       931.0         0.33         16.2 
       932.0         0.20         10.6 
       933.0         0.20          8.8 
       934.0         0.17          5.7 
       935.0         0.17          5.2 
       936.0         0.17          4.4 
       937.0         0.20          3.8 
       938.0         0.20          3.8 
       939.0         0.17          3.7 
       940.0         0.13          2.9 
       941.0         0.23          2.7 
       942.0         0.27          2.7 
       943.0         0.17          2.2 
       944.0         0.13          2.4 
       945.0         0.13          3.1 
       946.0         0.13          3.1 
       947.0         0.12          3.1 
       948.0         0.13          2.5 
       949.0         0.17          2.4 
       950.0         0.20          2.4 
       951.0         0.17          2.5 
       952.0         0.17          2.5 
       953.0         0.20          4.4 
       954.0         0.20          6.5 
       955.0         0.20          8.1 
       956.0         0.17         14.7 
       957.0         0.27         19.3 
       958.0         0.30         22.2 
       959.0         0.33         23.2 
       960.0         0.37         21.5 
       961.0         0.43         15.7 
       962.0         0.37         11.1 
       963.0         0.17          7.5 
       964.0         0.23          6.3 
       965.0         0.17          5.7 
       966.0         0.17          3.8 
       967.0         0.17          3.5 
       968.0         0.13          2.6 
       969.0         0.13          2.5 
       970.0         0.17          2.2 
       971.0         0.23          2.5 
       972.0         0.22          2.3 
       973.0         0.20          2.1 
       974.0         0.17          2.6 
       975.0         0.23          2.6 
       976.0         0.20          2.0 
       977.0         0.17          1.8 
       978.0         0.17          1.8 
       979.0         0.17          2.1 
       980.0         0.20          1.9 
       981.0         0.17          1.9 
       982.0         0.13          2.3 
       983.0         0.13          2.0 
       984.0         0.17          2.2 
       985.0         0.27          6.0 
       986.0         0.17          8.7 
       987.0         0.27         14.2 
       988.0         0.30         16.6 
       989.0         0.30         17.8 
       990.0         0.20         15.7 
       991.0         0.20         13.4 
       992.0         0.13         13.0 
       993.0         0.10          9.6 
       994.0         0.17          9.2 
       995.0         0.17          7.1 
       996.0         0.20          6.5 
       997.0         0.20          4.7 
       998.0         0.23          4.1 
       999.0         0.22          3.3 
      1000.0         0.17          3.1 
      1001.0         0.17          2.9 
      1002.0         0.20          2.7 
      1003.0         0.17          2.7 
      1004.0         0.20          2.4 
      1005.0         0.17          1.3 
      1006.0         0.17          2.5 
      1007.0         0.13          1.7 
      1008.0         0.13          1.9 
      1009.0         0.10          1.9 
      1010.0         0.17          2.5 
      1011.0         0.13          2.5 
      1012.0         0.13          3.5 
      1013.0         0.17          6.3 
      1014.0         0.17          9.3 
