~Version Information
VERS.                      2.0: CWLS Log ASCII Standard - VERSION 2.0
WRAP.                       NO: One line per depth step
~Well Information Block
STRT.FT                -8.0000: 
STOP.FT               973.2500: 
STEP.FT                 0.2500: 
NULL.                -999.2500: 
COMP.          Pioneer Natural Resources: COMPANY
WELL.              Oscar 41-31: WELL
FLD.           Purgatorie River: FIELD
LOC.           412' FNL & 1216' FEL--: LOCATION
PROV.                       CO: PROVINCE
CNTY.               Las Animas: COUNTRY
SRVC.          Patterson Wireline: SERVICE COMPANY
DATE.          Wed Mar 02 12:29:08 2005: LOG DATE
UWI.           05 071 08290 00: UNIQUE WELL ID
~Curve Information Block
DEPT.FT            0 000 00 00: Depth
CCL.                          : Casing Collar Locator
TT5.usec                      : CBL 5' Travel Time
AMP3.mV                       : CBL 3' Amplitude
GR.GAPI                       : Gamma Ray
~Parameter Information Block
~A  Depth       CCL         TT5         AMP3         GR     
# ...
   729.0000      0.0000   1200.0000      3.2667     67.4558
   729.2500      0.0000   1200.0000      3.2440     68.5787
   729.5000      0.0000   1124.7366      3.2211     68.9707
   729.7500      0.0000   1174.4691      3.1495     68.2209
   730.0000      0.0000   1123.5883      3.0173     66.5973
   730.2500      0.0000   1200.0000      2.8859     64.9391
   730.5000      0.0000   1200.0000      2.8348     63.7349
   730.7500      0.0000   1200.0000      2.8855     62.6141
   731.0000      0.0000   1200.0000      2.9980     60.9312
   731.2500      0.0000   1200.0000      3.1294     58.5095
   731.5000      0.0000   1200.0000      3.2688     55.6368
   731.7500      2.0000   1200.0000      3.4139     52.7466
   732.0000      2.0000   1200.0000      3.5383     50.3488
   732.2500      0.0000   1200.0000      3.6082     48.8793
   732.5000      0.0000   1200.0000      3.6298     48.3491
   732.7500      0.0000   1200.0000      3.6645     48.3826
   733.0000      0.0000   1200.0000      3.7767     48.7487
   733.2500      0.0000   1200.0000      3.9592     49.5741
   733.5000      0.0000   1200.0000      4.1266     50.8827
   733.7500      0.0000   1200.0000      4.1995     52.2444
   734.0000      0.0000   1200.0000      4.1749     53.2000
   734.2500      0.0000   1200.0000      4.0920     53.8129
   734.5000      0.0000   1200.0000      3.9653     54.4280
   734.7500      0.0000   1200.0000      3.7951     54.9582
   735.0000      0.0000   1200.0000      3.6237     54.7334
   735.2500      0.0000   1200.0000      3.5264     53.1583
   735.5000      0.0000   1200.0000      3.5318     50.4613
   735.7500      0.0000   1178.3823      3.5783     47.8437
   736.0000      0.0000   1173.2449      3.5688     46.9231
   736.2500      0.0000   1200.0000      3.4629     48.7739
   736.5000      0.0000   1200.0000      3.3135     53.1252
   736.7500      0.0000   1200.0000      3.2169     58.3561
   737.0000      0.0000   1200.0000      3.2285     62.4591
   737.2500      0.0000   1200.0000      3.3184     64.3056
   737.5000      0.0000   1200.0000      3.3972     64.1192
   737.7500      0.0000   1200.0000      3.3865     62.8651
   738.0000      0.0000   1200.0000      3.2775     61.3533
   738.2500      0.0000   1200.0000      3.1408     59.8245
   738.5000      0.0000   1200.0000      3.0767     58.1408
   738.7500      0.0000   1200.0000      3.1384     56.3225
   739.0000      0.0000   1200.0000      3.2844     55.0008
   739.2500      0.0000   1200.0000      3.4015     55.3203
   739.5000      0.0000   1200.0000      3.3836     58.3098
   739.7500      0.0000   1173.9248      3.2092     64.4052
   740.0000      0.0000   1173.5416      2.9577     73.5297
   740.2500      0.0000   1171.4805      2.7558     85.1198
   740.5000      0.0000   1171.0000      2.6972     97.6658
   740.7500      0.0000   1170.7778      2.7946    108.6448
   741.0000      0.0000   1200.0000      2.9888    115.5942
   741.2500      0.0000   1200.0000      3.1919    117.3219
   741.5000      0.0000   1200.0000      3.3295    114.1127
   741.7500      0.0000   1200.0000      3.3649    107.3758
   742.0000      0.0000   1200.0000      3.3048     99.3576
   742.2500      0.0000   1200.0000      3.1891     92.5798
   742.5000      0.0000   1200.0000      3.0715     88.8449
   742.7500      0.0000   1200.0000      2.9993     88.4564
   743.0000      0.0000   1200.0000      3.0019     90.2904
   743.2500      0.0000   1200.0000      3.0865     92.7385
   743.5000      0.0000   1200.0000      3.2357     94.8753
   743.7500      0.0000   1200.0000      3.4087     96.8707
   744.0000      0.0000   1200.0000      3.5493     99.4383
   744.2500      0.0000   1200.0000      3.6020    103.1876
   744.5000      0.0000   1200.0000      3.5366    108.4218
   744.7500      0.0000   1200.0000      3.3666    115.0283
   745.0000      0.0000   1200.0000      3.1479    122.4128
   745.2500      0.0000   1200.0000      2.9545    129.7956
   745.5000      0.0000   1200.0000      2.8434    136.5519
   745.7500      0.0000   1200.0000      2.8349    142.0614
   746.0000      0.0000   1200.0000      2.9141    145.4542
   746.2500      0.0000   1200.0000      3.0440    145.9286
   746.5000      0.0000   1200.0000      3.1813    143.5850
   746.7500      0.0000   1200.0000      3.2931    139.8495
   747.0000      0.0000   1200.0000      3.3676    136.6509
   747.2500      0.0000   1200.0000      3.4099    134.9534
   747.5000      0.0000   1200.0000      3.4264    134.2598
   747.7500      0.0000   1200.0000      3.4144    133.5899
   748.0000      0.0000   1200.0000      3.3655    132.6505
   748.2500      0.0000   1200.0000      3.2742    131.6663
   748.5000      0.0000   1200.0000      3.1405    130.1821
   748.7500      0.0000   1200.0000      2.9677    126.8937
   749.0000      0.0000   1200.0000      2.7656    121.2848
   749.2500      0.0000   1200.0000      2.5575    114.9281
   749.5000      0.0000   1200.0000      2.3822    110.4487
   749.7500      0.0000   1200.0000      2.2831    109.4374
   750.0000      0.0000   1200.0000      2.2894    111.7013
   750.2500      0.0000   1200.0000      2.3986    116.0204
   750.5000      0.0000   1200.0000      2.5734    121.0579
   750.7500      0.0000   1200.0000      2.7596    125.7707
   751.0000      0.0000   1200.0000      2.9128    129.4332
   751.2500      0.0000   1200.0000      3.0118    131.5501
   751.5000      0.0000   1200.0000      3.0544    131.9646
   751.7500      0.0000   1200.0000      3.0467    131.0873
   752.0000      0.0000   1200.0000      2.9970    129.7806
   752.2500      0.0000   1200.0000      2.9157    129.0490
   752.5000      0.0000   1200.0000      2.8156    129.9749
   752.7500      0.0000   1200.0000      2.7081    133.4933
   753.0000      0.0000   1200.0000      2.6026    139.6893
   753.2500      0.0000   1200.0000      2.5100    147.3121
   753.5000      0.0000   1200.0000      2.4437    154.1102
   753.7500      0.0000   1200.0000      2.4130    157.8666
   754.0000      0.0000   1200.0000      2.4171    157.5685
   754.2500      0.0000   1200.0000      2.4483    153.8899
   754.5000      0.0000   1200.0000      2.5004    148.6602
   754.7500      0.0000   1200.0000      2.5722    143.9682
   755.0000      0.0000   1200.0000      2.6652    141.3667
   755.2500      0.0000   1200.0000      2.7785    140.9987
   755.5000      0.0000   1200.0000      2.9061    141.0845
   755.7500      0.0000   1200.0000      3.0367    138.8935
   756.0000      0.0000   1200.0000      3.1578    132.9005
   756.2500      0.0000   1200.0000      3.2618    124.1583
   756.5000      0.0000   1200.0000      3.3481    115.4761
   756.7500      0.0000   1200.0000      3.4185    109.2421
   757.0000      0.0000   1200.0000      3.4763    106.0739
   757.2500      0.0000   1200.0000      3.5271    105.3706
   757.5000      0.0000   1200.0000      3.5770    106.5724
   757.7500      0.0000   1200.0000      3.6277    109.4119
   758.0000      0.0000   1200.0000      3.6758    113.3459
   758.2500      0.0000   1200.0000      3.7148    117.4992
   758.5000      0.0000   1200.0000      3.7371    121.2301
   758.7500      0.0000   1200.0000      3.7372    124.1895
   759.0000      0.0000   1200.0000      3.7157    125.7833
   759.2500      0.0000   1200.0000      3.6793    125.2577
   759.5000      0.0000   1200.0000      3.6344    122.7106
   759.7500      0.0000   1200.0000      3.5811    119.3784
   760.0000      0.0000   1200.0000      3.5138    116.2411
   760.2500      0.0000   1200.0000      3.4273    112.8267
   760.5000      0.0000   1200.0000      3.3219    108.2043
   760.7500      0.0000   1200.0000      3.2068    103.0226
   761.0000      0.0000   1200.0000      3.0955     99.7095
   761.2500      0.0000   1200.0000      2.9980    100.2072
   761.5000      0.0000   1200.0000      2.9130    103.9063
   761.7500      0.0000   1200.0000      2.8306    108.3780
   762.0000      0.0000   1200.0000      2.7391    111.8644
   762.2500      0.0000   1200.0000      2.6331    114.4140
