~Version Information
VERS.                      2.0: CWLS Log ASCII Standard - VERSION 2.0
WRAP.                       NO: One line per depth step
~Well Information Block
STRT.FT               575.0000: 
STOP.FT              2016.2500: 
STEP.FT                 0.2500: 
NULL.                -999.2500: 
COMP.          Pioneer Natural Resources: COMPANY
WELL.          Bucksnort 41-35: WELL
FLD.           Purgatoire River: FIELD
LOC.           117' FNL & 463' FEL--: LOCATION
PROV.                 Colorado: PROVINCE
CNTY.               Las Animas: COUNTRY
SRVC.                Patterson: SERVICE COMPANY
DATE.          Thu Jul 21 10:13:55 2005: LOG DATE
UWI.           05 071 08401 00: UNIQUE WELL ID
~Curve Information Block
DEPT.FT            0 000 00 00: Depth
SN.Ohm-m                      : IEL Short Normal
SP.mV                         : IEL Spontaneous Potential
DIR.Ohm-m                     : IEL Induction Resistivity
GR.GAPI                       : Gamma Ray
~Parameter Information Block
~A  Depth        SN          SP         DIR          GR     
   575.0000   2000.0000   2000.0000 100000.0000    125.4361
   575.2500   2000.0000   2000.0000 100000.0000    124.6429
   575.5000   2000.0000   2000.0000 100000.0000    121.2414
   575.7500   2000.0000   2000.0000 100000.0000    117.0411
   576.0000   2000.0000   2000.0000 100000.0000    108.2601
   576.2500   2000.0000   2000.0000 100000.0000    101.6841
   576.5000   2000.0000   2000.0000 100000.0000     92.7321
   576.7500   2000.0000   2000.0000 100000.0000     88.3900
   577.0000   2000.0000   2000.0000 100000.0000     85.5065
   577.2500   2000.0000   2000.0000 100000.0000     86.2286
   577.5000   2000.0000   2000.0000 100000.0000     90.5899
   577.7500   2000.0000   2000.0000 100000.0000     94.7687
   578.0000   2000.0000   2000.0000 100000.0000    101.2232
   578.2500   2000.0000   2000.0000 100000.0000    104.8979
   578.5000   2000.0000   2000.0000 100000.0000    108.9150
   578.7500   2000.0000   2000.0000 100000.0000    110.8615
   579.0000   2000.0000   2000.0000 100000.0000    113.9123
   579.2500   2000.0000   2000.0000 100000.0000    116.5172
   579.5000   2000.0000   2000.0000 100000.0000    120.5948
   579.7500   2000.0000   2000.0000 100000.0000    122.5924
   580.0000   2000.0000   2000.0000 100000.0000    124.3686
   580.2500   2000.0000   2000.0000 100000.0000    125.6451
   580.5000   2000.0000   2000.0000 100000.0000    128.9373
   580.7500   2000.0000   2000.0000 100000.0000     87.7951
   581.0000   2000.0000   2000.0000 100000.0000     90.0845
   581.2500   2000.0000   2000.0000 100000.0000     90.9970
   581.5000   2000.0000   2000.0000 100000.0000     91.4523
   581.7500   2000.0000   2000.0000 100000.0000     91.0648
   582.0000   2000.0000   2000.0000 100000.0000     89.2099
   582.2500   2000.0000   2000.0000 100000.0000     87.3034
   582.5000   2000.0000   2000.0000 100000.0000     84.4051
   582.7500   2000.0000   2000.0000 100000.0000     83.0539
   583.0000   2000.0000   2000.0000 100000.0000     82.4762
   583.2500   2000.0000   2000.0000 100000.0000     82.9981
   583.5000   2000.0000   2000.0000 100000.0000     84.3017
   583.7500   2000.0000   2000.0000 100000.0000     84.8855
   584.0000   2000.0000   2000.0000 100000.0000     85.1621
   584.2500   2000.0000   2000.0000 100000.0000     85.6392
   584.5000   2000.0000   2000.0000 100000.0000     88.1449
   584.7500   2000.0000   2000.0000 100000.0000     91.0076
   585.0000   2000.0000   2000.0000 100000.0000     95.6597
   585.2500   2000.0000   2000.0000 100000.0000     98.0652
   585.5000   2000.0000   2000.0000 100000.0000     99.8641
   585.7500   2000.0000   2000.0000     19.9970     99.8564
   586.0000   2000.0000   2000.0000      4.5161     98.4810
   586.2500   2000.0000   2000.0000      2.6939     97.1863
   586.5000   2000.0000   2000.0000      2.2517     96.0157
   586.7500   2000.0000   2000.0000      2.3826     96.4601
   587.0000   2000.0000   2000.0000      3.1023     99.1595
   587.2500   2000.0000   2000.0000      5.0191    101.6116
   587.5000   2000.0000   2000.0000     10.8486    104.3728
   587.7500   2000.0000   2000.0000     42.0089    104.8476
   588.0000   2000.0000   2000.0000 100000.0000    103.6301
   588.2500   2000.0000   2000.0000    135.0261    102.2007
   588.5000   2000.0000   2000.0000     24.2405    100.2858
   588.7500   2000.0000   2000.0000     11.6070     99.4600
   589.0000   2000.0000   2000.0000      7.7749     98.8141
   589.2500   2000.0000   2000.0000      6.2645     98.7009
   589.5000   2000.0000   2000.0000      5.6771     99.1743
   589.7500   2000.0000   2000.0000      5.5615     99.9692
   590.0000   2000.0000   2000.0000      5.7309    101.3392
   590.2500   2000.0000   2000.0000      6.0831    101.9176
   590.5000   2000.0000   2000.0000      6.5342    102.3158
   590.7500   2000.0000   2000.0000      6.9897    102.8265
   591.0000   2000.0000   2000.0000      7.3498    104.5973
   591.2500   2000.0000   2000.0000      7.5579    106.1390
   591.5000   2000.0000   2000.0000      7.6459    108.0633
   591.7500   2000.0000   2000.0000      7.7196    108.9909
   592.0000   2000.0000   2000.0000      7.8921    110.3553
   592.2500   2000.0000   2000.0000      8.2214    111.3687
   592.5000   2000.0000   2000.0000      8.6726    112.6479
   592.7500   2000.0000   2000.0000      9.1083    113.0904
   593.0000   2000.0000   2000.0000      9.3498    113.0313
   593.2500   2000.0000   2000.0000      9.3068    112.5024
   593.5000   2000.0000   2000.0000      9.0437    110.9868
   593.7500   2000.0000   2000.0000      8.7049    109.7316
   594.0000   2000.0000   2000.0000      8.4103    108.4681
   594.2500   2000.0000   2000.0000      8.2195    108.6982
   594.5000   2000.0000   2000.0000      8.1426    111.1112
   594.7500   2000.0000   2000.0000      8.1579    113.6582
   595.0000   2000.0000   2000.0000      8.2271    117.2759
   595.2500   2000.0000   2000.0000      8.3107    118.8405
   595.5000   2000.0000   2000.0000      8.3825    120.0598
   595.7500   2000.0000   2000.0000      8.4360    120.6963
   596.0000   2000.0000   2000.0000      8.4792    121.9814
   596.2500   2000.0000   2000.0000      8.5257    122.9691
   596.5000   2000.0000   2000.0000      8.5883    124.2853
   596.7500   2000.0000   2000.0000      8.6785    124.9960
   597.0000   2000.0000   2000.0000      8.8081    125.7794
   597.2500   2000.0000   2000.0000      8.9915    125.8028
   597.5000   2000.0000   2000.0000      9.2451    124.1325
   597.7500   2000.0000   2000.0000      9.5843    121.6816
   598.0000   2000.0000   2000.0000     10.0191    117.0326
   598.2500   2000.0000   2000.0000     10.5498    114.2676
   598.5000   2000.0000   2000.0000     11.1648    111.4947
   598.7500   2000.0000   2000.0000     11.8440    110.3519
   599.0000   2000.0000   2000.0000     12.5654    108.9203
   599.2500   2000.0000   2000.0000     13.3139    107.9857
   599.5000   2000.0000   2000.0000     14.0840    106.8855
   599.7500   2000.0000   2000.0000     14.8764    106.4741
   600.0000   2000.0000   2000.0000     15.6888    106.0890
   600.2500   2000.0000   2000.0000     16.5070    105.7421
   600.5000   2000.0000   2000.0000     17.2987    104.8091
   600.7500   2000.0000   2000.0000     18.0134    103.7330
   601.0000   2000.0000   2000.0000     18.5868    101.1172
   601.2500   2000.0000   2000.0000     18.9545     98.8677
   601.5000   2000.0000   2000.0000     19.0734     96.0138
   601.7500   2000.0000   2000.0000     18.9456     95.3974
   602.0000   2000.0000   2000.0000     18.6259     97.1250
   602.2500   2000.0000   2000.0000     18.2034     99.7349
   602.5000   2000.0000   2000.0000     17.7665    104.7394
   602.7500   2000.0000   2000.0000     17.3713    108.2438
   603.0000   2000.0000   2000.0000     17.0270    113.0014
   603.2500   2000.0000   2000.0000     16.6992    115.3411
   603.5000   2000.0000   2000.0000     16.3282    116.6784
   603.7500   2000.0000   2000.0000     15.8620    115.8507
   604.0000   2000.0000   2000.0000     15.2898    112.6408
   604.2500   2000.0000   2000.0000     14.6528    110.2242
   604.5000   2000.0000   2000.0000     14.0243    108.4196
   604.7500   2000.0000   2000.0000     13.4736    109.3592
   605.0000   2000.0000   2000.0000     13.0415    113.9302
   605.2500   2000.0000   2000.0000     12.7334    118.0162
   605.5000   2000.0000   2000.0000     12.5270    123.0465
   605.7500   2000.0000   2000.0000     12.3842    124.5360
   606.0000   2000.0000   2000.0000     12.2647    123.9548
   606.2500   2000.0000   2000.0000     12.1362    122.5424
   606.5000   2000.0000   2000.0000     11.9820    120.1132
   606.7500   2000.0000   2000.0000     11.8020    118.3755
   607.0000   2000.0000   2000.0000     11.6099    115.5359
   607.2500   2000.0000   2000.0000     11.4258    113.9099
   607.5000   2000.0000   2000.0000     11.2683    113.0310
   607.7500   2000.0000   2000.0000     11.1471    113.7708
   608.0000   2000.0000   2000.0000     11.0606    116.1811
   608.2500   2000.0000   2000.0000     10.9974    117.9048
