~Version Information
VERS.                      2.0: CWLS Log ASCII Standard - VERSION 2.0
WRAP.                       NO: One line per depth step
~Well Information Block
STRT.FT               423.0000: 
STOP.FT              2306.0000: 
STEP.FT                 0.1000: 
NULL.                -999.2500: 
COMP.          Pioneer Natural Resources: COMPANY
WELL.             Culver 14-12: WELL
FLD.           Purgatoire River: FIELD
LOC.           913' FSL & 1140' FWL: LOCATION
PROV.                 Colorado: PROVINCE
CNTY.               Las Animas: COUNTRY
SRVC.                Patterson: SERVICE COMPANY
DATE.          Tue Jun 07 09:21:05 2005: LOG DATE
UWI.           05 071 08386 00: UNIQUE WELL ID
~Curve Information Block
DEPT.FT            0 000 00 00: Depth
DCAL.in                       : CDL Caliper
RHOB.g/cc                     : CDL Bulk Density
RHOC.g/cc                     : CDL Density Correction
DPOR.pu                       : CDL Density Porosity
GR.GAPI                       : Gamma Ray
NPOR.pu                       : Neutron Porosity
~Parameter Information Block
~A  Depth       DCAL        RHOB        RHOC        DPOR         GR         NPOR    
# ...
   797.4000      8.1708      2.5829      0.0230      4.0654    126.8419     26.7280
   797.5000      8.1648      2.5614      0.0622      5.3708    121.2815     26.6834
   797.6000      8.1648      2.5389      0.0383      6.7345    120.5295     26.6696
   797.7000      8.1648      2.5212      0.0242      7.8038    128.0776     26.6935
   797.8000      8.1686      2.5294     -0.0013      7.3065    137.4043     26.9223
   797.9000      8.1686      2.5554      0.1315      5.7353    142.2475     27.2433
   798.0000      8.1694      2.5699      0.0806      4.8525    141.6172     27.4851
   798.1000      8.1694      2.5777      0.0782      4.3835    140.8231     27.7725
   798.2000      8.1694      2.5962      0.0945      3.2601    144.2460     28.0675
   798.3000      8.1624      2.6145      0.0989      2.1512    149.4386     28.0852
   798.4000      8.1624      2.6261      0.0763      1.4510    151.8253     27.8693
   798.5000      8.1540      2.6469      0.0564      0.1860    150.2968     27.6750
   798.6000      8.1540      2.6718      0.1323     -1.3230    147.6097     27.4798
   798.7000      8.1540      2.6783      0.1154     -1.7180    146.9161     27.1141
   798.8000      8.1823      2.6751      0.0688     -1.5193    145.6287     26.6529
   798.9000      8.1823      2.6906      0.0634     -2.4629    136.8295     26.4215
   799.0000      8.2154      2.7232      0.0580     -4.4359    122.0076     26.6138
   799.1000      8.2154      2.7340      0.1124     -5.0922    111.3959     26.7757
   799.2000      8.2154      2.7125      0.0021     -3.7894    110.7937     26.3670
   799.3000      8.2448      2.6920     -0.0167     -2.5453    112.3127     25.6513
   799.4000      8.2448      2.6828      0.0046     -1.9849    109.7480     25.2841
   799.5000      8.2939      2.6614      0.0721     -0.6937    106.8682     25.4973
   799.6000      8.2939      2.6244     -0.0170      1.5519    104.3974     25.7331
   799.7000      8.2939      2.5950     -0.0050      3.3324    100.8558     25.4402
   799.8000      8.3375      2.5816      0.0115      4.1471     98.3962     24.7056
   799.9000      8.3375      2.5760     -0.0173      4.4851     98.1368     23.9180
   800.0000      8.3465      2.5755      0.0260      4.5156    100.8149     23.3080
   800.1000      8.3465      2.5737      0.0751      4.6216    105.7910     22.7664
   800.2000      8.3465      2.5637      0.0392      5.2322    107.0729     22.3710
   800.3000      8.3405      2.5519      0.0476      5.9446    102.7446     22.1581
   800.4000      8.3405      2.5401      0.0710      6.6631     95.8862     21.9117
   800.5000      8.2834      2.5258      0.0460      7.5244     88.7284     21.7519
   800.6000      8.2834      2.5204      0.0073      7.8551     83.3823     22.0661
   800.7000      8.2834      2.5320      0.0409      7.1496     81.3299     22.7438
   800.8000      8.2556      2.5557      0.0194      5.7177     82.8521     23.2582
   800.9000      8.2556      2.5761      0.0577      4.4767     86.1578     23.4676
   801.0000      8.2251      2.5751      0.0720      4.5378     87.5799     23.5333
   801.1000      8.2251      2.5586      0.0262      5.5377     84.5397     23.3524
   801.2000      8.2251      2.5492      0.0681      6.1091     80.1903     22.7876
   801.3000      8.1755      2.5515      0.0586      5.9698     79.7798     22.1723
   801.4000      8.1755      2.5590      0.0700      5.5131     80.7290     21.9258
   801.5000      8.1565      2.5668      0.0404      5.0408     79.6063     21.9922
   801.6000      8.1565      2.5671      0.0754      5.0237     78.4962     21.8955
   801.7000      8.1565      2.5496      0.0590      6.0826     77.6129     21.3818
   801.8000      8.1417      2.5209      0.0132      7.8239     75.4804     21.1410
   801.9000      8.1417      2.5100     -0.0053      8.4820     74.0359     21.5792
   802.0000      8.1325      2.5316      0.0541      7.1786     76.5037     22.0200
   802.1000      8.1325      2.5612      0.0672      5.3843     82.5173     22.0938
   802.2000      8.1325      2.5700      0.0924      4.8461     87.5544     22.1608
   802.3000      8.1337      2.5605      0.0104      5.4260     87.9062     22.4569
   802.4000      8.1337      2.5584      0.0384      5.5542     83.8060     22.8855
   802.5000      8.1270      2.5751      0.0854      4.5413     81.1222     23.3689
   802.6000      8.1270      2.5949      0.1231      3.3379     83.5293     23.5797
   802.7000      8.1270      2.6045      0.0897      2.7568     85.1108     23.2909
   802.8000      8.1301      2.6016      0.1041      2.9328     80.8206     23.1234
   802.9000      8.1301      2.5815      0.0480      4.1540     74.5349     23.6506
   803.0000      8.1427      2.5536     -0.0060      5.8423     71.9795     24.4102
   803.1000      8.1427      2.5392      0.0183      6.7137     73.5228     24.5866
   803.2000      8.1427      2.5371      0.0467      6.8405     75.2743     24.3005
   803.3000      8.1671      2.5364      0.0229      6.8858     74.1984     24.1066
   803.4000      8.1671      2.5427      0.0209      6.5050     72.1935     23.9846
   803.5000      8.1835      2.5631      0.0022      5.2691     73.3662     23.6292
   803.6000      8.1835      2.5843      0.1095      3.9805     75.8192     23.0153
   803.7000      8.1835      2.5808      0.0896      4.1920     76.3796     22.4294
   803.8000      8.1679      2.5619      0.0107      5.3402     76.5298     22.1161
   803.9000      8.1679      2.5614      0.0425      5.3727     75.9509     22.0403
   804.0000      8.1170      2.5765      0.0353      4.4570     71.9295     22.0314
   804.1000      8.1170      2.5802      0.0623      4.2320     64.6758     21.8156
   804.2000      8.1170      2.5743     -0.0200      4.5865     57.2521     21.0920
   804.3000      8.0821      2.5839      0.0394      4.0081     53.1354     20.2140
   804.4000      8.0821      2.6048      0.0702      2.7368     52.8476     20.0559
   804.5000      8.0416      2.6097      0.0922      2.4426     53.0123     20.5589
   804.6000      8.0416      2.5966      0.0221      3.2378     52.9599     20.9425
   804.7000      8.0416      2.5859      0.0771      3.8877     53.2531     21.0145
   804.8000      8.1167      2.5753      0.0752      4.5287     52.7377     20.9221
   804.9000      8.1167      2.5514      0.0949      5.9757     52.8242     20.4479
   805.0000      8.1118      2.5229      0.0077      7.7017     55.3499     19.6772
   805.1000      8.1118      2.5022      0.0478      8.9547     58.8456     19.2839
   805.2000      8.1118      2.4879      0.0072      9.8258     60.3883     19.5126
   805.3000      8.0826      2.4749      0.0811     10.6151     59.1575     19.8712
   805.4000      8.0826      2.4625      0.0477     11.3655     56.8529     19.9406
   805.5000      8.0681      2.4616      0.1044     11.4176     55.1448     19.6489
   805.6000      8.0681      2.4796      0.1710     10.3286     55.2178     19.2485
   805.7000      8.0681      2.5115      0.2196      8.3935     57.1878     19.1957
   805.8000      8.0507      2.5470      0.2698      6.2422     60.3473     19.5446
   805.9000      8.0507      2.5765      0.2503      4.4522     63.7283     20.1862
   806.0000      8.0394      2.6044      0.2368      2.7634     66.5204     21.0135
   806.1000      8.0394      2.6384      0.2230      0.7002     66.9732     21.7642
   806.2000      8.0394      2.6722      0.2512     -1.3433     65.0922     22.2818
   806.3000      8.0376      2.7006      0.2357     -3.0696     63.8551     22.5934
   806.4000      8.0376      2.7272      0.2633     -4.6794     63.5051     22.6947
   806.5000      8.0563      2.7496      0.2261     -6.0342     62.9559     22.7623
   806.6000      8.0563      2.7602      0.2340     -6.6767     62.5355     23.2641
   806.7000      8.0563      2.7594      0.1414     -6.6301     61.8380     24.0642
   806.8000      8.0760      2.7497      0.1799     -6.0432     62.3139     24.5831
   806.9000      8.0760      2.7278      0.1202     -4.7135     65.3894     24.8665
