~Version Information
VERS.                      2.0: CWLS Log ASCII Standard - VERSION 2.0
WRAP.                       NO: One line per depth step
~Well Information Block
STRT.FT               745.2500: 
STOP.FT              2003.5000: 
STEP.FT                 0.2500: 
NULL.                -999.2500: 
COMP.          Petrogulf Corporation: COMPANY
WELL.            Montoya 6-14V: WELL
FLD.           Purgatorie River: FIELD
LOC.           318' FSL & 882' FWL: LOCATION
CNTY.               Las Animas: COUNTY
SRVC.                         : SERVICE COMPANY
DATE.          Fri Aug 13 04:55:06 2004: LOG DATE
UWI.           05 071 08020 00: UNIQUE WELL ID
STAT.                 Colorado: STATE
~Curve Information Block
DEPT.FT            0 000 00 00: Depth
SP.mV                         : DIL Spontaneous Potential
RILD.Ohm-m                    : DIL Deep Resistivity
RILM.Ohm-m                    : DIL Medium Resistivity
RLL3.Ohm-m                    : DIL Shallow Resistivity
GR.GAPI                       : Gamma Ray
~Parameter Information Block
~A  Depth        SP         RILD        RILM        RLL3         GR     
# ...
  1893.2500     39.7225     12.0358     12.7296     13.3459    153.2861
  1893.5000     39.7609     11.7081     12.3623     12.8675    161.8891
  1893.7500     39.8146     11.3819     12.0377     12.7189    164.2332
  1894.0000     39.8825     11.0729     11.7486     12.7400    162.3771
  1894.2500     39.9624     10.7943     11.4890     12.7552    159.2088
  1894.5000     40.0509     10.5541     11.2544     12.6574    155.6371
  1894.7500     40.1444     10.3538     11.0423     12.4356    155.5817
  1895.0000     40.2388     10.1886     10.8509     12.1506    158.7285
  1895.2500     40.3300     10.0494     10.6794     11.8870    161.6394
  1895.5000     40.4142      9.9247     10.5267     11.7105    165.0121
  1895.7500     40.4877      9.8036     10.3913     11.6475    166.1160
  1896.0000     40.5468      9.6781     10.2716     11.6851    166.2769
  1896.2500     40.5876      9.5453     10.1654     11.7842    165.5251
  1896.5000     40.6071      9.4079     10.0704     11.8955    163.1214
  1896.7500     40.6032      9.2732      9.9844     11.9739    160.9338
  1897.0000     40.5766      9.1504      9.9050     11.9887    157.9900
  1897.2500     40.5304      9.0475      9.8300     11.9286    157.0975
  1897.5000     40.4711      8.9681      9.7574     11.8012    158.1894
  1897.7500     40.4067      8.9104      9.6852     11.6269    160.3394
  1898.0000     40.3458      8.8669      9.6116     11.4304    164.1669
  1898.2500     40.2959      8.8267      9.5356     11.2313    165.9073
  1898.5000     40.2618      8.7788      9.4562     11.0405    166.0394
  1898.7500     40.2459      8.7147      9.3733     10.8602    164.7972
  1899.0000     40.2483      8.6305      9.2868     10.6897    162.7497
  1899.2500     40.2677      8.5272      9.1973     10.5321    162.0507
  1899.5000     40.3022      8.4095      9.1050     10.3974    161.9769
  1899.7500     40.3500      8.2843      9.0104     10.3012    162.2836
  1900.0000     40.4092      8.1583      8.9140     10.2577    163.2311
  1900.2500     40.4776      8.0370      8.8165     10.2718    164.0980
  1900.5000     40.5533      7.9239      8.7190     10.3328    164.6703
  1900.7500     40.6346      7.8206      8.6230     10.4142    163.8311
  1901.0000     40.7208      7.7283      8.5307     10.4803    160.9367
  1901.2500     40.8128      7.6484      8.4453     10.4983    159.0217
  1901.5000     40.9132      7.5834      8.3707     10.4484    158.1216
  1901.7500     41.0248      7.5357      8.3115     10.3282    159.1129
  1902.0000     41.1499      7.5072      8.2730     10.1490    162.1189
  1902.2500     41.2882      7.4982      8.2603      9.9319    164.4783
  1902.5000     41.4362      7.5073      8.2780      9.7082    167.4625
  1902.7500     41.5870      7.5324      8.3298      9.5257    168.2406
  1903.0000     41.7321      7.5718      8.4173      9.4498    166.2399
  1903.2500     41.8628      7.6249      8.5405      9.5522    162.6730
  1903.5000     41.9725      7.6915      8.6970      9.8812    155.1769
  1903.7500     42.0572      7.7708      8.8823     10.4321    149.8017
  1904.0000     42.1152      7.8606      9.0905     11.1367    142.6196
  1904.2500     42.1463      7.9574      9.3146     11.8845    138.8690
  1904.5000     42.1500      8.0587      9.5473     12.5644    135.0566
  1904.7500     42.1259      8.1642      9.7811     13.1018    133.7246
  1905.0000     42.0734      8.2760     10.0097     13.4721    133.3813
  1905.2500     41.9936      8.3973     10.2273     13.6897    134.0807
  1905.5000     41.8895      8.5293     10.4296     13.7853    136.2113
  1905.7500     41.7671      8.6705     10.6138     13.7871    138.2704
  1906.0000     41.6343      8.8169     10.7792     13.7136    142.3234
  1906.2500     41.4997      8.9628     10.9274     13.5775    145.5444
  1906.5000     41.3711      9.1030     11.0623     13.3927    150.2567
  1906.7500     41.2540      9.2342     11.1898     13.1785    152.4018
  1907.0000     41.1514      9.3544     11.3172     12.9605    152.7002
  1907.2500     41.0634      9.4639     11.4522     12.7698    150.8202
  1907.5000     40.9885      9.5646     11.6021     12.6437    146.2315
  1907.7500     40.9240      9.6596     11.7727     12.6235    143.3641
  1908.0000     40.8665      9.7529     11.9679     12.7501    141.5016
  1908.2500     40.8127      9.8488     12.1892     13.0559    142.3324
  1908.5000     40.7594      9.9515     12.4353     13.5577    145.4267
  1908.7500     40.7033     10.0651     12.7026     14.2518    147.2746
  1909.0000     40.6419     10.1938     12.9852     15.1099    147.7697
  1909.2500     40.5739     10.3410     13.2762     16.0754    146.2585
  1909.5000     40.4996     10.5092     13.5690     17.0604    141.8272
  1909.7500     40.4217     10.6989     13.8581     17.9511    138.3292
  1910.0000     40.3449     10.9094     14.1410     18.6284    134.6269
  1910.2500     40.2748     11.1381     14.4179     19.0032    134.4380
  1910.5000     40.2169     11.3815     14.6922     19.0532    137.8262
  1910.7500     40.1754     11.6344     14.9693     18.8379    141.4635
  1911.0000     40.1521     11.8900     15.2560     18.4774    146.7140
  1911.2500     40.1464     12.1416     15.5601     18.1060    149.3625
  1911.5000     40.1556     12.3869     15.8900     17.8264    152.0266
  1911.7500     40.1747     12.6318     16.2558     17.6874    153.1225
  1912.0000     40.1971     12.8918     16.6696     17.6932    153.7194
  1912.2500     40.2147     13.1890     17.1466     17.8327    153.3488
  1912.5000     40.2179     13.5474     17.7050     18.1143    152.0701
  1912.7500     40.1968     13.9867     18.3661     18.5928    151.1799
  1913.0000     40.1425     14.5194     19.1532     19.3834    149.9768
  1913.2500     40.0490     15.1499     20.0904     20.6670    148.9883
  1913.5000     39.9146     15.8746     21.2014     22.6840    146.9464
  1913.7500     39.7426     16.6824     22.5073     25.7010    145.2073
  1914.0000     39.5411     17.5559     24.0247     29.9254    141.2852
  1914.2500     39.3207     18.4723     25.7631     35.3687    136.8181
  1914.5000     39.0931     19.4059     27.7220     41.7268    126.2793
  1914.7500     38.8693     20.3305     29.8878     48.3900    117.1952
  1915.0000     38.6584     21.2209     32.2297     54.6375    102.5584
  1915.2500     38.4676     22.0547     34.6968     59.9184     93.0738
  1915.5000     38.3026     22.8156     37.2150     64.0202     79.7384
  1915.7500     38.1676     23.4988     39.6884     67.0003     71.4683
  1916.0000     38.0649     24.1175     42.0069     68.9662     60.4830
  1916.2500     37.9942     24.7018     44.0605     69.9130     54.6815
  1916.5000     37.9527     25.2874     45.7595     69.7490     49.0984
  1916.7500     37.9345     25.8953     47.0530     68.4440     47.5177
  1917.0000     37.9312     26.5137     47.9390     66.1408     47.7299
  1917.2500     37.9336     27.0947     48.4607     63.1475     49.0723
  1917.5000     37.9326     27.5737     48.6936     59.8605     52.2647
  1917.7500     37.9211     27.9027     48.7268     56.7045     55.0895
  1918.0000     37.8953     28.0779     48.6461     54.0984     60.3871
  1918.2500     37.8554     28.1403     48.5228     52.3868     64.3703
  1918.5000     37.8059     28.1526     48.4052     51.7307     69.8622
  1918.7500     37.7544     28.1668     48.3147     52.0548     72.5063
  1919.0000     37.7107     28.2039     48.2444     53.1458     74.5450
  1919.2500     37.6845     28.2474     48.1610     54.8351     74.6982
  1919.5000     37.6832     28.2533     48.0121     57.0724     72.9785
  1919.7500     37.7103     28.1718     47.7393     59.7765     70.3631
  1920.0000     37.7641     27.9730     47.2962     62.5869     64.8899
  1920.2500     37.8378     27.6645     46.6649     64.7788     61.3897
  1920.5000     37.9201     27.2907     45.8658     65.4849     58.7682
  1920.7500     37.9972     26.9135     44.9533     64.1078     59.6675
  1921.0000     38.0552     26.5899     44.0002     60.6561     65.1234
