~Version Information
VERS.                      2.0: CWLS Log ASCII Standard - VERSION 2.0
WRAP.                       NO: One line per depth step
~Well Information Block
STRT.FT               750.0000: 
STOP.FT              2431.5000: 
STEP.FT                 0.1000: 
NULL.                -999.2500: 
COMP.          Petrogulf Corporation: COMPANY
WELL.           McDaniel 9-34V: WELL
FLD.           Purgatorie River: FIELD
LOC.           620' FSL & 1800' FEL: LOCATION
PROV.                 Colorado: PROVINCE
CNTY.               Las Animas: COUNTRY
SRVC.                Patterson: SERVICE COMPANY
DATE.          Wed Sep 28 07:18:04 2005: LOG DATE
UWI.                          : UNIQUE WELL ID
~Curve Information Block
DEPT.FT            0 000 00 00: Depth
DCAL.in                       : CDL Caliper
RHOB.g/cc                     : CDL Bulk Density
RHOC.g/cc                     : CDL Density Correction
DPOR.pu                       : CDL Density Porosity
GR.GAPI                       : Gamma Ray
NPOR.pu                       : Neutron Porosity
~Parameter Information Block
~A  Depth       DCAL        RHOB        RHOC        DPOR         GR         NPOR    
# ...
  1633.2000      7.9115      2.7382      0.1374     -5.3430     92.3896     20.9337
  1633.3000      7.9068      2.6938      0.0606     -2.6527     92.6357     20.3055
  1633.4000      7.9068      2.6470      0.0159      0.1833     92.6994     19.5245
  1633.5000      7.9066      2.6195      0.0011      1.8457     90.8594     18.9640
  1633.6000      7.9066      2.6086      0.0540      2.5084     90.6345     18.9387
  1633.7000      7.9066      2.5970      0.0291      3.2100     95.9538     19.1480
  1633.8000      7.9102      2.5754      0.0148      4.5192    103.2735     19.1463
  1633.9000      7.9102      2.5488      0.0226      6.1333    109.8795     19.1559
  1634.0000      7.9238      2.5275     -0.0108      7.4221    116.4739     19.6555
  1634.1000      7.9238      2.5165      0.0181      8.0917    122.9111     20.8378
  1634.2000      7.9238      2.5181      0.0286      7.9965    130.3232     22.3515
  1634.3000      7.9398      2.5420      0.0405      6.5445    137.6568     23.4419
  1634.4000      7.9398      2.5849      0.1271      3.9441    141.8680     23.9201
  1634.5000      7.9418      2.6175      0.2237      1.9711    143.8074     24.2132
  1634.6000      7.9418      2.6178      0.1842      1.9540    146.0081     24.6957
  1634.7000      7.9418      2.5966      0.1472      3.2350    150.7872     25.5037
  1634.8000      7.9428      2.5731      0.1475      4.6626    159.3843     26.3409
  1634.9000      7.9428      2.5556      0.1122      5.7234    169.0455     26.8002
  1635.0000      7.9560      2.5519      0.0967      5.9473    174.7320     27.0289
  1635.1000      7.9560      2.5642      0.1079      5.2002    171.6201     27.3285
  1635.2000      7.9560      2.5835      0.1200      4.0307    162.5108     27.6818
  1635.3000      8.0026      2.6030      0.1120      2.8509    155.7972     28.1125
  1635.4000      8.0026      2.6239      0.1526      1.5814    154.4094     28.4734
  1635.5000      8.0151      2.6471      0.1593      0.1733    154.8931     28.5026
  1635.6000      8.0151      2.6684      0.1453     -1.1144    155.3867     28.3239
  1635.7000      8.0151      2.6781      0.1506     -1.7044    156.6470     28.0334
  1635.8000      8.0018      2.6699      0.1313     -1.2082    156.2498     27.5725
  1635.9000      8.0018      2.6461      0.0650      0.2369    150.7882     27.1285
  1636.0000      7.9899      2.6172      0.0661      1.9873    143.5699     26.9402
  1636.1000      7.9899      2.6001      0.0261      3.0259    141.8755     26.9209
  1636.2000      7.9899      2.6007      0.0344      2.9863    146.5173     26.9406
  1636.3000      7.9667      2.6051      0.0450      2.7233    148.8478     26.9570
  1636.4000      7.9667      2.5995      0.0180      3.0597    144.5069     26.7656
  1636.5000      7.9521      2.5893      0.0349      3.6808    138.2503     26.4355
  1636.6000      7.9521      2.5882      0.0165      3.7484    133.9146     26.0294
  1636.7000      7.9521      2.6009      0.0443      2.9758    131.1042     25.2104
  1636.8000      7.9497      2.6196      0.0513      1.8442    129.0639     24.3582
  1636.9000      7.9497      2.6326      0.0307      1.0567    127.7887     24.2118
  1637.0000      7.9664      2.6378     -0.0077      0.7410    125.9020     24.3881
  1637.1000      7.9664      2.6416      0.0528      0.5066    123.4088     24.1584
  1637.2000      7.9664      2.6456      0.0325      0.2685    121.2921     23.4911
  1637.3000      7.9728      2.6515      0.0359     -0.0894    117.8023     22.6815
  1637.4000      7.9728      2.6616      0.0581     -0.7052    113.6562     22.0970
  1637.5000      7.9736      2.6645      0.0834     -0.8807    112.5553     21.8405
  1637.6000      7.9736      2.6513      0.0480     -0.0773    114.5709     21.6955
  1637.7000      7.9736      2.6343      0.0108      0.9518    117.6032     21.7789
  1637.8000      7.9768      2.6318      0.0118      1.1043    120.9491     22.1850
  1637.9000      7.9768      2.6396      0.0048      0.6321    122.4934     22.5859
  1638.0000      7.9892      2.6304      0.0511      1.1895    122.3395     22.9169
  1638.1000      7.9892      2.5974     -0.0158      3.1892    124.8783     23.3481
  1638.2000      7.9892      2.5712     -0.0442      4.7754    131.3061     23.8920
  1638.3000      8.0224      2.5713     -0.0461      4.7683    138.2272     24.6009
  1638.4000      8.0224      2.5836      0.0083      4.0260    144.3380     25.4885
  1638.5000      8.0664      2.5905     -0.0085      3.6039    149.7948     26.2273
  1638.6000      8.0664      2.5890      0.0022      3.6974    154.6488     26.4641
  1638.7000      8.0664      2.5789      0.0377      4.3078    160.8719     26.3506
  1638.8000      8.1445      2.5625      0.0340      5.3005    167.3080     26.4591
  1638.9000      8.1445      2.5478      0.0119      6.1920    170.2482     26.8950
  1639.0000      8.2061      2.5384      0.0809      6.7637    170.1499     27.1511
  1639.1000      8.2061      2.5377      0.0382      6.8048    168.9145     27.0417
  1639.2000      8.2061      2.5550      0.0676      5.7585    167.3768     26.9779
  1639.3000      8.2371      2.5894      0.0868      3.6710    167.3551     27.2092
  1639.4000      8.2371      2.6244      0.1716      1.5503    169.7999     27.4112
  1639.5000      8.2844      2.6396      0.2204      0.6331    170.2211     27.3158
  1639.6000      8.2844      2.6328      0.1967      1.0451    167.1347     27.2043
  1639.7000      8.2844      2.6233      0.1311      1.6167    166.0793     27.3042
  1639.8000      8.4309      2.6302      0.0942      1.2021    166.6862     27.4958
  1639.9000      8.4309      2.6445      0.1706      0.3316    166.2234     27.7688
  1640.0000      8.4503      2.6368      0.1360      0.7978    167.0247     27.9532
  1640.1000      8.4503      2.6014      0.0843      2.9433    167.9644     27.9450
  1640.2000      8.4503      2.5645     -0.0328      5.1820    167.0616     28.1181
  1640.3000      8.1636      2.5461     -0.0084      6.2953    165.8316     28.5760
  1640.4000      8.1636      2.5397     -0.0290      6.6820    164.6951     28.9231
  1640.5000      8.1205      2.5321     -0.0021      7.1432    164.8200     28.8296
  1640.6000      8.1205      2.5215     -0.0288      7.7867    167.0800     28.4605
  1640.7000      8.1205      2.5165     -0.0177      8.0895    167.5607     28.2049
  1640.8000      8.1244      2.5245     -0.0173      7.6031    163.5876     28.2488
  1640.9000      8.1244      2.5461     -0.0024      6.2994    160.1835     28.5551
  1641.0000      8.1303      2.5688      0.0309      4.9207    161.5734     28.7022
  1641.1000      8.1303      2.5701      0.0057      4.8408    165.0917     28.2567
  1641.2000      8.1303      2.5461     -0.0109      6.2946    170.5113     27.4384
  1641.3000      8.1476      2.5237     -0.0364      7.6569    180.6815     27.0083
  1641.4000      8.1476      2.5249      0.0112      7.5809    190.1067     27.4921
  1641.5000      8.1566      2.5431     -0.0040      6.4765    188.1612     28.4284
  1641.6000      8.1566      2.5623      0.0149      5.3176    177.5261     28.8781
  1641.7000      8.1566      2.5656      0.0511      5.1139    171.1759     28.5815
  1641.8000      8.1992      2.5462      0.0380      6.2879    173.0405     28.2210
  1641.9000      8.1992      2.5243      0.0132      7.6164    179.7540     28.5341
  1642.0000      8.2674      2.5124      0.0771      8.3412    188.3834     29.2373
  1642.1000      8.2674      2.4856      0.1167      9.9655    194.6881     29.5995
  1642.2000      8.2674      2.4316      0.0776     13.2372    195.1083     29.5429
  1642.3000      8.2987      2.3802      0.0054     16.3515    190.9700     29.5712
  1642.4000      8.2987      2.3612     -0.0150     17.5025    185.5282     29.8334
  1642.5000      8.3389      2.3796     -0.0105     16.3904    180.4496     29.9750
  1642.6000      8.3389      2.4189      0.0712     14.0056    175.3198     29.8531
  1642.7000      8.3389      2.4515      0.1002     12.0301    171.3134     29.5513
