~Version Information
VERS.                      2.0: CWLS Log ASCII Standard - VERSION 2.0
WRAP.                       NO: One line per depth step
~Well Information Block
STRT.FT                -7.0000: 
STOP.FT              1863.5000: 
STEP.FT                 0.2500: 
NULL.                -999.2500: 
COMP.          Pioneer Natural Resources: COMPANY
WELL.            Formula 23-11: WELL
FLD.           Purgatorie River: FIELD
LOC.           1976' FSL & 1935' FWL--: LOCATION
PROV.                       CO: PROVINCE
CNTY.               Las Animas: COUNTRY
SRVC.          Patterson Wireline: SERVICE COMPANY
DATE.          Wed Jun 15 14:44:40 2005: LOG DATE
UWI.           05 071 08399 00: UNIQUE WELL ID
~Curve Information Block
DEPT.FT            0 000 00 00: Depth
CCL.                          : Casing Collar Locator
TT3.usec                      : CBL 3' Travel Time
AMP3.mV                       : CBL 3' Amplitude
GR.GAPI                       : Gamma Ray
~Parameter Information Block
~A  Depth       CCL         TT3         AMP3         GR     
# ...
   127.0000      0.0000    908.1174      8.9213     55.4064
   127.2500      0.0000    907.3434      8.7818     57.9620
   127.5000      0.0000    901.1202      8.6229     59.0972
   127.7500      0.0000    893.7891      8.4880     59.2268
   128.0000      0.0000    890.0709      8.4081     58.8181
   128.2500      0.0000    892.2940      8.3801     57.9406
   128.5000      0.0000    899.2010      8.3714     56.7429
   128.7500      0.0000    908.2742      8.3466     55.9466
   129.0000      0.0000    918.1033      8.2922     56.3581
   129.2500      0.0000    927.5577      8.2174     57.8698
   129.5000      0.0000    933.9359      8.1338     59.2957
   129.7500      0.0000    933.4006      8.0435     59.4237
   130.0000      0.0000    923.6580      7.9497     58.1398
   130.2500      0.0000    906.5591      7.8756     56.4310
   130.5000      0.0000    887.9365      7.8577     55.5294
   130.7500      0.0000    874.2148      7.9150     56.2496
   131.0000      0.0000    869.1221      8.0267     58.7425
   131.2500      0.0000    873.3318      8.1432     62.3283
   131.5000      0.0000    885.5333      8.2179     65.8245
   131.7500      0.0000    902.7330      8.2338     68.6007
   132.0000      0.0000    920.4296      8.2057     71.1695
   132.2500      0.0000    933.7591      8.1578     74.4649
   132.5000      0.0000    938.9061      8.0995     78.6633
   132.7500      0.0000    934.2142      8.0221     82.6761
   133.0000      0.0000    921.5334      7.9178     84.7258
   133.2500      0.0000    906.6525      7.7988     83.9229
   133.5000      0.0000    896.6213      7.6956     81.4656
   133.7500      0.0000    895.0364      7.6365     79.7024
   134.0000      0.0000    899.7867      7.6275     79.8294
   134.2500      0.0000    905.6353      7.6546     81.0441
   134.5000      0.0000    908.6345      7.6977     81.8890
   134.7500      0.0000    907.8132      7.7362     81.7606
   135.0000      0.0000    903.5634      7.7516     81.1134
   135.2500      0.0000    896.2675      7.7406     80.7025
   135.5000      0.0000    887.2596      7.7217     80.7310
   135.7500      0.0000    879.4493      7.7169     80.5514
   136.0000      0.0000    875.0491      7.7264     79.1655
   136.2500      0.0000    872.6086      7.7266     76.1739
   136.5000      0.0000    867.1557      7.6934     72.3660
   136.7500      0.0000    853.7358      7.6254     69.4352
   137.0000      0.0000    831.4921      7.5439     68.9676
   137.2500      0.0000    805.0842      7.4745     71.3104
   137.5000      0.0000    782.0588      7.4290     75.2166
   137.7500      0.0000    768.4052      7.4027     78.8096
   138.0000      0.0000    765.8976      7.3866     81.0077
   138.2500      0.0000    771.8927      7.3797     81.9313
   138.5000      0.0000    780.2397      7.3888     82.1028
   138.7500      0.0000    783.9254      7.4154     81.7192
   139.0000      0.0000    779.5451      7.4500     80.8419
   139.2500      0.0000    769.5596      7.4832     79.9078
   139.5000      0.0000    759.3104      7.5197     79.4431
   139.7500      0.0000    752.3201      7.5693     79.1288
   140.0000      0.0000    748.8409      7.6286     77.8420
   140.2500      0.0000    747.4983      7.6793     75.2883
   140.5000      0.0000    747.0345      7.7029     73.0848
   140.7500      0.0000    746.8140      7.6929     73.2947
   141.0000      0.0000    746.6247      7.6532     76.0721
   141.2500      0.0000    746.4360      7.5897     79.6067
   141.5000      0.0000    746.2696      7.5088     82.2317
   141.7500      0.0000    746.1842      7.4225     83.6714
   142.0000      0.0000    746.2529      7.3481     84.3424
   142.2500      0.0000    746.5093      7.2978     84.5279
   142.5000      0.0000    746.8779      7.2689     84.5782
   142.7500      0.0000    747.1808      7.2479     85.2397
   143.0000      0.0000    747.2644      7.2235     87.2372
   143.2500      0.0000    747.2188      7.1952     90.6015
   143.5000      0.0000    747.5327      7.1718     94.4906
   143.7500      0.0000    749.0611      7.1594     97.6533
   144.0000      0.0000    752.5978      7.1534     99.3124
   144.2500      0.0000    757.9410      7.1438     99.8622
   144.5000      0.0000    763.1435      7.1270    100.4466
   144.7500      0.0000    765.3488      7.1075    101.4118
   145.0000      0.0000    763.1609      7.0936    101.4058
   145.2500      0.0000    757.9933      7.0961     98.6772
   145.5000      0.0000    752.6605      7.1250     93.2357
   145.7500      0.0000    749.0369      7.1809     87.0236
   146.0000      0.0000    747.3273      7.2522     82.0249
   146.2500      0.0000    746.8745      7.3262     78.9868
   146.5000      0.0000    747.0007      7.3989     77.8559
   146.7500      0.0000    747.2729      7.4708     78.3849
   147.0000      0.0000    747.4799      7.5368     80.0558
   147.2500      0.0000    747.5851      7.5835     82.1607
   147.5000      0.0000    747.6653      7.6007     84.3280
   147.7500      0.0000    747.8530      7.5932     86.6007
   148.0000      0.0000    748.3688      7.5790     88.9473
   148.2500      0.0000    749.7822      7.5781     90.9757
   148.5000      0.0000    753.4082      7.5989     91.9832
   148.7500      0.0000    761.1859      7.6324     91.1300
   149.0000      0.0000    774.0310      7.6590     88.1065
   149.2500      0.0000    789.2168      7.6661     83.9608
   149.5000      0.0000    800.2089      7.6586     80.5847
   149.7500      0.0000    801.4872      7.6501     78.9257
   150.0000      0.0000    794.5877      7.6473     78.2738
   150.2500      0.0000    788.2554      7.6464     77.4996
   150.5000      0.0000    791.7245      7.6440     76.2968
   150.7500      0.0000    807.6989      7.6468     75.0627
   151.0000      0.0000    831.1105      7.6671     74.3080
   151.2500      0.0000    853.6990      7.7052     74.3750
   151.5000      0.0000    869.7601      7.7404     75.1860
   151.7500      0.0000    878.4337      7.7442     76.1359
   152.0000      0.0000    881.9918      7.7015     76.5151
   152.2500      0.0000    882.9986      7.6180     75.9312
   152.5000      0.0000    882.7383      7.5129     74.2395
   152.7500      0.0000    880.9814      7.4100     71.5101
   153.0000      0.0000    876.4380      7.3324     68.3069
   153.2500      0.0000    867.7880      7.2965     65.6406
   153.5000      0.0000    855.0289      7.2987     64.3342
   153.7500      0.0000    840.0152      7.3111     64.4974
   154.0000      0.0000    825.4750      7.2944     65.7375
   154.2500      0.0000    813.5347      7.2234     67.7988
   154.5000      0.0000    805.1853      7.1044     70.6291
   154.7500      0.0000    800.6213      6.9734     73.5535
   155.0000      0.0000    799.5196      6.8721     74.8732
   155.2500      0.0000    800.8837      6.8170     73.0837
   155.5000      0.0000    802.8848      6.7936     68.4822
   155.7500      0.0000    803.4614      6.7801     63.0843
   156.0000      0.0000    801.8222      6.7682     59.0046
   156.2500      0.0000    799.5970      6.7605     57.1684
   156.5000      0.0000    800.1577      6.7601     57.1672
   156.7500      0.0000    806.2576      6.7655     57.8237
   157.0000      0.0000    817.9215      6.7713     58.0543
   157.2500      0.0000    832.2726      6.7695     57.5970
   157.5000      0.0000    845.0654      6.7545     56.8802
   157.7500      0.0000    852.4976      6.7294     56.1974
   158.0000      0.0000    852.6802      6.7103     55.4026
   158.2500      0.0000    846.5801      6.7185     54.4247
   158.5000      0.0000    837.5583      6.7653     53.5360
   158.7500      0.0000    829.4655      6.8449     52.9548
   159.0000      0.0000    825.2822      6.9456     52.6360
   159.2500      0.0000    827.2681      7.0579     52.5684
   159.5000      0.0000    836.5254      7.1638     52.7570
   159.7500      0.0000    850.6450      7.2181     52.6777
   160.0000      0.0000    862.9122      7.1552     51.3520
   160.2500      0.0000    866.8517      6.9352     48.4918
