~Version Information
VERS.                      2.0: CWLS Log ASCII Standard - VERSION 2.0
WRAP.                       NO: One line per depth step
~Well Information Block
STRT.FT               375.0000: 
STOP.FT              2637.2500: 
STEP.FT                 0.2500: 
NULL.                -999.2500: 
COMP.          Pioneer Natural Resources: COMPANY
WELL.            Cortina 23-25: WELL
FLD.           Purgatoire River: FIELD
LOC.           2344' FWL & 2526' FSL----: LOCATION
PROV.                 Colorado: PROVINCE
CNTY.               Las Animas: COUNTRY
SRVC.                Patterson: SERVICE COMPANY
DATE.          Wed Mar 23 19:09:49 2005: LOG DATE
UWI.           05 071 08340 00: UNIQUE WELL ID
~Curve Information Block
DEPT.FT            0 000 00 00: Depth
DIR.Ohm-m                     : IEL Induction Resistivity
SN.Ohm-m                      : IEL Short Normal
SP.mV                         : IEL Spontaneous Potential
GR.GAPI                       : Gamma Ray
~Parameter Information Block
~A  Depth       DIR          SN          SP          GR     
# ...
  1279.5000     17.9464   2000.0000   2000.0000    122.1111
  1279.7500     17.9774   2000.0000   2000.0000    121.0534
  1280.0000     18.1450   2000.0000   2000.0000    118.3710
  1280.2500     18.4423   2000.0000   2000.0000    116.0632
  1280.5000     18.8547   2000.0000   2000.0000    111.8004
  1280.7500     19.3580   2000.0000   2000.0000    108.5613
  1281.0000     19.9239   2000.0000   2000.0000    103.8542
  1281.2500     20.5268   2000.0000   2000.0000    101.2567
  1281.5000     21.1457   2000.0000   2000.0000     98.2167
  1281.7500     21.7619   2000.0000   2000.0000     96.4133
  1282.0000     22.3548   2000.0000   2000.0000     93.6395
  1282.2500     22.9003   2000.0000   2000.0000     91.8928
  1282.5000     23.3745   2000.0000   2000.0000     89.9404
  1282.7500     23.7651   2000.0000   2000.0000     89.1955
  1283.0000     24.0835   2000.0000   2000.0000     88.6548
  1283.2500     24.3625   2000.0000   2000.0000     88.4286
  1283.5000     24.6348   2000.0000   2000.0000     88.0154
  1283.7500     24.9061   2000.0000   2000.0000     87.7240
  1284.0000     25.1458   2000.0000   2000.0000     87.5608
  1284.2500     25.3060   2000.0000   2000.0000     87.7522
  1284.5000     25.3524   2000.0000   2000.0000     88.3734
  1284.7500     25.2806   2000.0000   2000.0000     88.8759
  1285.0000     25.1078   2000.0000   2000.0000     89.7686
  1285.2500     24.8553   2000.0000   2000.0000     90.6037
  1285.5000     24.5441   2000.0000   2000.0000     92.4004
  1285.7500     24.2026   2000.0000   2000.0000     93.8957
  1286.0000     23.8748   2000.0000   2000.0000     96.2669
  1286.2500     23.6123   2000.0000   2000.0000     97.7488
  1286.5000     23.4570   2000.0000   2000.0000     99.5186
  1286.7500     23.4228   2000.0000   2000.0000    100.1679
  1287.0000     23.4882   2000.0000   2000.0000    100.0424
  1287.2500     23.6021   2000.0000   2000.0000     99.2598
  1287.5000     23.7035   2000.0000   2000.0000     97.4283
  1287.7500     23.7445   2000.0000   2000.0000     96.0369
  1288.0000     23.7054   2000.0000   2000.0000     94.0878
  1288.2500     23.5921   2000.0000   2000.0000     93.0821
  1288.5000     23.4208   2000.0000   2000.0000     92.1755
  1288.7500     23.2061   2000.0000   2000.0000     91.8605
  1289.0000     22.9597   2000.0000   2000.0000     91.5104
  1289.2500     22.6954   2000.0000   2000.0000     91.3961
  1289.5000     22.4302   2000.0000   2000.0000     91.9443
  1289.7500     22.1799   2000.0000   2000.0000     93.0874
  1290.0000     21.9544   2000.0000   2000.0000     95.8703
  1290.2500     21.7556   2000.0000   2000.0000     97.9840
  1290.5000     21.5802   2000.0000   2000.0000    100.3568
  1290.7500     21.4221   2000.0000   2000.0000    100.7222
  1291.0000     21.2749   2000.0000   2000.0000     98.9390
  1291.2500     21.1346   2000.0000   2000.0000     96.5797
  1291.5000     21.0024   2000.0000   2000.0000     92.9348
  1291.7500     20.8850   2000.0000   2000.0000     91.5045
  1292.0000     20.7896   2000.0000   2000.0000     92.0490
  1292.2500     20.7115   2000.0000   2000.0000     94.3583
  1292.5000     20.6270   2000.0000   2000.0000    100.1379
  1292.7500     20.4981   2000.0000   2000.0000    104.8144
  1293.0000     20.5046   2000.0000   2000.0000    111.5512
  1293.2500     20.1752   2000.0000   2000.0000    114.9606
  1293.5000     19.7103   2000.0000   2000.0000    117.1198
  1293.7500     19.0761   2000.0000   2000.0000    116.1248
  1294.0000     18.2317   2000.0000   2000.0000    111.0586
  1294.2500     17.1652   2000.0000   2000.0000    105.8598
  1294.5000     15.9439   2000.0000   2000.0000     96.8954
  1294.7500     14.7338   2000.0000   2000.0000     91.1889
  1295.0000     13.7705   2000.0000   2000.0000     84.6041
  1295.2500     13.3331   2000.0000   2000.0000     82.1273
  1295.5000     13.8215   2000.0000   2000.0000     81.5797
  1295.7500     16.1634   2000.0000   2000.0000     83.0005
  1296.0000     24.0480   2000.0000   2000.0000     86.4577
  1296.2500     86.6610   2000.0000   2000.0000     88.7411
  1296.5000 100000.0000   2000.0000   2000.0000     91.3321
  1296.7500 100000.0000   2000.0000   2000.0000     92.5779
  1297.0000 100000.0000   2000.0000   2000.0000     93.8806
  1297.2500 100000.0000   2000.0000   2000.0000     94.0505
  1297.5000 100000.0000   2000.0000   2000.0000     92.4216
  1297.7500 100000.0000   2000.0000   2000.0000     89.9595
  1298.0000 100000.0000   2000.0000   2000.0000     84.8662
  1298.2500 100000.0000   2000.0000   2000.0000     81.1508
  1298.5000 100000.0000   2000.0000   2000.0000     76.2433
  1298.7500 100000.0000   2000.0000   2000.0000     74.2409
  1299.0000 100000.0000   2000.0000   2000.0000     74.6650
  1299.2500 100000.0000   2000.0000   2000.0000     77.7074
  1299.5000 100000.0000   2000.0000   2000.0000     85.7472
  1299.7500 100000.0000   2000.0000   2000.0000     92.3512
  1300.0000    760.3933   2000.0000   2000.0000    102.3160
  1300.2500     12.0519   2000.0000   2000.0000    108.4395
  1300.5000      6.6649   2000.0000   2000.0000    116.5963
  1300.7500      5.4709   2000.0000   2000.0000    121.3225
  1301.0000      5.7815   2000.0000   2000.0000    127.3541
  1301.2500      7.6491   2000.0000   2000.0000    130.7177
  1301.5000     11.7124   2000.0000   2000.0000    134.6951
  1301.7500     12.5347   2000.0000   2000.0000    136.4382
  1302.0000      5.8549   2000.0000   2000.0000    137.5438
  1302.2500      2.2455   2000.0000   2000.0000    137.5577
  1302.5000      0.9621   2000.0000   2000.0000    137.3367
  1302.7500      0.4511   2000.0000   2000.0000    137.3171
  1303.0000      0.2104   2000.0000   2000.0000    137.2452
  1303.2500      0.0941   2000.0000   2000.0000    136.7089
  1303.5000      0.0439   2000.0000   2000.0000    134.0956
  1303.7500      0.0233   2000.0000   2000.0000    130.4807
  1304.0000      0.0146   2000.0000   2000.0000    121.5827
  1304.2500      0.0105   2000.0000   2000.0000    113.6352
  1304.5000      0.0083   2000.0000   2000.0000    100.6505
  1304.7500      0.0071   2000.0000   2000.0000     92.8761
  1305.0000      0.0064   2000.0000   2000.0000     84.7579
  1305.2500      0.0061   2000.0000   2000.0000     82.3245
  1305.5000      0.0065   2000.0000   2000.0000     83.3242
  1305.7500      0.0077   2000.0000   2000.0000     86.9608
  1306.0000      0.0106   2000.0000   2000.0000     96.2298
  1306.2500      0.0167   2000.0000   2000.0000    104.2103
  1306.5000      0.0295   2000.0000   2000.0000    117.1349
  1306.7500      0.0548   2000.0000   2000.0000    125.3041
  1307.0000      0.0999   2000.0000   2000.0000    135.0979
  1307.2500      0.1676   2000.0000   2000.0000    139.0287
  1307.5000      0.2549   2000.0000   2000.0000    139.9486
  1307.7500      0.3576   2000.0000   2000.0000    137.2173
  1308.0000      0.4772   2000.0000   2000.0000    129.1360
  1308.2500      0.6233   2000.0000   2000.0000    122.1875
  1308.5000      0.8143   2000.0000   2000.0000    111.9596
  1308.7500      1.0801   2000.0000   2000.0000    106.8703
  1309.0000      1.4733   2000.0000   2000.0000    103.7560
  1309.2500      2.0956   2000.0000   2000.0000    104.9357
  1309.5000      3.1761   2000.0000   2000.0000    110.5640
  1309.7500      5.3503   2000.0000   2000.0000    115.5713
  1310.0000     11.2297   2000.0000   2000.0000    121.6890
  1310.2500     59.4448   2000.0000   2000.0000    122.9637
  1310.5000 100000.0000   2000.0000   2000.0000    119.6067
  1310.7500 100000.0000   2000.0000   2000.0000    115.0351
  1311.0000 100000.0000   2000.0000   2000.0000    108.3234
  1311.2500 100000.0000   2000.0000   2000.0000    105.4863
  1311.5000 100000.0000   2000.0000   2000.0000    103.7004
  1311.7500 100000.0000   2000.0000   2000.0000    103.1780
  1312.0000 100000.0000   2000.0000   2000.0000    102.4443
  1312.2500 100000.0000   2000.0000   2000.0000    102.5323
  1312.5000 100000.0000   2000.0000   2000.0000    105.1658
  1312.7500 100000.0000   2000.0000   2000.0000    108.7687
