~Version Information
 VERS.                                  2.0 : CWLS LAS VERSION
 WRAP.                                   NO : WRAPING MODE
 SWARE .                 MController 2.5.0J : SOFTWARE VERSION
~Well Information
 WELL.                      Warrior 33-1 Tr : WELL
 COMP.    Pioneer Natural Resources USA Inc : COMPANY
 FLD.                      Purgatoire River : FIELD
 LOC.                 NW/SE Sec 1 T33S R67W : LOCATION
 DATE.                            6/17/2005 : DATE(S) LOGGED
 SRVC.      Blanco Geological Services LLC  : SERVICE COMPANY
 STAT.                                   CO : STATE
 CNTY.                           Las Animas : COUNTY
 CTRY.                                  USA : COUNTRY
 API.                       05-071-08412-00 : API NUMBER
 STRT.FT                             383.00 : START DEPTH
 STOP.FT                            1751.00 : STOP DEPTH
 STEP.FT                               1.00 : DEPTH INCREMENT
 NULL.                                -9999 : NULL VALUE
~Curve information
 DEPTH.FT                                   :
 ROP.MIN/FT                                 :
 GAS.UNITS                                  :
~ASCII Log data
# ...
       983.0         0.20        117.1 
       984.0         0.17        122.9 
       985.0         0.17        141.3 
       986.0         2.18       1669.2 
       987.0         0.10        889.6 
       988.0         0.07        839.8 
       989.0         0.43        771.7 
       990.0         0.33        603.6 
       991.0         0.30        555.1 
       992.0         0.28        514.3 
       993.0         0.23        528.4 
       994.0         0.23        537.9 
       995.0         0.17        536.2 
       996.0         0.13        536.2 
       997.0         0.20        527.4 
       998.0         0.20        518.3 
       999.0         0.20        510.2 
      1000.0         0.20        492.4 
      1001.0         0.17        484.6 
      1002.0         0.20        466.8 
      1003.0         0.20        454.0 
      1004.0         0.20        441.5 
      1005.0         0.20        440.0 
      1006.0         0.23        162.2 
      1007.0         0.20        166.1 
      1008.0         0.25        168.1 
      1009.0         0.13        152.0 
      1010.0         0.20        147.3 
      1011.0         0.13        113.8 
      1012.0         0.13        101.5 
      1013.0         0.20         94.4 
      1014.0         0.17        100.5 
      1015.0         0.17        117.7 
      1016.0         3.15       1970.4 
      1017.0         0.27        580.0 
      1018.0         0.17        498.5 
      1019.0         0.17        482.3 
      1020.0         0.13        474.5 
      1021.0         0.23        476.9 
      1022.0         0.20        488.4 
      1023.0         0.13        492.4 
      1024.0         0.20        500.1 
      1025.0         0.20        509.9 
      1026.0         0.20        511.9 
      1027.0         0.20        511.3 
      1028.0         0.20        508.9 
      1029.0         0.18        511.6 
      1030.0         0.17        513.3 
      1031.0         0.23        512.9 
      1032.0         0.13        495.4 
      1033.0         0.17        477.6 
      1034.0         0.17        457.7 
      1035.0         0.20        444.2 
      1036.0         0.23        440.0 
      1037.0         0.17        164.8 
      1038.0         0.17        151.2 
      1039.0         0.17        137.9 
      1040.0         0.13        130.0 
      1041.0         0.13        128.3 
      1042.0         0.13        131.7 
      1043.0         0.17        135.1 
      1044.0         0.13        141.1 
      1045.0         0.23        167.2 
      1046.0         1.02       1516.9 
      1047.0         0.53       1700.9 
      1048.0         0.23       1456.6 
      1049.0         0.33       1320.9 
      1050.0         0.33        927.0 
      1051.0         0.23        722.2 
      1052.0         0.37        650.4 
      1053.0         0.37        543.6 
      1054.0         0.30        509.6 
      1055.0         0.22        519.0 
      1056.0         0.17        524.7 
      1057.0         0.13        527.1 
      1058.0         0.13        528.1 
      1059.0         0.13        525.7 
      1060.0         0.17        523.4 
      1061.0         0.17        523.1 
      1062.0         0.17        510.6 
      1063.0         0.17        508.2 
      1064.0         0.20        504.5 
      1065.0         0.23        482.6 
      1066.0         0.20        460.7 
      1067.0         0.17        440.0 
      1068.0         0.13        144.5 
      1069.0         0.10        138.8 
      1070.0         0.27        137.9 
      1071.0         0.33        121.2 
      1072.0         0.20        105.0 
      1073.0         0.13        108.6 
      1074.0         0.18        112.5 
      1075.0         0.13        121.6 
      1076.0         3.25       1774.7 
      1077.0         0.20        620.4 
      1078.0         0.30        567.5 
      1079.0         0.27        548.7 
      1080.0         0.27        548.3 
      1081.0         0.20        545.3 
      1082.0         0.13        527.8 
      1083.0         0.13        518.7 
      1084.0         0.23        512.9 
      1085.0         0.20        490.7 
      1086.0         0.17        482.6 
      1087.0         0.17        509.2 
      1088.0         0.20        808.4 
      1089.0         0.17       1333.0 
      1090.0         0.13       1939.8 
      1091.0         0.17       2249.4 
      1092.0         0.20       2728.5 
      1093.0         0.18       2882.8 
      1094.0         0.20       3032.4 
      1095.0         0.17       3053.6 
      1096.0         0.20       3073.5 
      1097.0         0.23       3091.0 
      1098.0         0.23       2989.6 
      1099.0         0.17       2899.0 
      1100.0         0.20       2514.9 
      1101.0         0.13       2184.7 
      1102.0         0.17       1936.7 
      1103.0         0.17       1894.0 
      1104.0         0.23       2002.8 
      1105.0         0.17       2304.3 
      1106.0         1.55       5865.8 
      1107.0         0.20       5012.1 
      1108.0         0.63       4515.5 
      1109.0         0.43       3011.5 
      1110.0         0.33       2531.7 
      1111.0         0.23       2349.8 
      1112.0         0.23       2232.2 
      1113.0         0.23       2192.5 
      1114.0         0.23       2130.8 
      1115.0         0.22       2080.3 
      1116.0         0.20       2021.3 
      1117.0         0.20       1974.1 
      1118.0         0.20       1927.6 
      1119.0         0.20       1893.6 
      1120.0         0.20       1858.6 
      1121.0         0.17       1840.7 
      1122.0         0.17       1813.8 
      1123.0         0.17       1794.2 
      1124.0         0.20       1776.7 
      1125.0         0.20       1767.3 
      1126.0         0.17       1791.5 
      1127.0         0.17       1786.5 
      1128.0         0.30       1772.7 
      1129.0         0.17       1329.0 
      1130.0         0.17       1229.9 
      1131.0         0.13       1079.3 
      1132.0         0.13       1057.7 
      1133.0         0.15       1107.9 
      1134.0         0.30       1224.5 
      1135.0         0.47       1577.3 
      1136.0         2.58       4922.1 
      1137.0         0.10       2565.8 
      1138.0         0.13       2480.5 
      1139.0         0.30       2340.7 
      1140.0         0.30       2113.0 
      1141.0         0.27       1789.2 
      1142.0         0.23       1598.8 
      1143.0         0.23       1648.3 
      1144.0         0.20       1673.6 
      1145.0         0.13       1646.7 
      1146.0         0.23       1653.7 
      1147.0         0.13       1671.9 
      1148.0         0.10       1701.9 
      1149.0         0.10       1728.9 
      1150.0         0.13       1753.8 
      1151.0         0.13       1746.1 
      1152.0         0.30       1728.2 
      1153.0         0.23       1659.8 
      1154.0         0.25       1542.6 
      1155.0         0.27       1495.4 
      1156.0         0.23       1495.4 
      1157.0         0.37       1499.8 
      1158.0         0.30       1499.1 
      1159.0         0.20       1406.4 
      1160.0         0.27       1273.0 
      1161.0         0.23       1044.6 
      1162.0         0.20        991.7 
      1163.0         0.17       1035.8 
      1164.0         0.10       1099.8 
      1165.0         0.13       1232.6 
      1166.0         1.65       4414.1 
      1167.0         0.23       4043.1 
      1168.0         0.47       3536.1 
      1169.0         0.40       2582.3 
      1170.0         0.30       1988.3 
      1171.0         0.27       1734.3 
      1172.0         0.23       1594.1 
      1173.0         0.23       1533.5 
      1174.0         0.20       1505.5 
      1175.0         0.22       1478.2 
      1176.0         0.20       1435.4 
      1177.0         0.17       1371.1 
      1178.0         0.20       1316.8 
      1179.0         0.23       1290.2 
      1180.0         0.20       1288.2 
      1181.0         0.17       1283.1 
      1182.0         0.17       1273.0 
