~Version Information
 VERS.                                  2.0 : CWLS LAS VERSION
 WRAP.                                   NO : WRAPING MODE
 SWARE .                 MController 2.5.0E : SOFTWARE VERSION
~Well Information
 WELL.                        Rangely 22-28 : WELL
 COMP.             Evergreen Operating Corp : COMPANY
 FLD.                      Purgatorie River : FIELD
 LOC.                SE/NW Sec 28 T32S R67W : LOCATION
 DATE.                09/14/2004-09/15/2004 : DATE(S) LOGGED
 SRVC.       Blanco Geological Services LLC : SERVICE COMPANY
 STAT.                                   CO : STATE
 CNTY.                           Las Animas : COUNTY
 CTRY.                                  USA : COUNTRY
 API.                       05-071-08044-00 : API NUMBER
 STRT.FT                             858.00 : START DEPTH
 STOP.FT                            2847.00 : STOP DEPTH
 STEP.FT                               1.00 : DEPTH INCREMENT
 NULL.                                -9999 : NULL VALUE
~Curve information
 DEPTH.FT                                   :
 ROP.MIN/FT                                 :
 GAS.UNITS                                  :
~ASCII Log data
# ...
     1258.00        0.317        894.7 
     1259.00        0.267        897.0 
     1260.00        0.267        866.4 
     1261.00        0.267        847.2 
     1262.00        0.267        827.3 
     1263.00        0.233        810.1 
     1264.00        0.200        796.0 
     1265.00        0.200        787.5 
     1266.00        0.200        776.1 
     1267.00        0.217        762.6 
     1268.00        0.233        759.9 
     1269.00        0.233        755.2 
     1270.00        0.200        749.8 
     1271.00        0.233        746.4 
     1272.00        0.233        739.0 
     1273.00        0.233        717.5 
     1274.00        0.200        711.1 
     1275.00        0.133        711.1 
     1276.00        0.167        708.7 
     1277.00        0.200        710.7 
     1278.00        0.167        724.5 
     1279.00        0.200        724.5 
     1280.00        0.167        736.3 
     1281.00        0.200        741.0 
     1282.00        0.200        727.2 
     1283.00        0.217        727.2 
     1284.00        0.200        698.9 
     1285.00        0.233        657.1 
     1286.00        2.667       1285.5 
     1287.00        0.317       1154.8 
     1288.00        0.300       1141.0 
     1289.00        0.267       1023.7 
     1290.00        0.300        901.1 
     1291.00        0.300        873.1 
     1292.00        0.233       1030.4 
     1293.00        0.267       1722.5 
     1294.00        0.267       2549.6 
     1295.00        0.233       3132.1 
     1296.00        0.233       3498.3 
     1297.00        0.233       3544.2 
     1298.00        0.300       3687.0 
     1299.00        0.233       3579.5 
     1300.00        0.283       3417.8 
     1301.00        0.267       3269.2 
     1302.00        0.233       3269.2 
     1303.00        0.267       3141.2 
     1304.00        0.267       3000.0 
     1305.00        0.267       2942.1 
     1306.00        0.267       2823.8 
     1307.00        0.233       2725.5 
     1308.00        0.267       2696.1 
     1309.00        0.267       2675.9 
     1310.00        0.267       2670.5 
     1311.00        0.267       2626.1 
     1312.00        0.283       2536.1 
     1313.00        0.167       2359.2 
     1314.00        0.200       2265.9 
     1315.00        2.267       4424.9 
     1316.00        0.633       4178.2 
     1317.00        0.483       3513.2 
     1318.00        0.400       3086.6 
     1319.00        0.467       2861.2 
     1320.00        0.567       2776.0 
     1321.00        0.600       2584.3 
     1322.00        0.433       2335.7 
     1323.00        0.333       2243.7 
     1324.00        0.283       2227.2 
     1325.00        0.267       2205.6 
     1326.00        0.400       2222.1 
     1327.00        0.267       2218.4 
     1328.00        0.233       2197.5 
     1329.00        0.233       2201.6 
     1330.00        0.267       2236.3 
     1331.00        0.300       2258.8 
     1332.00        0.267       2260.5 
     1333.00        0.333       2264.6 
     1334.00        0.333       2251.4 
     1335.00        0.383       2244.7 
     1336.00        0.333       2204.3 
     1337.00        0.367       2182.7 
     1338.00        0.400       2147.0 
     1339.00        0.367       2147.0 
     1340.00        0.333       2190.8 
     1341.00        0.333       2178.6 
     1342.00        0.333       2166.9 
     1343.00        1.650       2092.1 
     1344.00        0.533       1741.0 
     1345.00        0.433       1813.1 
     1346.00        3.583       3194.8 
     1347.00        0.167       3194.8 
     1348.00        0.367       3169.5 
     1349.00        0.200       2803.0 
     1350.00        0.333       2433.0 
     1351.00        0.383       2126.8 
     1352.00        0.300       1941.5 
     1353.00        0.267       1776.4 
     1354.00        0.333       1636.9 
     1355.00        0.300       1542.6 
     1356.00        0.367       1432.0 
     1357.00        0.367       1428.7 
     1358.00        0.300       1409.1 
     1359.00        0.333       1399.4 
     1360.00        0.367       1385.2 
     1361.00        0.317       1377.8 
     1362.00        0.267       1354.6 
     1363.00        0.300       1349.8 
     1364.00        0.333       1364.0 
     1365.00        0.333       1350.5 
     1366.00        0.300       1339.7 
     1367.00        0.367       1323.2 
     1368.00        0.300       1312.1 
     1369.00        0.267       1340.7 
     1370.00        0.200       1391.3 
     1371.00        0.233       1391.3 
     1372.00        0.233       1392.3 
     1373.00        0.217       1347.8 
     1374.00        0.600       1287.2 
     1375.00        0.267       1152.4 
     1376.00        3.083       3033.1 
     1377.00        0.367       2757.1 
     1378.00        0.300       2556.0 
     1379.00        0.333       2045.9 
     1380.00        0.367       2015.6 
     1381.00        0.267       1641.6 
     1382.00        0.267       1620.4 
     1383.00        0.267       1476.9 
     1384.00        0.233       1465.7 
     1385.00        0.250       1424.6 
     1386.00        0.567       1405.4 
     1387.00        0.700       1325.9 
     1388.00        0.600       1226.5 
     1389.00        0.367       1317.8 
     1390.00        0.233       1398.7 
     1391.00        0.267       1438.8 
     1392.00        0.267       1451.6 
     1393.00        0.233       1442.5 
     1394.00        0.317       1441.8 
     1395.00        0.267       1410.8 
     1396.00        0.300       1379.8 
     1397.00        0.267       1368.4 
     1398.00        0.267       1358.3 
     1399.00        0.233       1354.6 
     1400.00        0.233       1378.5 
     1401.00        0.300       1384.5 
     1402.00        0.633       1368.0 
     1403.00        0.233       1303.7 
     1404.00        0.267       1232.9 
     1405.00        0.550       1171.9 
     1406.00        1.833       2856.2 
     1407.00        0.300       3126.4 
     1408.00        0.567       3121.7 
     1409.00        0.417       3005.1 
     1410.00        0.367       2537.5 
     1411.00        0.300       1877.4 
     1412.00        0.433       1754.8 
     1413.00        0.333       1509.2 
     1414.00        0.300       1509.5 
     1415.00        0.367       1530.4 
     1416.00        0.400       1544.6 
     1417.00        0.400       1543.9 
     1418.00        0.383       1516.3 
     1419.00        0.400       1477.2 
     1420.00        0.367       1378.5 
     1421.00        0.400       1358.3 
     1422.00        0.400       1334.7 
     1423.00        0.367       1331.3 
     1424.00        0.267       1334.3 
     1425.00        0.267       1341.1 
     1426.00        0.267       1340.1 
     1427.00        0.233       1324.6 
     1428.00        0.250       1327.9 
     1429.00        0.333       1318.8 
     1430.00        0.500       1307.1 
     1431.00        0.267       1324.2 
     1432.00        0.300       1341.4 
     1433.00        0.233       1341.4 
     1434.00        0.367       1354.9 
     1435.00        0.933       1316.8 
     1436.00        3.317       2970.4 
     1437.00        0.333       2716.4 
     1438.00        0.350       2380.8 
     1439.00        0.333       1988.6 
     1440.00        0.333       1729.2 
     1441.00        0.333       1543.2 
     1442.00        0.300       1457.0 
     1443.00        0.333       1429.0 
     1444.00        0.333       1404.8 
     1445.00        0.333       1389.3 
     1446.00        0.333       1381.5 
     1447.00        0.333       1378.5 
     1448.00        0.383       1352.2 
     1449.00        0.333       1347.5 
     1450.00        0.300       1347.1 
     1451.00        0.300       1341.4 
     1452.00        0.267       1324.6 
     1453.00        0.300       1304.4 
     1454.00        0.267       1290.5 
     1455.00        0.333       1286.2 
     1456.00        0.300       1283.5 
     1457.00        0.300       1290.2 
