~Version Information
 VERS.                                  2.0 : CWLS LAS VERSION
 WRAP.                                   NO : WRAPING MODE
 SWARE .                 MController 2.5.0J : SOFTWARE VERSION
~Well Information
 WELL.                      Peregrine 12-20 : WELL
 COMP.    Pioneer Natural Resources USA Inc : COMPANY
 FLD.                      Purgatoire River : FIELD
 LOC.               SW/NW Sec 20 T34S R65W  : LOCATION
 DATE.                             07/14/05 : DATE(S) LOGGED
 SRVC.       BLANCO Geological Services LLC : SERVICE COMPANY
 STAT.                                   CO : STATE
 CNTY.                           Las Animas : COUNTY
 CTRY.                                  USA : COUNTRY
 API.                       05-071-08428-00 : API NUMBER
 STRT.FT                             226.00 : START DEPTH
 STOP.FT                            1645.00 : STOP DEPTH
 STEP.FT                               1.00 : DEPTH INCREMENT
 NULL.                                -9999 : NULL VALUE
~Curve information
 DEPTH.FT                                   :
 ROP.MIN/FT                                 :
 GAS.UNITS                                  :
~ASCII Log data
# ...
       426.0         0.17         11.3 
       427.0         0.20         11.4 
       428.0         0.23         11.2 
       429.0         0.23         11.7 
       430.0         0.23         11.2 
       431.0         0.20         11.5 
       432.0         0.20         11.3 
       433.0         0.20         11.3 
       434.0         0.20         10.9 
       435.0         0.20         10.9 
       436.0         0.23         10.6 
       437.0         0.20         10.4 
       438.0         0.22          9.7 
       439.0         0.17         10.1 
       440.0         0.17          9.8 
       441.0         0.17         10.4 
       442.0         0.17         13.3 
       443.0         0.17         16.0 
       444.0         0.17         23.5 
       445.0         0.23         55.8 
       446.0         1.30         65.2 
       447.0         0.13         11.7 
       448.0         0.20         11.0 
       449.0         0.28         11.0 
       450.0         0.23         11.1 
       451.0         0.20         11.4 
       452.0         0.20         11.1 
       453.0         0.17         11.4 
       454.0         0.20         11.4 
       455.0         0.17         11.3 
       456.0         0.20         10.6 
       457.0         0.20         11.6 
       458.0         0.20         11.3 
       459.0         0.20         11.2 
       460.0         0.17         11.4 
       461.0         0.17         11.7 
       462.0         0.20         12.2 
       463.0         0.17         12.5 
       464.0         0.20         12.2 
       465.0         0.17         12.2 
       466.0         0.18         11.8 
       467.0         0.10         11.2 
       468.0         0.20         11.1 
       469.0         0.20         10.4 
       470.0         0.23         10.5 
       471.0         0.13         10.0 
       472.0         0.20         10.3 
       473.0         0.17         12.2 
       474.0         0.20         16.2 
       475.0         0.17         21.2 
       476.0         1.27         61.9 
       477.0         0.23         13.9 
       478.0         0.22         11.1 
       479.0         0.33         11.7 
       480.0         0.23         11.4 
       481.0         0.20         11.6 
       482.0         0.13         11.7 
       483.0         0.20         11.8 
       484.0         0.17         12.5 
       485.0         0.17         12.3 
       486.0         0.10         11.8 
       487.0         0.20         12.1 
       488.0         0.20         11.8 
       489.0         0.20         11.7 
       490.0         0.20         11.8 
       491.0         0.20         11.8 
       492.0         0.20         11.2 
       493.0         0.20         11.5 
       494.0         0.20         10.8 
       495.0         0.22         11.1 
       496.0         0.20         10.8 
       497.0         0.17         10.6 
       498.0         0.20          9.9 
       499.0         0.17          9.9 
       500.0         0.20         10.2 
       501.0         0.20         10.2 
       502.0         0.17         10.6 
       503.0         0.20         12.9 
       504.0         0.20         17.4 
       505.0         0.17         34.3 
       506.0         1.55         56.2 
       507.0         0.33         11.4 
       508.0         0.27         10.8 
       509.0         0.23         10.9 
       510.0         0.27         11.1 
       511.0         0.20         10.9 
       512.0         0.17         10.9 
       513.0         0.20         11.3 
       514.0         0.20         11.0 
       515.0         0.20         11.5 
       516.0         0.20         11.7 
       517.0         0.17         11.3 
       518.0         0.13         11.2 
       519.0         0.17         11.8 
       520.0         0.17         11.8 
       521.0         0.22         11.5 
       522.0         0.23         11.1 
       523.0         0.23         11.5 
       524.0         0.20         11.9 
       525.0         0.30         11.6 
       526.0         0.20         12.0 
       527.0         0.23         12.6 
       528.0         0.23         12.5 
       529.0         0.20         12.0 
       530.0         0.20         11.0 
       531.0         0.20         11.3 
       532.0         0.20         11.3 
       533.0         0.20         12.2 
       534.0         0.17         15.3 
       535.0         0.23         20.8 
       536.0         1.42         86.8 
       537.0         0.43         25.6 
       538.0         0.33         13.5 
       539.0         0.27         11.3 
       540.0         0.23         10.8 
       541.0         0.23         11.2 
       542.0         0.23         11.0 
       543.0         0.20         11.4 
       544.0         0.22         11.5 
       545.0         0.17         11.5 
       546.0         0.20         11.7 
       547.0         0.17         11.6 
       548.0         0.20         11.5 
       549.0         0.20         11.4 
       550.0         0.17         11.5 
       551.0         0.17         11.6 
       552.0         0.20         11.3 
       553.0         0.17         11.5 
       554.0         0.20         10.9 
       555.0         0.20         11.0 
       556.0         0.17         11.2 
       557.0         0.20         10.4 
       558.0         0.20         10.3 
       559.0         0.17         10.4 
       560.0         0.18          9.9 
       561.0         0.17         10.4 
       562.0         0.17         11.2 
       563.0         0.17         11.0 
       564.0         0.13         12.7 
       565.0         0.17         15.2 
       566.0         2.00         58.6 
       567.0         0.32         11.6 
       568.0         0.23         10.8 
       569.0         0.23         10.7 
       570.0         0.23         11.3 
       571.0         0.23         11.2 
       572.0         0.20         10.9 
       573.0         0.27         10.9 
       574.0         0.23         10.5 
       575.0         0.23         11.1 
       576.0         0.30         10.7 
       577.0         0.17         11.3 
       578.0         0.20         10.6 
       579.0         0.17         11.2 
       580.0         0.22         10.8 
       581.0         0.20         11.4 
       582.0         0.17         11.7 
       583.0         0.17         11.0 
       584.0         0.20         10.8 
       585.0         0.20         10.8 
       586.0         0.20         11.3 
       587.0         0.27         11.0 
       588.0         0.17         10.8 
       589.0         0.17         10.6 
       590.0         0.17         10.8 
       591.0         0.10         11.1 
       592.0         0.17         12.4 
       593.0         0.20         15.7 
       594.0         0.17         20.3 
       595.0         0.20         28.2 
       596.0         1.75        113.5 
       597.0         0.17         15.4 
       598.0         0.17         12.9 
       599.0         0.30         12.0 
       600.0         0.20         10.7 
       601.0         0.23         10.5 
       602.0         0.23         10.7 
       603.0         0.27         10.8 
       604.0         0.20         11.0 
       605.0         0.25         11.0 
       606.0         0.27         11.0 
       607.0         0.37         11.1 
       608.0         0.20         10.5 
       609.0         0.23         10.7 
       610.0         0.20         11.2 
       611.0         0.20         11.1 
       612.0         0.23         11.4 
       613.0         0.30         11.3 
       614.0         0.27         11.6 
       615.0         0.23         11.9 
       616.0         0.20         11.2 
       617.0         0.23         11.9 
       618.0         0.17         11.5 
       619.0         0.25         11.5 
       620.0         0.23         10.7 
       621.0         0.23         10.9 
       622.0         0.27         11.2 
       623.0         0.23         10.5 
       624.0         0.23         10.9 
       625.0         0.20         11.4 
