~Version Information
VERS.                      2.0: CWLS Log ASCII Standard - VERSION 2.0
WRAP.                       NO: One line per depth step
~Well Information Block
STRT.FT               260.0000: 
STOP.FT              2611.5000: 
STEP.FT                 0.2500: 
NULL.                -999.2500: 
COMP.          Pioneer Natural Resources: COMPANY
WELL.           Costello 44-24: WELL
FLD.           Purgatoire River: FIELD
LOC.           327' FSL & 378' FEL: LOCATION
PROV.                 Colorado: PROVINCE
CNTY.               Las Animas: COUNTRY
SRVC.                Patterson: SERVICE COMPANY
DATE.          Mon Jul 11 00:49:32 2005: LOG DATE
UWI.           05 071 08413 00: UNIQUE WELL ID
~Curve Information Block
DEPT.FT            0 000 00 00: Depth
SN.Ohm-m                      : IEL Short Normal
SP.mV                         : IEL Spontaneous Potential
DIR.Ohm-m                     : IEL Induction Resistivity
GR.GAPI                       : Gamma Ray
~Parameter Information Block
~A  Depth        SN          SP         DIR          GR     
# ...
  1801.0000   2000.0000    200.0000     10.4358    158.2508
  1801.2500   2000.0000    200.0000     10.1973    157.3844
  1801.5000   2000.0000    200.0000      9.9851    157.1103
  1801.7500   2000.0000    200.0000      9.7876    158.3530
  1802.0000   2000.0000    200.0000      9.5900    161.8366
  1802.2500   2000.0000    200.0000      9.3818    164.2691
  1802.5000   2000.0000    200.0000      9.1631    167.1910
  1802.7500   2000.0000    200.0000      8.9443    169.0585
  1803.0000   2000.0000    200.0000      8.7401    172.7439
  1803.2500   2000.0000    200.0000      8.5626    175.6169
  1803.5000   2000.0000    200.0000      8.4177    178.9518
  1803.7500   2000.0000    200.0000      8.3046    179.6418
  1804.0000   2000.0000    200.0000      8.2180    178.0136
  1804.2500   2000.0000    200.0000      8.1504    175.5264
  1804.5000   2000.0000    200.0000      8.0934    170.7424
  1804.7500   2000.0000    200.0000      8.0391    167.4974
  1805.0000   2000.0000    200.0000      7.9812    163.4617
  1805.2500   2000.0000    200.0000      7.9167    161.6560
  1805.5000   2000.0000    200.0000      7.8470    160.5188
  1805.7500   2000.0000    200.0000      7.7777    160.7926
  1806.0000   2000.0000    200.0000      7.7150    162.4008
  1806.2500   2000.0000    200.0000      7.6633    163.8902
  1806.5000   2000.0000    200.0000      7.6239    166.0924
  1806.7500   2000.0000    200.0000      7.5967    167.3291
  1807.0000   2000.0000    200.0000      7.5823    169.0066
  1807.2500   2000.0000    200.0000      7.5824    170.4039
  1807.5000   2000.0000    200.0000      7.5979    173.4039
  1807.7500   2000.0000    200.0000      7.6275    175.6781
  1808.0000   2000.0000    200.0000      7.6670    178.1195
  1808.2500   2000.0000    200.0000      7.7112    178.5112
  1808.5000   2000.0000    200.0000      7.7560    177.2093
  1808.7500   2000.0000    200.0000      7.7996    175.3061
  1809.0000   2000.0000    200.0000      7.8417    171.0565
  1809.2500   2000.0000    200.0000      7.8820    167.3058
  1809.5000   2000.0000    200.0000      7.9204    160.6944
  1809.7500   2000.0000    200.0000      7.9596    156.2461
  1810.0000   2000.0000    200.0000      8.0066    150.9435
  1810.2500   2000.0000    200.0000      8.0731    148.9610
  1810.5000   2000.0000    200.0000      8.1701    148.4247
  1810.7500   2000.0000    200.0000      8.3011    149.1983
  1811.0000   2000.0000    200.0000      8.4558    151.0728
  1811.2500   2000.0000    200.0000      8.6126    152.5917
  1811.5000   2000.0000    200.0000      8.7457    155.5325
  1811.7500   2000.0000    200.0000      8.8361    158.0885
  1812.0000   2000.0000    200.0000      8.8766    162.5034
  1812.2500   2000.0000    200.0000      8.8705    165.2052
  1812.5000   2000.0000    200.0000      8.8275    167.3354
  1812.7500   2000.0000    200.0000      8.7602    166.7625
  1813.0000   2000.0000    200.0000      8.6811    162.9585
  1813.2500   2000.0000    200.0000      8.6002    159.2661
  1813.5000   2000.0000    200.0000      8.5235    154.0342
  1813.7500   2000.0000    200.0000      8.4539    151.8716
  1814.0000   2000.0000    200.0000      8.3923    151.5697
  1814.2500   2000.0000    200.0000      8.3399    152.9522
  1814.5000   2000.0000    200.0000      8.3000    155.3916
  1814.7500   2000.0000    200.0000      8.2779    156.1379
  1815.0000   2000.0000    200.0000      8.2780    155.7206
  1815.2500   2000.0000    200.0000      8.2998    155.2981
  1815.5000   2000.0000    200.0000      8.3374    156.1434
  1815.7500   2000.0000    200.0000      8.3830    158.0123
  1816.0000   2000.0000    200.0000      8.4305    161.9824
  1816.2500   2000.0000    200.0000      8.4770    164.4394
  1816.5000   2000.0000    200.0000      8.5203    165.7173
  1816.7500   2000.0000    200.0000      8.5580    163.7510
  1817.0000   2000.0000    200.0000      8.5891    155.7086
  1817.2500   2000.0000    200.0000      8.6167    147.7056
  1817.5000   2000.0000    200.0000      8.6487    134.6045
  1817.7500   2000.0000    200.0000      8.6953    126.7093
  1818.0000   2000.0000    200.0000      8.7650    117.5456
  1818.2500   2000.0000    200.0000      8.8617    113.5977
  1818.5000   2000.0000    200.0000      8.9840    111.5087
  1818.7500   2000.0000    200.0000      9.1257    112.8293
  1819.0000   2000.0000    200.0000      9.2777    118.1946
  1819.2500   2000.0000    200.0000      9.4297    123.1594
  1819.5000   2000.0000    200.0000      9.5727    131.2770
  1819.7500   2000.0000    200.0000      9.7008    136.7223
  1820.0000   2000.0000    200.0000      9.8122    144.7456
  1820.2500   2000.0000    200.0000      9.9078    149.7712
  1820.5000   2000.0000    200.0000      9.9895    155.7581
  1820.7500   2000.0000    200.0000     10.0610    157.9646
  1821.0000   2000.0000    200.0000     10.1295    158.2908
  1821.2500   2000.0000    200.0000     10.2055    157.1743
  1821.5000   2000.0000    200.0000     10.3001    154.9504
  1821.7500   2000.0000    200.0000     10.4194    153.3120
  1822.0000   2000.0000    200.0000     10.5614    149.7111
  1822.2500   2000.0000    200.0000     10.7166    145.9055
  1822.5000   2000.0000    200.0000     10.8740    137.9500
  1822.7500   2000.0000    200.0000     11.0292    131.7923
  1823.0000   2000.0000    200.0000     11.1863    123.1078
  1823.2500   2000.0000    200.0000     11.3521    118.6812
  1823.5000   2000.0000    200.0000     11.5277    114.9089
  1823.7500   2000.0000    200.0000     11.7060    114.2323
  1824.0000   2000.0000    200.0000     11.8788    115.4572
  1824.2500   2000.0000    200.0000     12.0461    117.4586
  1824.5000   2000.0000    200.0000     12.2180    121.6310
  1824.7500   2000.0000    200.0000     12.4076    124.7685
  1825.0000   2000.0000    200.0000     12.6199    129.6210
  1825.2500   2000.0000    200.0000     12.8461    133.1171
  1825.5000   2000.0000    200.0000     13.0679    139.0789
  1825.7500   2000.0000    200.0000     13.2704    143.0469
  1826.0000   2000.0000    200.0000     13.4537    146.5007
  1826.2500   2000.0000    200.0000     13.6343    145.4728
  1826.5000   2000.0000    200.0000     13.8323    138.0462
  1826.7500   2000.0000    200.0000     14.0561    130.3272
  1827.0000   2000.0000    200.0000     14.2959    118.2089
  1827.2500   2000.0000    200.0000     14.5327    111.7414
  1827.5000   2000.0000    200.0000     14.7544    106.3988
  1827.7500   2000.0000    200.0000     14.9613    105.8599
  1828.0000   2000.0000    200.0000     15.1533    108.3264
  1828.2500   2000.0000    200.0000     15.3099    111.0552
  1828.5000   2000.0000    200.0000     15.3834    115.3563
  1828.7500   2000.0000    200.0000     15.3183    118.0892
  1829.0000   2000.0000    200.0000     15.0834    122.3013
  1829.2500   2000.0000    200.0000     14.6903    125.5936
  1829.5000   2000.0000    200.0000     14.1846    131.7889
  1829.7500   2000.0000    200.0000     13.6214    136.7137
  1830.0000   2000.0000    200.0000     13.0466    144.7532
  1830.2500   2000.0000    200.0000     12.4913    150.2123
  1830.5000   2000.0000    200.0000     11.9735    158.0189
  1830.7500   2000.0000    200.0000     11.5010    162.6537
  1831.0000   2000.0000    200.0000     11.0736    168.5059
  1831.2500   2000.0000    200.0000     10.6862    171.7591
  1831.5000   2000.0000    200.0000     10.3331    175.6726
  1831.7500   2000.0000    200.0000     10.0110    177.4229
  1832.0000   2000.0000    200.0000      9.7203    178.6838
  1832.2500   2000.0000    200.0000      9.4640    178.9696
  1832.5000   2000.0000    200.0000      9.2472    179.2611
  1832.7500   2000.0000    200.0000      9.0763    179.4271
  1833.0000   2000.0000    200.0000      8.9576    179.3993
  1833.2500   2000.0000    200.0000      8.8948    179.2843
  1833.5000   2000.0000    200.0000      8.8878    179.7174
  1833.7500   2000.0000    200.0000      8.9336    180.8549
  1834.0000   2000.0000    200.0000      9.0288    183.7577
  1834.2500   2000.0000    200.0000      9.1709    185.8231
