~Version Information
VERS.                      2.0: CWLS Log ASCII Standard - VERSION 2.0
WRAP.                       NO: One line per depth step
~Well Information Block
STRT.FT               238.0000: 
STOP.FT              1377.0000: 
STEP.FT                 0.1000: 
NULL.                -999.2500: 
COMP.          Pioneer Natural Resources: COMPANY
WELL.             Raptor 44-26: WELL
FLD.           Purgatoire River: FIELD
LOC.           180' FSL & 812' FEL: LOCATION
PROV.                 Colorado: PROVINCE
CNTY.               Las Animas: COUNTRY
SRVC.                Patterson: SERVICE COMPANY
DATE.          Tue Mar 22 15:28:33 2005: LOG DATE
UWI.           05 071 08187 00: UNIQUE WELL ID
~Curve Information Block
DEPT.FT            0 000 00 00: Depth
DCAL.in                       : CDL Caliper
RHOB.g/cc                     : CDL Bulk Density
RHOC.g/cc                     : CDL Density Correction
DPOR.pu                       : CDL Density Porosity
GR.GAPI                       : Gamma Ray
NPOR.pu                       : Neutron Porosity
~Parameter Information Block
~A  Depth       DCAL        RHOB        RHOC        DPOR         GR         NPOR    
# ...
   689.2000      7.8697      2.4803     -0.0197     10.2841    169.9744     29.4587
   689.3000      7.8736      2.4881      0.0132      9.8145    177.1893     29.3160
   689.4000      7.8736      2.5024      0.0581      8.9466    178.2617     29.0479
   689.5000      7.9156      2.5013      0.0430      9.0124    172.3895     29.0032
   689.6000      7.9156      2.4939      0.0427      9.4607    165.2195     29.1721
   689.7000      7.9156      2.4926      0.0613      9.5397    160.1048     29.2288
   689.8000      7.9491      2.4877      0.0782      9.8348    155.9688     29.1235
   689.9000      7.9491      2.4664      0.0891     11.1294    153.6700     29.0674
   690.0000      7.9584      2.4505      0.0230     12.0905    153.9391     29.0670
   690.1000      7.9584      2.4843      0.0046     10.0415    155.3062     29.0771
   690.2000      7.9584      2.5564      0.1707      5.6752    159.3696     29.3019
   690.3000      7.9545      2.6043      0.1812      2.7692    166.5803     29.7582
   690.4000      7.9545      2.6168      0.1073      2.0108    171.2870     30.0361
   690.5000      7.9531      2.6290      0.1587      1.2701    168.4550     29.9613
   690.6000      7.9531      2.6381      0.1851      0.7231    161.6774     29.6442
   690.7000      7.9531      2.6214      0.1729      1.7357    156.5214     29.2678
   690.8000      7.9436      2.5909      0.0919      3.5830    152.7116     29.0964
   690.9000      7.9436      2.5677      0.0520      4.9893    144.7808     28.9726
   691.0000      7.9273      2.5497      0.0566      6.0813    131.5677     28.7272
   691.1000      7.9273      2.5351      0.0013      6.9644    118.7761     28.6426
   691.2000      7.9273      2.5353      0.0186      6.9510    110.8624     28.6844
   691.3000      7.8632      2.5538      0.0111      5.8305    108.3804     28.5708
   691.4000      7.8632      2.5776      0.0860      4.3883    107.9160     28.3719
   691.5000      7.8176      2.5886      0.0748      3.7231    104.8693     28.0419
   691.6000      7.8176      2.5840      0.0606      4.0028     98.9342     27.6056
   691.7000      7.8176      2.5807      0.0057      4.1985     93.6591     27.3970
   691.8000      7.8226      2.5880      0.0655      3.7552     90.5281     27.3902
   691.9000      7.8226      2.5870      0.0975      3.8205     88.7949     27.2663
   692.0000      7.8105      2.5653      0.1045      5.1352     91.3744     26.8267
   692.1000      7.8105      2.5390      0.0754      6.7281    100.0057     26.2700
   692.2000      7.8105      2.5240      0.0989      7.6359    108.9120     26.0090
   692.3000      7.7948      2.5182      0.1094      7.9884    114.8820     26.0743
   692.4000      7.7948      2.5148      0.1226      8.1942    121.6139     26.4411
   692.5000      7.7825      2.5165      0.1049      8.0903    129.7827     27.1901
   692.6000      7.7825      2.5307      0.1195      7.2277    136.1211     27.9225
   692.7000      7.7825      2.5576      0.1622      5.5981    142.0530     28.1821
   692.8000      7.7920      2.5917      0.1749      3.5356    147.8824     28.1910
   692.9000      7.7920      2.6222      0.2112      1.6822    149.9467     28.4105
   693.0000      7.8262      2.6411      0.1507      0.5415    150.8518     29.0059
   693.1000      7.8262      2.6624      0.1459     -0.7544    151.4098     29.8476
   693.2000      7.8262      2.7063      0.1380     -3.4136    146.6187     30.6927
   693.3000      7.8693      2.7672      0.1678     -7.1033    137.7114     31.4172
   693.4000      7.8693      2.8234      0.1512    -10.5077    130.4551     32.0290
   693.5000      7.8730      2.8731      0.1632    -13.5215    127.1606     32.5833
   693.6000      7.8730      2.9284      0.2030    -16.8753    125.8863     33.0254
   693.7000      7.8730      2.9809      0.2041    -20.0567    122.5672     33.1357
   693.8000      7.8689      3.0053      0.1744    -21.5341    114.2658     32.7384
   693.9000      7.8689      2.9860      0.0774    -20.3655    102.9322     32.1165
   694.0000      7.8476      2.9322      0.0067    -17.1038     94.4780     31.8644
   694.1000      7.8476      2.8726     -0.0309    -13.4927     91.5992     31.8583
   694.2000      7.8476      2.8296      0.0003    -10.8872     92.8239     31.6150
   694.3000      7.8187      2.7961      0.0017     -8.8532     95.2645     31.3527
   694.4000      7.8187      2.7591     -0.0986     -6.6149     95.9911     31.3384
   694.5000      7.8048      2.7307     -0.0625     -4.8896     93.4995     31.3448
   694.6000      7.8048      2.7266     -0.0001     -4.6422     88.2354     31.1279
   694.7000      7.8048      2.7490      0.0115     -6.0029     82.9505     30.5733
   694.8000      7.8302      2.7931      0.0321     -8.6736     81.8301     29.8725
   694.9000      7.8302      2.8374      0.1394    -11.3566     85.4688     29.3011
   695.0000      7.8254      2.8476      0.1802    -11.9727     90.1634     28.9112
   695.1000      7.8254      2.8198      0.0998    -10.2892     93.7338     28.6217
   695.2000      7.8254      2.7871      0.0947     -8.3094     95.8446     28.3260
   695.3000      7.8175      2.7717      0.0606     -7.3751     96.4843     27.8826
   695.4000      7.8175      2.7612      0.1047     -6.7369     97.1409     27.3683
   695.5000      7.8131      2.7332      0.0807     -5.0420     98.0768     26.9898
   695.6000      7.8131      2.6978      0.0478     -2.8949     98.7075     26.9082
   695.7000      7.8131      2.6744      0.1370     -1.4776    102.2827     27.1999
   695.8000      7.7946      2.6595      0.1171     -0.5732    110.5722     27.5698
   695.9000      7.7946      2.6388      0.1340      0.6770    118.6446     27.6583
   696.0000      7.7910      2.6079      0.0579      2.5492    121.1432     27.5159
   696.1000      7.7910      2.5822      0.0575      4.1066    121.1458     27.3633
   696.2000      7.7910      2.5667      0.0393      5.0459    124.8544     27.3896
   696.3000      7.7921      2.5498      0.0116      6.0747    131.2388     27.5431
   696.4000      7.7921      2.5338      0.0344      7.0452    137.2613     27.7014
   696.5000      7.8399      2.5329      0.0919      7.0998    142.0581     27.9985
   696.6000      7.8399      2.5463      0.0752      6.2878    144.1453     28.3909
   696.7000      7.8399      2.5556      0.0917      5.7220    146.2656     28.5495
   696.8000      7.8523      2.5557      0.0678      5.7163    150.5325     28.4920
   696.9000      7.8523      2.5550      0.0789      5.7562    151.6095     28.4452
   697.0000      7.8751      2.5409      0.0645      6.6115    146.6373     28.4845
   697.1000      7.8751      2.5060      0.0070      8.7271    142.4906     28.6839
   697.2000      7.8751      2.4842      0.0059     10.0471    146.2468     28.8817
   697.3000      7.8827      2.5014      0.0319      9.0086    154.5681     28.9516
   697.4000      7.8827      2.5344      0.1079      7.0083    160.2870     28.9307
   697.5000      7.8727      2.5543      0.0981      5.8011    160.9147     28.7023
   697.6000      7.8727      2.5614      0.1161      5.3688    157.5411     28.3649
   697.7000      7.8727      2.5648      0.1374      5.1649    152.8100     28.2024
   697.8000      7.8560      2.5667      0.1165      5.0510    150.7232     28.4240
   697.9000      7.8560      2.5684      0.0691      4.9471    152.5327     28.9994
   698.0000      7.8530      2.5718      0.0997      4.7377    155.3032     29.5123
   698.1000      7.8530      2.5757      0.0638      4.5048    156.2050     29.5779
   698.2000      7.8530      2.5826      0.0910      4.0818    154.9507     29.2855
   698.3000      7.8539      2.5945      0.1287      3.3620    152.6314     28.9449
   698.4000      7.8539      2.6028      0.1427      2.8590    149.0497     28.7560
   698.5000      7.8586      2.5966      0.1640      3.2389    143.7097     28.7449
   698.6000      7.8586      2.5728      0.1329      4.6788    140.5427     28.8192
   698.7000      7.8586      2.5421      0.0725      6.5423    143.4377     28.8060
