~Version Information
VERS.                      2.0: CWLS Log ASCII Standard - VERSION 2.0
WRAP.                       NO: One line per depth step
~Well Information Block
STRT.FT                -6.2500: 
STOP.FT              2316.0000: 
STEP.FT                 0.2500: 
NULL.                -999.2500: 
COMP.          Pioneer Natural Resources: COMPANY
WELL.             Trimax 44-23: WELL
FLD.           Purgatorie River: FIELD
LOC.           527' FSL & 1064' FEL------: LOCATION
PROV.                       CO: PROVINCE
CNTY.               Las Animas: COUNTRY
SRVC.          Patterson Wireline: SERVICE COMPANY
DATE.          Sat Mar 19 11:18:53 2005: LOG DATE
UWI.           05 071 08326 00: UNIQUE WELL ID
~Curve Information Block
DEPT.FT            0 000 00 00: Depth
CCL.                          : Casing Collar Locator
TT3.usec                      : CBL 3' Travel Time
AMP3.mV                       : CBL 3' Amplitude
GR.GAPI                       : Gamma Ray
~Parameter Information Block
~A  Depth       CCL         TT3         AMP3         GR     
# ...
  1065.7500      0.0000    788.9690      8.1028    133.7729
  1066.0000      0.0000    761.3635      8.2505    131.7484
  1066.2500      0.0000    741.7405      8.4630    130.6744
  1066.5000      0.0000    737.0104      8.6873    130.3834
  1066.7500      0.0000    746.1172      8.8590    130.2231
  1067.0000      0.0000    760.4795      8.9621    129.4991
  1067.2500      0.0000    770.0343      9.0323    127.7812
  1067.5000      0.0000    770.3061      9.0955    124.8611
  1067.7500      0.0000    764.6055      9.1213    120.6415
  1068.0000      0.0000    759.5065      9.0678    115.4878
  1068.2500      0.0000    757.9122      8.9652    110.6088
  1068.5000      0.0000    756.3652      8.9079    107.5665
  1068.7500      0.0000    749.3450      8.9485    107.2331
  1069.0000      0.0000    735.7048      9.0441    109.1287
  1069.2500      0.0000    719.8597      9.1264    111.3816
  1069.5000      0.0000    707.1121      9.1830    111.5447
  1069.7500      0.0000    699.3734      9.2391    108.3904
  1070.0000      0.0000    695.2305      9.2964    103.1354
  1070.2500      0.0000    692.3801      9.3254     98.3070
  1070.5000      0.0000    689.4658      9.3087     95.3530
  1070.7500      0.0000    686.5257      9.2628     93.8203
  1071.0000      0.0000    684.0730      9.2183     92.6214
  1071.2500      0.0000    681.0588      9.1895     91.4655
  1071.5000      0.0000    673.1013      9.1597     91.0508
  1071.7500      0.0000    653.1304      9.0808     92.2336
  1072.0000      0.0000    615.5272      8.8997     95.0528
  1072.2500      0.0000    561.7914      8.6177     98.4810
  1072.5000      0.0000    502.3825      8.3321    101.2046
  1072.7500      0.0000    451.1165      8.1918    102.6446
  1073.0000      0.0000    416.4635      8.2858    103.2199
  1073.2500      0.0000    398.0728      8.5669    103.7161
  1073.5000      0.0000    390.3878      8.8761    104.3955
  1073.7500      0.0000    387.8693      9.0367    104.5859
  1074.0000      0.0000    387.2767      8.9517    103.1171
  1074.2500      0.0000    387.2780      8.6541     99.3099
  1074.5000      0.0000    387.4387      8.2962     93.6587
  1074.7500      0.0000    387.6227      8.0828     87.5275
  1075.0000      0.0000    387.7811      8.1691     82.1449
  1075.2500      0.0000    387.9034      8.5697     77.9272
  1075.5000      0.0000    387.9770      9.1406     74.7605
  1075.7500      0.0000    387.9776      9.6615     72.7236
  1076.0000      0.0000    387.8870      9.9569     72.3224
  1076.2500      0.0000    387.7081      9.9562     74.1200
  1076.5000      0.0000    387.4359      9.6835     78.3116
  1076.7500      0.0000    386.9928      9.2354     84.4859
  1077.0000      0.0000    386.1914      8.7632     91.5026
  1077.2500      0.0000    384.8776      8.4166     97.7468
  1077.5000      0.0000    383.5326      8.2639    101.9563
  1077.7500      0.0000    384.2253      8.2678    103.9667
  1078.0000      0.0000    391.0763      8.3524    104.5356
  1078.2500      0.0000    408.8690      8.4871    104.5695
  1078.5000      0.0000    438.8606      8.7009    104.7001
  1078.7500      0.0000    474.0796      9.0161    105.2571
  1079.0000      0.0000    500.7819      9.3794    106.2140
  1079.2500      0.0000    509.7776      9.6603    107.2539
  1079.5000      0.0000    507.9590      9.7094    108.0649
  1079.7500      0.0000    514.6423      9.4345    108.3437
  1080.0000      0.0000    543.6542      8.8690    107.4953
  1080.2500      0.0000    590.5005      8.1971    104.7690
  1080.5000      0.0000    637.9664      7.6826     99.9956
  1080.7500      0.0000    671.6889      7.5152     94.0435
  1081.0000      0.0000    688.6493      7.6898     88.3512
  1081.2500      0.0000    693.6457      8.0272     84.0492
  1081.5000      0.0000    691.8311      8.3144     81.4579
  1081.7500      0.0000    684.9663      8.4370     80.1170
  1082.0000      0.0000    671.5699      8.4092     79.1116
  1082.2500      0.0000    648.1135      8.3203     77.5232
  1082.5000      0.0000    611.0103      8.2770     74.8826
  1082.7500      0.0000    560.6355      8.3588     71.4611
  1083.0000      0.0000    504.5882      8.5729     68.1459
  1083.2500      0.0000    454.8942      8.8308     65.9518
  1083.5000      0.0000    420.2307      8.9963     65.6075
  1083.7500      0.0000    401.2786      8.9824     67.3087
  1084.0000      0.0000    393.1504      8.8076     70.4528
  1084.2500      0.0000    390.4375      8.5655     73.6678
  1084.5000      0.0000    389.8203      8.3551     75.4665
  1084.7500      0.0000    389.9139      8.2333     75.0512
  1085.0000      0.0000    390.2960      8.2040     72.7182
  1085.2500      0.0000    390.8449      8.2394     69.8801
  1085.5000      0.0000    391.4640      8.3187     68.5426
  1085.7500      0.0000    392.0510      8.4368     70.0135
  1086.0000      0.0000    392.5140      8.5669     73.8150
  1086.2500      0.0000    392.7885      8.6514     78.1190
  1086.5000      0.0000    392.8345      8.6654     81.2720
  1086.7500      0.0000    392.6431      8.6586     82.8119
  1087.0000      0.0000    392.2497      8.6898     83.2598
  1087.2500      0.0000    391.7195      8.7409     83.1717
  1087.5000      0.0000    391.1049      8.7388     82.4204
  1087.7500      0.0000    390.4280      8.6486     80.4224
  1088.0000      0.0000    389.7049      8.5101     76.9619
  1088.2500      0.0000    388.9679      8.3873     72.6859
  1088.5000      0.0000    388.2507      8.3175     68.8437
  1088.7500      0.0000    387.5379      8.3153     66.5395
  1089.0000      0.0000    386.6857      8.4018     66.1167
  1089.2500      0.0000    385.3307      8.6006     67.1777
  1089.5000      0.0000    382.9361      8.8973     69.0285
  1089.7500      0.0000    379.2347      9.2146     70.9060
  1090.0000      0.0000    374.9298      9.4470     71.8760
  1090.2500      0.0000    371.7808      9.5345     70.9751
  1090.5000      0.0000    371.4269      9.5110     67.8852
  1090.7500      0.0000    373.9189      9.4834     63.5247
  1091.0000      0.0000    377.6815      9.5585     59.7162
  1091.2500      0.0000    380.9370      9.7640     58.0107
  1091.5000      0.0000    382.9018     10.0271     58.8165
  1091.7500      0.0000    383.9231     10.2265     61.6238
  1092.0000      0.0000    385.4279     10.2710     65.9009
  1092.2500      0.0000    390.4972     10.1524     71.5849
  1092.5000      0.0000    403.8298      9.9518     78.9002
  1092.7500      0.0000    428.6048      9.7938     88.0900
  1093.0000      0.0000    461.2904      9.7665     99.0462
  1093.2500      0.0000    491.4091      9.8669    110.5194
  1093.5000      0.0000    510.5730     10.0155    119.9849
  1093.7500      0.0000    522.1143     10.1155    125.2936
  1094.0000      0.0000    538.3684     10.1051    126.5553
  1094.2500      0.0000    567.7941      9.9774    125.8544
  1094.5000      0.0000    607.3036      9.7628    125.3008
  1094.7500      0.0000    647.0081      9.4974    125.8207
  1095.0000      0.0000    678.9663      9.2104    127.3869
  1095.2500      0.0000    700.3403      8.9338    129.5906
  1095.5000      0.0000    711.4962      8.7090    131.9705
  1095.7500      0.0000    714.3220      8.5725    134.1285
  1096.0000      0.0000    712.0249      8.5269    135.4658
  1096.2500      0.0000    708.5561      8.5220    134.8179
  1096.5000      0.0000    707.2927      8.4769    130.8547
  1096.7500      0.0000    710.1138      8.3462    123.0985
  1097.0000      0.0000    717.0775      8.1736    112.4847
  1097.2500      0.0000    726.1735      8.0703    101.0611
  1097.5000      0.0000    733.3215      8.1239     91.2761
  1097.7500      0.0000    733.5889      8.3198     85.2994
  1098.0000      0.0000    723.7634      8.5462     84.5428
  1098.2500      0.0000    704.9059      8.6670     89.4460
  1098.5000      0.0000    682.9637      8.5961     99.3956
  1098.7500      0.0000    666.5784      8.3367    112.6651
  1099.0000      0.0000    662.2939      7.9787    126.6735
