~Version Information
VERS.                      2.0: CWLS Log ASCII Standard - VERSION 2.0
WRAP.                       NO: One line per depth step
~Well Information Block
STRT.FT                -9.2500: 
STOP.FT              1945.2500: 
STEP.FT                 0.2500: 
NULL.                -999.2500: 
COMP.          Pioneer Natural Resources: COMPANY
WELL.          Titan Federal 34-17: WELL
FLD.           Purgatorie River: FIELD
LOC.           321' FSL & 1911' FEL: LOCATION
STAT.                       CO: State
CNTY.               Las Animas: COUNTY
CTRY. USA : Country
SECT. 17 : Section
TOWN. 32S : Township
RANG. 65W : Range
SRVC.          Patterson Wireline: SERVICE COMPANY
DATE.          Tue Oct 11 10:22:27 2005: LOG DATE
API.           05 071 08272 00: UNIQUE WELL ID
~Curve Information Block
DEPT.FT            0 000 00 00: Depth
CCL.                          : Casing Collar Locator
TT3.usec                      : CBL 3' Travel Time
AMP3.mV                       : CBL 3' Amplitude
GR.GAPI                       : Gamma Ray
~Parameter Information Block
~A  Depth       CCL         TT3         AMP3         GR     
# ...
  1531.7500      0.0000    707.0638      2.3801     86.6846
  1532.0000      0.0000    708.4026      2.2675     85.1930
  1532.2500      0.0000    718.6455      2.2317     87.3450
  1532.5000      0.0000    737.4504      2.2703     91.9931
  1532.7500      0.0000    757.6029      2.3743     98.3014
  1533.0000      0.0000    769.4803      2.5411    105.3984
  1533.2500      0.0000    768.6681      2.7844    112.0770
  1533.5000      0.0000    759.1667      3.1353    117.4665
  1533.7500      0.0000    748.9834      3.6305    121.9701
  1534.0000      0.0000    743.8572      4.2780    126.8771
  1534.2500      0.0000    745.3542      5.0007    132.7196
  1534.5000      0.0000    752.4773      5.6215    138.4244
  1534.7500      0.0000    763.3685      5.9594    142.3399
  1535.0000      0.0000    776.2949      5.9877    143.6523
  1535.2500      0.0000    789.8572      5.8762    142.4798
  1535.5000      0.0000    802.0083      5.8421    139.1551
  1535.7500      0.0000    809.5146      5.9675    134.0900
  1536.0000     -2.0000    809.9830      6.1670    128.0451
  1536.2500      2.0000    804.1752      6.2967    121.9072
  1536.5000      0.0000    794.8601      6.2750    116.1779
  1536.7500      0.0000    783.7245      6.1434    110.8014
  1537.0000      0.0000    771.0316      6.0510    105.3554
  1537.2500      0.0000    757.9124      6.1489     99.5346
  1537.5000      0.0000    746.8677      6.4469     93.5236
  1537.7500      0.0000    739.3103      6.7852     87.6767
  1538.0000      0.0000    733.9847      6.9778     81.9364
  1538.2500      0.0000    728.8674      6.9711     76.0566
  1538.5000      0.0000    723.8088      6.8457     70.4539
  1538.7500      0.0000    720.3812      6.7007     66.3311
  1539.0000      0.0000    719.6880      6.5783     64.6561
  1539.2500      0.0000    721.1671      6.4753     65.2392
  1539.5000      0.0000    723.4819      6.3822     67.0872
  1539.7500      0.0000    725.9929      6.2979     69.4339
  1540.0000      0.0000    728.8741      6.2285     72.0994
  1540.2500      0.0000    731.9063      6.1855     75.1071
  1540.5000      0.0000    734.1547      6.1790     78.7068
  1540.7500      0.0000    735.3593      6.2083     83.9724
  1541.0000      0.0000    736.8486      6.2608     92.5023
  1541.2500      0.0000    740.4625      6.3268    104.5916
  1541.5000      0.0000    747.0379      6.4096    117.8134
  1541.7500      0.0000    755.7489      6.5207    128.2163
  1542.0000      0.0000    763.8779      6.6670    133.3063
  1542.2500      0.0000    767.4553      6.8423    133.8186
  1542.5000      0.0000    763.6007      7.0273    132.7306
  1542.7500      0.0000    752.9310      7.1956    132.8006
  1543.0000      0.0000    739.3854      7.3251    134.7376
  1543.2500      0.0000    727.4481      7.4101    137.0997
  1543.5000      0.0000    719.4971      7.4643    137.8673
  1543.7500      0.0000    715.3657      7.5108    136.4786
  1544.0000      0.0000    713.6528      7.5667    134.3273
  1544.2500      0.0000    713.0177      7.6329    133.1602
  1544.5000      0.0000    712.5859      7.6968    133.3980
  1544.7500      0.0000    711.7618      7.7446    134.2261
  1545.0000      0.0000    710.0871      7.7687    134.8564
  1545.2500      0.0000    707.4543      7.7660    135.2299
  1545.5000      0.0000    704.3975      7.7328    135.5894
  1545.7500      0.0000    701.8785      7.6630    135.8244
  1546.0000      0.0000    700.6906      7.5505    135.4980
  1546.2500      0.0000    701.3890      7.3930    134.2835
  1546.5000      0.0000    704.8082      7.1957    132.2577
  1546.7500      0.0000    711.9879      6.9719    130.1482
  1547.0000      0.0000    722.9702      6.7386    129.2506
  1547.2500      0.0000    735.6522      6.5106    130.3569
  1547.5000      0.0000    746.3177      6.2998    132.6517
  1547.7500      0.0000    752.1660      6.1189    134.4324
  1548.0000      0.0000    753.6083      5.9817    134.8443
  1548.2500      0.0000    753.4790      5.9007    133.9877
  1548.5000      0.0000    753.7985      5.8804    131.6541
  1548.7500      0.0000    753.9252      5.9112    127.3713
  1549.0000      0.0000    752.2273      5.9696    121.7646
  1549.2500      0.0000    748.9600      6.0292    116.6506
  1549.5000      0.0000    746.5339      6.0761    113.4478
  1549.7500      0.0000    746.5908      6.1161    112.2059
  1550.0000      0.0000    747.4481      6.1688    112.2107
  1550.2500      0.0000    745.2169      6.2557    112.6189
  1550.5000      0.0000    737.3575      6.3889    112.3720
  1550.7500      0.0000    724.8295      6.5646    110.5651
  1551.0000      0.0000    711.2317      6.7615    107.4511
  1551.2500      0.0000    700.4656      6.9481    104.3786
  1551.5000      0.0000    694.8147      7.0962    102.1850
  1551.7500      0.0000    694.4233      7.1915    100.0129
  1552.0000      0.0000    698.0776      7.2371     96.1830
  1552.2500      0.0000    704.3581      7.2501     90.1495
  1552.5000      0.0000    712.1815      7.2522     83.3135
  1552.7500      0.0000    720.5154      7.2571     77.8187
  1553.0000      0.0000    727.8626      7.2634     74.7832
  1553.2500      0.0000    732.4971      7.2583     73.8496
  1553.5000      0.0000    733.5575      7.2255     73.9673
  1553.7500      0.0000    731.5018      7.1546     74.0466
  1554.0000      0.0000    727.2604      7.0474     73.1426
  1554.2500      0.0000    721.7108      6.9189     70.6498
  1554.5000      0.0000    716.3984      6.7937     66.4563
  1554.7500      0.0000    714.0128      6.6997     60.8492
  1555.0000      0.0000    717.0472      6.6569     54.4857
  1555.2500      0.0000    725.4796      6.6654     48.5308
  1555.5000      0.0000    736.1420      6.7057     44.3878
  1555.7500      0.0000    745.1929      6.7566     42.8475
  1556.0000      0.0000    751.2293      6.8094     43.5367
  1556.2500      0.0000    755.5861      6.8668     45.3240
  1556.5000      0.0000    760.0745      6.9353     47.0858
  1556.7500      0.0000    765.1667      7.0202     48.0319
  1557.0000      0.0000    769.6860      7.1229     47.8383
  1557.2500      0.0000    771.3114      7.2391     47.0621
  1557.5000      0.0000    767.8657      7.3602     47.3084
  1557.7500      0.0000    758.9399      7.4777     50.6100
  1558.0000      0.0000    746.0036      7.5888     58.5206
  1558.2500      0.0000    730.8258      7.6966     71.2962
  1558.5000      0.0000    714.7243      7.8030     87.1814
  1558.7500      0.0000    699.4514      7.8991    102.8179
  1559.0000      0.0000    687.3040      7.9702    115.4537
  1559.2500      0.0000    679.6436      8.0127    124.9222
  1559.5000      0.0000    676.0199      8.0383    132.9028
  1559.7500      0.0000    675.0751      8.0586    140.3652
  1560.0000      0.0000    675.9916      8.0717    146.2970
  1560.2500      0.0000    679.1292      8.0707    148.9790
  1560.5000      0.0000    685.5635      8.0576    148.1138
  1560.7500      0.0000    695.8196      8.0431    145.4265
  1561.0000      0.0000    708.5623      8.0375    143.2827
  1561.2500      0.0000    720.8190      8.0480    142.9439
  1561.5000      0.0000    730.4227      8.0823    144.0063
  1561.7500      0.0000    738.4180      8.1472    145.0703
  1562.0000      0.0000    747.9026      8.2431    144.7588
  1562.2500      0.0000    759.8655      8.3600    142.4877
  1562.5000      0.0000    771.2358      8.4778    138.7196
  1562.7500      0.0000    777.6719      8.5715    134.5751
  1563.0000      0.0000    777.5464      8.6232    131.2349
  1563.2500      0.0000    773.0849      8.6319    129.7624
  1563.5000      0.0000    768.5636      8.6113    130.9785
  1563.7500      0.0000    767.5440      8.5771    134.7702
  1564.0000      0.0000    770.9598      8.5360    139.6324
  1564.2500      0.0000    777.1605      8.4866    143.3761
  1564.5000      0.0000    783.4838      8.4270    144.2705
  1564.7500      0.0000    787.5988      8.3585    141.6770
  1565.0000      0.0000    787.5542      8.2846    136.3936
