~Version Information
VERS.                      2.0: CWLS Log ASCII Standard - VERSION 2.0
WRAP.                       NO: One line per depth step
~Well Information Block
STRT.FT                -7.7500: 
STOP.FT              2394.2500: 
STEP.FT                 0.2500: 
NULL.                -999.2500: 
COMP.      PIONEER NATURAL RESOURCES  : COMPANY
WELL.         NOMAD 32-10  : WELL
FLD.                          : FIELD
LOC.      SWNE 10 32S 66W 6PM : LOCATION
PROV.                         : PROVINCE
CNTY.                         : COUNTRY
SRVC.                         : SERVICE COMPANY
DATE.          Thu Aug 26 13:45:47 2004: LOG DATE
UWI.      005 071 08127  : UNIQUE WELL ID
~Curve Information Block
DEPT.FT            0 000 00 00: Depth
CCL.                          : Casing Collar Locator
TT3.usec                      : CBL 3' Travel Time
AMP3.mV                       : CBL 3' Amplitude
GR.GAPI                       : Gamma Ray
~Parameter Information Block
~A  Depth       CCL         TT3         AMP3         GR     
# ...
  1901.7500      0.0000    574.6586      3.4007    108.0275
  1902.0000      0.0000    596.0667      3.3527    108.6874
  1902.2500      0.0000    624.0765      3.3090    114.0708
  1902.5000      0.0000    651.8083      3.3527    124.2939
  1902.7500      0.0000    674.1336      3.4724    137.1434
  1903.0000      0.0000    689.1798      3.5849    148.4712
  1903.2500      0.0000    696.5871      3.6205    154.6550
  1903.5000      0.0000    696.3416      3.5768    155.2191
  1903.7500      0.0000    689.5806      3.5034    152.9628
  1904.0000      0.0000    679.7146      3.4518    151.1026
  1904.2500      0.0000    671.4323      3.4358    150.2812
  1904.5000      0.0000    667.5961      3.4289    148.5373
  1904.7500      0.0000    667.5078      3.3984    143.8527
  1905.0000      0.0000    668.5390      3.3368    136.3319
  1905.2500      0.0000    668.6570      3.2613    128.1670
  1905.5000      0.0000    667.0980      3.1926    121.9320
  1905.7500      0.0000    663.8766      3.1402    119.1504
  1906.0000      0.0000    659.5389      3.1002    120.1902
  1906.2500      0.0000    654.9725      3.0665    124.5424
  1906.5000      0.0000    651.1310      3.0479    130.6504
  1906.7500      0.0000    649.2750      3.0677    136.1156
  1907.0000      0.0000    651.1890      3.1374    138.7965
  1907.2500      0.0000    658.0620      3.2283    137.7435
  1907.5000      0.0000    668.9821      3.2800    133.1877
  1907.7500      0.0000    681.0149      3.2425    126.3479
  1908.0000      0.0000    690.7327      3.1142    119.3833
  1908.2500      0.0000    695.8436      2.9485    114.5786
  1908.5000      0.0000    696.2164      2.8345    112.7160
  1908.7500      0.0000    693.6951      2.8526    112.4531
  1909.0000      0.0000    690.5703      3.0100    111.9295
  1909.2500      0.0000    688.2075      3.2154    111.1018
  1909.5000      0.0000    687.1940      3.3510    112.1481
  1909.7500      0.0000    687.9004      3.3772    117.4021
  1910.0000      0.0000    689.9167      3.3521    126.9700
  1910.2500      0.0000    691.4626      3.3461    138.3017
  1910.5000      0.0000    690.5370      3.3661    147.7558
  1910.7500      0.0000    686.8275      3.3700    152.5462
  1911.0000      0.0000    681.9254      3.3298    151.9404
  1911.2500      0.0000    677.7073      3.2585    147.4272
  1911.5000      0.0000    674.9871      3.1899    141.6869
  1911.7500      0.0000    673.6016      3.1515    136.7755
  1912.0000      0.0000    673.1711      3.1507    132.8709
  1912.2500      0.0000    673.5728      3.1663    128.7298
  1912.5000      0.0000    674.8663      3.1548    123.4790
  1912.7500      0.0000    676.8608      3.0827    118.0106
  1913.0000      0.0000    678.7487      2.9597    114.5892
  1913.2500      0.0000    679.4207      2.8336    114.9276
  1913.5000      0.0000    678.4116      2.7500    118.5552
  1913.7500      0.0000    676.3856      2.7199    123.1777
  1914.0000      0.0000    674.4985      2.7281    126.6442
  1914.2500      0.0000    673.4848      2.7617    128.2672
  1914.5000      0.0000    673.5751      2.8188    128.3418
  1914.7500      0.0000    674.9709      2.8947    127.2135
  1915.0000      0.0000    677.8942      2.9734    125.3080
  1915.2500      0.0000    682.0224      3.0367    123.5172
  1915.5000      0.0000    686.1622      3.0781    122.7943
  1915.7500      0.0000    688.8860      3.1049    123.1958
  1916.0000      0.0000    689.5773      3.1279    123.6221
  1916.2500      0.0000    688.7034      3.1566    122.9253
  1916.5000      0.0000    687.0560      3.2008    121.4187
  1916.7500      0.0000    685.0947      3.2576    120.8649
  1917.0000      0.0000    683.1743      3.2927    122.6570
  1917.2500      0.0000    681.7953      3.2588    126.3433
  1917.5000      0.0000    681.0229      3.1533    130.1220
  1917.7500      0.0000    680.0939      3.0414    132.4771
  1918.0000      0.0000    678.2540      2.9995    133.3217
  1918.2500      0.0000    675.7321      3.0396    133.8284
  1918.5000      0.0000    673.4679      3.1030    135.2533
  1918.7500      0.0000    672.1744      3.1240    137.9066
  1919.0000      0.0000    672.0279      3.0861    141.1366
  1919.2500      0.0000    673.0445      3.0269    143.8878
  1919.5000      0.0000    675.3716      2.9995    145.1306
  1919.7500      0.0000    679.1358      3.0297    144.1499
  1920.0000      0.0000    684.0986      3.0975    140.7835
  1920.2500      0.0000    689.5690      3.1582    135.4374
  1920.5000      0.0000    694.5800      3.1793    128.9971
  1920.7500      0.0000    698.0419      3.1586    122.7663
  1921.0000      0.0000    699.0667      3.1146    118.0980
  1921.2500      0.0000    697.6795      3.0626    115.6761
  1921.5000      0.0000    694.8242      2.9992    115.1668
  1921.7500      0.0000    690.4371      2.9178    115.6492
  1922.0000      0.0000    681.0140      2.8413    116.3169
  1922.2500      0.0000    660.3847      2.8201    116.9204
  1922.5000      0.0000    625.2592      2.8786    117.7547
  1922.7500      0.0000    581.7363      2.9763    119.1581
  1923.0000      0.0000    545.6240      3.0440    120.8790
  1923.2500      0.0000    533.1000      3.0598    122.0407
  1923.5000      0.0000    548.2029      3.0702    122.0256
  1923.7500      0.0000    579.6023      3.1291    121.4469
  1924.0000      0.0000    610.8108      3.2339    121.9799
  1924.2500      0.0000    632.8123      3.3331    124.9081
  1924.5000      0.0000    646.2947      3.3716    129.7342
  1924.7500      0.0000    654.8163      3.3175    134.3264
  1925.0000      0.0000    659.3326      3.1805    136.5405
  1925.2500      0.0000    657.9710      3.0278    135.8043
  1925.5000      0.0000    647.9504      2.9575    133.3800
  1925.7500      0.0000    627.6058      3.0166    131.1721
  1926.0000      0.0000    598.1183      3.1510    130.1002
  1926.2500      0.0000    563.2147      3.2568    129.5669
  1926.5000      0.0000    526.8542      3.2754    128.3177
  1926.7500      0.0000    492.4034      3.2268    125.3931
  1927.0000      0.0000    464.0669      3.1668    120.4264
  1927.2500      0.0000    446.4456      3.1358    113.7465
  1927.5000      0.0000    440.6291      3.1415    106.4925
  1927.7500      0.0000    441.1593      3.1650    100.3566
  1928.0000      0.0000    438.7370      3.1759     96.9392
  1928.2500      0.0000    427.4921      3.1548     97.0561
  1928.5000      0.0000    409.4518      3.1150    100.1706
  1928.7500      0.0000    391.3861      3.0957    104.3299
  1929.0000      0.0000    378.4225      3.1228    107.0532
  1929.2500      0.0000    371.3371      3.1734    106.7331
  1929.5000      0.0000    368.3587      3.1914    103.5805
  1929.7500      0.0000    367.6250      3.1374     99.6001
  1930.0000      0.0000    368.0914      3.0227     97.4637
  1930.2500      0.0000    369.3269      2.8946     98.7162
  1930.5000      0.0000    371.1548      2.7934    102.7068
  1930.7500      0.0000    373.4770      2.7228    107.1794
  1931.0000      0.0000    376.2769      2.6593    110.0029
  1931.2500      0.0000    379.6642      2.5848    110.7790
  1931.5000      0.0000    383.9243      2.5098    111.1320
  1931.7500      0.0000    389.4648      2.4676    113.1831
  1932.0000      0.0000    396.4370      2.4893    117.4331
  1932.2500      0.0000    404.1221      2.5834    122.2558
  1932.5000      0.0000    410.9306      2.7347    125.5112
  1932.7500      0.0000    415.6457      2.9188    126.3814
  1933.0000      0.0000    418.6685      3.1152    125.5470
  1933.2500      0.0000    421.4445      3.2974    124.1341
  1933.5000      0.0000    424.7897      3.4198    123.0724
  1933.7500      0.0000    428.5117      3.4333    123.2486
  1934.0000      0.0000    432.3548      3.3222    125.4435
  1934.2500      0.0000    436.3523      3.1181    129.5751
  1934.5000      0.0000    440.3766      2.8813    134.3201
  1934.7500      0.0000    444.4393      2.6834    137.9937
  1935.0000      0.0000    449.7535      2.5878    139.9015
