~Version Information
VERS.                      2.0: CWLS Log ASCII Standard - VERSION 2.0
WRAP.                       NO: One line per depth step
~Well Information Block
STRT.FT               250.0000: 
STOP.FT               894.7000: 
STEP.FT                 0.1000: 
NULL.                -999.2500: 
COMP.          Pioneer Natural Resources: COMPANY
WELL.          Santisteven 13-22: WELL
FLD.           Purgatoire River: FIELD
LOC.           1861' FSL & 992' FWL----: LOCATION
PROV.                 Colorado: PROVINCE
CNTY.               Las Animas: COUNTRY
SRVC.                Patterson: SERVICE COMPANY
DATE.          Mon Apr 04 11:05:36 2005: LOG DATE
UWI.           05 071 08337 00: UNIQUE WELL ID
~Curve Information Block
DEPT.FT            0 000 00 00: Depth
DCAL.in                       : CDL Caliper
RHOB.g/cc                     : CDL Bulk Density
RHOC.g/cc                     : CDL Density Correction
DPOR.pu                       : CDL Density Porosity
NPOR.pu                       : Neutron Porosity
GR.GAPI                       : Gamma Ray
~Parameter Information Block
~A  Depth       DCAL        RHOB        RHOC        DPOR        NPOR         GR     
# ...
   374.8000      8.1320      2.6533      0.0591     -0.2027     24.0533     92.7561
   374.9000      8.1320      2.6520      0.0780     -0.1190     24.2594     93.5126
   375.0000      8.1321      2.6486      0.0663      0.0834     24.1510     91.2886
   375.1000      8.1321      2.6509      0.0651     -0.0551     24.1438     85.6165
   375.2000      8.1321      2.6582      0.0903     -0.4986     24.2993     82.5984
   375.3000      8.1335      2.6551      0.0798     -0.3062     24.2859     87.1360
   375.4000      8.1335      2.6336      0.0364      0.9942     23.9528     94.4540
   375.5000      8.1332      2.6126     -0.0144      2.2692     23.4917     97.2861
   375.6000      8.1332      2.6141      0.0348      2.1770     23.1956     96.1966
   375.7000      8.1332      2.6303      0.0666      1.1952     23.0214     91.6888
   375.8000      8.1323      2.6419      0.0350      0.4912     22.8668     82.4595
   375.9000      8.1323      2.6452      0.0545      0.2888     22.8881     75.1141
   376.0000      8.1322      2.6493     -0.0113      0.0433     22.9667     75.7332
   376.1000      8.1322      2.6609      0.0427     -0.6624     23.0621     81.0448
   376.2000      8.1322      2.6724      0.0415     -1.3552     23.4181     86.2008
   376.3000      8.1314      2.6733      0.0730     -1.4124     24.0482     89.0950
   376.4000      8.1314      2.6654      0.0176     -0.9319     24.6682     88.0572
   376.5000      8.1309      2.6601      0.0495     -0.6111     24.9387     82.2241
   376.6000      8.1309      2.6654      0.0159     -0.9358     24.8814     75.8523
   376.7000      8.1309      2.6799      0.0243     -1.8117     24.8680     73.3363
   376.8000      8.1312      2.6868      0.0581     -2.2281     24.7489     73.8045
   376.9000      8.1312      2.6658      0.0303     -0.9563     24.1387     76.4800
   377.0000      8.1313      2.6266     -0.0129      1.4205     23.4526     80.2352
   377.1000      8.1313      2.5980     -0.0092      3.1487     23.0509     82.4325
   377.2000      8.1313      2.5894      0.0136      3.6756     22.6661     83.4079
   377.3000      8.1312      2.5938     -0.0384      3.4049     22.3184     83.3509
   377.4000      8.1312      2.5973      0.0484      3.1954     22.1206     81.1132
   377.5000      8.1323      2.5789      0.0249      4.3087     21.8829     78.2760
   377.6000      8.1323      2.5422     -0.0274      6.5351     21.4649     75.2759
   377.7000      8.1323      2.5168     -0.0547      8.0741     20.8959     69.6719
   377.8000      8.1337      2.5150      0.0159      8.1827     20.5418     62.5408
   377.9000      8.1337      2.5190      0.0333      7.9418     20.4789     58.3993
   378.0000      8.1338      2.5108      0.0243      8.4378     20.2442     59.5661
   378.1000      8.1338      2.4769      0.0259     10.4922     19.7967     64.4162
   378.2000      8.1338      2.4104     -0.0233     14.5209     19.3978     70.7885
   378.3000      8.1336      2.3321     -0.0876     19.2642     19.2329     77.1619
   378.4000      8.1336      2.2674     -0.0944     23.1909     19.4815     82.0407
   378.5000      8.1340      2.2094     -0.0702     26.7004     19.9656     85.1392
   378.6000      8.1340      2.1453     -0.1216     30.5883     20.4343     84.5701
   378.7000      8.1340      2.0878     -0.0999     34.0739     20.7110     83.4721
   378.8000      8.1331      2.0481     -0.0994     36.4765     20.3538     88.9032
   378.9000      8.1331      2.0138     -0.0679     38.5603     19.2113     97.8813
   379.0000      8.1313      1.9703     -0.0631     41.1928     17.7686    104.4633
   379.1000      8.1313      1.9245     -0.0630     43.9708     16.5078    109.7793
   379.2000      8.1313      1.9008     -0.0225     45.4080     15.5542    113.9153
   379.3000      8.1295      1.9149      0.0715     44.5533     14.8232    114.4615
   379.4000      8.1295      1.9574      0.1108     41.9783     14.3077    113.6973
   379.5000      8.1277      2.0111      0.1111     38.7227     13.9090    116.0451
   379.6000      8.1277      2.0675      0.1402     35.3018     13.4883    120.1700
   379.7000      8.1277      2.1203      0.1665     32.1006     13.0099    121.7697
   379.8000      8.1281      2.1634      0.1546     29.4916     12.5420    119.7290
   379.9000      8.1281      2.2032      0.1196     27.0797     12.2950    116.5894
   380.0000      8.1278      2.2579      0.1267     23.7642     12.5159    116.7845
   380.1000      8.1278      2.3367      0.1774     18.9890     13.2212    119.9716
   380.2000      8.1278      2.4253      0.2051     13.6188     14.1342    119.6964
   380.3000      8.1275      2.4938      0.2626      9.4666     15.0679    114.4858
   380.4000      8.1275      2.5246      0.1881      7.6010     15.9610    110.8549
   380.5000      8.1288      2.5340      0.1538      7.0311     16.6089    111.1467
   380.6000      8.1288      2.5489      0.1332      6.1291     17.0632    112.9466
   380.7000      8.1288      2.5735      0.1685      4.6393     17.8167    114.6414
   380.8000      8.1310      2.5926      0.1336      3.4795     19.0402    113.5916
   380.9000      8.1310      2.6006      0.1112      2.9927     20.3773    108.3782
   381.0000      8.1331      2.6038      0.1419      2.7976     21.3783    104.0460
   381.1000      8.1331      2.6058      0.0909      2.6797     21.7999    103.3266
   381.2000      8.1331      2.5991      0.1462      3.0862     21.8985    102.0733
   381.3000      8.1346      2.5751      0.0578      4.5424     22.2735     98.1798
   381.4000      8.1346      2.5504     -0.0005      6.0374     23.1446     95.5461
   381.5000      8.1354      2.5471      0.0079      6.2377     23.9921     98.0067
   381.6000      8.1354      2.5595      0.0332      5.4859     24.3145    102.3489
   381.7000      8.1354      2.5664      0.0381      5.0653     24.3314    103.3427
   381.8000      8.1356      2.5635     -0.0162      5.2397     24.2604    100.5196
   381.9000      8.1356      2.5647     -0.0053      5.1671     24.0415     95.5811
   382.0000      8.1361      2.5757      0.0368      4.5043     24.0828     91.7849
   382.1000      8.1361      2.5867      0.0448      3.8352     24.6336     92.5472
   382.2000      8.1361      2.5889      0.0412      3.7036     25.0647     95.3665
   382.3000      8.1373      2.5874      0.0334      3.7921     25.0581     96.4625
   382.4000      8.1373      2.5961      0.0391      3.2690     24.9412     96.5229
   382.5000      8.1384      2.6098      0.1129      2.4358     24.8872     95.7875
   382.6000      8.1384      2.6027      0.0951      2.8687     25.0543     94.0791
   382.7000      8.1384      2.5695      0.0563      4.8796     25.4684     92.1761
   382.8000      8.1389      2.5419      0.0051      6.5541     26.0140     88.3845
   382.9000      8.1389      2.5464      0.0602      6.2790     26.6425     82.5759
   383.0000      8.1389      2.5727      0.0722      4.6824     27.2174     79.1535
   383.1000      8.1389      2.5965      0.0658      3.2436     27.5880     79.3830
   383.2000      8.1389      2.6032      0.0987      2.8370     27.7482     79.4875
   383.3000      8.1393      2.5926      0.0501      3.4779     27.8849     79.7135
   383.4000      8.1393      2.5706      0.1116      4.8096     28.0687     83.5842
   383.5000      8.1405      2.5379      0.0627      6.7945     27.9849     90.1750
   383.6000      8.1405      2.5022      0.0175      8.9591     27.6529     95.3098
   383.7000      8.1405      2.4784      0.0121     10.3992     27.3653     97.8619
   383.8000      8.1492      2.4706      0.0338     10.8723     27.0369     99.3912
   383.9000      8.1492      2.4678      0.0430     11.0400     26.5794    100.1312
   384.0000      8.1688      2.4568      0.0642     11.7094     26.2620    100.3765
   384.1000      8.1688      2.4390      0.0200     12.7901     26.2928    102.6217
   384.2000      8.1688      2.4267      0.0420     13.5341     26.2082    106.1786
   384.3000      8.1846      2.4229      0.0880     13.7647     25.4919    107.5119
