~Version Information
 VERS.                                  2.0 : CWLS LAS VERSION
 WRAP.                                   NO : WRAPING MODE
 SWARE .                 MController 2.5.0N : SOFTWARE VERSION
~Well Information
 WELL.                           Zink 44-10 : WELL
 COMP.    Pioneer Natural Resources USA Inc : COMPANY
 FLD.                      Purgatoire River : FIELD
 LOC.                SE/SE Sec 10 T32S R66W : LOCATION
 DATE.                              5/29/05 : DATE(S) LOGGED
 SRVC.       Blanco Geological Services LLC : SERVICE COMPANY
 STAT.                                   CO : STATE
 CNTY.                           Las Animas : COUNTY
 CTRY.                                  USA : COUNTRY
 API.                       05-071-08380-00 : API NUMBER
 STRT.FT                             620.00 : START DEPTH
 STOP.FT                            2635.00 : STOP DEPTH
 STEP.FT                               1.00 : DEPTH INCREMENT
 NULL.                                -9999 : NULL VALUE
~Curve information
 DEPTH.FT                                   :
 ROP.MIN/FT                                 :
 GAS.UNITS                                  :
~ASCII Log data
# ...
      1820.0         0.25        539.6 
      1821.0         0.27        493.2 
      1822.0         0.23        440.0 
      1823.0         0.27        440.0 
      1824.0         0.23        440.0 
      1825.0         0.27        181.5 
      1826.0         3.82       1036.6 
      1827.0         0.23        609.0 
      1828.0         0.20        613.9 
      1829.0         0.17        621.1 
      1830.0         0.20        633.2 
      1831.0         0.30        633.2 
      1832.0         0.33        618.1 
      1833.0         0.42        582.2 
      1834.0         0.27        539.0 
      1835.0         0.23        525.2 
      1836.0         0.27        506.9 
      1837.0         0.23        479.1 
      1838.0         0.23        465.0 
      1839.0         0.20        461.1 
      1840.0         0.20        453.9 
      1841.0         0.23        451.9 
      1842.0         0.23        489.9 
      1843.0         0.20        558.9 
      1844.0         0.20        594.6 
      1845.0         0.20        598.2 
      1846.0         0.20        585.8 
      1847.0         0.22        573.0 
      1848.0         0.23        540.0 
      1849.0         0.33        501.0 
      1850.0         0.33        484.7 
      1851.0         0.30        462.7 
      1852.0         0.43        554.0 
      1853.0         0.27        674.1 
      1854.0         0.40        812.8 
      1855.0         0.23        872.0 
      1856.0         1.98       1048.7 
      1857.0         0.30        643.7 
      1858.0         0.30        568.7 
      1859.0         0.30        511.2 
      1860.0         0.30        467.3 
      1861.0         0.30        467.3 
      1862.0         0.27        530.5 
      1863.0         0.27        591.3 
      1864.0         0.28        708.1 
      1865.0         0.27        786.9 
      1866.0         0.23        817.0 
      1867.0         0.37        836.3 
      1868.0         0.37        880.8 
      1869.0         0.40        954.8 
      1870.0         0.47       1019.2 
      1871.0         0.57       1036.9 
      1872.0         0.65       1033.0 
      1873.0         0.63        998.6 
      1874.0         0.53       1009.7 
      1875.0         0.47       1028.1 
      1876.0         0.47        960.3 
      1877.0         0.43        946.6 
      1878.0         0.47        954.8 
      1879.0         0.42        973.1 
      1880.0         0.33        984.2 
      1881.0         0.23        963.9 
      1882.0         0.27        907.0 
      1883.0         0.33        836.0 
      1884.0         0.27        957.4 
      1885.0         0.37       1252.2 
      1886.0         1.92       1976.8 
      1887.0         0.40       1602.2 
      1888.0         0.47       1403.6 
      1889.0         0.33       1223.7 
      1890.0         0.33       1141.9 
      1891.0         0.33       1107.9 
      1892.0         0.30       1115.7 
      1893.0         0.33       1103.0 
      1894.0         0.38       1044.1 
      1895.0         0.33        978.3 
      1896.0         0.30        940.7 
      1897.0         0.27        902.4 
      1898.0         0.27        928.0 
      1899.0         0.23        931.5 
      1900.0         0.27        945.0 
      1901.0         0.33        973.8 
      1902.0         0.33        960.7 
      1903.0         0.30        899.2 
      1904.0         0.45        854.3 
      1905.0         0.27        769.0 
      1906.0         0.30        842.6 
      1907.0         0.20        934.2 
      1908.0         0.23        955.4 
      1909.0         0.20        952.5 
      1910.0         0.30        924.7 
      1911.0         0.30        871.0 
      1912.0         0.33        799.1 
      1913.0         0.27        697.0 
      1914.0         0.23        687.5 
      1915.0         0.17        731.7 
      1916.0         1.92       1731.4 
      1917.0         0.33       1626.7 
      1918.0         0.37       1475.6 
      1919.0         0.50       1325.1 
      1920.0         0.47       1145.2 
      1921.0         0.28       1070.6 
      1922.0         0.20       1037.2 
      1923.0         0.27       1013.7 
      1924.0         0.23        988.8 
      1925.0         0.30        973.8 
      1926.0         0.27        946.3 
      1927.0         0.47        921.4 
      1928.0         0.23        892.9 
      1929.0         0.23        875.0 
      1930.0         0.27        853.0 
      1931.0         0.23        828.8 
      1932.0         0.23        816.4 
      1933.0         0.23        811.2 
      1934.0         0.25        807.2 
      1935.0         0.20        797.4 
      1936.0         0.23        880.2 
      1937.0         0.20        940.7 
      1938.0         0.23        956.4 
      1939.0         0.23        928.0 
      1940.0         0.20        864.8 
      1941.0         0.43        826.5 
      1942.0         0.27        720.9 
      1943.0         0.23        645.0 
      1944.0         0.23        607.3 
      1945.0         0.30        691.4 
      1946.0         1.48       1737.0 
      1947.0         0.53       1790.3 
      1948.0         0.57       1733.4 
      1949.0         0.43       1469.4 
      1950.0         0.33       1284.5 
      1951.0         0.38       1181.2 
      1952.0         0.33       1077.8 
      1953.0         0.33       1023.2 
      1954.0         0.33        991.4 
      1955.0         0.37        963.0 
      1956.0         0.33        928.9 
      1957.0         0.30        905.7 
      1958.0         0.33        885.1 
      1959.0         0.33        869.7 
      1960.0         0.33        852.4 
      1961.0         0.35        848.8 
      1962.0         0.37        847.1 
      1963.0         0.37        848.1 
      1964.0         0.47        842.6 
      1965.0         0.43        813.1 
      1966.0         0.43        799.1 
      1967.0         0.40        786.9 
      1968.0         0.37        785.3 
      1969.0         0.40        776.8 
      1970.0         0.38        857.9 
      1971.0         0.37        881.8 
      1972.0         0.40        859.6 
      1973.0         0.40        779.4 
      1974.0         0.37        687.2 
      1975.0         0.30        585.8 
      1976.0         2.68       1872.1 
      1977.0         0.47       1674.2 
      1978.0         0.40       1413.8 
      1979.0         0.33       1233.5 
      1980.0         0.27       1115.4 
      1981.0         0.27       1032.6 
      1982.0         0.32        977.7 
      1983.0         0.27        932.9 
      1984.0         0.27        908.0 
      1985.0         0.30        892.0 
      1986.0         0.37        883.8 
      1987.0         0.30        875.0 
      1988.0         0.30        866.1 
      1989.0         0.30        866.4 
      1990.0         0.30        861.2 
      1991.0         0.23        835.7 
      1992.0         0.23        817.0 
      1993.0         0.27        808.9 
      1994.0         0.22        882.5 
      1995.0         0.23        904.1 
      1996.0         0.20        876.9 
      1997.0         0.20        829.2 
      1998.0         0.20        773.9 
      1999.0         0.20        735.9 
      2000.0         0.17        670.8 
      2001.0         0.20        624.7 
      2002.0         0.20        565.5 
      2003.0         0.17        525.2 
      2004.0         0.20        538.6 
      2005.0         0.23        615.2 
      2006.0         1.55       1886.8 
      2007.0         0.27       1972.2 
      2008.0         0.50       1976.8 
      2009.0         0.43       1816.5 
      2010.0         0.37       1536.8 
      2011.0         0.33       1357.8 
      2012.0         0.23       1204.1 
      2013.0         0.20       1129.5 
      2014.0         0.17       1065.4 
      2015.0         0.20       1036.9 
      2016.0         0.32       1009.4 
      2017.0         0.23        957.1 
      2018.0         0.27        935.5 
      2019.0         0.20        919.1 
