~Version Information
VERS.                      2.0: CWLS Log ASCII Standard - VERSION 2.0
WRAP.                       NO: One line per depth step
~Well Information Block
STRT.FT                -9.5000: 
STOP.FT              2451.0000: 
STEP.FT                 0.2500: 
NULL.                -999.2500: 
COMP.          Petrogulf Corporation: COMPANY
WELL.           Vallejo 19-31V: WELL
FLD.           Purgatorie River: FIELD
LOC.           345' FNL & 2457' FEL: LOCATION
CNTY.               Las Animas: COUNTY
SRVC.                         : SERVICE COMPANY
DATE.          Mon Mar 08 08:24:37 2004: LOG DATE
UWI.           05-071-07919-00: UNIQUE WELL ID
STAT.                 Colorado: STATE
~Curve Information Block
DEPT.FT            0 000 00 00: Depth
MINMK.                        : Surface Line Tension
GR.GAPI                       : Gamma Ray
CCL.                          : Casing Collar Locator
TT3.usec                      : CBL 3' Travel Time
AMP3.mV                       : CBL 3' Amplitude
~Parameter Information Block
~A  Depth      MINMK         GR         CCL         TT3         AMP3    
# ...
   466.5000      0.0000     87.3002      0.0000    270.9827     85.1936
   466.7500      0.0000     83.7444      0.0000    270.9542     85.0905
   467.0000      0.0000     78.8547      0.0000    270.8459     84.9343
   467.2500      0.0000     74.3116      0.0000    270.6341     84.7957
   467.5000      0.0000     71.9069      0.0000    270.3756     84.7119
   467.7500      0.0000     72.8918      0.0000    270.1977     84.6624
   468.0000      0.0000     77.3746      0.0000    270.1913     84.6278
   468.2500      0.0000     84.1568      0.0000    270.3426     84.6149
   468.5000      0.0000     91.1839      0.0000    270.5497     84.6338
   468.7500      0.0000     96.3311      0.0000    270.7794     84.6987
   469.0000      0.0000     98.2075      0.0000    271.2798     84.7518
   469.2500      0.0000     96.6726      0.0000    272.4445     84.2442
   469.5000      0.0000     92.7449      0.0000    274.2698     81.8712
   469.7500      0.0000     87.9653      0.0000    276.1454     76.6953
   470.0000      0.0000     83.5857      0.0000    277.4527     69.6678
   470.2500      0.0000     79.9185      0.0000    278.0826     63.0364
   470.5000      0.0000     76.3319      0.0000    278.2322     58.5876
   470.7500      0.0000     72.1097      0.0000    278.1473     56.7420
   471.0000      0.0000     67.2845     -4.4421    278.0127     56.5509
   471.2500      0.0000     62.5629      0.0000    277.8515     56.7366
   471.5000      0.0000     58.8663      0.0000    277.5964     56.6803
   471.7500      1.0000     57.2259      0.0000    277.2371     56.1711
   472.0000      0.0000     58.5232      0.0000    276.8255     54.8530
   472.2500      0.0000     62.6443      0.0000    276.3364     52.7807
   472.5000      0.0000     68.1110      0.0000    275.5984     51.7477
   472.7500      0.0000     72.9752      0.0000    274.5161     54.6837
   473.0000      0.0000     76.0580      0.0000    273.3286     62.4817
   473.2500      0.0000     77.3418      0.0000    272.3899     72.3218
   473.5000      0.0000     77.5788      0.0000    271.7836     80.1623
   473.7500      0.0000     77.8044      0.0000    271.3964     84.2844
   474.0000      0.0000     78.8556      0.0000    271.1663     85.6766
   474.2500      0.0000     80.7558      0.0000    271.0896     85.9456
   474.5000      0.0000     82.3755      0.0000    271.1617     85.9738
   474.7500      0.0000     82.0923      0.0000    271.3594     86.0105
   475.0000      0.0000     79.3103      0.0000    271.5883     86.0868
   475.2500      0.0000     75.4389      0.0000    271.6919     86.1852
   475.5000      0.0000     73.1022      0.0000    271.5883     86.2684
   475.7500      0.0000     74.1566      0.0000    271.3583     86.3330
   476.0000      0.0000     78.3426      0.0000    271.1529     86.4036
   476.2500      0.0000     83.6351      0.0000    271.0446     86.4721
   476.5000      0.0000     87.8166      0.0000    271.0087     86.5232
   476.7500      0.0000     90.0218      0.0000    271.0011     86.5598
   477.0000      0.0000     91.1972      0.0000    271.0001     86.5813
   477.2500      0.0000     93.1885      0.0000    271.0000     86.5998
   477.5000      0.0000     97.1199      0.0000    271.0000     86.6130
   477.7500      0.0000    102.4552      0.0000    271.0001     86.5716
   478.0000      0.0000    107.6018      0.0000    271.0011     86.4701
   478.2500      0.0000    111.3724      0.0000    271.0086     86.3799
   478.5000      0.0000    113.7440      0.0000    271.0436     86.3532
   478.7500      0.0000    115.4634      0.0000    271.1453     86.3682
   479.0000      0.0000    117.2293      0.0000    271.3223     86.3681
   479.2500      0.0000    119.1012      0.0000    271.4789     86.3438
   479.5000      0.0000    120.3389      0.0000    271.4790     86.3371
   479.7500      0.0000    119.8978      0.0000    271.3233     86.3544
   480.0000      0.0000    117.5053      0.0000    271.1530     86.3621
   480.2500      0.0000    114.2661      0.0000    271.0806     86.3489
   480.5000      0.0000    111.9376      0.0000    271.1255     86.3261
   480.7500      0.0000    111.6190      0.0000    271.2501     86.2987
   481.0000      0.0000    113.1840      0.0000    271.3754     86.2583
   481.2500      0.0000    115.5127      0.0000    271.4259     86.1995
   481.5000      0.0000    116.8893      0.0000    271.3753     86.1396
   481.7500      0.0000    115.8123      0.0000    271.2490     86.0942
   482.0000      0.0000    112.2735      0.0000    271.1169     86.0533
   482.2500      0.0000    108.2235      0.0000    271.0370     86.0055
   482.5000      0.0000    106.2193      0.0000    271.0077     85.9545
   482.7500      0.0000    107.3459      0.0000    271.0010     85.9197
   483.0000      0.0000    110.3167      0.0000    271.0001     85.9156
   483.2500      0.0000    112.5628      0.0000    271.0000     85.9173
   483.5000      0.0000    112.2435      0.0000    271.0000     85.9005
   483.7500      0.0000    109.3199      0.0000    271.0000     85.8907
   484.0000      0.0000    105.0809      0.0000    271.0000     85.9131
   484.2500      0.0000    101.0511      0.0000    271.0000     85.9380
   484.5000      0.0000     98.2363      0.0000    271.0000     85.9226
   484.7500      0.0000     96.9231      0.0000    271.0000     85.8723
   485.0000      0.0000     96.9108      0.0000    271.0000     85.8021
   485.2500      0.0000     97.7593      0.0000    271.0000     85.6995
   485.5000      0.0000     98.7831      0.0000    271.0000     85.5861
   485.7500      0.0000     99.1559      0.0000    271.0000     85.5076
   486.0000      0.0000     98.4208      0.0000    271.0000     85.4632
   486.2500      0.0000     96.9533      0.0000    271.0000     85.4354
   486.5000      0.0000     95.6946      0.0000    271.0000     85.4244
   486.7500      0.0000     95.3047      0.0000    271.0000     85.4161
   487.0000      0.0000     95.6572      0.0000    271.0000     85.3893
   487.2500      0.0000     96.1880      0.0000    271.0001     85.3570
   487.5000      0.0000     96.5133      0.0000    271.0010     85.3435
   487.7500      0.0000     96.5505      0.0000    271.0076     85.3306
   488.0000      0.0000     96.1343      0.0000    271.0360     85.2830
   488.2500      0.0000     94.8673      0.0000    271.1093     85.2040
   488.5000      0.0000     92.6968      0.0000    271.2130     85.1313
   488.7500      0.0000     90.5660      0.0000    271.2670     85.0879
   489.0000      0.0000     90.0598      0.0000    271.2206     85.0652
   489.2500      0.0000     92.1518      0.0000    271.1453     85.0574
   489.5000      0.0000     96.3904      0.0000    271.1453     85.0737
   489.7500      0.0000    101.3367      0.0000    271.2206     85.1003
   490.0000      0.0000    105.4664      0.0000    271.2670     85.0989
   490.2500      0.0000    107.5217      0.0000    271.2131     85.0583
   490.5000      0.0000    106.5413      0.0000    271.1104     85.0142
   490.7500      0.0000    102.2318      0.0000    271.0436     85.0007
   491.0000      0.0000     95.3695      0.0000    271.0436     85.0008
   491.2500      0.0000     87.5629      0.0000    271.1104     84.9803
   491.5000      0.0000     80.5483      0.0000    271.2130     84.9519
   491.7500      0.0000     75.7224      0.0000    271.2660     84.9482
   492.0000      0.0000     74.1757      0.0000    271.2130     84.9615
   492.2500      0.0000     76.6434      0.0000    271.1093     84.9643
   492.5000      0.0000     82.7481      0.0000    271.0361     84.9554
   492.7500      0.0000     90.3174      0.0000    271.0086     84.9505
   493.0000      0.0000     96.3468      0.0000    271.0086     84.9576
   493.2500      0.0000     99.2776      0.0000    271.0361     84.9697
   493.5000      0.0000    100.1672      0.0000    271.1093     84.9645
   493.7500      0.0000    101.4573      0.0000    271.2130     84.9263
   494.0000      0.0000    104.7679      0.0000    271.2660     84.8729
   494.2500      0.0000    109.9762      0.0000    271.2130     84.8310
