~Version Information
VERS.                      2.0: CWLS Log ASCII Standard - VERSION 2.0
WRAP.                       NO: One line per depth step
~Well Information Block
STRT.FT               395.0000: 
STOP.FT              1998.0000: 
STEP.FT                 0.1000: 
NULL.                -999.2500: 
COMP.          Pioneer Natural Resources: COMPANY
WELL.          Easton 12-30 Tr: WELL
FLD.           Purgatoire River: FIELD
LOC.           549' FWL & 2416' FNL--: LOCATION
PROV.                 Colorado: PROVINCE
CNTY.               Las Animas: COUNTRY
SRVC.                Patterson: SERVICE COMPANY
DATE.          Thu Jun 02 09:14:44 2005: LOG DATE
UWI.           05 071 08379 00: UNIQUE WELL ID
~Curve Information Block
DEPT.FT            0 000 00 00: Depth
DCAL.in                       : CDL Caliper
RHOB.g/cc                     : CDL Bulk Density
RHOC.g/cc                     : CDL Density Correction
DPOR.pu                       : CDL Density Porosity
NPOR.pu                       : Neutron Porosity
GR.GAPI                       : Gamma Ray
~Parameter Information Block
~A  Depth       DCAL        RHOB        RHOC        DPOR        NPOR         GR     
# ...
  1969.4000      7.8266      2.6119      0.1033      2.3074     43.8741   -999.2500
  1969.5000      7.8279      2.6268      0.0728      1.4045     49.3444   -999.2500
  1969.6000      7.8279      2.6398      0.0813      0.6202     51.3246   -999.2500
  1969.7000      7.8279      2.6458      0.0959      0.2546     51.7150   -999.2500
  1969.8000      7.8344      2.6419      0.0785      0.4918     51.7564   -999.2500
  1969.9000      7.8344      2.6353      0.0704      0.8909     51.7587   -999.2500
  1970.0000      7.8448      2.6284      0.0814      1.3061   -999.2500   -999.2500
  1970.1000      7.8448      2.6148      0.0525      2.1352   -999.2500   -999.2500
  1970.2000      7.8448      2.5944      0.0732      3.3724   -999.2500   -999.2500
  1970.3000      7.8502      2.5746      0.0224      4.5707   -999.2500   -999.2500
  1970.4000      7.8502      2.5621      0.0351      5.3273   -999.2500   -999.2500
  1970.5000      7.8498      2.5529      0.0593      5.8862   -999.2500   -999.2500
  1970.6000      7.8498      2.5425      0.0326      6.5158   -999.2500   -999.2500
  1970.7000      7.8498      2.5348      0.0502      6.9802   -999.2500   -999.2500
  1970.8000      7.8489      2.5332      0.0627      7.0770   -999.2500   -999.2500
  1970.9000      7.8489      2.5382      0.0428      6.7734   -999.2500   -999.2500
  1971.0000      7.8457      2.5444      0.0523      6.4016   -999.2500   -999.2500
  1971.1000      7.8457      2.5472      0.0545      6.2312   -999.2500   -999.2500
  1971.2000      7.8457      2.5538      0.0441      5.8291   -999.2500   -999.2500
  1971.3000      7.8345      2.5721      0.0408      4.7194   -999.2500   -999.2500
  1971.4000      7.8345      2.5983      0.0749      3.1352   -999.2500   -999.2500
  1971.5000      7.8145      2.6232      0.0799      1.6259   -999.2500   -999.2500
  1971.6000      7.8145      2.6422      0.0963      0.4733   -999.2500   -999.2500
  1971.7000      7.8145      2.6528      0.0877     -0.1701   -999.2500   -999.2500
  1971.8000      7.7965      2.6548      0.0882     -0.2926   -999.2500   -999.2500
  1971.9000      7.7965      2.6503      0.0963     -0.0160   -999.2500   -999.2500
  1972.0000      7.7885      2.6435      0.0751      0.3949   -999.2500   -999.2500
  1972.1000      7.7885      2.6336      0.0646      0.9964   -999.2500   -999.2500
  1972.2000      7.7885      2.6125      0.0737      2.2709   -999.2500   -999.2500
  1972.3000      7.7907      2.5831      0.0349      4.0530   -999.2500   -999.2500
  1972.4000      7.7907      2.5582      0.0109      5.5647   -999.2500   -999.2500
  1972.5000      7.7878      2.5438      0.0322      6.4392   -999.2500   -999.2500
  1972.6000      7.7878      2.5383      0.0210      6.7679   -999.2500   -999.2500
  1972.7000      7.7878      2.5292      0.0349      7.3214   -999.2500   -999.2500
  1972.8000      7.7488      2.4918      0.0686      9.5904   -999.2500   -999.2500
  1972.9000      7.7488      2.4154      0.0003     14.2208   -999.2500   -999.2500
  1973.0000      7.6794      2.3132     -0.0096     20.4107   -999.2500   -999.2500
  1973.1000      7.6794      2.2028     -0.0671     27.1027   -999.2500   -999.2500
  1973.2000      7.6794      2.0995     -0.0899     33.3656   -999.2500   -999.2500
  1973.3000      7.6406      2.0091     -0.0591     38.8415   -999.2500   -999.2500
  1973.4000      7.6406      1.9234     -0.0540     44.0341   -999.2500   -999.2500
  1973.5000      7.6429      1.8366     -0.0793     49.2966   -999.2500   -999.2500
  1973.6000      7.6429      1.7583     -0.1113     54.0399   -999.2500   -999.2500
  1973.7000      7.6429      1.7103     -0.0664     56.9529   -999.2500   -999.2500
  1973.8000      7.6496      1.7067      0.0362     57.1693   -999.2500   -999.2500
  1973.9000      7.6496      1.7401      0.1204     55.1471   -999.2500   -999.2500
  1974.0000      7.6347      1.8017      0.1307     51.4146   -999.2500   -999.2500
  1974.1000      7.6347      1.8984      0.1529     45.5536   -999.2500   -999.2500
  1974.2000      7.6347      2.0225      0.2100     38.0284   -999.2500   -999.2500
  1974.3000      7.5984      2.1382      0.2603     31.0156   -999.2500   -999.2500
  1974.4000      7.5984      2.2272      0.2446     25.6225   -999.2500   -999.2500
  1974.5000      7.5497      2.3077      0.2399     20.7470   -999.2500   -999.2500
  1974.6000      7.5497      2.3891      0.2312     15.8129   -999.2500   -999.2500
  1974.7000      7.5497      2.4565      0.1129     11.7291   -999.2500   -999.2500
  1974.8000      7.5055      2.5005      0.0880      9.0633   -999.2500   -999.2500
  1974.9000      7.5055      2.5271      0.0865      7.4460   -999.2500   -999.2500
  1975.0000      7.4851      2.5488      0.0748      6.1338   -999.2500   -999.2500
  1975.1000      7.4851      2.5694      0.1071      4.8864   -999.2500   -999.2500
  1975.2000      7.4851      2.5786      0.0904      4.3262   -999.2500   -999.2500
  1975.3000      7.4792      2.5697      0.0852      4.8664   -999.2500   -999.2500
  1975.4000      7.4792      2.5487      0.0633      6.1366   -999.2500   -999.2500
  1975.5000      7.4714      2.5265      0.0345      7.4840   -999.2500   -999.2500
  1975.6000      7.4714      2.5094      0.0553      8.5221   -999.2500   -999.2500
  1975.7000      7.4714      2.4947      0.0582      9.4147   -999.2500   -999.2500
  1975.8000      7.4582      2.4743      0.0624     10.6511   -999.2500   -999.2500
  1975.9000      7.4582      2.4476      0.0540     12.2657   -999.2500   -999.2500
  1976.0000      7.4206      2.4280      0.0196     13.4545   -999.2500   -999.2500
  1976.1000      7.4206      2.4276      0.0416     13.4785   -999.2500   -999.2500
  1976.2000      7.4206      2.4365      0.0750     12.9375   -999.2500   -999.2500
  1976.3000      7.3472      2.4434      0.0854     12.5235   -999.2500   -999.2500
  1976.4000      7.3472      2.4597      0.0736     11.5348   -999.2500   -999.2500
  1976.5000      7.2716      2.4942      0.1416      9.4431   -999.2500   -999.2500
  1976.6000      7.2716      2.5271      0.1657      7.4499   -999.2500   -999.2500
  1976.7000      7.2716      2.5343      0.1922      7.0108   -999.2500   -999.2500
  1976.8000      7.1760      2.5324      0.1681      7.1290   -999.2500   -999.2500
  1976.9000      7.1760      2.5775      0.1131      4.3934   -999.2500   -999.2500
  1977.0000      6.7500      2.5763      0.1607      4.4659   -999.2500   -999.2500
  1977.1000      6.7500      2.1373      0.5898     31.0730   -999.2500   -999.2500
  1977.2000      6.7500      1.2066      0.0730     87.4799   -999.2500   -999.2500
  1977.3000      5.2513      0.4076      0.0730    135.9012   -999.2500   -999.2500
  1977.4000      5.2513      0.0772   -999.2500    155.9251   -999.2500   -999.2500
  1977.5000      2.9632      0.0080   -999.2500    160.1241   -999.2500   -999.2500
  1977.6000      2.9632      0.0004   -999.2500    160.5799   -999.2500   -999.2500
  1977.7000      2.9632      0.0000   -999.2500    160.6061   -999.2500   -999.2500
  1977.8000      1.6117      0.0000   -999.2500    160.6061   -999.2500   -999.2500
  1977.9000      1.6117   -999.2500   -999.2500   -999.2500   -999.2500   -999.2500
  1978.0000      1.3131   -999.2500   -999.2500   -999.2500   -999.2500   -999.2500
  1978.1000      1.3131   -999.2500   -999.2500   -999.2500   -999.2500   -999.2500
  1978.2000      1.3131   -999.2500   -999.2500   -999.2500   -999.2500   -999.2500
  1978.3000      1.2886   -999.2500   -999.2500   -999.2500   -999.2500   -999.2500
  1978.4000      1.2886   -999.2500   -999.2500   -999.2500   -999.2500   -999.2500
  1978.5000   -999.2500   -999.2500   -999.2500   -999.2500   -999.2500   -999.2500
  1978.6000   -999.2500   -999.2500   -999.2500   -999.2500   -999.2500   -999.2500
  1978.7000   -999.2500   -999.2500   -999.2500   -999.2500   -999.2500   -999.2500
  1978.8000   -999.2500   -999.2500   -999.2500   -999.2500   -999.2500   -999.2500
  1978.9000   -999.2500   -999.2500   -999.2500   -999.2500   -999.2500   -999.2500
