~Version Information
VERS.                      2.0: CWLS Log ASCII Standard - VERSION 2.0
WRAP.                       NO: One line per depth step
~Well Information Block
STRT.FT                -7.7500: 
STOP.FT               973.7500: 
STEP.FT                 0.2500: 
NULL.                -999.2500: 
COMP.          Pioneer Natural Resources: COMPANY
WELL.              Dylan 42-25: WELL
FLD.           Purgatorie River: FIELD
LOC.           2160' FNL & 855' FEL: LOCATION
PROV.                 Colorado: PROVINCE
CNTY.               Las Animas: COUNTRY
SRVC.          Patterson Wireline: SERVICE COMPANY
DATE.          Fri Apr 29 16:36:17 2005: LOG DATE
UWI.           05-071-08229-00: UNIQUE WELL ID
~Curve Information Block
DEPT.FT            0 000 00 00: Depth
CCL.                          : Casing Collar Locator
TT3.usec                      : CBL 3' Travel Time
AMP3.mV                       : CBL 3' Amplitude
GR.GAPI                       : Gamma Ray
~Parameter Information Block
~A  Depth       CCL         TT3         AMP3         GR     
# ...
   695.7500      0.0000    459.0882     15.0071     94.9975
   696.0000      0.0000    498.7046     15.0419     94.2117
   696.2500      0.0000    562.6885     14.7645     92.1551
   696.5000      0.0000    625.6683     14.3440     89.7763
   696.7500      0.0000    671.3359     13.9094     87.5467
   697.0000      0.0000    696.8205     13.5353     85.6041
   697.2500      0.0000    707.3098     13.2474     84.2247
   697.5000      0.0000    709.3524     13.0365     84.0042
   697.7500      0.0000    707.9716     12.8783     85.6580
   698.0000      0.0000    706.4339     12.7513     89.6408
   698.2500      0.0000    706.3821     12.6444     95.6144
   698.5000      0.0000    707.9109     12.5555    102.0472
   698.7500      0.0000    709.8538     12.4922    106.6389
   699.0000      0.0000    710.6140     12.4695    107.7024
   699.2500      0.0000    709.4618     12.4978    105.3631
   699.5000      0.0000    707.1832     12.5654    101.3203
   699.7500      0.0000    705.3968     12.6352     97.3656
   700.0000      0.0000    705.3417     12.6648     94.1947
   700.2500      0.0000    707.2813     12.6328     91.5991
   700.5000      0.0000    710.7330     12.5485     89.4788
   700.7500      0.0000    715.3265     12.4365     88.2338
   701.0000      0.0000    721.6203     12.3159     88.1017
   701.2500      0.0000    730.7360     12.1929     88.4984
   701.5000      0.0000    742.7393     12.0653     88.2791
   701.7500      0.0000    755.4545     11.9280     86.6618
   702.0000      0.0000    764.9772     11.7725     83.9528
   702.2500      0.0000    767.5876     11.5877     81.4016
   702.5000      0.0000    762.2693     11.3638     80.3106
   702.7500      0.0000    752.3641     11.0975     81.2760
   703.0000      0.0000    744.0338     10.7956     84.0816
   703.2500      0.0000    741.6390     10.4764     87.8424
   703.5000      0.0000    744.2923     10.1637     91.1862
   703.7500      0.0000    747.5133      9.8740     92.8581
   704.0000      0.0000    748.0331      9.6119     92.5804
   704.2500      0.0000    746.0901      9.3779     91.1255
   704.5000      0.0000    743.4812      9.1745     89.3189
   704.7500      0.0000    741.2032      8.9988     87.2132
   705.0000      0.0000    739.7115      8.8383     84.5409
   705.2500      0.0000    740.4047      8.6830     81.6412
   705.5000      0.0000    745.5638      8.5372     79.4021
   705.7500      0.0000    756.4265      8.4135     78.4640
   706.0000      0.0000    771.5158      8.3200     78.9189
   706.2500      0.0000    786.9520      8.2552     80.6233
   706.5000      0.0000    798.0179      8.2113     83.4464
   706.7500      0.0000    800.6020      8.1790     87.3246
   707.0000      0.0000    792.6788      8.1479     92.2029
   707.2500      0.0000    776.3519      8.1061     97.7412
   707.5000      0.0000    758.7250      8.0425    103.1259
   707.7500      0.0000    748.9497      7.9498    107.3527
   708.0000      0.0000    751.9725      7.8285    109.4717
   708.2500      0.0000    763.9708      7.6957    108.5924
   708.5000      0.0000    774.5751      7.5850    104.3511
   708.7500      0.0000    775.2371      7.5281     97.5596
   709.0000      0.0000    766.2947      7.5301     89.8850
   709.2500      0.0000    755.6312      7.5691     82.8849
   709.5000      0.0000    750.6784      7.6225     77.7237
   709.7500      0.0000    752.2970      7.6883     75.3520
   710.0000      0.0000    755.6985      7.7789     76.0055
   710.2500      0.0000    755.6545      7.8955     78.6061
   710.5000      0.0000    750.1476      8.0150     81.4566
   710.7500      0.0000    740.4651      8.1072     83.6912
   711.0000      0.0000    729.7486      8.1626     85.6171
   711.2500      0.0000    721.3777      8.1978     87.6128
   711.5000      0.0000    717.0866      8.2319     89.1501
   711.7500      0.0000    715.9341      8.2662     89.0991
   712.0000      0.0000    715.3932      8.2892     86.7487
   712.2500      0.0000    713.5359      8.2917     82.4537
   712.5000      0.0000    710.2421      8.2760     77.4661
   712.7500      0.0000    706.8168      8.2551     73.0784
   713.0000      0.0000    704.8806      8.2482     69.7410
   713.2500      0.0000    705.5328      8.2688     67.1008
   713.5000      0.0000    708.9531      8.3152     64.9426
   713.7500      0.0000    714.1683      8.3719     63.7718
   714.0000      0.0000    719.2778      8.4224     64.2407
   714.2500      0.0000    722.6407      8.4578     66.1192
   714.5000      0.0000    724.1727      8.4752     68.0101
   714.7500      0.0000    725.2629      8.4734     68.2575
   715.0000      0.0000    727.3411      8.4527     66.2617
   715.2500      0.0000    730.6948      8.4175     62.9552
   715.5000      0.0000    734.5897      8.3779     60.0237
   715.7500      0.0000    738.3112      8.3489     58.7441
   716.0000      0.0000    741.9110      8.3442     59.4214
   716.2500      0.0000    745.9573      8.3667     61.4292
   716.5000      0.0000    750.7690      8.4026     63.5259
   716.7500      0.0000    756.0669      8.4294     64.4688
   717.0000      0.0000    761.2422      8.4307     63.6674
   717.2500      0.0000    765.6701      8.4070     61.2687
   717.5000      0.0000    768.8122      8.3749     57.6836
   717.7500      0.0000    770.3332      8.3559     53.2736
   718.0000      0.0000    770.1871      8.3687     48.4849
   718.2500      0.0000    768.5133      8.4286     43.9442
   718.5000      0.0000    765.5026      8.5461     40.2240
   718.7500      0.0000    761.3856      8.7181     37.6863
   719.0000      0.0000    756.4956      8.9198     36.6433
   719.2500      0.0000    751.4443      9.1080     37.3832
   719.5000      0.0000    747.2616      9.2420     39.8756
   719.7500      0.0000    745.1781      9.3095     43.8217
   720.0000      0.0000    746.1121      9.3320     49.3079
   720.2500      0.0000    750.1501      9.3423     57.0492
   720.5000      0.0000    756.1946      9.3603     67.4214
   720.7500      0.0000    762.1954      9.3878     79.1518
   721.0000      0.0000    766.0962      9.4179     89.2931
   721.2500      0.0000    766.4868      9.4452     94.9138
   721.5000      0.0000    762.3313      9.4687     95.1514
   721.7500      0.0000    753.0684      9.4920     91.6164
   722.0000      0.0000    740.0052      9.5221     86.7763
   722.2500      0.0000    727.2096      9.5672     82.3028
   722.5000      0.0000    720.1221      9.6320     79.1118
   722.7500      0.0000    722.8391      9.7127     78.2061
   723.0000      0.0000    735.8876      9.7975     80.4650
   723.2500      0.0000    755.3646      9.8723     85.5050
   723.5000      0.0000    774.2621      9.9268     91.3858
   723.7500      0.0000    786.1080      9.9569     95.7651
   724.0000      0.0000    788.4059      9.9627     97.2729
   724.2500      0.0000    782.9039      9.9469     95.9706
   724.5000      0.0000    773.2631      9.9150     92.9658
   724.7500      0.0000    762.9404      9.8731     89.7795
   725.0000      0.0000    754.3325      9.8228     87.7859
   725.2500      0.0000    748.4313      9.7614     87.7758
   725.5000      0.0000    744.7822      9.6884     89.6410
   725.7500      0.0000    742.1874      9.6117     92.3055
   726.0000      0.0000    740.1163      9.5446     94.2087
   726.2500      0.0000    739.7930      9.4968     94.3578
   726.5000      0.0000    743.1855      9.4690     93.0896
   726.7500      0.0000    749.8277      9.4520     91.6033
   727.0000      0.0000    755.2444      9.4306     90.7167
   727.2500      0.0000    754.6202      9.3894     90.2636
   727.5000      0.0000    748.1551      9.3195     89.6219
   727.7500      0.0000    740.6560      9.2229     88.5334
   728.0000      0.0000    735.5403      9.1114     87.4929
   728.2500      0.0000    731.6891      9.0015     87.5140
   728.5000      0.0000    727.0936      8.9057     89.3122
   728.7500      0.0000    723.3115      8.8292     92.4425
   729.0000      0.0000    724.4902      8.7708     95.4151
