~Version Information
VERS.                      2.0: CWLS Log ASCII Standard - VERSION 2.0
WRAP.                       NO: One line per depth step
~Well Information Block
STRT.FT               480.0000: 
STOP.FT              1994.2500: 
STEP.FT                 0.2500: 
NULL.                -999.2500: 
COMP.          Evergreen Operating Corporation: COMPANY
WELL.          McCullough 34-32 Tr: WELL
FLD.           Purgatoire River: FIELD
LOC.           394' FSL & 2077' FEL: LOCATION
PROV.                 Colorado: PROVINCE
CNTY.               Las Animas: COUNTRY
SRVC.                Patterson: SERVICE COMPANY
DATE.          Sun Sep 19 05:48:59 2004: LOG DATE
UWI.           05 071 08157 00: UNIQUE WELL ID
~Curve Information Block
DEPT.FT            0 000 00 00: Depth
SN.Ohm-m                      : IEL Short Normal
SP.mV                         : IEL Spontaneous Potential
DIR.Ohm-m                     : IEL Induction Resistivity
GR.GAPI                       : Gamma Ray
~Parameter Information Block
~A  Depth        SN          SP         DIR          GR     
# ...
   882.0000     67.7222    254.7548     45.8573     88.8004
   882.2500     67.9464    255.1402     45.8628     88.3706
   882.5000     68.2660    255.5677     45.8284     89.8763
   882.7500     68.6934    256.0196     45.7098     92.6769
   883.0000     69.2130    256.4675     45.4744     98.2814
   883.2500     69.7863    256.8773     45.1427    101.3683
   883.5000     70.3635    257.2172     44.8075    102.8047
   883.7500     70.8981    257.4666     44.5950    101.3898
   884.0000     71.3616    257.6207     44.5871     96.7373
   884.2500     71.7508    257.6895     44.7672     92.6479
   884.5000     72.0815    257.6915     45.0370     85.5455
   884.7500     72.3766    257.6449     45.2917     80.2320
   885.0000     72.6555    257.5619     45.4783     72.0199
   885.2500     72.9318    257.4464     45.5868     67.2774
   885.5000     73.2144    257.2976     45.6010     63.1178
   885.7500     73.5081    257.1158     45.4860     62.9533
   886.0000     73.8098    256.9077     45.2356     66.1711
   886.2500     74.1047    256.6901     44.9239     69.5617
   886.5000     74.3703    256.4890     44.6861     74.2083
   886.7500     74.5829    256.3343     44.6314     75.8726
   887.0000     74.7231    256.2524     44.7620     75.1580
   887.2500     74.7790    256.2589     44.9671     72.6463
   887.5000     74.7466    256.3525     45.0974     67.1570
   887.7500     74.6283    256.5156     45.0652     63.3047
   888.0000     74.4284    256.7183     44.8862     58.1641
   888.2500     74.1506    256.9272     44.6338     55.2637
   888.5000     73.7936    257.1144     44.3641     51.8390
   888.7500     73.3401    257.2656     44.0859     50.4446
   889.0000     72.7457    257.3822     43.7931     50.1296
   889.2500     71.9432    257.4792     43.5055     51.0532
   889.5000     70.8640    257.5775     43.2575     53.4054
   889.7500     69.4591    257.6925     43.0395     55.0498
   890.0000     67.7107    257.8226     42.7573     57.0788
   890.2500     65.6438    257.9414     42.2666     58.2803
   890.5000     63.3401    258.0002     41.4657     60.7006
   890.7500     60.9327    257.9415     40.3595     63.2228
   891.0000     58.5649    257.7188     39.0373     68.8586
   891.2500     56.3359    257.3146     37.6099     73.9757
   891.5000     54.2706    256.7472     36.1761     83.5277
   891.7500     52.3303    256.0655     34.8308     90.6191
   892.0000     50.4517    255.3356     33.6697    100.7530
   892.2500     48.5939    254.6255     32.7580    106.2960
   892.5000     46.7730    253.9938     32.0869    112.1556
   892.7500     45.0665    253.4821     31.5601    114.5760
   893.0000     43.5763    253.1113     31.0401    116.6513
   893.2500     42.3777    252.8817     30.4389    117.4368
   893.5000     41.4858    252.7759     29.7831    118.2818
   893.7500     40.8609    252.7669     29.1930    118.5728
   894.0000     40.4371    252.8259     28.7970    117.7894
   894.2500     40.1543    252.9315     28.6580    116.1951
   894.5000     39.9750    253.0738     28.7563    113.3776
   894.7500     39.8836    253.2563     29.0211    112.5126
   895.0000     39.8709    253.4939     29.3804    113.8139
   895.2500     39.9109    253.8074     29.7882    115.7373
   895.5000     39.9426    254.2156     30.2085    117.6722
   895.7500     39.8738    254.7250     30.5700    116.9298
   896.0000     39.6142    255.3215     30.7480    111.6176
   896.2500     39.1315    255.9688     30.6138    105.5882
   896.5000     38.4963    256.6147     30.1229     94.9477
   896.7500     37.8665    257.2035     29.3563     88.5762
   897.0000     37.3946    257.6889     28.4671     82.8808
   897.2500     37.1177    258.0435     27.5907     82.5268
   897.5000     36.9130    258.2618     26.7968     86.8349
   897.7500     36.5579    258.3596     26.0961     91.7267
   898.0000     35.8576    258.3694     25.4701     99.0712
   898.2500     34.7632    258.3324     24.8948    102.4758
   898.5000     33.4101    258.2879     24.3530    104.6203
   898.7500     32.0538    258.2628     23.8415    104.7238
   899.0000     30.9393    258.2653     23.3739    104.5476
   899.2500     30.1808    258.2859     22.9736    104.7571
   899.5000     29.7220    258.3040     22.6564    105.1822
   899.7500     29.3957    258.2976     22.4141    104.7108
   900.0000     29.0389    258.2517     22.2133    101.5538
   900.2500     28.5857    258.1629     22.0140     97.8331
   900.5000     28.0877    258.0399     21.7973     91.6860
   900.7500     27.6637    257.9016     21.5790     88.8859
   901.0000     27.4173    257.7714     21.3984     88.7390
   901.2500     27.3621    257.6729     21.2894     91.2666
   901.5000     27.3911    257.6238     21.2538     96.6380
   901.7500     27.3153    257.6310     21.2544     99.5923
   902.0000     26.9625    257.6873     21.2308    101.7271
   902.2500     26.2848    257.7717     21.1305    101.9535
   902.5000     25.3981    257.8538     20.9374    101.9299
   902.7500     24.5257    257.9024     20.6782    102.4224
   903.0000     23.8857    257.8952     20.4068    104.7861
   903.2500     23.5997    257.8261     20.1789    107.6991
   903.5000     23.6681    257.7057     20.0354    113.7076
   903.7500     24.0085    257.5560     19.9967    117.9358
   904.0000     24.5211    257.3998     20.0646    122.5293
   904.2500     25.1430    257.2526     20.2257    123.4813
   904.5000     25.8653    257.1180     20.4548    121.2636
   904.7500     26.7156    256.9908     20.7222    117.7060
   905.0000     27.7276    256.8644     21.0090    110.4700
   905.2500     28.9108    256.7379     21.3254    105.0619
   905.5000     30.2302    256.6205     21.7159     96.5083
   905.7500     31.6078    256.5302     22.2394     90.4353
   906.0000     32.9536    256.4877     22.9337     81.0514
   906.2500     34.2012    256.5083     23.7854     75.3324
   906.5000     35.3139    256.5950     24.7241     69.2630
   906.7500     36.2556    256.7356     25.6415     67.7182
   907.0000     36.9595    256.9044     26.4242     69.8657
   907.2500     37.3278    257.0691     26.9818     74.1401
   907.5000     37.2648    257.2002     27.2606     83.4061
   907.7500     36.7195    257.2786     27.2417     90.1753
   908.0000     35.7155    257.2977     26.9286     99.3322
   908.2500     34.3578    257.2619     26.3347    104.4564
   908.5000     32.8090    257.1827     25.4898    111.4276
   908.7500     31.2343    257.0792     24.4585    116.2527
   909.0000     29.7498    256.9824     23.3401    124.2761
   909.2500     28.4122    256.9388     22.2357    129.9066
   909.5000     27.2471    257.0067     21.2127    137.7328
   909.7500     26.2744    257.2406     20.2979    141.9150
   910.0000     25.5042    257.6678     19.4986    146.0781
   910.2500     24.9206    258.2693     18.8252    147.4356
   910.5000     24.4796    258.9778     18.2975    147.5038
   910.7500     24.1250    259.6982     17.9364    146.3543
   911.0000     23.8031    260.3442     17.7527    143.2922
   911.2500     23.4589    260.8720     17.7401    140.7845
   911.5000     23.0266    261.2949     17.8715    136.8520
   911.7500     22.4478    261.6704     18.0990    134.0084
   912.0000     21.7270    262.0678     18.3607    128.6195
   912.2500     20.9807    262.5327     18.5963    124.0243
   912.5000     20.4194    263.0648     18.7670    116.6886
   912.7500     20.2510    263.6168     18.8672    112.9172
   913.0000     20.5616    264.1135     18.9198    111.1857
   913.2500     21.2593    264.4803     18.9592    113.0416
   913.5000     22.1268    264.6691     19.0128    119.1395
   913.7500     22.9451    264.6695     19.0897    124.0383
   914.0000     23.5958    264.5030     19.1802    130.2989
   914.2500     24.0711    264.2064     19.2657    132.8227
   914.5000     24.4222    263.8181     19.3359    133.2625
   914.7500     24.7229    263.3737     19.4043    131.0997
   915.0000     25.0760    262.9105     19.5113    124.5544
   915.2500     25.6241    262.4713     19.7095    118.8564
