~Version Information
VERS.                      2.0: CWLS Log ASCII Standard - VERSION 2.0
WRAP.                       NO: One line per depth step
~Well Information Block
STRT.FT               450.0000: 
STOP.FT              1642.0000: 
STEP.FT                 0.1000: 
NULL.                -999.2500: 
COMP.          Pioneer Natural Resources: COMPANY
WELL.           Buckhorn 12-21: WELL
FLD.           Purgatoire River: FIELD
LOC.           2450' FNL & 608' FWL: LOCATION
PROV.                 Colorado: PROVINCE
CNTY.               Las Animas: COUNTRY
SRVC.                Patterson: SERVICE COMPANY
DATE.          Wed Dec 01 15:08:21 2004: LOG DATE
UWI.           05 071 08129 00: UNIQUE WELL ID
~Curve Information Block
DEPT.FT            0 000 00 00: Depth
NPOR.pu                       : Neutron Porosity
CCL.                          : Casing Collar Locator
GR.GAPI                       : Gamma Ray
~Parameter Information Block
~A  Depth       NPOR        CCL          GR     
# ...
   600.3000     39.8918      0.0000     61.6914
   600.4000     39.8918      0.0000     61.6914
   600.5000     39.6909      0.0000     64.8170
   600.6000     39.6909      0.0000     64.8170
   600.7000     39.6909      0.0000     64.8170
   600.8000     39.5537      0.0000     65.2564
   600.9000     39.5537      0.0000     65.2564
   601.0000     39.5727      0.0000     63.1281
   601.1000     39.5727      0.0000     63.1281
   601.2000     39.5727      0.0000     63.1281
   601.3000     39.7825      0.0000     60.0602
   601.4000     39.7825      0.0000     60.0602
   601.5000     40.0701      0.0000     58.2019
   601.6000     40.0701      0.0000     58.2019
   601.7000     40.0701      0.0000     58.2019
   601.8000     40.2223      0.0000     58.7713
   601.9000     40.2223      0.0000     58.7713
   602.0000     40.1011      0.0000     61.4395
   602.1000     40.1011      0.0000     61.4395
   602.2000     40.1011      0.0000     61.4395
   602.3000     39.7636      0.0000     64.8731
   602.4000     39.7636      0.0000     64.8731
   602.5000     39.3943      0.0000     67.7146
   602.6000     39.3943      0.0000     67.7146
   602.7000     39.3943      0.0000     67.7146
   602.8000     39.1387      0.0000     69.2269
   602.9000     39.1387      0.0000     69.2269
   603.0000     39.0321      0.0000     69.3947
   603.1000     39.0321      0.0000     69.3947
   603.2000     39.0321      0.0000     69.3947
   603.3000     39.0498      0.0000     68.6098
   603.4000     39.0498      0.0000     68.6098
   603.5000     39.1579      0.0000     67.1707
   603.6000     39.1579      0.0000     67.1707
   603.7000     39.1579      0.0000     67.1707
   603.8000     39.3153      0.0000     64.9858
   603.9000     39.3153      0.0000     64.9858
   604.0000     39.4701      0.0000     61.8638
   604.1000     39.4701      0.0000     61.8638
   604.2000     39.4701      0.0000     61.8638
   604.3000     39.5691      0.0000     58.1620
   604.4000     39.5691      0.0000     58.1620
   604.5000     39.5878      0.0000     54.8989
   604.6000     39.5878      0.0000     54.8989
   604.7000     39.5878      0.0000     54.8989
   604.8000     39.5708      0.0000     53.1380
   604.9000     39.5708      0.0000     53.1380
   605.0000     39.6119      0.0000     53.5705
   605.1000     39.6119      0.0000     53.5705
   605.2000     39.6119      0.0000     53.5705
   605.3000     39.7564      0.0000     56.5894
   605.4000     39.7564      0.0000     56.5894
   605.5000     39.9385      0.0000     61.9617
   605.6000     39.9385      0.0000     61.9617
   605.7000     39.9385      0.0000     61.9617
   605.8000     40.0363      0.0000     68.2566
   605.9000     40.0363      0.0000     68.2566
   606.0000     39.9606      0.0000     73.4376
   606.1000     39.9606      0.0000     73.4376
   606.2000     39.9606      0.0000     73.4376
   606.3000     39.6922      0.0000     76.4011
   606.4000     39.6922      0.0000     76.4011
   606.5000     39.2865      0.0000     77.4442
   606.6000     39.2865      0.0000     77.4442
   606.7000     39.2865      0.0000     77.4442
   606.8000     38.8697      0.0000     77.2048
   606.9000     38.8697      0.0000     77.2048
   607.0000     38.6030      0.0000     75.8085
   607.1000     38.6030      0.0000     75.8085
   607.2000     38.6030      0.0000     75.8085
   607.3000     38.6153      0.0000     73.0674
   607.4000     38.6153      0.0000     73.0674
   607.5000     38.9360      0.0000     68.8833
   607.6000     38.9360      0.0000     68.8833
   607.7000     38.9360      0.0000     68.8833
   607.8000     39.4591      0.0000     63.4062
   607.9000     39.4591      0.0000     63.4062
   608.0000     39.9813      0.0000     57.3747
   608.1000     39.9813     -1.7477     57.3747
   608.2000     39.9813      1.9418     57.3747
   608.3000     40.3138      0.0000     52.3507
   608.4000     40.3138     -2.0000     52.3507
   608.5000     40.3747      2.0000     50.0430
   608.6000     40.3747      0.0000     50.0430
   608.7000     40.3747      0.0000     50.0430
   608.8000     40.1866      0.0000     51.0711
   608.9000     40.1866      0.0000     51.0711
   609.0000     39.8356      0.0000     54.3816
   609.1000     39.8356      0.0000     54.3816
   609.2000     39.8356      0.0000     54.3816
   609.3000     39.4588      0.0000     57.8624
   609.4000     39.4588      0.0000     57.8624
   609.5000     39.2112      0.0000     59.6982
   609.6000     39.2112      0.0000     59.6982
   609.7000     39.2112      0.0000     59.6982
   609.8000     39.1706      0.0000     59.5696
   609.9000     39.1706      0.0000     59.5696
   610.0000     39.2769      0.0000     58.7376
   610.1000     39.2769      0.0000     58.7376
   610.2000     39.2769      0.0000     58.7376
   610.3000     39.3899      0.0000     58.7957
   610.4000     39.3899      0.0000     58.7957
   610.5000     39.3937      0.0000     60.2436
   610.6000     39.3937      0.0000     60.2436
   610.7000     39.3937      0.0000     60.2436
   610.8000     39.2497      0.0000     62.1952
   610.9000     39.2497      0.0000     62.1952
   611.0000     38.9908      0.0000     63.3437
   611.1000     38.9908      0.0000     63.3437
   611.2000     38.9908      0.0000     63.3437
   611.3000     38.6887      0.0000     63.2268
   611.4000     38.6887      0.0000     63.2268
   611.5000     38.4200      0.0000     62.6622
   611.6000     38.4200      0.0000     62.6622
   611.7000     38.4200      0.0000     62.6622
   611.8000     38.2443      0.0000     63.0039
   611.9000     38.2443      0.0000     63.0039
   612.0000     38.1975      0.0000     65.0111
   612.1000     38.1975      0.0000     65.0111
   612.2000     38.1975      0.0000     65.0111
   612.3000     38.2922      0.0000     68.3285
   612.4000     38.2922      0.0000     68.3285
   612.5000     38.5073      0.0000     71.7990
   612.6000     38.5073      0.0000     71.7990
   612.7000     38.5073      0.0000     71.7990
   612.8000     38.7638      0.0000     74.3056
   612.9000     38.7638      0.0000     74.3056
   613.0000     38.9345      0.0000     75.5817
   613.1000     38.9345      0.0000     75.5817
   613.2000     38.9345      0.0000     75.5817
   613.3000     38.9206      0.0000     76.2798
   613.4000     38.9206      0.0000     76.2798
   613.5000     38.7178      0.0000     77.1853
   613.6000     38.7178      0.0000     77.1853
   613.7000     38.7178      0.0000     77.1853
   613.8000     38.3871      0.0000     78.5357
   613.9000     38.3871      0.0000     78.5357
   614.0000     37.9806      0.0000     80.1530
   614.1000     37.9806      0.0000     80.1530
   614.2000     37.9806      0.0000     80.1530
   614.3000     37.5269      0.0000     81.8638
   614.4000     37.5269      0.0000     81.8638
   614.5000     37.0496      0.0000     83.5094
   614.6000     37.0496      0.0000     83.5094
   614.7000     37.0496      0.0000     83.5094
   614.8000     36.5493      0.0000     84.8435
   614.9000     36.5493      0.0000     84.8435
   615.0000     36.0056      0.0000     85.7612
   615.1000     36.0056      0.0000     85.7612
   615.2000     36.0056      0.0000     85.7612
   615.3000     35.4438      0.0000     86.5641
   615.4000     35.4438      0.0000     86.5641
   615.5000     34.9653      0.0000     87.8676
   615.6000     34.9653      0.0000     87.8676
   615.7000     34.9653      0.0000     87.8676
   615.8000     34.6607      0.0000     90.1182
   615.9000     34.6607      0.0000     90.1182
   616.0000     34.5243      0.0000     92.9425
   616.1000     34.5243      0.0000     92.9425
   616.2000     34.5243      0.0000     92.9425
   616.3000     34.4897      0.0000     95.1425
   616.4000     34.4897      0.0000     95.1425
   616.5000     34.5212      0.0000     95.8816
   616.6000     34.5212      0.0000     95.8816
   616.7000     34.5212      0.0000     95.8816
   616.8000     34.6311      0.0000     95.7875
   616.9000     34.6311      0.0000     95.7875
