~Version Information
 VERS.                                  2.0 : CWLS LAS VERSION
 WRAP.                                   NO : WRAPING MODE
 SWARE .                 MController 2.5.0J : SOFTWARE VERSION
~Well Information
 WELL.                           Elmo 14-21 : WELL
 COMP.    PIONEER NATURAL RESOURCES USA INC : COMPANY
 FLD.                      PURGATOIRE RIVER : FIELD
 LOC.               SW/SW Sec 21 T33S  R66W : LOCATION
 DATE.                         5/16-17/2005 : DATE(S) LOGGED
 SRVC.       Blanco Geological Services LLC : SERVICE COMPANY
 STAT.                                   CO : STATE
 CNTY.                           Las Animas : COUNTY
 CTRY.                                  USA : COUNTRY
 API.                       05-071-08360-00 : API NUMBER
 STRT.FT                             300.00 : START DEPTH
 STOP.FT                            1680.00 : STOP DEPTH
 STEP.FT                               1.00 : DEPTH INCREMENT
 NULL.                                -9999 : NULL VALUE
~Curve information
 DEPTH.FT                                   :
 ROP.MIN/FT                                 :
 GAS.UNITS                                  :
~ASCII Log data
# ...
      1100.0         0.17        159.7 
      1101.0         0.13        160.0 
      1102.0         0.13        152.6 
      1103.0         0.20        141.5 
      1104.0         0.07        129.6 
      1105.0         0.28        125.3 
      1106.0         0.10        118.0 
      1107.0         0.13        110.0 
      1108.0         0.20         91.3 
      1109.0         0.23         72.7 
      1110.0         0.27         67.2 
      1111.0         0.23         71.4 
      1112.0         0.23         80.1 
      1113.0         0.13         80.2 
      1114.0         0.20         82.6 
      1115.0         0.13         86.9 
      1116.0         0.27         86.5 
      1117.0         0.13         66.3 
      1118.0         0.17         56.0 
      1119.0         0.23         63.1 
      1120.0         0.10         66.4 
      1121.0         0.17         66.6 
      1122.0         0.20         61.6 
      1123.0         0.07         52.5 
      1124.0         0.25         49.3 
      1125.0         0.17         53.9 
      1126.0         0.20         61.3 
      1127.0         0.20         70.3 
      1128.0         0.10         75.4 
      1129.0         0.27         85.4 
      1130.0         0.20         82.6 
      1131.0         0.27         70.8 
      1132.0         0.23         58.0 
      1133.0         0.17         51.2 
      1134.0         0.23         51.0 
      1135.0         0.27         45.8 
      1136.0         0.23         52.4 
      1137.0         0.17         59.5 
      1138.0         0.23         62.0 
      1139.0         0.17         60.6 
      1140.0         0.28         63.9 
      1141.0         0.23         63.9 
      1142.0         0.20         65.8 
      1143.0         0.20         62.1 
      1144.0         0.27         60.2 
      1145.0         0.10         65.3 
      1146.0         0.20         70.5 
      1147.0         0.10         69.9 
      1148.0         0.20         67.0 
      1149.0         0.13         65.1 
      1150.0         0.17         63.8 
      1151.0         0.10         55.8 
      1152.0         0.07         51.4 
      1153.0         0.30         56.1 
      1154.0         0.07         53.8 
      1155.0         0.20         53.5 
      1156.0         0.07         54.6 
      1157.0         0.20         54.9 
      1158.0         0.17         55.5 
      1159.0         0.15         55.8 
      1160.0         0.13         55.8 
      1161.0         0.17         53.3 
      1162.0         0.07         47.1 
      1163.0         0.17         43.2 
      1164.0         0.03         38.0 
      1165.0         0.10         39.0 
      1166.0         0.23         48.7 
      1167.0         0.10         53.6 
      1168.0         0.13         57.8 
      1169.0         0.27         72.2 
      1170.0         0.20         76.0 
      1171.0         0.13         71.5 
      1172.0         0.17         61.9 
      1173.0         0.20         49.9 
      1174.0         0.10         49.5 
      1175.0         0.13         55.5 
      1176.0         0.13         58.8 
      1177.0         0.17         58.8 
      1178.0         0.10         55.4 
      1179.0         0.10         57.6 
      1180.0         0.13         66.1 
      1181.0         0.13         71.7 
      1182.0         0.22         71.3 
      1183.0         0.17         55.6 
      1184.0         0.13         45.9 
      1185.0         0.17         45.8 
      1186.0         0.13         49.8 
      1187.0         0.17         52.4 
      1188.0         0.23         51.0 
      1189.0         0.23         49.8 
      1190.0         0.17         51.2 
      1191.0         0.10         52.7 
      1192.0         0.30         52.7 
      1193.0         0.20         53.2 
      1194.0         0.20         56.2 
      1195.0         0.37         81.1 
      1196.0         0.20         88.1 
      1197.0         0.30         79.0 
      1198.0         0.20         51.8 
      1199.0         0.25         52.1 
      1200.0         0.17         52.4 
      1201.0         0.13         53.7 
      1202.0         0.23         56.1 
      1203.0         0.10         56.2 
      1204.0         0.13         55.4 
      1205.0         0.27         55.3 
      1206.0         0.13         55.8 
      1207.0         0.17         56.0 
      1208.0         0.27         56.5 
      1209.0         0.13         60.5 
      1210.0         0.17         67.8 
      1211.0         0.07         75.5 
      1212.0         0.10         82.1 
      1213.0         0.17         82.8 
      1214.0         0.07         73.2 
      1215.0         0.07         68.3 
      1216.0         0.13         63.3 
      1217.0         0.17         51.5 
      1218.0         0.30         48.8 
      1219.0         0.10         38.5 
      1220.0         0.12         44.0 
      1221.0         0.37         58.5 
      1222.0         0.20         54.3 
      1223.0         0.17         71.9 
      1224.0         0.40        149.3 
      1225.0         0.23        122.1 
      1226.0         0.13         59.8 
      1227.0         0.17         38.8 
      1228.0         0.23         41.5 
      1229.0         0.33         53.9 
      1230.0         0.20         55.1 
      1231.0         0.17         55.0 
      1232.0         0.30         54.5 
      1233.0         0.27         56.1 
      1234.0         0.42         62.6 
      1235.0         0.40         63.3 
      1236.0         0.27         61.5 
      1237.0         0.47         62.2 
      1238.0         0.53         63.5 
      1239.0         0.43         81.0 
      1240.0         0.57        101.6 
      1241.0         0.62         85.3 
      1242.0         0.50         68.3 
      1243.0         0.50         68.1 
      1244.0         0.47         61.5 
      1245.0         0.43         68.6 
      1246.0         0.30         76.3 
      1247.0         0.27         68.7 
      1248.0         0.27         65.0 
      1249.0         0.17         67.9 
      1250.0         0.20         69.1 
      1251.0         0.25         69.2 
      1252.0         0.20         71.6 
      1253.0         0.23         71.0 
      1254.0         0.13         65.8 
      1255.0         0.27         66.2 
      1256.0         0.23         60.9 
      1257.0         0.27         58.4 
      1258.0         0.07         49.2 
      1259.0         0.27         56.8 
      1260.0         0.23         68.8 
      1261.0         0.33         68.8 
      1262.0         0.17         54.6 
      1263.0         0.23         51.4 
      1264.0         0.10         51.1 
      1265.0         0.27         50.7 
      1266.0         0.22         57.6 
      1267.0         0.10         62.9 
      1268.0         0.23         66.9 
      1269.0         0.20         65.9 
      1270.0         0.10         62.3 
      1271.0         0.23         60.0 
      1272.0         0.23         77.2 
      1273.0         0.20         83.5 
      1274.0         0.23         80.3 
      1275.0         0.03         60.5 
      1276.0         0.30         58.4 
      1277.0         0.03         54.5 
      1278.0         0.30         62.6 
      1279.0         0.13         63.1 
      1280.0         0.20         61.3 
      1281.0         0.17         55.0 
      1282.0         0.20         56.1 
      1283.0         0.17         55.9 
      1284.0         0.17         56.1 
      1285.0         0.28         59.7 
      1286.0         0.20         65.9 
      1287.0         0.33         72.1 
      1288.0         0.13         64.0 
      1289.0         0.23         56.1 
      1290.0         0.20         56.0 
      1291.0         0.23         59.8 
      1292.0         0.27         66.1 
      1293.0         0.23         71.2 
      1294.0         0.23         69.6 
      1295.0         0.17         53.1 
      1296.0         0.20         52.1 
      1297.0         0.17         52.9 
      1298.0         0.27         52.2 
      1299.0         0.13         63.6 
