~Version Information
VERS.                      2.0: CWLS Log ASCII Standard - VERSION 2.0
WRAP.                       NO: One line per depth step
~Well Information Block
STRT.FT                -8.0000: 
STOP.FT              1540.2500: 
STEP.FT                 0.2500: 
NULL.                -999.2500: 
COMP.          Pioneer Natural Resources: COMPANY
WELL.           Telna 24-22 Tr: WELL
FLD.           Purgatorie River: FIELD
LOC.           748' FSL & 1931' FWL--: LOCATION
PROV.                       CO: PROVINCE
CNTY.               Las Animas: COUNTRY
SRVC.          Patterson Wireline: SERVICE COMPANY
DATE.          Fri May 06 12:29:21 2005: LOG DATE
UWI.           05 071 08304 00: UNIQUE WELL ID
~Curve Information Block
DEPT.FT            0 000 00 00: Depth
CCL.                          : Casing Collar Locator
TT3.usec                      : CBL 3' Travel Time
AMP3.mV                       : CBL 3' Amplitude
GR.GAPI                       : Gamma Ray
~Parameter Information Block
~A  Depth       CCL         TT3         AMP3         GR     
# ...
   293.5000      0.0000    915.1189      6.8598    117.2381
   293.7500      0.0000    926.8305      6.7957    113.7887
   294.0000      0.0000    940.2791      6.7419    109.6937
   294.2500      0.0000    950.9203      6.7114    107.0051
   294.5000      0.0000    952.9457      6.7169    106.7073
   294.7500      0.0000    944.8118      6.7566    108.2471
   295.0000      0.0000    931.2368      6.8115    109.9221
   295.2500      0.0000    918.7222      6.8627    109.9929
   295.5000      0.0000    910.5770      6.9074    107.8259
   295.7500      0.0000    906.4599      6.9521    104.2189
   296.0000      0.0000    904.4224      6.9971    100.7822
   296.2500      0.0000    902.6562      7.0312     99.0386
   296.5000      0.0000    900.8900      7.0432     99.6894
   296.7500      0.0000    900.8290      7.0355    102.0291
   297.0000      0.0000    904.3505      7.0251    104.1565
   297.2500      0.0000    910.8641      7.0248    104.4538
   297.5000      0.0000    917.2643      7.0205    102.8810
   297.7500      0.0000    920.6904      6.9746    100.4785
   298.0000      0.0000    920.6694      6.8629     98.0286
   298.2500      0.0000    918.3806      6.7067     95.7022
   298.5000      0.0000    914.8058      6.5615     93.5892
   298.7500      0.0000    910.1518      6.4721     91.9800
   299.0000      0.0000    904.4711      6.4362     91.1469
   299.2500      0.0000    898.1118      6.4114     90.9944
   299.5000      0.0000    891.6498      6.3559     91.0134
   299.7500      0.0000    885.9108      6.2616     90.8286
   300.0000      0.0000    882.0297      6.1516     90.8457
   300.2500      0.0000    880.9544      6.0525     92.0435
   300.5000      0.0000    882.8232      5.9735     94.9327
   300.7500      0.0000    887.3705      5.9076     98.7832
   301.0000      0.0000    894.8184      5.8454    101.9641
   301.2500      0.0000    905.1797      5.7842    103.2003
   301.5000      0.0000    916.2390      5.7314    102.5183
   301.7500      0.0000    923.6270      5.7071    100.7575
   302.0000      0.0000    924.1912      5.7360     98.2028
   302.2500      0.0000    918.7800      5.8249     94.2817
   302.5000      0.0000    911.0428      5.9443     88.9222
   302.7500      0.0000    903.9854      6.0400     83.6703
   303.0000      0.0000    898.1385      6.0728     80.8590
   303.2500      0.0000    892.6917      6.0502     81.7951
   303.5000      0.0000    887.9086      6.0185     86.0336
   303.7500      0.0000    886.1738      6.0246     92.1056
   304.0000      0.0000    890.5681      6.0825     98.4248
   304.2500      0.0000    902.1239      6.1736    103.6255
   304.5000      0.0000    917.8914      6.2646    106.6346
   304.7500      0.0000    931.7310      6.3253    106.8920
   305.0000      0.0000    937.9996      6.3418    104.6582
   305.2500      0.0000    935.2495      6.3240    101.1280
   305.5000      0.0000    926.3651      6.2991     97.9950
   305.7500      0.0000    915.5549      6.2914     96.4716
   306.0000      0.0000    905.9921      6.3066     96.4550
   306.2500      0.0000    899.5840      6.3321     96.6855
   306.5000      0.0000    897.0568      6.3482     95.6470
   306.7500      0.0000    897.6909      6.3387     92.3547
   307.0000      0.0000    900.0106      6.2980     86.8958
   307.2500      0.0000    903.1055      6.2370     80.7771
   307.5000      0.0000    906.7129      6.1841     76.5021
   307.7500      0.0000    910.1819      6.1685     76.1473
   308.0000      0.0000    912.1161      6.1924     79.8921
   308.2500      0.0000    911.0563      6.2226     85.8766
   308.5000      0.0000    906.3043      6.2211     91.6540
   308.7500      0.0000    898.4381      6.1798     95.9860
   309.0000      0.0000    889.3341      6.1173     99.0932
   309.2500      0.0000    881.3309      6.0484    101.2459
   309.5000      0.0000    875.9755      5.9688    101.8681
   309.7500      0.0000    873.5367      5.8652    100.4320
   310.0000      0.0000    873.6606      5.7328     97.4462
   310.2500      0.0000    876.1837      5.5813     93.8904
   310.5000      0.0000    881.0587      5.4326     90.2580
   310.7500      0.0000    887.4110      5.3086     86.8453
   311.0000      0.0000    892.9372      5.2211     84.4048
   311.2500      0.0000    894.9016      5.1706     83.5375
   311.5000      0.0000    892.2081      5.1569     83.6192
   311.7500      0.0000    886.4077      5.1804     83.2664
   312.0000      0.0000    880.2898      5.2315     81.9970
   312.2500      0.0000    875.4550      5.2810     80.7151
   312.5000      0.0000    871.5294      5.2924     80.2927
   312.7500      0.0000    867.7245      5.2471     80.2874
   313.0000      0.0000    864.4742      5.1565     79.4018
   313.2500      0.0000    862.9105      5.0515     76.7585
   313.5000      0.0000    863.2011      4.9677     72.4884
   313.7500      0.0000    864.2368      4.9349     67.7090
   314.0000      0.0000    864.7553      4.9636     64.2292
   314.2500      0.0000    864.0079      5.0325     63.5667
   314.5000      0.0000    861.5174      5.1041     65.6402
   314.7500      0.0000    857.0602      5.1588     68.6733
   315.0000      0.0000    851.3431      5.2064     70.7989
   315.2500      0.0000    846.3980      5.2638     71.6614
   315.5000      0.0000    844.7460      5.3350     72.1382
   315.7500      0.0000    847.8994      5.4122     72.6304
   316.0000      0.0000    855.4377      5.4860     72.2381
   316.2500      0.0000    865.2762      5.5506     69.9438
   316.5000      0.0000    874.6992      5.6059     66.1740
   316.7500      0.0000    881.4107      5.6593     62.6325
   317.0000      0.0000    884.1955      5.7247     60.7006
   317.2500      0.0000    883.1921      5.8152     60.3923
   317.5000      0.0000    879.7532      5.9293     60.7374
   317.7500      0.0000    875.7606      6.0444     60.8270
   318.0000      0.0000    872.6355      6.1246     60.5318
   318.2500      0.0000    870.7689      6.1446     60.4410
   318.5000      0.0000    869.6789      6.1058     61.1966
   318.7500      0.0000    868.3829      6.0273     62.7816
   319.0000      0.0000    865.6068      5.9184     64.3356
   319.2500      0.0000    860.6365      5.7737     64.8137
   319.5000      0.0000    855.5481      5.6034     63.9810
   319.7500      0.0000    856.9442      5.4496     62.5832
   320.0000      0.0000    872.7524      5.3466     61.3408
   320.2500      0.0000    903.9682      5.2760     59.9805
   320.5000      0.0000    940.2144      5.1913     57.6082
   320.7500      0.0000    967.1872      5.0822     54.0033
   321.0000      0.0000    979.1072      4.9828     50.2276
   321.2500      0.0000    981.5572      4.9251     47.8912
   321.5000      2.0000    982.5294      4.9146     47.9064
   321.7500      2.0000    983.5396      4.9493     49.8794
   322.0000      0.0000    979.3657      5.0467     52.5613
   322.2500      0.0000    964.4409      5.2392     54.8083
   322.5000      0.0000    939.6631      5.5287     56.1060
   322.7500      0.0000    913.4965      5.8455     56.3497
   323.0000      0.0000    895.4544      6.0788     55.5169
   323.2500      0.0000    888.4603      6.1771     53.8056
   323.5000      0.0000    888.0657      6.1928     51.9283
   323.7500      0.0000    888.1413      6.2098     51.0135
   324.0000      0.0000    886.1254      6.2533     51.9292
   324.2500      0.0000    883.3531      6.2933     54.4434
   324.5000      0.0000    881.8672      6.3017     57.1880
   324.7500      0.0000    881.8018      6.2850     58.8854
   325.0000      0.0000    881.6086      6.2718     59.6238
   325.2500      0.0000    880.2058      6.2872     60.5757
   325.5000      0.0000    878.3652      6.3355     62.4496
   325.7500      0.0000    878.0042      6.3999     64.5952
   326.0000      0.0000    880.3340      6.4604     65.7855
   326.2500      0.0000    884.6484      6.5175     65.6517
   326.5000      0.0000    888.8394      6.5947     65.0958
   326.7500      0.0000    891.3858      6.7090     65.3248
