~Version Information
VERS.                      2.0: CWLS Log ASCII Standard - VERSION 2.0
WRAP.                       NO: One line per depth step
~Well Information Block
STRT.FT               765.4000: 
STOP.FT              2581.2000: 
STEP.FT                 0.1000: 
NULL.                -999.2500: 
COMP.          Petrogulf Corporation: COMPANY
WELL.            Montoya 7-12V: WELL
FLD.           Purgatorie River: FIELD
LOC.           728' FWL & 1764' FNL: LOCATION
CNTY.               Las Animas: COUNTY
SRVC.                         : SERVICE COMPANY
DATE.          Fri Feb 20 09:23:58 2004: LOG DATE
UWI.           05-071-07887-00: UNIQUE WELL ID
STAT.                 Colorado: STATE
~Curve Information Block
DEPT.FT            0 000 00 00: Depth
DCAL.in                       : CDL Caliper
RHOB.g/cc                     : CDL Bulk Density
RHOC.g/cc                     : CDL Density Correction
DPOR.pu                       : CDL Density Porosity
GR.GAPI                       : Gamma Ray
NPOR.pu                       : Neutron Porosity
~Parameter Information Block
~A  Depth       DCAL        RHOB        RHOC        DPOR         GR         NPOR    
# ...
  1975.0000      7.9690      2.6498      0.0721      0.0123     60.0850     13.1784
  1975.1000      7.9690      2.6532      0.0492     -0.1954     64.6300     13.5685
  1975.2000      7.9690      2.6598      0.1272     -0.5939     65.3258     14.1748
  1975.3000      7.9680      2.6539      0.0779     -0.2380     71.9483     15.2442
  1975.4000      7.9680      2.6306      0.0640      1.1781     80.9874     16.5206
  1975.5000      7.9715      2.6089      0.0106      2.4915     78.2520     17.8291
  1975.6000      7.9715      2.6090      0.0164      2.4850     66.3576     19.0840
  1975.7000      7.9715      2.6254      0.0825      1.4902     60.7177     20.2066
  1975.8000      7.9776      2.6376      0.0638      0.7510     70.0846     21.2519
  1975.9000      7.9776      2.6366      0.0217      0.8106     88.7458     21.9911
  1976.0000      7.9747      2.6200      0.0442      1.8196    101.1715     22.4533
  1976.1000      7.9747      2.5945      0.0332      3.3616    102.7971     22.9750
  1976.2000      7.9747      2.5892      0.0395      3.6850    101.6183     23.8921
  1976.3000      7.9804      2.6102      0.1036      2.4151    102.7137     25.2758
  1976.4000      7.9804      2.6287      0.0352      1.2924    106.4195     26.2650
  1976.5000      7.9866      2.6296      0.0613      1.2389    115.4352     26.4856
  1976.6000      7.9866      2.6205      0.0594      1.7871    125.8644     26.7793
  1976.7000      7.9866      2.6218      0.0130      1.7078    125.2609     27.5891
  1976.8000      7.9808      2.6449      0.0778      0.3106    113.5443     28.1278
  1976.9000      7.9808      2.6807      0.1206     -1.8613     97.6297     27.7783
  1977.0000      7.9854      2.7250      0.1778     -4.5471     82.0479     27.0487
  1977.1000      7.9854      2.7710      0.1734     -7.3352     76.4702     26.7345
  1977.2000      7.9854      2.7939      0.2317     -8.7217     87.5993     27.0273
  1977.3000      7.9927      2.7779      0.1761     -7.7499    105.4520     27.5233
  1977.4000      7.9927      2.7312      0.1628     -4.9220    116.9214     27.8565
  1977.5000      7.9896      2.6799      0.0832     -1.8136    120.1902     27.7648
  1977.6000      7.9896      2.6425      0.0958      0.4569    119.3699     27.2746
  1977.7000      7.9896      2.6032      0.0623      2.8362    119.8298     26.7978
  1977.8000      7.9960      2.5587     -0.0069      5.5355    121.3439     26.6716
  1977.9000      7.9960      2.5452     -0.0513      6.3495    115.9641     26.7645
  1978.0000      8.0190      2.5754      0.0094      4.5187    104.4072     26.6251
  1978.1000      8.0190      2.6070      0.0737      2.6040     98.0943     26.2165
  1978.2000      8.0190      2.6135      0.0207      2.2146     99.0595     26.0112
  1978.3000      8.0060      2.6180      0.0427      1.9385    102.7559     26.1700
  1978.4000      8.0060      2.6314      0.0762      1.1297    104.9404     26.2512
  1978.5000      8.0121      2.6366      0.0990      0.8134    106.6337     25.9980
  1978.6000      8.0121      2.6247      0.0487      1.5351    111.4621     25.3436
  1978.7000      8.0121      2.6014      0.0213      2.9456    115.8490     24.1724
  1978.8000      8.0166      2.5759      0.0667      4.4900    117.7402     22.7166
  1978.9000      8.0166      2.5596     -0.0244      5.4818    117.6209     21.4890
  1979.0000      8.0242      2.5613     -0.0202      5.3759    115.5173     20.9725
  1979.1000      8.0242      2.5714      0.0428      4.7611    114.5289     21.2921
  1979.2000      8.0242      2.5762      0.0000      4.4728    113.9705     21.8709
  1979.3000      7.9988      2.5683      0.0720      4.9514    112.5479     21.8663
  1979.4000      7.9988      2.5462      0.0056      6.2887    111.5064     21.2974
  1979.5000      7.9930      2.5257      0.0128      7.5345    113.1701     20.7334
  1979.6000      7.9930      2.5262     -0.0169      7.5055    114.1913     20.3441
  1979.7000      7.9930      2.5469      0.0097      6.2506    109.2149     20.0196
  1979.8000      7.9901      2.5640      0.0417      5.2093    102.4403     19.9834
  1979.9000      7.9901      2.5630     -0.0105      5.2732    102.5130     20.4415
  1980.0000      7.9902      2.5540      0.0092      5.8174    111.7073     20.7723
  1980.1000      7.9902      2.5507      0.0319      6.0187    120.7507     20.3638
  1980.2000      7.9902      2.5560     -0.0199      5.6972    122.9127     19.8258
  1980.3000      7.9878      2.5584      0.0659      5.5493    121.4827     20.2316
  1980.4000      7.9878      2.5476      0.0250      6.2039    118.0701     21.3720
  1980.5000      7.9960      2.5367     -0.0056      6.8687    113.4684     22.3347
  1980.6000      7.9960      2.5444     -0.0093      6.3978    106.8827     22.9975
  1980.7000      7.9960      2.5631      0.0801      5.2655     96.2761     23.5858
  1980.8000      8.0008      2.5788      0.0192      4.3143     88.9406     23.8477
  1980.9000      8.0008      2.6038      0.0242      2.8021     90.5471     23.2405
  1981.0000      8.0000      2.6306      0.1246      1.1779     95.8793     22.2040
  1981.1000      8.0000      2.6309      0.0635      1.1560     97.4500     21.6545
  1981.2000      8.0000      2.6192      0.0682      1.8656     95.4600     21.2415
  1981.3000      7.9904      2.6282      0.0386      1.3211     95.6073     20.3945
  1981.4000      7.9904      2.6522      0.1117     -0.1345     98.7865     19.7021
  1981.5000      7.9927      2.6600      0.0483     -0.6063    101.2125     19.7875
  1981.6000      7.9927      2.6352      0.0951      0.8985     97.4049     20.3408
  1981.7000      7.9927      2.5931     -0.0299      3.4483     86.1867     20.4644
  1981.8000      7.9923      2.5699     -0.0060      4.8516     74.7332     19.7368
  1981.9000      7.9923      2.5792     -0.0248      4.2932     67.5807     18.8296
  1982.0000      7.9880      2.6001      0.1037      3.0227     66.0472     18.4925
  1982.1000      7.9880      2.6126     -0.0116      2.2684     70.4743     18.5310
  1982.2000      7.9880      2.6146      0.0718      2.1447     72.9497     18.3773
  1982.3000      8.0015      2.6079      0.0413      2.5534     68.6985     17.8344
  1982.4000      8.0015      2.6014      0.0045      2.9484     66.1478     17.3215
  1982.5000      7.9938      2.6032      0.0429      2.8367     71.2277     17.2914
  1982.6000      7.9938      2.6069      0.0872      2.6134     79.9189     17.2747
  1982.7000      7.9938      2.6064      0.0235      2.6441     83.9771     16.9473
  1982.8000      7.9876      2.5948      0.0286      3.3429     81.5327     16.7557
  1982.9000      7.9876      2.5677      0.0102      4.9895     78.1639     16.5719
  1983.0000      7.9826      2.5595     -0.0409      5.4842     80.9300     16.0068
  1983.1000      7.9826      2.5975      0.0360      3.1831     87.1746     15.4008
  1983.2000      7.9826      2.6442      0.0690      0.3503     91.6074     15.5082
  1983.3000      7.9697      2.6542      0.0951     -0.2575     95.4273     16.2966
  1983.4000      7.9697      2.6402      0.0175      0.5940     94.5336     16.7049
  1983.5000      7.9637      2.6474      0.0621      0.1554     90.8947     15.9758
  1983.6000      7.9637      2.6690      0.1551     -1.1495     89.5234     14.9483
  1983.7000      7.9637      2.6616      0.1039     -0.7042     84.7005     14.7912
  1983.8000      7.9587      2.6354      0.0309      0.8826     76.2736     15.2354
  1983.9000      7.9587      2.6320     -0.0235      1.0892     73.7034     15.3333
  1984.0000      7.9667      2.6426      0.1123      0.4492     78.3808     14.6212
  1984.1000      7.9667      2.6236      0.1006      1.6014     79.1722     13.5526
  1984.2000      7.9667      2.5816     -0.0067      4.1466     70.9290     12.9364
  1984.3000      7.9766      2.5581      0.0156      5.5715     61.6011     12.9591
  1984.4000      7.9766      2.5474      0.0754      6.2182     58.6417     13.2441
  1984.5000      7.9702      2.5239     -0.0458      7.6410     60.6104     13.3634
