~Version Information
 VERS.                                  2.0 : CWLS LAS VERSION
 WRAP.                                   NO : WRAPING MODE
 SWARE .                 MController 2.5.0J : SOFTWARE VERSION
~Well Information
 WELL.                          Silva 1-43R : WELL
 COMP.                Petrogulf Corporation : COMPANY
 FLD.                       Purgatory River : FIELD
 LOC.                  NE/SE sec1 T33S R68W : LOCATION
 DATE.                    6/16/06 - 6/17/06 : DATE(S) LOGGED
 SRVC.      Blanco Geological Services, LLC : SERVICE COMPANY
 STAT.                             Colorado : STATE
 CNTY.                           Las Animas : COUNTY
 CTRY.                                  USA : COUNTRY
 API.                       05-071-08372-00 : API NUMBER
 STRT.FT                              12.00 : START DEPTH
 STOP.FT                            2210.00 : STOP DEPTH
 STEP.FT                               1.00 : DEPTH INCREMENT
 NULL.                                -9999 : NULL VALUE
~Curve information
 DEPTH.FT                                   :
 ROP.MIN/FT                                 :
 GAS.UNITS                                  :
~ASCII Log data
        12.0     -9999.00          5.0 
        13.0        79.97          1.6 
        14.0         0.10          0.9 
        15.0         0.10          1.6 
        16.0         0.13          1.4 
        17.0         0.23          1.7 
        18.0         0.40          0.9 
        19.0         0.38          0.9 
        20.0         0.33          1.8 
        21.0         0.33          1.1 
        22.0         0.33          1.5 
        23.0         0.30          1.2 
        24.0         0.90          1.5 
        25.0        35.68          1.8 
        26.0         0.50          1.1 
        27.0         0.37          1.8 
        28.0         0.30          1.4 
        29.0         0.30          1.2 
        30.0         0.33          1.3 
        31.0         0.35          1.0 
        32.0         0.30          0.8 
        33.0         0.37          1.3 
        34.0         0.33          1.2 
        35.0         0.33          1.2 
        36.0         0.33          1.4 
        37.0         0.33          1.5 
        38.0         0.37          1.7 
        39.0         0.37          1.3 
        40.0         0.33          1.7 
        41.0         0.35          1.2 
        42.0         0.37          1.9 
        43.0         0.33          1.3 
        44.0         0.37          1.9 
        45.0         0.37          1.8 
        46.0         0.37          1.2 
        47.0         0.37          1.2 
        48.0         0.33          1.1 
        49.0         0.33          1.4 
        50.0         0.40          1.0 
        51.0         2.18          1.9 
        52.0         0.30          2.2 
        53.0         0.43          2.2 
        54.0         0.40          1.4 
        55.0         0.42          1.4 
        56.0         0.33          1.7 
        57.0         0.33          1.7 
        58.0         0.33          1.5 
        59.0         0.27          1.6 
        60.0         0.33          1.9 
        61.0         0.30          1.7 
        62.0         0.30          2.3 
        63.0         0.33          1.5 
        64.0         0.33          1.6 
        65.0         0.38          2.4 
        66.0         0.30          2.1 
        67.0         0.37          2.5 
        68.0         0.33          2.3 
        69.0         0.37          2.8 
        70.0         0.40          3.0 
        71.0         0.37          2.2 
        72.0         0.33          1.9 
        73.0         0.33          2.7 
        74.0         0.32          2.1 
        75.0         0.30          2.2 
        76.0         0.33          2.7 
        77.0         0.37          2.8 
        78.0         0.33          2.1 
        79.0         0.37          2.3 
        80.0         0.30          2.9 
        81.0         1.62          3.3 
        82.0         0.40          3.7 
        83.0         0.37          4.0 
        84.0         0.33          4.2 
        85.0         0.37          3.5 
        86.0         0.33          3.5 
        87.0         0.37          4.2 
        88.0         0.33          4.0 
        89.0         0.30          4.9 
        90.0         0.35          4.7 
        91.0         0.37          4.9 
        92.0         0.40          5.1 
        93.0         0.33          4.8 
        94.0         0.37          5.6 
        95.0         0.33          5.2 
        96.0         0.37          5.0 
        97.0         0.30          5.8 
        98.0         0.30          5.3 
        99.0         0.43          6.2 
       100.0         0.32          5.8 
       101.0         0.27          6.1 
       102.0         0.27          6.3 
       103.0         0.30          7.0 
       104.0         0.33          6.2 
       105.0         0.33          6.6 
       106.0         0.40          7.6 
       107.0         0.33          6.6 
       108.0         0.37          7.5 
       109.0         0.55          7.4 
       110.0         0.40          7.2 
       111.0         1.37          7.7 
       112.0         0.27          7.1 
       113.0         0.33          7.4 
       114.0         0.33          7.5 
       115.0         0.33          7.8 
       116.0         0.38          7.1 
       117.0         0.37          7.2 
       118.0         0.40          7.2 
       119.0         0.40          7.2 
       120.0         0.37          7.8 
       121.0         0.37          7.9 
       122.0         0.33          7.3 
       123.0         0.33          8.0 
       124.0         0.30          7.2 
       125.0         0.38          7.3 
       126.0         0.33          7.5 
       127.0         0.37          7.7 
       128.0         0.40          7.3 
       129.0         0.33          7.4 
       130.0         0.33          7.3 
       131.0         0.33          7.4 
       132.0         0.33          7.9 
       133.0         0.33          7.1 
       134.0         0.30          7.5 
       135.0         0.32          7.4 
       136.0         0.37          8.0 
       137.0         0.37          7.6 
       138.0         0.37          7.1 
       139.0         0.30          7.2 
       140.0         0.27          7.6 
       141.0         1.53          7.4 
       142.0         0.38          7.4 
       143.0         0.33          6.9 
       144.0         0.30          7.9 
       145.0         0.33          7.6 
       146.0         0.33          6.8 
       147.0         0.37          7.2 
       148.0         0.33          7.7 
       149.0         0.37          6.5 
       150.0         0.37          6.8 
       151.0         0.35          6.2 
       152.0         0.33          6.5 
       153.0         0.37          5.9 
       154.0         0.37          5.9 
       155.0         0.33          5.8 
       156.0         0.33          6.3 
       157.0         0.33          5.8 
       158.0         0.33          6.0 
       159.0         0.43          5.6 
       160.0         0.37          6.2 
       161.0         0.38          6.1 
       162.0         0.37          5.9 
       163.0         0.43          7.0 
       164.0         0.40          6.7 
       165.0         0.37          6.4 
       166.0         0.37          6.8 
       167.0         0.37          6.5 
       168.0         0.40          6.5 
       169.0         0.48          6.8 
       170.0         0.30          7.2 
       171.0         1.57          7.0 
       172.0         0.23          6.8 
       173.0         0.33          6.8 
       174.0         0.40          7.0 
       175.0         0.48          6.5 
       176.0         0.37          6.2 
       177.0         0.43          7.0 
       178.0         0.47          6.8 
       179.0         0.47          7.1 
       180.0         0.40          7.3 
       181.0         0.37          7.5 
       182.0         0.33          7.3 
       183.0         0.33          7.2 
       184.0         0.35          6.6 
       185.0         0.37          6.8 
       186.0         0.37          7.6 
       187.0         0.37          6.7 
       188.0         0.40          6.9 
       189.0         0.37          6.3 
       190.0         0.40          7.2 
       191.0         0.37          6.9 
       192.0         0.40          6.8 
       193.0         0.35          6.2 
       194.0         0.40          6.9 
       195.0         0.43          6.8 
       196.0         0.37          6.1 
       197.0         0.40          6.0 
       198.0         0.47          6.5 
       199.0         0.30          6.1 
       200.0         0.30          6.8 
       201.0         1.15          6.1 
       202.0         0.30          6.6 
       203.0         0.40          5.7 
       204.0         0.40          5.6 
       205.0         0.37          6.6 
       206.0         0.40          5.8 
       207.0         0.37          6.0 
       208.0         0.42          5.9 
       209.0         0.40          6.3 
       210.0         0.40          6.0 
       211.0         0.43          6.3 
