~Version Information
VERS.                      2.0: CWLS Log ASCII Standard - VERSION 2.0
WRAP.                       NO: One line per depth step
~Well Information Block
STRT.FT               595.0000: 
STOP.FT              1508.7500: 
STEP.FT                 0.2500: 
NULL.                -999.2500: 
COMP.          Pioneer Natural Resources: COMPANY
WELL.          Sumatra 34-22 Tr: WELL
FLD.           Purgatoire River: FIELD
LOC.           443' FSL & 2424' FEL--: LOCATION
PROV.                 Colorado: PROVINCE
CNTY.               Las Animas: COUNTRY
SRVC.                Patterson: SERVICE COMPANY
DATE.          Wed Jun 08 23:53:01 2005: LOG DATE
UWI.           05 071 08383 00: UNIQUE WELL ID
~Curve Information Block
DEPT.FT            0 000 00 00: Depth
SN.Ohm-m                      : IEL Short Normal
SP.mV                         : IEL Spontaneous Potential
DIR.Ohm-m                     : IEL Induction Resistivity
GR.GAPI                       : Gamma Ray
~Parameter Information Block
~A  Depth        SN          SP         DIR          GR     
# ...
  1064.0000    614.1635   -528.8535     23.9224     85.5323
  1064.2500    644.6561   -528.8433     23.9414     88.1869
  1064.5000    655.3747   -528.8414     23.9770     90.5097
  1064.7500    642.6509   -528.8502     23.9969     90.4643
  1065.0000    603.3655   -528.8701     23.9671     88.3313
  1065.2500    540.9213   -528.8998     23.8729     86.2785
  1065.5000    472.6618   -528.9364     23.7298     83.6090
  1065.7500    427.1884   -528.9761     23.5761     82.4703
  1066.0000    427.6446   -529.0150     23.4533     81.4651
  1066.2500    474.1106   -529.0497     23.3870     80.9016
  1066.5000    543.4084   -529.0781     23.3815     79.8798
  1066.7500    607.1096   -529.0989     23.4241     79.1773
  1067.0000    649.5700   -529.1121     23.4939     78.6171
  1067.2500    671.0911   -529.1187     23.5656     78.8487
  1067.5000    679.5406   -529.1196     23.6107     79.9791
  1067.7500    682.1331   -529.1166     23.5990     80.7801
  1068.0000    682.7565   -529.1110     23.5052     81.2043
  1068.2500    682.8629   -529.1041     23.3155     80.9155
  1068.5000    682.7979   -529.0969     23.0305     80.5496
  1068.7500    682.4033   -529.0899     22.6623     81.2405
  1069.0000    680.8621   -529.0835     22.2283     85.0559
  1069.2500    676.2322   -529.0772     21.7441     89.7531
  1069.5000    665.6494   -529.0706     21.2143     99.0234
  1069.7500    647.6341   -529.0627     20.6275    105.2143
  1070.0000    625.9014   -529.0533     19.9606    111.7392
  1070.2500    610.0321   -529.0419     19.1919    113.5423
  1070.5000    609.2090   -529.0289     18.3186    113.7189
  1070.7500    623.9653   -529.0154     17.3680    113.8441
  1071.0000    645.6399   -529.0028     16.3952    116.6772
  1071.2500    664.2230   -528.9929     15.4648    120.9898
  1071.5000    675.1952   -528.9873     14.6273    130.4463
  1071.7500    679.4100   -528.9871     13.9031    137.6528
  1072.0000    679.4089   -528.9923     13.2841    147.6842
  1072.2500    677.3074   -529.0023     12.7482    152.8346
  1072.5000    674.9056   -529.0153     12.2774    157.2215
  1072.7500    673.8587   -529.0297     11.8698    157.8875
  1073.0000    674.9199   -529.0434     11.5382    156.4560
  1073.2500    677.4105   -529.0552     11.3003    154.6822
  1073.5000    679.9172   -529.0648     11.1689    151.7310
  1073.7500    681.3816   -529.0723     11.1479    149.7990
  1074.0000    681.0406   -529.0787     11.2343    147.0923
  1074.2500    676.9258   -529.0851     11.4229    145.2729
  1074.5000    664.0453   -529.0925     11.7085    141.6449
  1074.7500    634.6835   -529.1013     12.0833    137.9916
  1075.0000    584.1241   -529.1118     12.5335    130.2941
  1075.2500    520.2031   -529.1235     13.0373    124.1073
  1075.5000    465.6789   -529.1358     13.5694    114.6162
  1075.7500    444.3465   -529.1479     14.1070    108.9414
  1076.0000    461.1134   -529.1593     14.6349    102.3130
  1076.2500    498.1933   -529.1693     15.1444     99.3506
  1076.5000    532.5116   -529.1774     15.6291     96.9560
  1076.7500    555.3107   -529.1835     16.0814     96.4321
  1077.0000    574.2302   -529.1873     16.4925     96.3897
  1077.2500    598.8422   -529.1887     16.8563     96.1928
  1077.5000    628.3685   -529.1880     17.1729     94.7938
  1077.7500    654.4379   -529.1854     17.4485     93.1636
  1078.0000    671.1644   -529.1811     17.6915     90.5740
  1078.2500    679.1017   -529.1755     17.9083     89.2711
  1078.5000    681.9357   -529.1691     18.0999     88.0686
  1078.7500    682.7018   -529.1623     18.2615     87.5204
  1079.0000    682.8608   -529.1553     18.3849     87.0348
  1079.2500    682.8896   -529.1483     18.4652     87.3218
  1079.5000    682.8896   -529.1414     18.5043     89.1488
  1079.7500    682.8896   -529.1349     18.5108     90.9192
  1080.0000    682.8896   -529.1291     18.4947     93.0603
  1080.2500    682.8894   -529.1243     18.4631     93.8116
  1080.5000    682.8882   -529.1211     18.4195     94.7482
  1080.7500    682.8829   -529.1198     18.3672     95.8990
  1081.0000    682.8630   -529.1207     18.3145     98.3715
  1081.2500    682.8078   -529.1240     18.2775     99.7737
  1081.5000    682.6933   -529.1292     18.2776    100.1958
  1081.7500    682.5229   -529.1359     18.3344     99.2034
  1082.0000    682.3561   -529.1431     18.4582     96.6326
  1082.2500    682.2850   -529.1497     18.6486     94.7693
  1082.5000    682.3561   -529.1550     18.8993     92.0645
  1082.7500    682.5229   -529.1580     19.2056     90.2497
  1083.0000    682.6933   -529.1585     19.5668     87.6435
  1083.2500    682.8078   -529.1564     19.9819     86.2542
  1083.5000    682.8630   -529.1520     20.4390     84.9533
  1083.7500    682.8829   -529.1461     20.9074     84.4790
  1084.0000    682.8882   -529.1391     21.3408     84.0023
  1084.2500    682.8885   -529.1319     21.6917     83.7765
  1084.5000    682.8790   -529.1251     21.9285     83.5135
  1084.7500    682.8283   -529.1191     22.0443     83.1434
  1085.0000    682.6094   -529.1144     22.0535     81.7918
  1085.2500    681.8773   -529.1110     21.9815     80.4326
  1085.5000    679.9993   -529.1092     21.8583     78.5587
  1085.7500    676.3780   -529.1091     21.7134     77.9226
  1086.0000    671.3124   -529.1107     21.5723     78.0980
  1086.2500    666.6100   -529.1140     21.4537     78.7212
  1086.5000    664.6298   -529.1190     21.3691     79.7823
  1086.7500    666.1569   -529.1255     21.3246     80.2894
  1087.0000    669.6623   -529.1334     21.3235     80.4678
  1087.2500    673.0304   -529.1420     21.3657     80.0839
  1087.5000    675.4142   -529.1511     21.4463     78.7631
  1087.7500    676.7574   -529.1600     21.5558     77.6543
  1088.0000    675.9581   -529.1683     21.6822     76.3063
  1088.2500    669.9249   -529.1758     21.8152     75.7082
  1088.5000    655.1502   -529.1822     21.9483     74.6903
  1088.7500    632.1413   -529.1875     22.0771     73.6113
  1089.0000    609.3209   -529.1918     22.1949     71.7554
  1089.2500    599.5784   -529.1954     22.2876     71.0324
  1089.5000    609.3759   -529.1985     22.3362     71.5670
  1089.7500    632.3655   -529.2012     22.3281     72.8337
  1090.0000    655.8460   -529.2036     22.2696     74.9553
  1090.2500    671.6161   -529.2056     22.1863     75.9723
  1090.5000    679.2296   -529.2072     22.1083     76.8535
  1090.7500    681.9642   -529.2084     22.0535     77.2244
  1091.0000    682.7074   -529.2089     22.0231     77.4663
  1091.2500    682.8616   -529.2088     22.0107     77.2700
  1091.5000    682.8896   -529.2081     22.0126     76.5130
  1091.7500    682.8896   -529.2069     22.0292     75.9530
  1092.0000    682.8896   -529.2052     22.0599     75.2649
  1092.2500    682.8896   -529.2031     22.0999     74.7881
  1092.5000    682.8896   -529.2007     22.1451     73.8232
  1092.7500    682.8896   -529.1979     22.2000     73.1466
  1093.0000    682.8896   -529.1948     22.2782     72.5955
  1093.2500    682.8896   -529.1914     22.3966     72.5835
  1093.5000    682.8896   -529.1877     22.5683     72.3435
  1093.7500    682.8896   -529.1837     22.7991     71.4464
  1094.0000    682.8896   -529.1794     23.0842     68.7796
  1094.2500    682.8896   -529.1747     23.4053     66.6584
  1094.5000    682.8896   -529.1698     23.7345     64.3836
  1094.7500    682.8896   -529.1647     24.0461     64.0661
  1095.0000    682.8896   -529.1597     24.3295     65.5093
  1095.2500    682.8896   -529.1551     24.5904     67.3936
  1095.5000    682.8825   -529.1512     24.8402     70.6526
  1095.7500    682.8433   -529.1485     25.0850     72.4756
  1096.0000    682.6545   -529.1473     25.3223     73.6697
  1096.2500    681.9599   -529.1479     25.5466     73.1846
  1096.5000    680.0259   -529.1503     25.7562     71.1055
  1096.7500    676.0201   -529.1542     25.9571     69.5641
  1097.0000    670.0557   -529.1592     26.1620     68.1588
  1097.2500    664.2163   -529.1649     26.3836     68.0778
