~Version Information
VERS.                      2.0: CWLS Log ASCII Standard - VERSION 2.0
WRAP.                       NO: One line per depth step
~Well Information Block
STRT.FT               630.0000: 
STOP.FT              1156.0000: 
STEP.FT                 0.2500: 
NULL.                -999.2500: 
COMP.          Pioneer Natural Resources: COMPANY
WELL.          Drewmeister 34-34: WELL
FLD.           Purgatoire River: FIELD
LOC.           958' FSL & 1857' FEL: LOCATION
STAT.                 Colorado: State
CNTY.               Las Animas: COUNTY
CTRY. USA : Country
SECT. 34 : Section
TOWN. 32S : Township
RANG. 65W : Range
SRVC.                Patterson: SERVICE COMPANY
DATE.          Mon Oct 03 23:24:37 2005: LOG DATE
API.           05 071 08131 00: UNIQUE WELL ID
~Curve Information Block
DEPT.FT            0 000 00 00: Depth
SN.Ohm-m                      : IEL Short Normal
SP.mV                         : IEL Spontaneous Potential
DIR.Ohm-m                     : IEL Induction Resistivity
GR.GAPI                       : Gamma Ray
~Parameter Information Block
~A  Depth        SN          SP         DIR          GR     
# ...
  1032.0000     78.7726    799.9761     16.8920     86.2482
  1032.2500     42.3205    799.9761     16.8371     87.2526
  1032.5000     39.5076    799.9761     16.7897     88.8333
  1032.7500     60.5770    799.9736     16.7504     89.7057
  1033.0000    120.5707    799.9554     16.7161     90.4941
  1033.2500    229.1967    799.8557     16.6863     90.7248
  1033.5000    352.4885    799.4353     16.6680     90.9452
  1033.7500    433.5537    798.0232     16.6721     91.2394
  1034.0000    471.0909    794.2013     16.7027     92.2697
  1034.2500    521.8796    785.7782     16.7502     93.4174
  1034.5000    600.1346    770.5125     16.7941     95.3624
  1034.7500    653.7139    747.6091     16.8125     96.2692
  1035.0000    653.7192    719.1541     16.7908     96.3920
  1035.2500    613.6424    690.1723     16.7259     95.6753
  1035.5000    550.6398    666.7474     16.6257     93.9228
  1035.7500    505.9752    653.4315     16.5056     92.6794
  1036.0000    530.7881    652.0200     16.3838     91.2753
  1036.2500    616.2976    662.1800     16.2744     90.7759
  1036.5000    706.1017    682.2955     16.1829     90.3550
  1036.7500    765.5186    709.2602     16.1069     90.0232
  1037.0000    788.8041    738.1763     16.0434     89.6160
  1037.2500    762.0137    763.5757     15.9969     89.9264
  1037.5000    662.3453    781.8047     15.9785     92.1174
  1037.7500    500.3588    792.4167     15.9980     94.7579
  1038.0000    335.9107    797.3922     16.0537     99.5961
  1038.2500    225.0101    799.2590     16.1303    102.5778
  1038.5000    167.5347    799.8167     16.2076    105.4782
  1038.7500    131.2061    799.9486     16.2723    106.1264
  1039.0000     99.8624    799.9730     16.3264    105.5023
  1039.2500     77.0189    799.9761     16.3839    104.2444
  1039.5000     67.4836    799.9761     16.4623    101.1186
  1039.7500     68.3996    799.9761     16.5729     98.2502
  1040.0000     70.3208    799.9761     16.7161     93.3218
  1040.2500     64.2503    799.9761     16.8840     90.0316
  1040.5000     49.5436    799.9761     17.0668     85.4404
  1040.7500     34.2682    799.9761     17.2603     82.7438
  1041.0000     25.2093    799.9761     17.4655     79.9253
  1041.2500     21.9012    799.9761     17.6802     79.4312
  1041.5000     20.9518    799.9761     17.8918     81.2502
  1041.7500     20.4086    799.9761     18.0814     83.9206
  1042.0000     19.9280    799.9761     18.2421     88.8996
  1042.2500     19.6422    799.9761     18.3929     91.9580
  1042.5000     19.5500    799.9761     18.5723     94.9411
  1042.7500     19.5727    799.9761     18.8164     95.6530
  1043.0000     19.6803    799.9761     19.1390     95.2068
  1043.2500     19.8284    799.9761     19.5284     94.2934
  1043.5000     19.9393    799.9761     19.9592     92.5530
  1043.7500     19.9708    799.9761     20.4041     91.3220
  1044.0000     19.9497    799.9761     20.8382     89.3794
  1044.2500     19.9656    799.9761     21.2377     87.8933
  1044.5000     20.1629    799.9761     21.5801     85.1429
  1044.7500     20.6305    799.9761     21.8514     82.9749
  1045.0000     21.2796    799.9761     22.0549     79.7846
  1045.2500     21.9288    799.9761     22.2138     78.2710
  1045.5000     22.4894    799.9761     22.3612     77.5926
  1045.7500     23.0051    799.9761     22.5242     78.0769
  1046.0000     23.4551    799.9761     22.7139     79.3640
  1046.2500     23.6599    799.9761     22.9272     80.1261
  1046.5000     23.5306    799.9761     23.1514     80.7506
  1046.7500     23.1641    799.9761     23.3634     80.9209
  1047.0000     22.6775    799.9761     23.5251     81.4436
  1047.2500     22.1794    799.9761     23.5851     82.3001
  1047.5000     21.7958    799.9761     23.4996     84.0707
  1047.7500     21.5622    799.9761     23.2617     84.9087
  1048.0000     21.3961    799.9761     22.9215     84.5762
  1048.2500     21.2331    799.9761     22.5754     83.2851
  1048.5000     21.0936    799.9761     22.3247     80.9493
  1048.7500     21.0215    799.9761     22.2235     80.0070
  1049.0000     21.0111    799.9761     22.2476     80.0265
  1049.2500     21.0263    799.9761     22.3032     80.6012
  1049.5000     21.0670    799.9761     22.2793     81.5263
  1049.7500     21.1349    799.9761     22.1141     82.2215
  1050.0000     21.1922    799.9761     21.8265     83.9256
  1050.2500     21.1774    799.9761     21.4902     85.4874
  1050.5000     21.0173    799.9761     21.1805     87.6536
  1050.7500     20.7279    799.9761     20.9415     88.5717
  1051.0000     20.4565    799.9761     20.7846     89.1926
  1051.2500     20.3111    799.9761     20.7051     89.2404
  1051.5000     20.2918    799.9761     20.6948     88.4904
  1051.7500     20.3612    799.9761     20.7455     87.1486
  1052.0000     20.4596    799.9761     20.8472     83.9671
  1052.2500     20.5224    799.9761     20.9919     81.6216
  1052.5000     20.5500    799.9761     21.1832     79.0479
  1052.7500     20.6421    799.9761     21.4411     78.4841
  1053.0000     20.8984    799.9761     21.7965     79.4836
  1053.2500     21.3408    799.9761     22.2768     81.0722
  1053.5000     21.9734    799.9761     22.8957     84.0868
  1053.7500     22.8313    799.9761     23.6523     86.0509
  1054.0000     23.9810    799.9761     24.5338     87.9794
  1054.2500     25.5054    799.9761     25.5152     87.9396
  1054.5000     27.4570    799.9761     26.5525     85.0281
  1054.7500     29.8985    799.9761     27.5843     81.1528
  1055.0000     33.1307    799.9761     28.5479     73.5407
  1055.2500     37.8115    799.9761     29.3995     68.4027
  1055.5000     44.5892    799.9761     30.1144     62.3540
  1055.7500     53.5935    799.9761     30.6665     59.8084
  1056.0000     64.0122    799.9761     31.0270     57.7445
  1056.2500     73.5484    799.9761     31.2024     57.0564
  1056.5000     78.7178    799.9761     31.2751     56.7457
  1056.7500     76.8763    799.9761     31.3762     57.2726
  1057.0000     68.4461    799.9761     31.5917     59.8359
  1057.2500     56.9645    799.9761     31.8805     62.8093
  1057.5000     46.5977    799.9761     32.0796     68.3817
  1057.7500     39.5094    799.9761     32.0121     72.0530
  1058.0000     35.4606    799.9761     31.6198     76.2303
  1058.2500     33.1544    799.9761     31.0040     77.7103
  1058.5000     31.5144    799.9761     30.3436     78.1713
  1058.7500     30.1165    799.9761     29.7756     77.9194
  1059.0000     28.9577    799.9761     29.3289     77.7736
  1059.2500     28.0868    799.9761     28.9312     78.0410
  1059.5000     27.5496    799.9761     28.4724     78.8366
  1059.7500     27.5185    799.9761     27.8855     79.5504
  1060.0000     28.2715    799.9761     27.1941     80.7757
  1060.2500     30.3431    799.9761     26.4953     81.4732
  1060.5000     35.5305    799.9761     25.9025     81.8366
  1060.7500     47.8566    799.9761     25.4922     81.5192
  1061.0000     70.5451    799.9761     25.2789     80.5659
  1061.2500     98.9956    799.9761     25.2165     79.9236
  1061.5000    120.9878    799.9761     25.2197     79.0727
  1061.7500    128.0900    799.9761     25.1974     78.4087
  1062.0000    121.1566    799.9761     25.0857     77.2760
  1062.2500    104.2404    799.9761     24.8662     76.8593
  1062.5000     82.2060    799.9761     24.5598     77.5711
  1062.7500     61.2299    799.9761     24.2076     78.8625
  1063.0000     45.2635    799.9761     23.8483     80.7623
  1063.2500     35.3433    799.9761     23.5074     81.1981
  1063.5000     30.7637    799.9761     23.1964     80.3186
  1063.7500     29.2343    799.9761     22.9202     79.2488
  1064.0000     28.6430    799.9761     22.6826     78.1178
  1064.2500     28.8144    799.9761     22.4832     77.9930
  1064.5000     30.9816    799.9761     22.3103     78.4733
  1064.7500     35.1261    799.9761     22.1396     78.9798
  1065.0000     38.4529    799.9761     21.9433     80.0243
  1065.2500     39.0403    799.9761     21.7030     81.0606
