~Version Information
VERS.                      2.0: CWLS Log ASCII Standard - VERSION 2.0
WRAP.                       NO: One line per depth step
~Well Information Block
STRT.FT               298.0000: 
STOP.FT              1302.0000: 
STEP.FT                 0.1000: 
NULL.                -999.2500: 
COMP.          Pioneer Natural Resources: COMPANY
WELL.          Bouncer 41-27 Tr: WELL
FLD.           Purgatoire River: FIELD
LOC.           292' FNL & 222' FEL: LOCATION
PROV.                 Colorado: PROVINCE
CNTY.               Las Animas: COUNTRY
SRVC.                Patterson: SERVICE COMPANY
DATE.          Mon Feb 07 12:55:19 2005: LOG DATE
UWI.           05 071 08291 00: UNIQUE WELL ID
~Curve Information Block
DEPT.FT            0 000 00 00: Depth
DCAL.in                       : CDL Caliper
RHOB.g/cc                     : CDL Bulk Density
RHOC.g/cc                     : CDL Density Correction
DPOR.pu                       : CDL Density Porosity
GR.GAPI                       : Gamma Ray
NPOR.pu                       : Neutron Porosity
~Parameter Information Block
~A  Depth       DCAL        RHOB        RHOC        DPOR         GR         NPOR    
# ...
  1219.6000      7.9545      2.4094      0.0522     14.5819     41.1540     17.8730
  1219.7000      7.9545      2.3990      0.0454     15.2151     41.7298     17.1461
  1219.8000      7.9490      2.3994      0.0892     15.1854     42.1469     17.3481
  1219.9000      7.9490      2.4085      0.0605     14.6349     41.1185     18.0341
  1220.0000      7.9454      2.4216      0.0971     13.8413     40.4811     18.3344
  1220.1000      7.9454      2.4335      0.0831     13.1184     40.0347     18.0546
  1220.2000      7.9454      2.4422      0.0733     12.5945     36.7394     17.5500
  1220.3000      7.9380      2.4497      0.0884     12.1422     31.5718     17.3592
  1220.4000      7.9380      2.4588      0.0835     11.5860     28.3445     17.5076
  1220.5000      7.9400      2.4642      0.0981     11.2602     28.2484     17.5508
  1220.6000      7.9400      2.4517      0.0556     12.0210     29.9065     17.3157
  1220.7000      7.9400      2.4234      0.0309     13.7322     31.8118     17.1269
  1220.8000      7.9444      2.3981      0.0485     15.2641     34.7011     17.1611
  1220.9000      7.9444      2.3863      0.0159     15.9843     38.5950     17.1079
  1221.0000      7.9418      2.3796      0.0229     16.3868     40.9930     16.7886
  1221.1000      7.9418      2.3622      0.0272     17.4421     40.9318     16.3303
  1221.2000      7.9418      2.3429     -0.0609     18.6147     39.4951     15.9582
  1221.3000      7.9489      2.3459      0.0226     18.4316     37.6894     15.7526
  1221.4000      7.9489      2.3613      0.0340     17.4949     36.8390     15.6945
  1221.5000      7.9523      2.3653      0.0064     17.2565     35.8802     15.7382
  1221.6000      7.9523      2.3589      0.0147     17.6409     34.4142     15.8123
  1221.7000      7.9523      2.3540      0.0304     17.9381     33.7716     15.5935
  1221.8000      7.9574      2.3586      0.0040     17.6610     32.5201     14.7266
  1221.9000      7.9574      2.3727      0.0236     16.8085     30.4689     13.7491
  1222.0000      7.9413      2.3833      0.0549     16.1633     29.1900     13.4879
  1222.1000      7.9413      2.3887      0.0104     15.8392     28.9279     14.0707
  1222.2000      7.9413      2.4068      0.0196     14.7375     28.7719     14.9202
  1222.3000      7.9269      2.4329      0.0526     13.1577     28.8803     15.5073
  1222.4000      7.9269      2.4382      0.0743     12.8371     29.9703     15.9533
  1222.5000      7.9511      2.4232      0.0054     13.7447     30.9778     16.0672
  1222.6000      7.9511      2.4168      0.0123     14.1347     30.8750     15.6510
  1222.7000      7.9511      2.4236      0.0221     13.7184     30.7638     15.4803
  1222.8000      7.9633      2.4213      0.0516     13.8634     31.5356     15.7503
  1222.9000      7.9633      2.4007      0.0465     15.1109     32.6731     15.7491
  1223.0000      7.9641      2.3741      0.0454     16.7209     32.5409     15.3429
  1223.1000      7.9641      2.3551     -0.0128     17.8721     29.8114     14.5877
  1223.2000      7.9641      2.3570     -0.0487     17.7595     26.9089     13.4982
  1223.3000      7.9604      2.3785      0.0070     16.4537     26.5300     12.5405
  1223.4000      7.9604      2.4016      0.0197     15.0526     26.8495     12.2332
  1223.5000      7.9569      2.4152      0.0619     14.2322     26.5130     12.6404
  1223.6000      7.9569      2.4204      0.0483     13.9163     27.9480     13.3075
  1223.7000      7.9569      2.4218      0.0722     13.8309     31.2906     14.0318
  1223.8000      7.9556      2.4180      0.0383     14.0587     33.4261     14.9925
  1223.9000      7.9556      2.4165      0.0048     14.1497     33.2496     15.8092
  1224.0000      7.9633      2.4279      0.0289     13.4589     31.5394     16.1207
  1224.1000      7.9633      2.4455      0.0361     12.3922     30.1246     15.9496
  1224.2000      7.9633      2.4614      0.0640     11.4326     30.2261     15.4938
  1224.3000      7.9466      2.4728      0.0948     10.7404     29.0963     15.0965
  1224.4000      7.9466      2.4827      0.0490     10.1409     25.7836     14.7147
  1224.5000      7.9590      2.4995      0.0402      9.1206     24.3689     14.3307
  1224.6000      7.9590      2.5133      0.0838      8.2844     26.8104     14.3213
  1224.7000      7.9590      2.5076      0.0819      8.6313     31.6643     14.7650
  1224.8000      7.9681      2.4979      0.0506      9.2164     36.2527     15.4568
  1224.9000      7.9681      2.5058      0.0581      8.7420     38.1641     16.3177
  1225.0000      7.9642      2.5180      0.1079      7.9981     38.7593     17.2849
  1225.1000      7.9642      2.5177      0.0462      8.0187     41.4663     18.0126
  1225.2000      7.9642      2.5096      0.0785      8.5061     46.4463     18.3397
  1225.3000      7.9652      2.5048      0.0128      8.8014     52.8369     18.3997
  1225.4000      7.9652      2.5091      0.0745      8.5419     62.8853     18.3133
  1225.5000      7.9644      2.5174      0.0330      8.0382     76.7261     18.5980
  1225.6000      7.9644      2.5240      0.0129      7.6380     89.0896     19.6899
  1225.7000      7.9644      2.5249      0.0630      7.5847     98.1267     21.0800
  1225.8000      7.9424      2.5151      0.0377      8.1732    108.4386     22.0791
  1225.9000      7.9424      2.5035      0.0254      8.8813    122.0277     22.7340
  1226.0000      7.9298      2.5096      0.0303      8.5120    133.7098     23.4014
  1226.1000      7.9298      2.5256      0.1127      7.5414    139.0000     23.8889
  1226.2000      7.9298      2.5239      0.0469      7.6401    139.1899     24.0381
  1226.3000      7.9297      2.5064      0.0527      8.7056    139.0602     24.2387
  1226.4000      7.9297      2.4858      0.0318      9.9494    142.2113     24.4964
  1226.5000      7.9438      2.4676     -0.0150     11.0531    145.1052     24.3643
  1226.6000      7.9438      2.4627      0.0088     11.3516    143.0303     23.6658
  1226.7000      7.9438      2.4797     -0.0068     10.3207    139.9791     22.7442
  1226.8000      8.0016      2.5106      0.0854      8.4468    139.6215     21.9152
  1226.9000      8.0016      2.5362      0.0487      6.8973    137.6263     21.5182
  1227.0000      7.9683      2.5508      0.0106      6.0094    133.5510     21.7660
  1227.1000      7.9683      2.5638      0.0425      5.2269    129.5020     22.0072
  1227.2000      7.9683      2.5743      0.0645      4.5887    123.0459     21.6331
  1227.3000      7.9438      2.5735      0.0746      4.6348    115.1528     21.0143
  1227.4000      7.9438      2.5692      0.0591      4.8997    110.1877     20.6976
  1227.5000      7.9431      2.5767      0.0282      4.4426    109.6329     20.7270
  1227.6000      7.9431      2.5861      0.0799      3.8736    112.9579     21.1909
  1227.7000      7.9431      2.5818      0.0342      4.1363    117.0877     21.8032
  1227.8000      7.9411      2.5749      0.0468      4.5525    118.7070     21.8534
  1227.9000      7.9411      2.5736      0.0674      4.6291    117.3077     21.5412
  1228.0000      7.9431      2.5628      0.0863      5.2819    115.7487     21.5438
  1228.1000      7.9431      2.5365      0.0429      6.8780    118.0554     21.6697
  1228.2000      7.9431      2.5144      0.0304      8.2171    123.1339     21.6388
  1228.3000      7.9365      2.5105      0.0374      8.4529    125.8176     21.7257
  1228.4000      7.9365      2.5187      0.0127      7.9577    124.8808     22.0545
  1228.5000      7.9272      2.5255      0.0487      7.5482    122.8974     22.4071
  1228.6000      7.9272      2.5216      0.0498      7.7820    122.7471     22.4631
  1228.7000      7.9272      2.5145      0.0235      8.2110    124.5931     22.3072
  1228.8000      7.9225      2.5133      0.0505      8.2876    124.7429     22.3080
  1228.9000      7.9225      2.5129      0.0515      8.3081    121.6285     22.5031
  1229.0000      7.9270      2.5162      0.0178      8.1121    117.6660     22.7660
  1229.1000      7.9270      2.5326      0.0723      7.1140    116.4164     23.0512
