~Version Information
VERS.                      2.0: CWLS Log ASCII Standard - VERSION 2.0
WRAP.                       NO: One line per depth step
~Well Information Block
STRT.FT               802.1000: 
STOP.FT              1915.0000: 
STEP.FT                 0.1000: 
NULL.                -999.2500: 
COMP.          Petrogulf Corporation: COMPANY
WELL.             State 16-32R: WELL
FLD.           Purgatorie River: FIELD
LOC.           1849' FNL & 1677' FEL: LOCATION
CNTY.               Las Animas: COUNTY
SRVC.                         : SERVICE COMPANY
DATE.          Thu May 13 18:17:16 2004: LOG DATE
UWI.           05 071 08033 00: UNIQUE WELL ID
STAT.                 Colorado: STATE
~Curve Information Block
DEPT.FT            0 000 00 00: Depth
DCAL.in                       : CDL Caliper
RHOB.g/cc                     : CDL Bulk Density
RHOC.g/cc                     : CDL Density Correction
DPOR.pu                       : CDL Density Porosity
GR.GAPI                       : Gamma Ray
NPOR.pu                       : Neutron Porosity
~Parameter Information Block
~A  Depth       DCAL        RHOB        RHOC        DPOR         GR         NPOR    
# ...
  1829.3000      7.8377      2.5474      0.0617      6.2154     91.2501     35.3595
  1829.4000      7.8377      2.5086      0.0739      8.5687     94.0814     35.4974
  1829.5000      7.8160      2.4869      0.0813      9.8843    100.5003     35.3564
  1829.6000      7.8160      2.4865      0.0794      9.9120    103.0196     34.8354
  1829.7000      7.8160      2.5160      0.0439      8.1185     99.6095     34.2897
  1829.8000      7.7845      2.5636      0.0967      5.2383    100.1598     34.1134
  1829.9000      7.7845      2.5958      0.1025      3.2819    109.8980     33.9592
  1830.0000      7.7693      2.5943      0.1292      3.3777    118.9175     33.5903
  1830.1000      7.7693      2.5702      0.0880      4.8389    115.0427     33.4427
  1830.2000      7.7693      2.5473      0.0225      6.2271     99.5363     33.6444
  1830.3000      7.8630      2.5399      0.0321      6.6730     85.2854     33.8815
  1830.4000      7.8630      2.5500      0.1192      6.0622     84.4709     33.9376
  1830.5000      7.8837      2.5679      0.0554      4.9729     96.4805     33.7682
  1830.6000      7.8837      2.5819      0.0958      4.1282    113.5267     33.4315
  1830.7000      7.8837      2.5916      0.0637      3.5379    124.6074     33.1077
  1830.8000      7.8682      2.6111      0.0707      2.3597    121.5298     33.0367
  1830.9000      7.8682      2.6371      0.1007      0.7817    113.6632     33.2180
  1831.0000      7.8588      2.6413      0.1504      0.5277    116.0369     33.0843
  1831.1000      7.8588      2.6117      0.0386      2.3207    123.7011     32.3231
  1831.2000      7.8588      2.5705      0.0571      4.8185    120.9178     31.5672
  1831.3000      7.8623      2.5431      0.0214      6.4776    107.4609     31.2610
  1831.4000      7.8623      2.5253      0.0692      7.5567     94.5807     31.0234
  1831.5000      7.8608      2.4948      0.0412      9.4077     89.5509     30.6648
  1831.6000      7.8608      2.4574     -0.0109     11.6701     96.0097     30.3574
  1831.7000      7.8608      2.4437     -0.0517     12.5040    110.6365     30.0223
  1831.8000      7.8669      2.4680      0.0331     11.0277    121.2734     29.5225
  1831.9000      7.8669      2.5137      0.0922      8.2603    124.2573     28.9073
  1832.0000      7.8712      2.5500      0.1004      6.0614    125.9955     28.4746
  1832.1000      7.8712      2.5680      0.0556      4.9694    125.7751     28.3959
  1832.2000      7.8712      2.5816      0.1055      4.1484    120.7141     28.4286
  1832.3000      7.8693      2.5901      0.1912      3.6323    115.2825     28.4936
  1832.4000      7.8693      2.5844      0.0831      3.9735    111.0566     28.5616
  1832.5000      7.8734      2.5621      0.0678      5.3271    109.5105     28.4915
  1832.6000      7.8734      2.5273      0.0273      7.4386    108.7369     28.3473
  1832.7000      7.8734      2.5055      0.0350      8.7547    100.0726     28.3183
  1832.8000      7.8793      2.5109      0.0521      8.4291     88.9334     28.4580
  1832.9000      7.8793      2.5158      0.0767      8.1305     89.2868     28.6245
  1833.0000      7.8886      2.5048      0.0274      8.7982     99.0310     28.6161
  1833.1000      7.8886      2.4878      0.1523      9.8312    105.0086     28.3377
  1833.2000      7.8886      2.4733      0.0393     10.7065     97.8962     27.9114
  1833.3000      7.8743      2.4717      0.0965     10.8032     83.0496     27.4539
  1833.4000      7.8743      2.4865      0.0408      9.9085     74.4665     27.0067
  1833.5000      7.8703      2.5185      0.0476      7.9685     78.8946     26.7743
  1833.6000      7.8703      2.5594      0.1015      5.4928     91.4332     26.8375
  1833.7000      7.8703      2.5924      0.0536      3.4909     98.3792     26.9568
  1833.8000      7.8566      2.6165      0.1108      2.0295     94.4505     26.9534
  1833.9000      7.8566      2.6264      0.1822      1.4291     88.9271     26.8367
  1834.0000      7.8557      2.6064      0.1074      2.6448     83.7734     26.5249
  1834.1000      7.8557      2.5745      0.0228      4.5769     78.0249     26.1191
  1834.2000      7.8557      2.5551      0.1220      5.7492     76.2926     25.9761
  1834.3000      7.8585      2.5291      0.0372      7.3262     77.0283     26.1615
  1834.4000      7.8585      2.4789      0.0186     10.3694     82.1731     26.2856
  1834.5000      7.8797      2.4346     -0.0993     13.0562     94.5714     26.1111
  1834.6000      7.8797      2.4419     -0.1065     12.6098    101.5658     25.9144
  1834.7000      7.8797      2.4971      0.0430      9.2649     96.1132     26.0617
  1834.8000      7.8888      2.5512      0.0921      5.9870     92.4702     26.6395
  1834.9000      7.8888      2.5788      0.0918      4.3147    101.6076     27.3451
  1835.0000      7.8583      2.6004      0.0878      3.0050    113.6932     27.7752
  1835.1000      7.8583      2.6408      0.0841      0.5577    112.0710     27.7396
  1835.2000      7.8583      2.6790      0.2261     -1.7562     94.0255     27.4500
  1835.3000      7.8584      2.6709      0.1472     -1.2643     77.1584     27.3593
  1835.4000      7.8584      2.6141      0.1381      2.1766     77.6359     27.4086
  1835.5000      7.8623      2.5433      0.0025      6.4693     88.2857     27.3280
  1835.6000      7.8623      2.5023     -0.0208      8.9540     94.2810     27.1227
  1835.7000      7.8623      2.5182     -0.0025      7.9883     90.3260     26.6633
  1835.8000      7.8575      2.5765      0.0706      4.4535     82.1168     25.9995
  1835.9000      7.8575      2.6279      0.0971      1.3367     76.6990     25.5785
  1836.0000      7.8477      2.6318      0.1190      1.1058     72.9176     25.6063
  1836.1000      7.8477      2.6011      0.0387      2.9629     71.6376     25.8862
  1836.2000      7.8477      2.5842      0.0753      3.9867     77.3545     26.2246
  1836.3000      7.8507      2.5875      0.1203      3.7868     84.0020     26.3700
  1836.4000      7.8507      2.5781      0.0753      4.3582     84.6206     26.0805
  1836.5000      7.8522      2.5575      0.0262      5.6058     81.0956     25.7050
  1836.6000      7.8522      2.5577      0.0297      5.5941     74.3313     25.6577
  1836.7000      7.8522      2.5722      0.1034      4.7140     64.1962     25.7852
  1836.8000      7.8392      2.5687      0.0516      4.9265     55.6420     26.0440
  1836.9000      7.8392      2.5592     -0.0014      5.5049     59.4290     26.4409
  1837.0000      7.8469      2.5663      0.1200      5.0747     74.5811     26.5934
  1837.1000      7.8469      2.5755      0.0539      4.5141     82.3951     26.3612
  1837.2000      7.8469      2.5798      0.0890      4.2557     75.3530     26.3421
  1837.3000      7.8355      2.5880      0.1513      3.7577     64.9488     26.8957
  1837.4000      7.8355      2.5933      0.1463      3.4350     59.2394     27.3549
  1837.5000      7.8001      2.5834      0.1192      4.0379     58.4584     27.1560
  1837.6000      7.8001      2.5607      0.1421      5.4127     62.3826     26.6857
  1837.7000      7.8001      2.5418      0.1018      6.5564     67.4030     26.2950
  1837.8000      7.7650      2.5527      0.0894      5.8941     66.5665     25.9121
  1837.9000      7.7650      2.5921      0.1512      3.5074     59.2986     25.8337
  1838.0000      7.7703      2.6053      0.2568      2.7077     56.4143     26.5628
  1838.1000      7.7703      2.5638      0.0748      5.2258     61.8458     27.5661
  1838.2000      7.7703      2.5234      0.0657      7.6718     65.0437     27.9834
  1838.3000      7.7157      2.5269      0.1053      7.4628     61.6339     27.9354
  1838.4000      7.7157      2.5392      0.1148      6.7153     57.1779     27.9735
  1838.5000      7.7207      2.5225      0.1137      7.7283     55.2126     28.1487
  1838.6000      7.7207      2.5032     -0.0468      8.8975     55.9769     28.2089
  1838.7000      7.7207      2.5247      0.0288      7.5932     59.5960     28.2349
  1838.8000      7.7575      2.5632      0.1876      5.2613     60.8859     28.3164
