~Version Information
VERS.                      2.0: CWLS Log ASCII Standard - VERSION 2.0
WRAP.                       NO: One line per depth step
~Well Information Block
STRT.FT               454.0000: 
STOP.FT              1392.0000: 
STEP.FT                 0.2500: 
NULL.                -999.2500: 
COMP.          Pioneer Natural Resources: COMPANY
WELL.          Lorencito 6-3-34-66: WELL
FLD.           Purgatoire River: FIELD
LOC.           2545' FNL & 1914' FWL: LOCATION
STAT.                 Colorado: State
CNTY.               Las Animas: COUNTY
CTRY. USA : Country
SECT. 3 : Section
TOWN. 34S : Township
RANG. 66W : Range
SRVC.                Patterson: SERVICE COMPANY
DATE.          Fri Sep 09 22:07:39 2005: LOG DATE
API.           05 071 08369 00: UNIQUE WELL ID
~Curve Information Block
DEPT.FT            0 000 00 00: Depth
SN.Ohm-m                      : IEL Short Normal
SP.mV                         : IEL Spontaneous Potential
DIR.Ohm-m                     : IEL Induction Resistivity
GR.GAPI                       : Gamma Ray
~Parameter Information Block
~A  Depth        SN          SP         DIR          GR     
# ...
  1057.0000     57.7285    -11.6678     24.5112     90.8948
  1057.2500     51.9521    -11.0834     23.0425     94.9791
  1057.5000     46.0468    -10.5765     21.6513    101.8260
  1057.7500     40.2786    -10.1336     20.3270    105.8542
  1058.0000     34.9701     -9.7701     19.0846    110.0294
  1058.2500     30.4016     -9.5330     17.9505    111.8417
  1058.5000     26.7138     -9.4682     16.9470    114.2339
  1058.7500     23.8878     -9.5810     16.0851    115.7150
  1059.0000     21.8003     -9.8258     15.3621    116.5343
  1059.2500     20.3010    -10.1245     14.7657    115.4600
  1059.5000     19.2565    -10.3850     14.2787    112.1076
  1059.7500     18.5558    -10.5243     13.8851    110.0635
  1060.0000     18.1086    -10.5099     13.5735    109.1650
  1060.2500     17.8487    -10.3931     13.3384    110.0721
  1060.5000     17.7398    -10.2792     13.1804    112.2580
  1060.7500     17.7691    -10.2493     13.1032    113.2078
  1061.0000     17.9330    -10.3032     13.1118    112.9441
  1061.2500     18.2223    -10.3753     13.2099    111.8720
  1061.5000     18.6181    -10.4049     13.3982    109.8694
  1061.7500     19.0994    -10.3845     13.6741    108.6322
  1062.0000     19.6546    -10.3382     14.0316    107.0809
  1062.2500     20.2847    -10.2728     14.4616    106.1671
  1062.5000     20.9957    -10.1746     14.9525    104.2613
  1062.7500     21.7929    -10.0548     15.4923    101.8941
  1063.0000     22.6839     -9.9680     16.0692     95.8693
  1063.2500     23.6838     -9.9713     16.6741     90.5185
  1063.5000     24.8055    -10.0822     17.3012     82.1448
  1063.7500     26.0302    -10.2777     17.9463     77.3035
  1064.0000     27.2808    -10.4981     18.6045     71.9758
  1064.2500     28.4294    -10.6501     19.2637     69.6488
  1064.5000     29.3406    -10.6518     19.8968     67.4303
  1064.7500     29.9241    -10.5005     20.4582     66.5979
  1065.0000     30.1592    -10.2838     20.8865     66.6309
  1065.2500     30.0779    -10.1143     21.1179     67.9011
  1065.5000     29.7319    -10.0478     21.1076     71.9878
  1065.7500     29.1728    -10.0487     20.8494     75.9857
  1066.0000     28.4600    -10.0287     20.3811     83.3347
  1066.2500     27.6778     -9.9264     19.7713     88.7898
  1066.5000     26.9289     -9.7541     19.0972     96.9353
  1066.7500     26.2986     -9.5687     18.4246    101.7276
  1067.0000     25.8143     -9.4190     17.7973    107.5672
  1067.2500     25.4344     -9.3292     17.2372    110.9057
  1067.5000     25.0776     -9.3064     16.7485    115.7121
  1067.7500     24.6662     -9.3346     16.3239    118.5974
  1068.0000     24.1544     -9.3696     15.9513    121.2926
  1068.2500     23.5364     -9.3617     15.6182    121.3754
  1068.5000     22.8486     -9.2809     15.3155    118.8251
  1068.7500     22.1702     -9.1220     15.0407    116.0162
  1069.0000     21.6063     -8.9077     14.7977    112.0744
  1069.2500     21.2455     -8.7009     14.5964    110.5561
  1069.5000     21.1138     -8.5944     14.4496    110.3219
  1069.7500     21.1589     -8.6585     14.3702    111.2399
  1070.0000     21.2840     -8.8946     14.3684    113.7399
  1070.2500     21.4131     -9.2426     14.4503    115.9399
  1070.5000     21.5371     -9.6263     14.6160    119.3000
  1070.7500     21.7058     -9.9908     14.8604    121.0011
  1071.0000     21.9742    -10.3167     15.1721    122.1068
  1071.2500     22.3526    -10.6127     15.5352    121.7011
  1071.5000     22.8073    -10.8980     15.9301    118.8455
  1071.7500     23.3134    -11.1928     16.3383    115.1010
  1072.0000     23.9067    -11.5230     16.7459    107.0590
  1072.2500     24.6820    -11.9229     17.1485    100.9853
  1072.5000     25.7309    -12.4113     17.5516     92.4519
  1072.7500     27.0757    -12.9544     17.9658     87.3978
  1073.0000     28.6531    -13.4599     18.3972     79.9277
  1073.2500     30.3382    -13.8208     18.8336     74.5741
  1073.5000     31.9668    -13.9741     19.2367     66.6871
  1073.7500     33.3372    -13.9283     19.5423     62.7626
  1074.0000     34.2276    -13.7443     19.6753     61.1172
  1074.2500     34.4572    -13.4909     19.5769     63.4890
  1074.5000     33.9646    -13.2142     19.2316     71.5694
  1074.7500     32.8429    -12.9399     18.6752     78.7149
  1075.0000     31.3033    -12.6840     17.9805     89.6587
  1075.2500     29.6000    -12.4531     17.2305     96.2387
  1075.5000     27.9641    -12.2476     16.4955    104.7443
  1075.7500     26.5619    -12.0713     15.8235    109.5956
  1076.0000     25.4767    -11.9189     15.2422    115.5264
  1076.2500     24.7123    -11.7421     14.7635    118.4138
  1076.5000     24.2163    -11.4582     14.3925    121.0193
  1076.7500     23.9149    -11.0260     14.1299    121.6381
  1077.0000     23.7406    -10.5018     13.9744    121.1691
  1077.2500     23.6507    -10.0061     13.9245    120.3076
  1077.5000     23.6438     -9.6476     13.9764    118.7141
  1077.7500     23.7791     -9.4762     14.1256    117.1439
  1078.0000     24.1830     -9.4796     14.3654    112.5237
  1078.2500     25.0347     -9.6036     14.6874    107.2610
  1078.5000     26.5328     -9.7710     15.0822     96.4032
  1078.7500     28.8499     -9.9010     15.5400     88.0601
  1079.0000     32.0811     -9.9350     16.0501     75.6852
  1079.2500     36.1923     -9.8609     16.6021     68.4731
  1079.5000     40.9881     -9.7125     17.1861     60.5024
  1079.7500     46.1215     -9.5393     17.7917     57.5607
  1080.0000     51.1447     -9.3630     18.4049     56.7630
  1080.2500     55.5748     -9.1570     19.0061     58.1606
  1080.5000     58.9540     -8.8753     19.5662     61.9578
  1080.7500     60.9078     -8.5026     20.0471     65.3380
  1081.0000     61.2039     -8.0676     20.4054     72.6144
  1081.2500     59.7995     -7.6173     20.6036     79.7890
  1081.5000     56.8593     -7.1949     20.6205     93.8784
  1081.7500     52.7339     -6.8384     20.4568    103.8970
  1082.0000     47.8957     -6.5762     20.1344    116.1027
  1082.2500     42.8381     -6.4170     19.6873    120.9512
  1082.5000     37.9660     -6.3408     19.1516    123.2997
  1082.7500     33.5370     -6.3003     18.5583    122.5775
  1083.0000     29.6777     -6.2487     17.9323    120.1739
  1083.2500     26.4429     -6.1817     17.2936    118.6547
  1083.5000     23.8575     -6.1434     16.6614    117.1846
  1083.7500     21.9148     -6.1734     16.0556    116.6000
  1084.0000     20.5676     -6.2541     15.4988    115.5989
  1084.2500     19.7369     -6.3283     15.0122    114.3657
  1084.5000     19.3296     -6.3649     14.6121    110.9882
  1084.7500     19.2434     -6.3897     14.3068    107.6373
  1085.0000     19.3600     -6.4490     14.0954    101.8381
  1085.2500     19.5554     -6.5510     13.9688     98.4376
  1085.5000     19.7361     -6.6518     13.9129     95.4145
  1085.7500     19.8665     -6.6951     13.9137     94.8072
  1086.0000     19.9523     -6.6638     13.9619     94.8271
  1086.2500     19.9901     -6.5998     14.0554     94.7561
  1086.5000     19.9376     -6.5770     14.1981     94.3634
  1086.7500     19.7439     -6.6525     14.3944     94.3127
  1087.0000     19.4128     -6.8354     14.6429     95.1573
  1087.2500     19.0262     -7.1049     14.9302     96.3468
  1087.5000     18.6998     -7.4575     15.2280     98.5542
  1087.7500     18.5115     -7.9206     15.4952     99.7972
  1088.0000     18.4753     -8.5051     15.6865    100.4068
  1088.2500     18.5711     -9.1516     15.7645     99.7164
  1088.5000     18.7739     -9.7443     15.7087     97.3897
  1088.7500     19.0389    -10.1983     15.5217     95.5282
  1089.0000     19.2768    -10.5284     15.2250     93.4117
  1089.2500     19.3724    -10.8258     14.8507     93.0773
  1089.5000     19.2506    -11.1782     14.4340     94.7500
  1089.7500     18.9303    -11.6239     14.0068     97.1586
  1090.0000     18.5202    -12.1602     13.5955    101.8919
  1090.2500     18.1641    -12.7612     13.2205    105.2626
