~Version Information
VERS.                      2.0: CWLS Log ASCII Standard - VERSION 2.0
WRAP.                       NO: One line per depth step
~Well Information Block
STRT.FT               -11.0000: 
STOP.FT              1896.2500: 
STEP.FT                 0.2500: 
NULL.                -999.2500: 
COMP.          Pioneer Natural Resources: COMPANY
WELL.            Summers 21-19: WELL
FLD.           Purgatoire River: FIELD
LOC.           900' FNL & 1950' FWL--: LOCATION
PROV.                 Colorado: PROVINCE
CNTY.               Las Animas: COUNTRY
SRVC.                Patterson: SERVICE COMPANY
DATE.          Thu Oct 20 15:06:00 2005: LOG DATE
UWI.           05 071 08315 00: UNIQUE WELL ID
~Curve Information Block
DEPT.FT            0 000 00 00: Depth
GR.GAPI                       : Gamma Ray
CCL.                          : Casing Collar Locator
TT3.usec                      : CBL 3' Travel Time
AMP3.mV                       : CBL 3' Amplitude
~Parameter Information Block
~A  Depth        GR         CCL         TT3         AMP3    
# ...
   625.5000    127.4321      0.0000    792.9366      2.8313
   625.7500    132.9225      0.0000    784.0386      3.2191
   626.0000    136.6598      0.0000    766.6633      3.5325
   626.2500    136.6205      0.0000    748.7259      3.7283
   626.5000    133.0363      0.0000    734.3041      3.8268
   626.7500    127.9779      0.0000    723.7870      3.8652
   627.0000    123.3904      0.0000    716.5925      3.8670
   627.2500    119.7989      0.0000    712.2995      3.8455
   627.5000    117.0721      0.0000    710.3258      3.8121
   627.7500    115.8821      0.0000    709.8310      3.7787
   628.0000    117.5143      0.0000    710.0609      3.7594
   628.2500    121.9435      0.0000    710.5485      3.7705
   628.5000    126.8232      0.0000    711.0693      3.8227
   628.7500    129.1292      0.0000    711.4985      3.9107
   629.0000    127.8863      0.0000    711.7682      4.0139
   629.2500    125.0376      0.0000    711.8892      4.1129
   629.5000    123.7176      0.0000    711.9460      4.2030
   629.7500    125.7689      0.0000    712.0300      4.2866
   630.0000    130.6925      0.0000    712.1763      4.3576
   630.2500    136.6243      0.0000    712.3723      4.4026
   630.5000    141.9968      0.0000    712.6024      4.4149
   630.7500    146.1085      0.0000    712.8593      4.3999
   631.0000    148.4209      0.0000    713.1173      4.3663
   631.2500    147.9657      0.0000    713.3277      4.3180
   631.5000    143.8558      0.0000    713.4604      4.2551
   631.7500    136.3728      0.0000    713.5355      4.1821
   632.0000    127.4121      0.0000    713.5905      4.1123
   632.2500    119.5643      0.0000    713.6172      4.0644
   632.5000    114.4282      0.0000    713.5469      4.0492
   632.7500    111.6286      0.0000    713.2955      4.0587
   633.0000    109.4059      0.0000    712.8228      4.0702
   633.2500    106.1383      0.0000    712.1422      4.0625
   633.5000    101.6032      0.0000    711.2444      4.0333
   633.7500     97.2093      0.0000    709.9628      4.0009
   634.0000     95.1286      0.0000    707.9470      3.9841
   634.2500     96.8453      0.0000    705.0085      3.9794
   634.5000    102.0453      0.0000    701.7317      3.9594
   634.7500    108.7134      0.0000    699.5753      3.8984
   635.0000    114.3742      0.0000    699.8735      3.7959
   635.2500    117.3074      0.0000    702.5748      3.6766
   635.5000    116.8857      0.0000    706.2349      3.5740
   635.7500    113.5407      0.0000    709.2823      3.5118
   636.0000    108.7503      0.0000    711.0541      3.4920
   636.2500    104.3212      0.0000    711.7443      3.4949
   636.5000    101.0260      0.0000    711.8228      3.4943
   636.7500     98.3075      0.0000    711.6591      3.4782
   637.0000     95.7482      0.0000    711.4548      3.4566
   637.2500     94.3167      0.0000    711.2928      3.4507
   637.5000     95.4418      0.0000    711.1823      3.4745
   637.7500     98.9589      0.0000    711.0538      3.5279
   638.0000    102.7829      0.0000    710.6877      3.6026
   638.2500    105.0508      0.0000    709.7166      3.6898
   638.5000    106.1854      0.0000    707.8312      3.7810
   638.7500    108.4029      0.0000    705.0363      3.8667
   639.0000    113.3697      0.0000    701.5355      3.9394
   639.2500    120.7430      0.0000    697.3106      3.9981
   639.5000    128.8895      0.0000    692.2562      4.0493
   639.7500    136.3133      0.0000    687.1089      4.0977
   640.0000    142.1143      0.0000    683.7528      4.1401
   640.2500    145.8506      0.0000    683.5869      4.1685
   640.5000    147.7094      0.0000    685.6177      4.1766
   640.7500    148.5170      0.0000    687.3619      4.1613
   641.0000    149.0426      0.0000    688.0053      4.1220
   641.2500    149.3976      0.0000    689.4671      4.0607
   641.5000    149.1475      0.0000    693.7029      3.9832
   641.7500    147.5781      0.0000    700.1109      3.8970
   642.0000    143.9598      0.0000    706.4333      3.8089
   642.2500    138.2459      0.0000    711.3472      3.7207
   642.5000    131.5749      0.0000    715.3087      3.6283
   642.7500    125.4486      0.0000    719.2742      3.5316
   643.0000    120.2289      0.0000    723.1572      3.4452
   643.2500    114.9609      0.0000    725.5919      3.3946
   643.5000    108.9009      0.0000    725.2174      3.3990
   643.7500    102.7423      0.0000    722.1528      3.4534
   644.0000     98.1004      0.0000    718.0270      3.5310
   644.2500     96.2862      0.0000    714.5955      3.6023
   644.5000     97.8102      0.0000    712.5963      3.6511
   644.7500    102.3432      0.0000    711.7910      3.6762
   645.0000    108.6004      0.0000    711.6396      3.6864
   645.2500    114.8304      0.0000    711.7665      3.6941
   645.5000    119.9254      0.0000    712.0187      3.7088
   645.7500    123.8435      0.0000    712.3472      3.7358
   646.0000    126.9684      0.0000    712.7090      3.7786
   646.2500    129.6123      0.0000    713.0529      3.8357
   646.5000    132.2216      0.0000    713.3533      3.8936
   646.7500    135.3571      0.0000    713.6304      3.9305
   647.0000    138.7616      0.0000    713.9221      3.9334
   647.2500    140.7872      0.0000    714.2310      3.9128
   647.5000    139.6800      0.0000    714.5023      3.8961
   647.7500    135.7139      0.0000    714.6327      3.9059
   648.0000    131.6438      0.0000    714.4458      3.9469
   648.2500    130.6802      0.0000    713.5861      4.0085
   648.5000    133.9085      0.0000    711.4559      4.0762
   648.7500    139.7130      0.0000    707.4832      4.1401
   649.0000    145.4704      0.0000    701.7737      4.1971
   649.2500    149.3560      0.0000    695.5685      4.2489
   649.5000    150.7286      0.0000    690.8739      4.2981
   649.7500    149.7355      0.0000    689.5059      4.3475
   650.0000    146.8513      0.0000    692.3285      4.4004
   650.2500    142.3163      0.0000    698.9044      4.4616
   650.5000    135.9756      0.0000    707.4103      4.5350
   650.7500    127.9632      0.0000    715.0955      4.6209
   651.0000    119.1042      0.0000    719.4798      4.7115
   651.2500    110.2275      0.0000    719.4687      4.7884
   651.5000    101.6386      0.0000    715.2840      4.8316
   651.7500     93.6997      0.0000    707.4865      4.8295
   652.0000     87.2002      0.0000    696.6240      4.7801
   652.2500     82.6246      0.0000    683.9927      4.6873
   652.5000     79.5798      0.0000    672.1258      4.5628
   652.7500     77.2477      0.0000    663.7919      4.4266
   653.0000     74.9959      0.0000    660.3383      4.2972
   653.2500     72.6457      0.0000    661.1041      4.1823
   653.5000     70.6552      0.0000    664.3638      4.0837
   653.7500     69.7893      0.0000    668.6945      4.0057
   654.0000     70.2107      0.0000    673.4393      3.9520
   654.2500     71.3891      0.0000    678.1000      3.9178
   654.5000     73.2786      0.0000    681.6624      3.8964
   654.7500     76.9650      0.0000    682.8231      3.8905
   655.0000     83.5545      0.0000    680.9109      3.9094
   655.2500     92.5629      0.0000    676.2798      3.9577
   655.5000    101.6606      0.0000    669.6614      4.0309
   655.7500    107.9894      0.0000    661.7697      4.1241
   656.0000    109.9027      0.0000    654.0639      4.2425
   656.2500    107.9545      0.0000    649.1478      4.3974
   656.5000    104.6325      0.0000    649.2541      4.5925
   656.7500    102.9248      0.0000    654.2996      4.8075
   657.0000    104.6364      0.0000    661.9581      5.0002
   657.2500    109.9604      0.0000    669.8033      5.1301
   657.5000    118.4485      0.0000    677.3972      5.1877
   657.7500    129.5587      0.0000    686.1772      5.1972
   658.0000    141.8121      0.0000    697.0328      5.1920
   658.2500    152.2459      0.0000    708.3098      5.1892
   658.5000    157.7421      0.0000    716.9164      5.1827
   658.7500    157.1197      0.0000    721.3937      5.1563
