~Version Information
VERS.                      2.0: CWLS Log ASCII Standard - VERSION 2.0
WRAP.                       NO: One line per depth step
~Well Information Block
STRT.FT                -7.7500: 
STOP.FT              1532.2500: 
STEP.FT                 0.2500: 
NULL.                -999.2500: 
COMP.          Pioneer Natural Resources: COMPANY
WELL.          Big Cat Federal 44-1: WELL
FLD.           Purgatorie River: FIELD
LOC.           197' FSL & 973' FEL--: LOCATION
CNTY.               Las Animas: COUNTY
SRVC.          Patterson Wireline: SERVICE COMPANY
DATE.          Fri Apr 28 12:21:06 2006: LOG DATE
UWI.           05 071 08042 00: UNIQUE WELL ID
STAT.                       CO: STATE
~Curve Information Block
DEPT.FT            0 000 00 00: Depth
CCL.                          : Casing Collar Locator
TT3.usec                      : CBL 3' Travel Time
AMP3.mV                       : CBL 3' Amplitude
GR.GAPI                       : Gamma Ray
~Parameter Information Block
~A  Depth       CCL         TT3         AMP3         GR     
# ...
  1097.7500      0.0000    754.6879      9.8111     56.0104
  1098.0000      0.0000    748.4050      9.9176     55.4485
  1098.2500      0.0000    743.5590     10.0301     53.1811
  1098.5000      0.0000    740.0723     10.1264     50.5636
  1098.7500      0.0000    737.0755     10.1897     48.4050
  1099.0000      0.0000    733.8179     10.2154     46.9436
  1099.2500      0.0000    730.3016     10.2152     46.3697
  1099.5000      0.0000    726.9678     10.2106     46.8871
  1099.7500      0.0000    723.8043     10.2202     48.3063
  1100.0000      0.0000    720.0588     10.2509     49.9132
  1100.2500      0.0000    715.0812     10.3023     50.8444
  1100.5000      0.0000    709.2567     10.3712     50.6434
  1100.7500      0.0000    703.9130     10.4512     49.5558
  1101.0000      0.0000    700.3743     10.5305     48.3314
  1101.2500      0.0000    699.4554     10.5945     47.7760
  1101.5000      0.0000    702.0651     10.6286     48.5015
  1101.7500      0.0000    709.2884     10.6197     50.9966
  1102.0000      0.0000    720.8455     10.5603     55.6990
  1102.2500      0.0000    734.2982     10.4536     62.7520
  1102.5000      0.0000    746.9578     10.3123     71.6560
  1102.7500      0.0000    758.0013     10.1508     81.4240
  1103.0000      0.0000    767.9507      9.9797     91.1788
  1103.2500      0.0000    777.0445      9.8076    100.1957
  1103.5000      0.0000    785.0198      9.6464    107.2003
  1103.7500      0.0000    791.7100      9.5104    110.4504
  1104.0000      0.0000    796.9140      9.4064    109.5312
  1104.2500      0.0000    799.8936      9.3288    106.8154
  1104.5000      0.0000    799.6382      9.2673    106.0594
  1104.7500      0.0000    796.1121      9.2181    109.2764
  1105.0000      0.0000    791.0251      9.1829    115.3244
  1105.2500      0.0000    786.7217      9.1589    121.2880
  1105.5000      0.0000    784.1354      9.1359    124.8742
  1105.7500      0.0000    782.3066      9.1029    125.7780
  1106.0000      0.0000    780.0752      9.0534    125.2634
  1106.2500      0.0000    777.6968      8.9848    124.5906
  1106.5000      0.0000    776.4636      8.8995    123.8883
  1106.7500      0.0000    777.0553      8.8109    122.5498
  1107.0000      0.0000    778.5792      8.7446    120.4781
  1107.2500      0.0000    779.2743      8.7276    118.5241
  1107.5000      0.0000    778.1269      8.7714    117.6660
  1107.7500      0.0000    775.6913      8.8639    118.0575
  1108.0000      0.0000    773.3207      8.9795    118.9095
  1108.2500      0.0000    771.9115      9.0971    118.9625
  1108.5000      0.0000    771.5363      9.2085    117.0981
  1108.7500      0.0000    771.9755      9.3121    113.0454
  1109.0000      0.0000    773.3072      9.4021    107.7607
  1109.2500      0.0000    776.0322      9.4722    102.9907
  1109.5000      0.0000    780.5555      9.5273    100.2940
  1109.7500      0.0000    786.3570      9.5866    100.2536
  1110.0000      0.0000    791.7914      9.6671    102.3444
  1110.2500      0.0000    795.1448      9.7625    105.3699
  1110.5000      0.0000    795.9254      9.8392    108.1618
  1110.7500      0.0000    794.8704      9.8576    110.2000
  1111.0000      0.0000    792.9403      9.7993    111.8911
  1111.2500      0.0000    790.7158      9.6784    114.3360
  1111.5000      0.0000    788.4683      9.5304    118.5557
  1111.7500      0.0000    786.1568      9.3896    124.4601
  1112.0000      0.0000    783.3984      9.2731    130.6225
  1112.2500      0.0000    780.0041      9.1817    135.4945
  1112.5000      0.0000    776.5623      9.1123    138.8189
  1112.7500      0.0000    774.0795      9.0667    141.2463
  1113.0000      0.0000    773.0779      9.0449    142.6060
  1113.2500      0.0000    773.2842      9.0338    141.6416
  1113.5000      0.0000    774.0782      9.0120    137.9757
  1113.7500      0.0000    775.0966      8.9684    133.3867
  1114.0000      0.0000    776.5798      8.9114    130.3820
  1114.2500      0.0000    779.3607      8.8608    130.1101
  1114.5000      0.0000    784.3390      8.8333    132.0445
  1114.7500      0.0000    791.5710      8.8372    135.0731
  1115.0000      0.0000    799.7262      8.8774    138.3676
  1115.2500      0.0000    806.6221      8.9630    141.2767
  1115.5000      0.0000    810.3128      9.1034    142.7895
  1115.7500      0.0000    809.5854      9.2949    141.7460
  1116.0000      0.0000    803.7582      9.5171    137.9123
  1116.2500      0.0000    792.8372      9.7445    132.5712
  1116.5000      0.0000    778.2915      9.9615    127.9721
  1116.7500      0.0000    763.3875     10.1642    126.2799
  1117.0000      0.0000    752.1738     10.3507    128.2863
  1117.2500      0.0000    747.6866     10.5155    132.1290
  1117.5000      0.0000    750.6177     10.6552    133.8310
  1117.7500      0.0000    759.0547     10.7797    130.4240
  1118.0000      0.0000    769.4764     10.9142    122.5723
  1118.2500      0.0000    778.8580     11.0835    113.4367
  1118.5000      0.0000    786.4360     11.2906    105.2272
  1118.7500      0.0000    793.2564     11.5109     97.8013
  1119.0000      0.0000    800.0735     11.7096     90.5144
  1119.2500      0.0000    806.2733     11.8615     84.2701
  1119.5000      0.0000    810.7949     11.9549     81.0389
  1119.7500      0.0000    813.3485     11.9841     81.8957
  1120.0000      0.0000    814.4648     11.9450     86.2554
  1120.2500      0.0000    814.8504     11.8405     92.7732
  1120.5000      0.0000    814.9521     11.6875    100.2697
  1120.7500      0.0000    814.9471     11.5227    107.8738
  1121.0000      0.0000    814.8766     11.3961    114.9640
  1121.2500      0.0000    814.7425     11.3481    121.1212
  1121.5000      0.0000    814.5060     11.3876    125.8352
  1121.7500      0.0000    813.9843     11.4919    128.2934
  1122.0000      0.0000    812.6862     11.6284    127.8251
  1122.2500      0.0000    809.7750     11.7731    124.7197
  1122.5000      0.0000    804.5010     11.9135    120.2171
  1122.7500      0.0000    797.1163     12.0409    115.4356
  1123.0000      0.0000    789.5029     12.1454    110.6227
  1123.2500      0.0000    784.5521     12.2137    105.5806
  1123.5000      0.0000    784.4389     12.2315    100.3908
  1123.7500      0.0000    789.1548     12.1904     95.6335
  1124.0000      0.0000    796.5269     12.0950     92.1976
  1124.2500      0.0000    803.7028     11.9593     90.9312
  1124.5000      0.0000    808.8552     11.7987     92.2092
  1124.7500      0.0000    811.7623     11.6262     95.7801
  1125.0000      0.0000    813.1539     11.4521    101.1529
  1125.2500      0.0000    813.8065     11.2784    107.9691
  1125.5000      0.0000    814.1110     11.0957    115.6743
  1125.7500      0.0000    814.0168     10.8934    122.9008
  1126.0000      0.0000    813.0072     10.6764    127.5799
  1126.2500      0.0000    810.0959     10.4679    128.1438
  1126.5000      0.0000    804.1781     10.2938    124.9356
  1126.7500      0.0000    794.7962     10.1639    120.3385
  1127.0000      0.0000    782.8422     10.0674    117.1209
  1127.2500      0.0000    770.6619      9.9837    116.4556
  1127.5000      0.0000    761.4877      9.8989    117.4619
  1127.7500      0.0000    758.2467      9.8125    118.5125
  1128.0000      0.0000    762.0461      9.7279    118.8722
  1128.2500      0.0000    771.4818      9.6379    119.0918
  1128.5000      0.0000    783.5053      9.5236    119.8552
  1128.7500      0.0000    794.9439      9.3672    120.7078
  1129.0000      0.0000    803.4033      9.1698    120.3696
  1129.2500      0.0000    807.2615      8.9587    118.2521
  1129.5000      0.0000    805.0243      8.7797    114.9734
  1129.7500      0.0000    795.1730      8.6668    111.3794
  1130.0000      0.0000    778.2281      8.6027    108.2410
  1130.2500      0.0000    759.8454      8.5120    107.1845
  1130.5000      0.0000    749.3611      8.3230    110.2597
  1130.7500      0.0000    751.6168      8.0467    117.4497
  1131.0000      0.0000    761.1117      7.7740    125.5160
