~Version Information
VERS.                      2.0: CWLS Log ASCII Standard - VERSION 2.0
WRAP.                       NO: One line per depth step
~Well Information Block
STRT.FT                -5.5000: 
STOP.FT              1979.7500: 
STEP.FT                 0.2500: 
NULL.                -999.2500: 
COMP.          Pioneer Natural Resources: COMPANY
WELL.          Bucksnort 41-35: WELL
FLD.           Purgatorie River: FIELD
LOC.           117' FNL & 463' FEL: LOCATION
PROV.                 Colorado: PROVINCE
CNTY.               Las Animas: COUNTRY
SRVC.                Patterson: SERVICE COMPANY
DATE.          Fri Jul 29 10:31:46 2005: LOG DATE
UWI.                          : UNIQUE WELL ID
~Curve Information Block
DEPT.FT            0 000 00 00: Depth
GR.GAPI                       : Gamma Ray
CCL.                          : Casing Collar Locator
TT3.usec                      : CBL 3' Travel Time
AMP3.mV                       : CBL 3' Amplitude
~Parameter Information Block
~A  Depth        GR         CCL         TT3         AMP3    
# ...
  1033.0000     76.9760      0.0000    826.6282      7.8591
  1033.2500     92.9829      0.0000    827.7245      7.7620
  1033.5000    104.2125      0.0000    823.9484      7.8079
  1033.7500    106.5583      0.0000    820.4497      8.0610
  1034.0000    100.0510      0.0000    818.5263      8.5313
  1034.2500     88.7324      0.0000    813.9854      9.1689
  1034.5000     77.9421      0.0000    805.0687      9.7781
  1034.7500     71.5897      0.0000    795.4050     10.1173
  1035.0000     71.1451      0.0000    787.0147     10.1626
  1035.2500     76.0634      0.0000    778.2056     10.1242
  1035.5000     84.6126      0.0000    768.9909     10.2205
  1035.7500     94.6285      0.0000    762.6776     10.4922
  1036.0000    104.1602      0.0000    761.9557     10.7932
  1036.2500    111.9091      0.0000    764.9681     10.9753
  1036.5000    117.2701      0.0000    761.5298     11.0686
  1036.7500    120.2160      0.0000    734.4041     11.1984
  1037.0000    121.3577      0.0000    675.6388     11.3218
  1037.2500    121.9825      0.0000    605.2378     11.1533
  1037.5000    123.6134      0.0000    559.3608     10.5110
  1037.7500    127.2531      0.0000    554.1647      9.6827
  1038.0000    132.7963      0.0000    571.2045      9.0829
  1038.2500    138.6773      0.0000    579.4319      8.6990
  1038.5000    142.0175      0.0000    568.3592      8.3710
  1038.7500    140.0025      0.0000    555.0096      8.1786
  1039.0000    132.1259      0.0000    555.2361      8.1726
  1039.2500    121.2236      0.0000    561.9239      8.2242
  1039.5000    111.8601      2.0000    564.3419      8.2365
  1039.7500    107.2503      2.0000    573.7181      8.2171
  1040.0000    107.4056      0.0000    605.4957      8.2051
  1040.2500    109.9147      0.0000    648.1927      8.3095
  1040.5000    112.2553      0.0000    678.6036      8.8158
  1040.7500    113.5132      0.0000    694.6468      9.8742
  1041.0000    114.3900      0.0000    708.2099     11.0005
  1041.2500    115.9747      0.0000    723.3029     11.5855
  1041.5000    118.6431      0.0000    732.5687     11.6940
  1041.7500    122.0242      0.0000    726.4435     11.6823
  1042.0000    125.5845      0.0000    707.1671     11.6904
  1042.2500    128.8957      0.0000    687.1573     11.7683
  1042.5000    131.7037      0.0000    671.2430     11.9716
  1042.7500    134.2144      0.0000    652.1657     12.3156
  1043.0000    137.0247      0.0000    627.4145     12.7802
  1043.2500    140.2608      0.0000    615.6321     13.3545
  1043.5000    142.9220      0.0000    641.2397     14.0529
  1043.7500    143.4626      0.0000    697.7781     14.8923
  1044.0000    141.0910      0.0000    749.9923     15.8690
  1044.2500    136.5921      0.0000    772.1849     16.9645
  1044.5000    132.1898      0.0000    759.5859     18.1709
  1044.7500    130.4552      0.0000    717.1441     19.4841
  1045.0000    132.5784      0.0000    661.6185     20.8684
  1045.2500    137.1884      0.0000    618.1862     22.2872
  1045.5000    141.1841      0.0000    602.3597     23.7532
  1045.7500    142.2272      0.0000    617.1191     25.2531
  1046.0000    140.4293      0.0000    659.2848     26.6300
  1046.2500    137.5413      0.0000    713.5698     27.6297
  1046.5000    134.9368      0.0000    755.3297     28.0828
  1046.7500    132.6586      0.0000    769.9656     28.0231
  1047.0000    130.1416      0.0000    759.5563     27.6894
  1047.2500    127.4375      0.0000    735.9763     27.4020
  1047.5000    125.3989      0.0000    716.2396     27.3153
  1047.7500    124.5411      0.0000    713.7699     27.3048
  1048.0000    124.0998      0.0000    725.9800     27.1778
  1048.2500    122.6259      0.0000    733.9450     26.9132
  1048.5000    119.4558      0.0000    717.0980     26.6448
  1048.7500    115.5393      0.0000    673.2379     26.5028
  1049.0000    112.8985      0.0000    632.8200     26.4636
  1049.2500    113.0572      0.0000    637.2452     26.3137
  1049.5000    115.7901      0.0000    686.8824     25.8457
  1049.7500    119.4089      0.0000    738.0945     25.1399
  1050.0000    122.1456      0.0000    753.6708     24.5278
  1050.2500    123.1162      0.0000    730.9861     24.2365
  1050.5000    122.3695      0.0000    698.8729     24.2480
  1050.7500    120.5844      0.0000    693.6894     24.4580
  1051.0000    118.6850      0.0000    720.0953     24.7894
  1051.2500    117.2958      0.0000    750.1133     25.2201
  1051.5000    116.3732      0.0000    763.4052     25.7410
  1051.7500    115.5268      0.0000    764.0241     26.2547
  1052.0000    114.8808      0.0000    763.3135     26.6467
  1052.2500    115.3758      0.0000    766.8505     26.9644
  1052.5000    117.8852      0.0000    775.1947     27.3490
  1052.7500    122.1165      0.0000    786.6100     27.8109
  1053.0000    126.5808      0.0000    798.2307     28.2359
  1053.2500    129.5708      0.0000    804.7962     28.5584
  1053.5000    130.2144      0.0000    800.4933     28.7127
  1053.7500    128.8325      0.0000    786.9141     28.4153
  1054.0000    126.2600      0.0000    772.9219     27.2376
  1054.2500    122.7254      0.0000    764.5616     25.0769
  1054.5000    117.6353      0.0000    761.3795     22.4668
  1054.7500    110.4599      0.0000    760.8854     20.1839
  1055.0000    101.3732      0.0000    761.9807     18.5294
  1055.2500     91.0228      0.0000    766.1146     17.2215
  1055.5000     80.2939      0.0000    776.9772     15.9927
  1055.7500     70.4147      0.0000    793.9875     14.9298
  1056.0000     62.7753      0.0000    803.3016     14.1359
  1056.2500     58.2950      0.0000    787.4070     13.4514
  1056.5000     56.7833      0.0000    749.7570     12.6794
  1056.7500     56.8224      0.0000    713.4947     11.8316
  1057.0000     56.6245      0.0000    693.8269     11.0784
  1057.2500     55.4920      0.0000    689.0932     10.6059
  1057.5000     54.3883      0.0000    695.2482     10.5242
  1057.7500     54.6685      0.0000    714.2031     10.8043
  1058.0000     56.1855      0.0000    744.3146     11.3196
  1058.2500     56.9909      0.0000    769.0793     11.9815
  1058.5000     55.1099      0.0000    772.8649     12.7929
  1058.7500     50.4819      0.0000    765.8057     13.7669
  1059.0000     44.9970      0.0000    770.1084     14.8429
  1059.2500     40.9602      0.0000    787.3014     15.9527
  1059.5000     39.9887      0.0000    800.3517     17.1431
  1059.7500     43.0771      0.0000    800.8317     18.5529
  1060.0000     50.7472      0.0000    795.2739     20.2520
  1060.2500     62.5696      0.0000    791.0516     22.0769
  1060.5000     76.8767      0.0000    789.9535     23.6857
  1060.7500     91.5594      0.0000    790.8378     24.8806
  1061.0000    105.0549      0.0000    789.4523     25.7445
  1061.2500    116.2432      0.0000    779.3373     26.3908
  1061.5000    123.8945      0.0000    760.7975     26.8039
  1061.7500    127.1343      0.0000    744.0814     26.9851
  1062.0000    126.4648      0.0000    736.6674     27.0679
  1062.2500    123.7374      0.0000    733.3291     27.2026
  1062.5000    121.0714      0.0000    724.2594     27.3921
  1062.7500    119.9861      0.0000    712.8147     27.5222
  1063.0000    121.0325      0.0000    715.2893     27.5551
  1063.2500    123.4559      0.0000    735.7782     27.6046
  1063.5000    125.2448      0.0000    759.6791     27.7603
  1063.7500    124.2324      0.0000    777.1794     27.9643
  1064.0000    119.7075      0.0000    790.0261     28.1142
  1064.2500    112.9722      0.0000    797.8793     28.1312
  1064.5000    106.3992      0.0000    798.2690     27.9122
  1064.7500    102.1223      0.0000    794.2238     27.3518
  1065.0000    101.1631      0.0000    790.6637     26.4333
  1065.2500    103.0637      0.0000    788.9642     25.2356
  1065.5000    106.3568      0.0000    788.2935     23.8496
  1065.7500    109.6964      0.0000    788.0013     22.3361
  1066.0000    112.4131      0.0000    787.8944     20.7739
  1066.2500    114.1416      0.0000    787.8726     19.2620
