~Version Information
VERS.                      2.0: CWLS Log ASCII Standard - VERSION 2.0
WRAP.                       NO: One line per depth step
~Well Information Block
STRT.FT               -12.5000: 
STOP.FT              2487.7500: 
STEP.FT                 0.2500: 
NULL.                -999.2500: 
COMP.          Petrogulf Corporation: COMPANY
WELL.             Royal 8-33 V: WELL
FLD.           Purgatorie River: FIELD
LOC.           2365' FSL & 2336' FEL--: LOCATION
CNTY.               Las Animas: COUNTY
SRVC.                         : SERVICE COMPANY
DATE.          Sat Jan 17 11:43:49 2004: LOG DATE
UWI.           05 071 07934 00: UNIQUE WELL ID
STAT.                       CO: STATE
~Curve Information Block
DEPT.FT            0 000 00 00: Depth
CCL.                          : Casing Collar Locator
TT3.usec                      : CBL 3' Travel Time
AMP3.mV                       : CBL 3' Amplitude
GR.GAPI                       : Gamma Ray
~Parameter Information Block
~A  Depth       CCL         TT3         AMP3         GR     
# ...
  1796.5000      0.0000    704.3238      3.2005     75.0204
  1796.7500      0.0000    699.9282      3.1148     71.0504
  1797.0000      0.0000    704.1147      3.0767     67.8617
  1797.2500      0.0000    712.4357      3.1339     64.4193
  1797.5000      0.0000    718.4238      3.2835     60.5560
  1797.7500      0.0000    719.1505      3.4532     57.2075
  1798.0000      4.0000    717.4827      3.5504     55.1608
  1798.2500      0.0000    718.8168      3.5554     54.3568
  1798.5000      0.0000    725.9464      3.5446     54.4324
  1798.7500      0.0000    737.7316      3.6020     55.3961
  1799.0000      0.0000    751.6778      3.7312     57.7434
  1799.2500      0.0000    765.9317      3.8676     62.2520
  1799.5000      0.0000    778.8959      3.9502     69.5732
  1799.7500      0.0000    788.7255      3.9631     79.5421
  1800.0000      0.0000    794.1932      3.9290     90.7687
  1800.2500      0.0000    795.4688      3.8827    101.2120
  1800.5000      0.0000    793.5001      3.8460    109.4469
  1800.7500      0.0000    788.8618      3.8170    115.5191
  1801.0000      0.0000    781.5704      3.7784    120.5006
  1801.2500      0.0000    772.2251      3.7235    125.0815
  1801.5000      0.0000    763.3748      3.6729    128.6948
  1801.7500      0.0000    759.1990      3.6594    130.1168
  1802.0000      0.0000    762.4954      3.6869    128.7687
  1802.2500      0.0000    771.7098      3.7135    125.2918
  1802.5000      0.0000    782.0271      3.6822    121.0207
  1802.7500      0.0000    789.7077      3.5638    117.1105
  1803.0000      0.0000    794.5338      3.3715    114.0986
  1803.2500      0.0000    798.1909      3.1503    112.1860
  1803.5000      0.0000    801.3034      2.9615    111.7969
  1803.7500      0.0000    802.3759      2.8619    113.4248
  1804.0000      0.0000    799.3759      2.8850    116.8421
  1804.2500      0.0000    792.0583      3.0332    121.1240
  1804.5000      0.0000    782.2841      3.2830    125.8254
  1804.7500      0.0000    771.9771      3.5901    131.5605
  1805.0000      0.0000    761.6915      3.8958    139.0099
  1805.2500      0.0000    751.8416      4.1375    147.7639
  1805.5000      0.0000    744.0078      4.2674    156.3075
  1805.7500      0.0000    739.2532      4.2747    162.6156
  1806.0000      0.0000    735.7552      4.1940    164.8322
  1806.2500      0.0000    730.6047      4.0846    162.3386
  1806.5000      0.0000    724.6158      3.9930    156.5355
  1806.7500      0.0000    723.1539      3.9412    150.0186
  1807.0000      0.0000    730.3357      3.9402    144.6563
  1807.2500      0.0000    743.4529      3.9962    140.6947
  1807.5000      0.0000    755.0428      4.1013    137.6204
  1807.7500      0.0000    760.2865      4.2449    135.2918
  1808.0000      0.0000    760.8788      4.4367    133.8211
  1808.2500      0.0000    761.7628      4.6971    132.7981
  1808.5000      0.0000    765.8894      5.0185    131.4211
  1808.7500      0.0000    772.8259      5.3434    129.4509
  1809.0000      0.0000    780.8761      5.5863    127.4073
  1809.2500      0.0000    788.9653      5.6871    125.6520
  1809.5000      0.0000    796.7744      5.6548    123.6312
  1809.7500      0.0000    804.1255      5.5530    120.1153
  1810.0000      0.0000    810.5185      5.4373    114.0860
  1810.2500      0.0000    815.0847      5.3303    105.6641
  1810.5000      0.0000    817.0701      5.2735     96.4919
  1810.7500      0.0000    816.4022      5.3548     89.0526
  1811.0000      0.0000    813.5093      5.6362     85.2920
  1811.2500      0.0000    808.6581      6.0750     85.9098
  1811.5000      0.0000    801.8789      6.5635     90.7786
  1811.7500      0.0000    793.6772      7.0319     99.3050
  1812.0000      0.0000    785.4103      7.4701    110.0303
  1812.2500      0.0000    778.6638      7.8588    120.5146
  1812.5000      0.0000    774.4485      8.1287    128.2661
  1812.7500      0.0000    772.8387      8.1980    132.0308
  1813.0000      0.0000    772.8647      8.0251    132.2648
  1813.2500      0.0000    772.8657      7.6191    130.4212
  1813.5000      0.0000    771.6445      7.0263    127.7600
  1813.7500      0.0000    769.3235      6.3209    124.7794
  1814.0000      0.0000    766.7264      5.5939    121.4508
  1814.2500      0.0000    763.9305      4.9349    117.4893
  1814.5000      0.0000    759.5585      4.4088    112.5155
  1814.7500      0.0000    751.7236      4.0389    106.6379
  1815.0000      0.0000    740.1920      3.8136    100.9500
  1815.2500      0.0000    727.6517      3.7134     96.9605
  1815.5000      0.0000    718.4984      3.7280     95.5149
  1815.7500      0.0000    716.4075      3.8432     96.5236
  1816.0000      0.0000    722.6326      4.0220     99.3634
  1816.2500      0.0000    735.2000      4.2086    103.2043
  1816.5000      0.0000    749.0188      4.3463    107.4399
  1816.7500      0.0000    757.9560      4.4000    112.3270
  1817.0000      0.0000    758.4913      4.3819    118.7892
  1817.2500      0.0000    751.9193      4.3518    127.0300
  1817.5000      0.0000    743.0806      4.3608    135.5125
  1817.7500      0.0000    737.1679      4.3903    141.7844
  1818.0000      0.0000    737.3235      4.3690    144.4969
  1818.2500      0.0000    743.9357      4.2601    144.4603
  1818.5000      0.0000    755.3762      4.1175    143.5527
  1818.7500      0.0000    769.7785      4.0456    142.6941
  1819.0000      0.0000    786.1027      4.1014    141.0722
  1819.2500      0.0000    803.0958      4.2320    137.0373
  1819.5000      0.0000    818.6759      4.3193    129.3239
  1819.7500      0.0000    831.8046      4.2958    117.7909
  1820.0000      0.0000    843.3255      4.2052    103.7594
  1820.2500      0.0000    852.8836      4.1371     89.8065
  1820.5000      0.0000    856.6917      4.1278     78.7806
  1820.7500      0.0000    850.6796      4.1506     72.6079
  1821.0000      0.0000    834.5775      4.1753     71.8018
  1821.2500      0.0000    811.6370      4.2051     75.8219
  1821.5000      0.0000    786.5811      4.2657     83.6730
  1821.7500      0.0000    765.1556      4.3717     94.2108
  1822.0000      0.0000    752.9589      4.4931    106.1038
  1822.2500      0.0000    751.7878      4.5578    117.8407
  1822.5000      0.0000    757.1826      4.5087    128.2235
  1822.7500      0.0000    761.1831      4.3576    136.8938
  1823.0000      0.0000    758.2543      4.1681    144.1165
  1823.2500      0.0000    748.5208      3.9991    150.0823
  1823.5000      0.0000    735.8162      3.8783    154.6153
  1823.7500      0.0000    723.6257      3.8041    157.4265
  1824.0000      0.0000    713.2334      3.7511    158.5527
  1824.2500      0.0000    704.7030      3.6888    158.7378
  1824.5000      0.0000    698.0925      3.6147    159.0557
  1824.7500      0.0000    693.0987      3.5578    159.5189
  1825.0000      0.0000    687.8088      3.5388    158.4838
  1825.2500      0.0000    679.0328      3.5405    154.5101
  1825.5000      0.0000    665.6422      3.5317    148.6474
  1825.7500      0.0000    652.0670      3.5053    143.6942
  1826.0000      0.0000    646.4145      3.4780    141.2585
  1826.2500      0.0000    653.1112      3.4613    140.6504
  1826.5000      0.0000    668.3875      3.4483    140.6750
  1826.7500      0.0000    684.3091      3.4294    141.3401
  1827.0000      0.0000    695.8322      3.4111    143.3222
  1827.2500      0.0000    702.9033      3.4130    146.4221
  1827.5000      0.0000    707.5686      3.4460    149.2290
  1827.7500      0.0000    710.9789      3.4933    150.2291
  1828.0000      0.0000    713.0458      3.5165    148.9221
  1828.2500      0.0000    713.9913      3.4867    145.9252
  1828.5000      0.0000    715.3210      3.4148    142.4785
  1828.7500      0.0000    718.7203      3.3447    140.0642
  1829.0000      0.0000    724.0529      3.3154    139.9452
  1829.2500      0.0000    729.0784      3.3329    142.3803
  1829.5000      0.0000    731.2441      3.3723    146.2490
  1829.7500      0.0000    729.4583      3.4003    149.6797
