~Version Information
VERS.                      2.0: CWLS Log ASCII Standard - VERSION 2.0
WRAP.                       NO: One line per depth step
~Well Information Block
STRT.FT               720.0000: 
STOP.FT              2265.7000: 
STEP.FT                 0.1000: 
NULL.                -999.2500: 
COMP.          Pioneer Natural Resources: COMPANY
WELL.          Casablanca 11-28 Tr: WELL
FLD.           Purgatoire River: FIELD
LOC.           422' FNL & 215' FWL----: LOCATION
PROV.                 Colorado: PROVINCE
CNTY.               Las Animas: COUNTRY
SRVC.                Patterson: SERVICE COMPANY
DATE.          Mon Mar 07 07:16:34 2005: LOG DATE
UWI.           05 071 08314 00: UNIQUE WELL ID
~Curve Information Block
DEPT.FT            0 000 00 00: Depth
DCAL.in                       : CDL Caliper
RHOB.g/cc                     : CDL Bulk Density
RHOC.g/cc                     : CDL Density Correction
DPOR.pu                       : CDL Density Porosity
NPOR.pu                       : Neutron Porosity
GR.GAPI                       : Gamma Ray
~Parameter Information Block
~A  Depth       DCAL        RHOB        RHOC        DPOR        NPOR         GR     
# ...
  2035.2000      7.8423      2.4765     -0.0038     10.5164     23.0094    176.5054
  2035.3000      7.8130      2.4995      0.0604      9.1215     22.8913    186.3789
  2035.4000      7.8130      2.4994      0.1188      9.1302     22.4973    187.4005
  2035.5000      7.7936      2.4858      0.0158      9.9493     22.3509    182.7643
  2035.6000      7.7936      2.4876      0.0531      9.8454     22.3330    175.5194
  2035.7000      7.7936      2.5151      0.0544      8.1770     21.8981    167.0313
  2035.8000      7.7894      2.5612      0.1017      5.3823     21.2555    164.1770
  2035.9000      7.7894      2.6026      0.1559      2.8742     20.8940    167.3168
  2036.0000      7.7974      2.6098      0.1737      2.4375     20.8085    168.1788
  2036.1000      7.7974      2.5881      0.0848      3.7492     20.9180    162.5383
  2036.2000      7.7974      2.5760      0.0699      4.4822     21.3485    153.2729
  2036.3000      7.8133      2.5888      0.1096      3.7113     22.0053    145.8775
  2036.4000      7.8133      2.6139      0.0707      2.1855     22.4812    139.8334
  2036.5000      7.8289      2.6448      0.0764      0.3164     22.7409    132.7374
  2036.6000      7.8289      2.6707      0.1260     -1.2536     22.9853    123.7777
  2036.7000      7.8289      2.6760      0.1228     -1.5735     23.1756    116.1880
  2036.8000      7.8426      2.6663      0.1065     -0.9896     23.1566    114.4735
  2036.9000      7.8426      2.6605      0.0593     -0.6342     22.7038    114.8671
  2037.0000      7.8569      2.6535      0.0779     -0.2146     22.0137    113.5473
  2037.1000      7.8569      2.6298      0.0568      1.2227     21.7839    115.7735
  2037.2000      7.8569      2.6066      0.0139      2.6332     22.2019    123.3908
  2037.3000      7.8657      2.6025      0.0335      2.8788     22.6960    128.4142
  2037.4000      7.8657      2.5987      0.0201      3.1118     22.7191    127.1702
  2037.5000      7.8622      2.5885     -0.0348      3.7256     22.5015    125.3244
  2037.6000      7.8622      2.5932      0.0031      3.4420     22.3681    129.4792
  2037.7000      7.8622      2.6118      0.0383      2.3140     22.1898    138.7315
  2037.8000      7.8505      2.6189      0.0748      1.8831     21.9919    144.7437
  2037.9000      7.8505      2.5983      0.0699      3.1358     21.8551    145.1933
  2038.0000      7.8379      2.5649     -0.0246      5.1568     21.7217    146.9156
  2038.1000      7.8379      2.5525     -0.0074      5.9073     21.6999    151.5636
  2038.2000      7.8379      2.5663      0.0713      5.0708     21.8060    154.7954
  2038.3000      7.8256      2.5750      0.0556      4.5470     21.9907    154.8495
  2038.4000      7.8256      2.5617      0.0319      5.3531     22.3096    153.8083
  2038.5000      7.8171      2.5454     -0.0214      6.3379     22.6987    151.1679
  2038.6000      7.8171      2.5394      0.0500      6.7058     22.9564    146.7187
  2038.7000      7.8171      2.5312      0.0278      7.2014     22.8946    147.0058
  2038.8000      7.8121      2.5196      0.0018      7.9017     22.5598    155.8966
  2038.9000      7.8121      2.5130      0.0357      8.3026     22.3197    168.6324
  2039.0000      7.8080      2.5080      0.0477      8.6068     22.5229    178.1629
  2039.1000      7.8080      2.4985      0.0253      9.1819     23.0615    181.4898
  2039.2000      7.8080      2.4795     -0.0104     10.3352     23.4723    180.7864
  2039.3000      7.8010      2.4561     -0.0357     11.7519     23.5535    178.6199
  2039.4000      7.8010      2.4511     -0.0231     12.0566     23.3947    178.9879
  2039.5000      7.7968      2.4758      0.0341     10.5548     23.1694    181.3017
  2039.6000      7.7968      2.5152      0.0382      8.1668     22.7959    179.9884
  2039.7000      7.7968      2.5445      0.1111      6.3943     22.2225    175.3686
  2039.8000      7.8019      2.5499      0.0854      6.0655     21.8741    172.6161
  2039.9000      7.8019      2.5356      0.0621      6.9321     21.9175    176.8192
  2040.0000      7.8080      2.5101      0.0420      8.4761     22.1894    184.7505
  2040.1000      7.8080      2.4886      0.0298      9.7796     22.4317    183.7689
  2040.2000      7.8080      2.4845      0.0912     10.0324     22.2112    169.7108
  2040.3000      7.8112      2.4955      0.0166      9.3639     21.5399    156.2370
  2040.4000      7.8112      2.5198      0.0616      7.8922     21.0017    154.0369
  2040.5000      7.8144      2.5490      0.0870      6.1217     20.7192    156.8188
  2040.6000      7.8144      2.5611      0.0916      5.3888     20.2941    158.8497
  2040.7000      7.8144      2.5476      0.0906      6.2070     19.6692    163.6505
  2040.8000      7.8170      2.5343      0.0352      7.0139     19.1828    165.0893
  2040.9000      7.8170      2.5469      0.0586      6.2503     19.0514    153.6882
  2041.0000      7.8167      2.5689      0.0744      4.9132     19.1654    134.6146
  2041.1000      7.8167      2.5739      0.0755      4.6137     19.2025    119.3893
  2041.2000      7.8167      2.5647      0.0625      5.1693     18.9749    112.2996
  2041.3000      7.8090      2.5567      0.0471      5.6575     18.5963    110.0118
  2041.4000      7.8090      2.5539      0.0395      5.8246     18.2515    107.7035
  2041.5000      7.8000      2.5549      0.0608      5.7640     18.1444    102.1607
  2041.6000      7.8000      2.5604      0.0511      5.4295     18.3494     95.1248
  2041.7000      7.8000      2.5708      0.0439      4.8016     18.5953     92.5574
  2041.8000      7.8055      2.5834      0.0557      4.0368     18.5781     94.2045
  2041.9000      7.8055      2.5965      0.0546      3.2423     18.3630     96.2114
  2042.0000      7.8399      2.6066      0.0960      2.6309     18.2310     99.6340
  2042.1000      7.8399      2.6092      0.0500      2.4713     18.3188    103.4558
  2042.2000      7.8399      2.6089      0.0383      2.4883     18.5625    102.7713
  2042.3000      7.9010      2.6122      0.0111      2.2921     18.9240     95.9607
  2042.4000      7.9010      2.6110      0.0937      2.3616     19.5057     88.9363
  2042.5000      7.9533      2.5881      0.0542      3.7523     20.1356     88.0620
  2042.6000      7.9533      2.5471      0.0218      6.2361     20.4930     93.0368
  2042.7000      7.9533      2.5135     -0.0155      8.2699     20.7290    102.5975
  2042.8000      7.9657      2.5103     -0.0380      8.4650     21.1460    117.3706
  2042.9000      7.9657      2.5378      0.0028      6.8004     21.7146    136.2847
  2043.0000      7.9556      2.5643      0.0738      5.1934     22.3627    156.6923
  2043.1000      7.9556      2.5625      0.0832      5.3050     22.9643    172.3534
  2043.2000      7.9556      2.5536      0.0298      5.8431     23.1087    175.1790
  2043.3000      7.9513      2.5723      0.0601      4.7105     22.7065    167.7752
  2043.4000      7.9513      2.6087      0.1431      2.5014     22.1311    160.5952
  2043.5000      7.9658      2.6309      0.1242      1.1548     21.7769    159.2597
  2043.6000      7.9658      2.6295      0.1659      1.2447     21.7405    160.4590
  2043.7000      7.9658      2.6143      0.0958      2.1610     21.6841    160.7492
  2043.8000      7.9922      2.5990      0.0679      3.0932     21.3307    161.0790
  2043.9000      7.9922      2.5902      0.0521      3.6224     20.8104    160.5766
  2044.0000      8.0102      2.5893      0.0761      3.6772     20.3213    157.5115
  2044.1000      8.0102      2.5910      0.0898      3.5743     20.1295    154.2816
  2044.2000      8.0102      2.5854      0.0665      3.9178     20.4054    154.5179
  2044.3000      8.0156      2.5701      0.0771      4.8419     21.0310    160.6061
  2044.4000      8.0156      2.5620      0.0108      5.3346     21.6641    171.2838
  2044.5000      8.0085      2.5741      0.0738      4.6000     21.9374    180.3751
  2044.6000      8.0085      2.5891      0.0804      3.6928     21.9175    182.2613
  2044.7000      8.0085      2.5862      0.0463      3.8644     21.9212    177.2216
