~Version Information
VERS.                                  2.0 : CWLS LAS VERSION
WRAP.                                   NO : WRAPING MODE
SWARE .                 MController 2.5.0E : SOFTWARE VERSION
~Well Information
WELL.                         Warrior 32-1 : WELL
COMP.             Evergreen Operating Corp : COMPANY
FLD.                      Purgatorie River : FIELD
LOC.                SW/NE Sec 11 T33S R67W : LOCATION
DATE.                    10/02/04-10/03/04 : DATE(S) LOGGED
SRVC.       Blanco Geological Services LLC : SERVICE COMPANY
STAT.                                   CO : STATE
CNTY.                           Las Animas : COUNTY
CTRY.                                  USA : COUNTRY
API.                       05-071-08176-00 : API NUMBER
STRT.FT                             386.00 : START DEPTH
STOP.FT                            2265.00 : STOP DEPTH
STEP.FT                               1.00 : DEPTH INCREMENT
NULL.                                -9999 : NULL VALUE
~Curve information
DEPTH.FT                                   :
ROP.MIN/FT                                 :
GAS.UNITS                                  :
~ASCII Log data
# ...
      798.00        0.167         14.7
      799.00        0.200         13.9
      800.00        0.217         13.1
      801.00        0.233         12.8
      802.00        0.200         13.0
      803.00        0.200         12.8
      804.00        0.167         12.5
      805.00        0.200         11.8
      806.00        0.233         12.2
      807.00        0.267         11.2
      808.00        0.233         11.7
      809.00        0.200         12.0
      810.00        0.233         11.0
      811.00        0.233         11.2
      812.00        0.233         11.5
      813.00        5.233         24.9
      814.00        0.300         26.5
      815.00        0.400         31.5
      816.00        0.233         37.5
      817.00        0.200         41.7
      818.00        0.167         42.5
      819.00        0.167         42.0
      820.00        0.167         38.5
      821.00        0.200         34.1
      822.00        0.250         27.5
      823.00        0.200         22.8
      824.00        0.167         19.3
      825.00        0.200         16.9
      826.00        0.167         16.4
      827.00        0.100         16.3
      828.00        0.133         16.1
      829.00        0.133         15.8
      830.00        0.133         15.8
      831.00        0.167         15.1
      832.00        0.233         14.6
      833.00        0.167         13.3
      834.00        0.167         12.9
      835.00        0.167         11.9
      836.00        0.167         11.3
      837.00        0.267         10.7
      838.00        0.167         10.7
      839.00        0.200         11.4
      840.00        0.200         12.1
      841.00        0.250         12.0
      842.00        0.200         12.0
      843.00        3.717          7.1
      844.00        0.500          7.1
      845.00        0.300          6.8
      846.00        0.333          7.4
      847.00        0.267          8.3
      848.00        0.233          8.2
      849.00        0.200          8.7
      850.00        0.200          8.8
      851.00        0.233          9.3
      852.00        0.167          9.4
      853.00        0.200         10.7
      854.00        0.150         11.6
      855.00        0.167         13.5
      856.00        0.167         14.4
      857.00        0.233         16.9
      858.00        0.267         18.5
      859.00        0.133         19.0
      860.00        0.100         19.8
      861.00        0.100         19.7
      862.00        0.100         20.4
      863.00        0.167         20.0
      864.00        0.200         18.8
      865.00        0.167         17.6
      866.00        0.167         16.0
      867.00        0.133         15.1
      868.00        0.167         13.9
      869.00        0.200         12.7
      870.00        0.167         12.4
      871.00        0.133         11.3
      872.00        0.100         10.9
      873.00        3.717         31.0
      874.00        0.683         53.2
      875.00        0.233         61.5
      876.00        0.100         64.8
      877.00        0.333         91.2
      878.00        0.300        127.1
      879.00        0.300        135.3
      880.00        0.233        108.5
      881.00        0.233         78.3
      882.00        0.233         56.4
      883.00        0.200         45.7
      884.00        0.200         41.3
      885.00        0.233         36.3
      886.00        0.183         33.7
      887.00        0.233         31.4
      888.00        0.167         29.8
      889.00        0.167         28.3
      890.00        0.167         26.7
      891.00        0.167         26.8
      892.00        0.200         27.2
      893.00        0.133         26.5
      894.00        0.200         26.4
      895.00        0.167         26.4
      896.00        0.167         26.2
      897.00        0.133         26.0
      898.00        0.267         24.9
      899.00        0.233         23.7
      900.00        0.167         23.5
      901.00        0.233         23.3
      902.00        0.333         21.8
      903.00        6.233         52.8
      904.00        0.533         88.6
      905.00        0.350        104.5
      906.00        0.333         77.4
      907.00        0.333         46.8
      908.00        0.333         29.9
      909.00        0.333         25.5
      910.00        0.333         25.9
      911.00        0.300         25.5
      912.00        0.267         25.0
      913.00        0.167         23.6
      914.00        0.067         24.0
      915.00        0.133         22.7
      916.00        0.100         22.6
      917.00        0.267         21.3
      918.00        0.350         20.6
      919.00        0.267         21.0
      920.00        0.233         20.6
      921.00        0.167         21.4
      922.00        0.233         26.9
      923.00        0.200         32.6
      924.00        0.100         35.0
      925.00        0.100         36.7
      926.00        0.133         37.7
      927.00        0.100         38.3
      928.00        0.267         35.3
      929.00        0.233         31.7
      930.00        0.333         29.5
      931.00        0.267         30.2
      932.00        0.300         33.7
      933.00        4.900         89.6
      934.00        0.233         97.7
      935.00        0.233         81.8
      936.00        0.300         55.0
      937.00        0.300         36.4
      938.00        0.300         28.9
      939.00        0.333         27.3
      940.00        0.283         26.9
      941.00        0.300         30.5
      942.00        0.300         28.7
      943.00        0.300         26.2
      944.00        0.267         24.0
      945.00        0.200         23.2
      946.00        0.133         23.4
      947.00        0.133         22.9
      948.00        0.067         22.3
      949.00        0.167         21.5
      950.00        0.250         21.9
      951.00        0.300         21.9
      952.00        0.267         21.8
      953.00        0.300         20.5
      954.00        0.300         22.4
      955.00        0.267         28.8
      956.00        0.267         33.0
      957.00        0.300         31.2
      958.00        0.267         28.3
      959.00        0.317         26.0
      960.00        1.267         23.7
      961.00        0.267         28.1
      962.00        0.167         27.6
      963.00        7.433         15.8
      964.00        0.233         15.2
      965.00        0.267         15.0
      966.00        0.267         15.1
      967.00        0.283         15.4
      968.00        0.200         15.3
      969.00        0.200         15.3
      970.00        0.267         14.2
      971.00        0.167         13.5
      972.00        0.200         13.8
      973.00        0.167         14.9
      974.00        0.200         17.3
      975.00        0.200         20.0
      976.00        0.233         22.1
      977.00        0.200         21.1
      978.00        0.200         20.8
      979.00        0.167         19.8
      980.00        0.200         18.2
      981.00        0.167         17.5
      982.00        0.167         17.2
      983.00        0.183         16.7
      984.00        0.200         16.6
      985.00        0.267         15.8
      986.00        0.167         15.4
      987.00        0.233         16.3
      988.00        1.400         16.6
      989.00        0.367         19.3
      990.00        0.367         15.1
      991.00        0.383         12.2
      992.00        0.300         12.2
      993.00        7.100         49.5
      994.00        0.267         61.0
      995.00        0.333        105.4
      996.00        0.367         95.5
      997.00        0.367         51.0
      998.00        0.300         30.0
      999.00        0.267         22.5
     1000.00        0.267         23.5
     1001.00        0.317         20.8
     1002.00        0.333         17.3
     1003.00        0.233         15.1
