~Version Information
VERS.                      2.0: CWLS Log ASCII Standard - VERSION 2.0
WRAP.                       NO: One line per depth step
~Well Information Block
STRT.FT               554.1000: 
STOP.FT              2173.5000: 
STEP.FT                 0.1000: 
NULL.                -999.2500: 
COMP.          Petrogulf Corporation: COMPANY
WELL.            Montoya 6-14R: WELL
FLD.           Purgatorie River: FIELD
LOC.           867' FSL & 751' FWL: LOCATION
CNTY.               Las Animas: COUNTY
SRVC.                         : SERVICE COMPANY
DATE.          Mon Nov 15 06:14:10 2004: LOG DATE
UWI.           05 071 08242 00: UNIQUE WELL ID
STAT.                 Colorado: STATE
~Curve Information Block
DEPT.FT            0 000 00 00: Depth
DCAL.in                       : CDL Caliper
RHOB.g/cc                     : CDL Bulk Density
RHOC.g/cc                     : CDL Density Correction
DPOR.pu                       : CDL Density Porosity
GR.GAPI                       : Gamma Ray
NPOR.pu                       : Neutron Porosity
~Parameter Information Block
~A  Depth       DCAL        RHOB        RHOC        DPOR         GR         NPOR    
# ...
  1946.1000      7.9432      2.4961      0.0946      9.3248    103.8399     29.7267
  1946.2000      7.9432      2.5009      0.0683      9.0369    103.9727     30.0458
  1946.3000      7.9254      2.5213      0.0729      7.8014    105.4285     30.7355
  1946.4000      7.9254      2.5560      0.1194      5.6968    108.8735     31.0634
  1946.5000      7.9187      2.5894      0.1044      3.6753    112.8956     31.0064
  1946.6000      7.9187      2.6112      0.1184      2.3488    112.5279     30.8447
  1946.7000      7.9187      2.6218      0.1165      1.7092    108.7669     30.6013
  1946.8000      7.9204      2.6259      0.1135      1.4624    106.7585     30.0521
  1946.9000      7.9204      2.6317      0.1022      1.1101    107.5545     29.1654
  1947.0000      7.9148      2.6392      0.1222      0.6552    108.8200     28.2152
  1947.1000      7.9148      2.6313      0.1209      1.1338    107.3896     27.4901
  1947.2000      7.9148      2.6010      0.0497      2.9706    102.1709     27.1800
  1947.3000      7.9094      2.5707      0.0323      4.8082     95.8697     27.2310
  1947.4000      7.9094      2.5673      0.0074      5.0113     92.3522     27.3213
  1947.5000      7.9167      2.5914      0.0380      3.5539     92.2998     26.8475
  1947.6000      7.9167      2.6180      0.0672      1.9377     93.0900     25.7893
  1947.7000      7.9167      2.6339      0.0447      0.9751     90.6547     25.0160
  1947.8000      7.9300      2.6456      0.0710      0.2693     85.9695     24.6051
  1947.9000      7.9300      2.6531      0.0958     -0.1905     85.0491     23.9591
  1948.0000      7.9353      2.6497      0.0554      0.0192     87.2714     23.3447
  1948.1000      7.9353      2.6380      0.0209      0.7261     86.5206     23.2676
  1948.2000      7.9353      2.6264      0.0252      1.4276     83.0643     23.5765
  1948.3000      7.9316      2.6217      0.0464      1.7146     80.1531     23.8135
  1948.4000      7.9316      2.6239      0.0725      1.5792     77.9537     23.7032
  1948.5000      7.9237      2.6216      0.0354      1.7186     75.3243     23.5293
  1948.6000      7.9237      2.6078      0.0398      2.5569     73.9085     23.9194
  1948.7000      7.9237      2.5939      0.0157      3.3970     75.5396     24.6910
  1948.8000      7.9179      2.5921      0.0486      3.5074     78.4181     25.0322
  1948.9000      7.9179      2.5925      0.0585      3.4822     78.4821     24.9355
  1949.0000      7.9164      2.5838      0.0313      4.0101     74.0502     24.5699
  1949.1000      7.9164      2.5745      0.0130      4.5754     69.8533     24.2287
  1949.2000      7.9164      2.5752      0.0156      4.5352     69.7090     24.7497
  1949.3000      7.9091      2.5854      0.0278      3.9149     69.4710     25.7457
  1949.4000      7.9091      2.6016      0.0468      2.9326     67.1982     26.1401
  1949.5000      7.9019      2.6202      0.0742      1.8090     66.4908     26.1573
  1949.6000      7.9019      2.6323      0.0822      1.0742     68.5444     26.6359
  1949.7000      7.9019      2.6242      0.0607      1.5651     71.4072     27.7402
  1949.8000      7.9006      2.5941      0.0515      3.3879     72.7197     28.5572
  1949.9000      7.9006      2.5591      0.0287      5.5110     72.5961     27.8901
  1950.0000      7.9048      2.5351      0.0595      6.9639     72.2344     26.0248
  1950.1000      7.9048      2.5281     -0.0062      7.3851     70.1102     24.1025
  1950.2000      7.9048      2.5356      0.0479      6.9343     66.1387     22.7319
  1950.3000      7.9166      2.5450      0.0445      6.3624     63.8130     22.3815
  1950.4000      7.9166      2.5523      0.0788      5.9192     61.5649     22.8133
  1950.5000      7.9329      2.5612      0.0864      5.3843     56.1269     23.2713
  1950.6000      7.9329      2.5658      0.1035      5.1017     51.4019     23.7355
  1950.7000      7.9329      2.5586      0.0998      5.5398     52.2818     24.0692
  1950.8000      7.9465      2.5472      0.0687      6.2310     58.5864     24.0844
  1950.9000      7.9465      2.5478      0.0801      6.1958     66.2236     24.1979
  1951.0000      7.9651      2.5587      0.1145      5.5305     69.7668     24.2222
  1951.1000      7.9651      2.5620      0.1070      5.3315     68.8832     23.9894
  1951.2000      7.9651      2.5542      0.0832      5.8033     67.1730     23.8945
  1951.3000      7.9939      2.5494      0.0801      6.0999     66.7217     23.6148
  1951.4000      7.9939      2.5499      0.0807      6.0660     68.1300     23.0906
  1951.5000      8.0172      2.5488      0.0822      6.1356     69.9603     23.0296
  1951.6000      8.0172      2.5486      0.0681      6.1448     70.5270     23.3630
  1951.7000      8.0172      2.5486      0.1074      6.1444     68.2447     23.2847
  1951.8000      8.0263      2.5381      0.0987      6.7837     61.1841     22.5602
  1951.9000      8.0263      2.5167      0.0726      8.0767     53.2554     22.0717
  1952.0000      8.0261      2.4954      0.0601      9.3692     50.9888     22.4936
  1952.1000      8.0261      2.4879      0.0219      9.8251     53.3750     23.0845
  1952.2000      8.0261      2.5007      0.0619      9.0468     54.5113     22.7970
  1952.3000      8.0251      2.5202      0.0556      7.8646     51.7021     22.0231
  1952.4000      8.0251      2.5262      0.0736      7.5003     47.6851     22.2099
  1952.5000      8.0260      2.5183      0.0508      7.9832     45.3518     23.7455
  1952.6000      8.0260      2.5089      0.0400      8.5493     43.1189     25.0383
  1952.7000      8.0260      2.5020      0.0569      8.9703     40.2451     25.0953
  1952.8000      8.0277      2.4991      0.0235      9.1462     38.8815     24.3895
  1952.9000      8.0277      2.5005      0.0719      9.0608     39.5444     23.6121
  1953.0000      8.0283      2.4954      0.0622      9.3697     42.2982     22.9991
  1953.1000      8.0283      2.4810      0.0425     10.2408     46.8837     22.2923
  1953.2000      8.0283      2.4671      0.0426     11.0848     50.9221     21.6274
  1953.3000      8.0281      2.4629      0.0305     11.3370     53.1087     21.4897
  1953.4000      8.0281      2.4749      0.0433     10.6107     54.1709     21.8649
  1953.5000      8.0267      2.4948      0.0815      9.4065     54.4262     21.9263
  1953.6000      8.0267      2.5046      0.0818      8.8129     52.3687     21.1999
  1953.7000      8.0267      2.5015      0.0645      8.9974     46.7099     20.0231
  1953.8000      8.0247      2.4976      0.0599      9.2371     40.3066     18.7123
  1953.9000      8.0247      2.4988      0.0796      9.1620     36.8432     17.1433
  1954.0000      8.0202      2.4983      0.0633      9.1969     35.7872     15.5983
  1954.1000      8.0202      2.4860      0.0811      9.9367     36.5663     14.7182
  1954.2000      8.0202      2.4653      0.0208     11.1953     39.0956     14.5893
  1954.3000      8.0043      2.4523      0.0250     11.9847     39.9922     15.0581
  1954.4000      8.0043      2.4544      0.0635     11.8516     37.6750     15.8955
  1954.5000      7.9756      2.4658      0.0617     11.1613     35.4409     16.6480
  1954.6000      7.9756      2.4778      0.0987     10.4334     35.1276     17.2493
  1954.7000      7.9756      2.4867      0.0838      9.8988     35.8516     18.0232
  1954.8000      7.9495      2.4943      0.0935      9.4383     36.2296     19.0215
  1954.9000      7.9495      2.5053      0.0837      8.7679     35.8475     19.9336
  1955.0000      7.9359      2.5277      0.0860      7.4146     36.6411     20.2693
  1955.1000      7.9359      2.5574      0.1426      5.6100     39.6343     20.0658
  1955.2000      7.9359      2.5812      0.1367      4.1694     42.6409     19.7920
  1955.3000      7.9318      2.5975      0.1286      3.1807     43.0976     19.8558
  1955.4000      7.9318      2.6030      0.1536      2.8493     41.9750     20.4834
  1955.5000      7.9371      2.5807      0.1325      4.1994     42.1052     21.1749
  1955.6000      7.9371      2.5306      0.0790      7.2349     43.6196     21.3594
