~Version Information
 VERS.                                  2.0 : CWLS LAS VERSION
 WRAP.                                   NO : WRAPING MODE
 SWARE .                 MController 2.5.0J : SOFTWARE VERSION
~Well Information
 WELL.                       Montoya 01-41V : WELL
 COMP.                Petrogulf Corporation : COMPANY
 FLD.                      Purgatoire River : FIELD
 LOC.                NE/NE Sec 01 T33S R68W : LOCATION
 DATE.                             08/21/05 : DATE(S) LOGGED
 SRVC.       BLANCO Geological Services LLC : SERVICE COMPANY
 STAT.                                   CO : STATE
 CNTY.                           Las Animas : COUNTY
 CTRY.                                  USA : COUNTRY
 API.                       05-071-08144-00 : API NUMBER
 STRT.FT                             719.00 : START DEPTH
 STOP.FT                            2945.00 : STOP DEPTH
 STEP.FT                               1.00 : DEPTH INCREMENT
 NULL.                                -9999 : NULL VALUE
~Curve information
 DEPTH.FT                                   :
 ROP.MIN/FT                                 :
 GAS.UNITS                                  :
~ASCII Log data
# ...
      2119.0         0.30          9.2 
      2120.0         0.35          9.8 
      2121.0         0.30         10.4 
      2122.0         0.37          9.5 
      2123.0         0.47          8.1 
      2124.0         0.23          6.3 
      2125.0         0.27          6.5 
      2126.0         0.27          7.6 
      2127.0         0.20          8.5 
      2128.0         0.27         13.3 
      2129.0         0.20         19.3 
      2130.0         0.20         33.5 
      2131.0         0.30         47.3 
      2132.0         3.87         54.4 
      2133.0         0.43          8.0 
      2134.0         0.37          7.9 
      2135.0         0.40          8.6 
      2136.0         0.53          7.5 
      2137.0         0.37          7.2 
      2138.0         0.37          7.3 
      2139.0         0.40          7.6 
      2140.0         0.35          7.4 
      2141.0         0.30          8.2 
      2142.0         0.27          7.5 
      2143.0         0.30          7.5 
      2144.0         0.30          8.1 
      2145.0         0.30          7.3 
      2146.0         0.30          7.4 
      2147.0         0.23          7.6 
      2148.0         0.33          7.3 
      2149.0         0.27          7.7 
      2150.0         0.30          7.6 
      2151.0         0.28          7.7 
      2152.0         0.30          7.9 
      2153.0         0.30          7.4 
      2154.0         0.23          6.6 
      2155.0         0.30          6.3 
      2156.0         0.23          6.0 
      2157.0         0.27          7.7 
      2158.0         0.27          8.6 
      2159.0         0.27         13.4 
      2160.0         0.27         21.4 
      2161.0         0.30         35.0 
      2162.0         3.32         56.2 
      2163.0         0.52          9.6 
      2164.0         0.43          9.0 
      2165.0         0.37          8.2 
      2166.0         0.37          8.7 
      2167.0         0.40          8.7 
      2168.0         0.40          7.4 
      2169.0         0.40          7.4 
      2170.0         0.37          7.1 
      2171.0         0.37          6.7 
      2172.0         0.35          7.7 
      2173.0         0.17          7.7 
      2174.0         0.40          8.4 
      2175.0         0.60          7.9 
      2176.0         0.37          7.2 
      2177.0         0.27          6.9 
      2178.0         0.27          7.7 
      2179.0         0.30          8.3 
      2180.0         0.27          7.6 
      2181.0         0.27          7.7 
      2182.0         0.27          8.4 
      2183.0         0.42          8.4 
      2184.0         0.27          7.3 
      2185.0         0.23          6.7 
      2186.0         0.40          6.5 
      2187.0         0.27          7.7 
      2188.0         0.33         16.9 
      2189.0         0.23         25.0 
      2190.0         0.23         25.5 
      2191.0         0.27         31.5 
      2192.0         2.45         30.4 
      2193.0         0.47         10.0 
      2194.0         0.40          8.2 
      2195.0         0.37          8.1 
      2196.0         0.27          7.5 
      2197.0         0.35          7.4 
      2198.0         0.33          6.6 
      2199.0         0.30          6.9 
      2200.0         0.30          6.8 
      2201.0         0.30          7.2 
      2202.0         0.37          7.6 
      2203.0         0.53          8.2 
      2204.0         0.37          7.5 
      2205.0         0.33          7.0 
      2206.0         0.25          7.7 
      2207.0         0.27          8.1 
      2208.0         0.30          9.7 
      2209.0         0.27         10.0 
      2210.0         0.23         10.1 
      2211.0         0.23          9.8 
      2212.0         0.23          8.6 
      2213.0         0.23          7.2 
      2214.0         0.27          6.3 
      2215.0         0.23          5.8 
      2216.0         0.23          7.2 
      2217.0         0.23          7.2 
      2218.0         0.25         11.1 
      2219.0         0.30         19.2 
      2220.0         0.30         34.9 
      2221.0         0.20         35.4 
      2222.0         3.22         30.6 
      2223.0         0.43          9.2 
      2224.0         0.27          7.9 
      2225.0         0.27          7.8 
      2226.0         0.30          7.5 
      2227.0         0.37          7.4 
      2228.0         0.43          7.1 
      2229.0         0.47          6.9 
      2230.0         0.48          6.6 
      2231.0         0.37          7.0 
      2232.0         0.33          7.2 
      2233.0         0.37          5.6 
      2234.0         0.27          5.6 
      2235.0         0.33          5.3 
      2236.0         0.33          6.3 
      2237.0         0.17          6.3 
      2238.0         0.33          7.7 
      2239.0         0.33          8.3 
      2240.0         0.28          7.4 
      2241.0         0.30          7.1 
      2242.0         0.37          7.1 
      2243.0         0.27          6.7 
      2244.0         0.27          7.3 
      2245.0         0.17          7.3 
      2246.0         0.27          9.0 
      2247.0         0.37         10.5 
      2248.0         0.27         13.0 
      2249.0         0.27         12.2 
      2250.0         0.33          9.5 
      2251.0         0.28         10.2 
      2252.0         7.23         46.8 
      2253.0         0.20         11.1 
      2254.0         0.20         11.1 
      2255.0         0.30         11.1 
      2256.0         0.37          9.9 
      2257.0         0.23          9.4 
      2258.0         0.33          9.2 
      2259.0         0.43          8.4 
      2260.0         0.43          8.2 
      2261.0         0.22          7.3 
      2262.0         0.37          8.3 
      2263.0         0.27          7.6 
      2264.0         0.33          7.4 
      2265.0         0.33          7.9 
      2266.0         0.37          7.0 
      2267.0         0.33          7.5 
      2268.0         0.17          6.9 
      2269.0         0.23          7.2 
      2270.0         0.23          7.2 
      2271.0         0.30          7.4 
      2272.0         0.30          7.0 
      2273.0         0.32          6.7 
      2274.0         0.27          6.0 
      2275.0         0.27          6.1 
      2276.0         0.27          5.9 
      2277.0         0.27          6.0 
      2278.0         0.27          7.7 
      2279.0         0.27          9.7 
      2280.0         0.27         12.4 
      2281.0         0.37         17.2 
      2282.0         2.98         54.8 
      2283.0         0.30          9.2 
      2284.0         0.30          9.0 
      2285.0         0.30          9.2 
      2286.0         0.32         10.1 
      2287.0         0.30          8.6 
      2288.0         0.33          8.0 
      2289.0         0.37          7.5 
      2290.0         0.47          7.4 
      2291.0         0.57          7.6 
      2292.0         0.37          6.8 
      2293.0         0.30          6.8 
      2294.0         0.30          7.0 
      2295.0         0.35          6.9 
      2296.0         0.33          7.6 
      2297.0         0.37          6.9 
      2298.0         0.43          7.1 
      2299.0         0.30          6.9 
      2300.0         0.27          7.0 
      2301.0         0.30          6.8 
      2302.0         0.30          7.4 
      2303.0         0.27          7.3 
      2304.0         0.27          7.1 
      2305.0         0.20          6.1 
      2306.0         0.45          5.8 
      2307.0         0.23          6.6 
      2308.0         0.27          7.2 
      2309.0         0.20          7.2 
      2310.0         0.23          9.4 
      2311.0         0.27         12.1 
      2312.0         2.85         43.5 
      2313.0         0.43         12.7 
      2314.0         0.60         12.7 
      2315.0         0.37         10.1 
      2316.0         0.30          8.9 
      2317.0         0.33          8.5 
      2318.0         0.33          8.1 
