~Version Information
VERS.                      2.0: CWLS Log ASCII Standard - VERSION 2.0
WRAP.                       NO: One line per depth step
~Well Information Block
STRT.FT               -10.3000: 
STOP.FT              1936.7000: 
STEP.FT                 0.1000: 
NULL.                -999.2500: 
COMP.          Petrogulf Corporation: COMPANY
WELL.              Graff 9-31R: WELL
FLD.           Purgatorie River: FIELD
LOC.           707' FNL & 1713' FEL------: LOCATION
CNTY.               Las Animas: COUNTY
SRVC.                         : SERVICE COMPANY
DATE.          Wed Nov 17 13:41:51 2004: LOG DATE
UWI.                          : UNIQUE WELL ID
STAT.                       CO: STATE
~Curve Information Block
DEPT.FT            0 000 00 00: Depth
GR.GAPI                       : Gamma Ray
CCL.                          : Casing Collar Locator
TT3.usec                      : CBL 3' Travel Time
AMP3.mV                       : CBL 3' Amplitude
~Parameter Information Block
~A  Depth        GR         CCL         TT3         AMP3    
# ...
  1142.1000    118.1857      0.0000    755.9132      8.6559
  1142.2000    118.1857      0.0000    755.9132      8.6559
  1142.3000    117.3323      0.0000    752.5292      8.6564
  1142.4000    117.3323      0.0000    752.5292      8.6564
  1142.5000    115.4491      0.0000    750.9315      8.6888
  1142.6000    115.4491      0.0000    750.9315      8.6888
  1142.7000    115.4491      0.0000    750.9315      8.6888
  1142.8000    111.6572      0.0000    750.3238      8.7505
  1142.9000    111.6572      0.0000    750.3238      8.7505
  1143.0000    106.4491      0.0000    750.2269      8.8184
  1143.1000    106.4491      0.0000    750.2269      8.8184
  1143.2000    106.4491      0.0000    750.2269      8.8184
  1143.3000    101.2396      0.0000    750.3959      8.8700
  1143.4000    101.2396      0.0000    750.3959      8.8700
  1143.5000     97.1532      0.0000    750.6737      8.9011
  1143.6000     97.1532      0.0000    750.6737      8.9011
  1143.7000     97.1532      0.0000    750.6737      8.9011
  1143.8000     94.0049      0.0000    750.9518      8.9232
  1143.9000     94.0049      0.0000    750.9518      8.9232
  1144.0000     90.2776      0.0000    751.1873      8.9474
  1144.1000     90.2776      0.0000    751.1873      8.9474
  1144.2000     90.2776      0.0000    751.1873      8.9474
  1144.3000     84.2462      0.0000    751.3983      8.9723
  1144.4000     84.2462      0.0000    751.3983      8.9723
  1144.5000     75.4452      0.0000    751.6156      8.9909
  1144.6000     75.4452      0.0000    751.6156      8.9909
  1144.7000     75.4452      0.0000    751.6156      8.9909
  1144.8000     65.2620      0.0000    751.8317      9.0040
  1144.9000     65.2620      0.0000    751.8317      9.0040
  1145.0000     56.1289      0.0000    751.9846      9.0240
  1145.1000     56.1289      0.0000    751.9846      9.0240
  1145.2000     56.1289      0.0000    751.9846      9.0240
  1145.3000     50.0735      0.0000    751.9960      9.0657
  1145.4000     50.0735      0.0000    751.9960      9.0657
  1145.5000     47.7267      0.0000    751.8266      9.1383
  1145.6000     47.7267      0.0000    751.8266      9.1383
  1145.7000     47.7267      0.0000    751.8266      9.1383
  1145.8000     48.2150      0.0000    751.4954      9.2387
  1145.9000     48.2150      0.0000    751.4954      9.2387
  1146.0000     49.7622      0.0000    751.0605      9.3507
  1146.1000     49.7622      0.0000    751.0605      9.3507
  1146.2000     49.7622      0.0000    751.0605      9.3507
  1146.3000     50.7038      0.0000    750.6065      9.4561
  1146.4000     50.7038      0.0000    750.6065      9.4561
  1146.5000     50.4555      0.0000    750.2406      9.5501
  1146.6000     50.4555      0.0000    750.2406      9.5501
  1146.7000     50.4555      0.0000    750.2406      9.5501
  1146.8000     49.7827      0.0000    750.0886      9.6406
  1146.9000     49.7827      0.0000    750.0886      9.6406
  1147.0000     50.0774      0.0000    750.3032      9.7315
  1147.1000     50.0774      0.0000    750.3032      9.7315
  1147.2000     50.0774      0.0000    750.3032      9.7315
  1147.3000     52.2281      0.0000    751.1210      9.8104
  1147.4000     52.2281      0.0000    751.1210      9.8104
  1147.5000     55.9862      0.0000    752.8116      9.8538
  1147.6000     55.9862      0.0000    752.8116      9.8538
  1147.7000     55.9862      0.0000    752.8116      9.8538
  1147.8000     60.3862      0.0000    755.2986      9.8465
  1147.9000     60.3862      0.0000    755.2986      9.8465
  1148.0000     65.0418      0.0000    757.7294      9.7974
  1148.1000     65.0418      0.0000    757.7294      9.7974
  1148.2000     65.0418      0.0000    757.7294      9.7974
  1148.3000     71.1187      0.0000    758.7971      9.7347
  1148.4000     71.1187      0.0000    758.7971      9.7347
  1148.5000     80.4869      0.0000    757.8623      9.6805
  1148.6000     80.4869      0.0000    757.8623      9.6805
  1148.7000     80.4869      0.0000    757.8623      9.6805
  1148.8000     93.4311      0.0000    755.5735      9.6329
  1148.9000     93.4311      0.0000    755.5735      9.6329
  1149.0000    107.4881      0.0000    753.0193      9.5759
  1149.1000    107.4881      0.0000    753.0193      9.5759
  1149.2000    107.4881      0.0000    753.0193      9.5759
  1149.3000    119.0807      0.0000    750.2379      9.5017
  1149.4000    119.0807      0.0000    750.2379      9.5017
  1149.5000    126.2597      0.0000    745.3297      9.4168
  1149.6000    126.2597      0.0000    745.3297      9.4168
  1149.7000    126.2597      0.0000    745.3297      9.4168
  1149.8000    129.7540      0.0000    734.6907      9.3345
  1149.9000    129.7540      0.0000    734.6907      9.3345
  1150.0000    131.7318      0.0000    714.8190      9.2660
  1150.1000    131.7318      0.0000    714.8190      9.2660
  1150.2000    131.7318      0.0000    714.8190      9.2660
  1150.3000    134.0005      0.0000    685.4335      9.2185
  1150.4000    134.0005      0.0000    685.4335      9.2185
  1150.5000    137.2599      0.0000    651.3259      9.1952
  1150.6000    137.2599      0.0000    651.3259      9.1952
  1150.7000    137.2599      0.0000    651.3259      9.1952
  1150.8000    141.2552      0.0000    620.2219      9.1981
  1150.9000    141.2552      0.0000    620.2219      9.1981
  1151.0000    144.9624      0.0000    598.1259      9.2281
  1151.1000    144.9624      0.0000    598.1259      9.2281
  1151.2000    144.9624      0.0000    598.1259      9.2281
  1151.3000    146.9659      0.0000    586.5050      9.2813
  1151.4000    146.9659      0.0000    586.5050      9.2813
  1151.5000    146.4409      0.0000    582.9829      9.3462
  1151.6000    146.4409      0.0000    582.9829      9.3462
  1151.7000    146.4409      0.0000    582.9829      9.3462
  1151.8000    143.9261      0.0000    583.7385      9.4042
  1151.9000    143.9261      0.0000    583.7385      9.4042
  1152.0000    140.9025      0.0000    585.6054      9.4395
  1152.1000    140.9025      0.0000    585.6054      9.4395
  1152.2000    140.9025      0.0000    585.6054      9.4395
  1152.3000    138.7081      0.0000    587.0346      9.4502
  1152.4000    138.7081      0.0000    587.0346      9.4502
  1152.5000    137.9212      0.0000    587.8735      9.4480
  1152.6000    137.9212      0.0000    587.8735      9.4480
  1152.7000    137.9212      0.0000    587.8735      9.4480
  1152.8000    138.2950      0.0000    588.7135      9.4466
  1152.9000    138.2950      0.0000    588.7135      9.4466
  1153.0000    138.7257      0.0000    590.6657      9.4548
  1153.1000    138.7257      0.0000    590.6657      9.4548
  1153.2000    138.7257      0.0000    590.6657      9.4548
  1153.3000    137.5678      0.0000    595.6982      9.4785
  1153.4000    137.5678      0.0000    595.6982      9.4785
  1153.5000    133.9034      0.0000    606.3811      9.5243
  1153.6000    133.9034      0.0000    606.3811      9.5243
  1153.7000    133.9034      0.0000    606.3811      9.5243
  1153.8000    128.9012      0.0000    623.6819      9.5946
  1153.9000    128.9012      0.0000    623.6819      9.5946
  1154.0000    125.4211      0.0000    643.8835      9.6823
  1154.1000    125.4211      0.0000    643.8835      9.6823
  1154.2000    125.4211      0.0000    643.8835      9.6823
  1154.3000    125.7644      0.0000    659.1975      9.7739
  1154.4000    125.7644      0.0000    659.1975      9.7739
  1154.5000    129.8808      0.0000    664.0937      9.8581
  1154.6000    129.8808      0.0000    664.0937      9.8581
  1154.7000    129.8808      0.0000    664.0937      9.8581
  1154.8000    135.7770      0.0000    660.9076      9.9304
  1154.9000    135.7770      0.0000    660.9076      9.9304
  1155.0000    141.2249      0.0000    657.0256      9.9915
  1155.1000    141.2249      0.0000    657.0256      9.9915
  1155.2000    141.2249      0.0000    657.0256      9.9915
  1155.3000    144.7775      0.0000    656.6665     10.0429
  1155.4000    144.7775      0.0000    656.6665     10.0429
