~Version Information
VERS.                      2.0: CWLS Log ASCII Standard - VERSION 2.0
WRAP.                       NO: One line per depth step
~Well Information Block
STRT.FT               590.0000: 
STOP.FT              1563.5000: 
STEP.FT                 0.2500: 
NULL.                -999.2500: 
COMP.          Petrogulf Corporation: COMPANY
WELL.             State 16-43R: WELL
FLD.           Purgatorie River: FIELD
LOC.           2538' FSL & 716' FEL: LOCATION
PROV.                 Colorado: PROVINCE
CNTY.               Las Animas: COUNTRY
SRVC.                Patterson: SERVICE COMPANY
DATE.          Tue Aug 09 14:21:37 2005: LOG DATE
UWI.                          : UNIQUE WELL ID
~Curve Information Block
DEPT.FT            0 000 00 00: Depth
RILD.Ohm-m                    : DIL Deep Resistivity
RILM.Ohm-m                    : DIL Medium Resistivity
GR.GAPI                       : Gamma Ray
~Parameter Information Block
~A  Depth       RILD        RILM         GR     
   590.0000     12.8062   -999.2500     89.2464
   590.2500     12.0674   -999.2500     96.1187
   590.5000     12.7628   -999.2500     96.3891
   590.7500     13.0521   -999.2500     94.4137
   591.0000     13.1344 100000.0000     95.7127
   591.2500     13.1913 100000.0000     98.2722
   591.5000     13.0567 100000.0000     97.0236
   591.7500     13.1372 100000.0000     98.8000
   592.0000     13.1152 100000.0000     88.8748
   592.2500     12.9835 100000.0000     86.1471
   592.5000     12.9181 100000.0000     89.5615
   592.7500     13.0700 100000.0000     90.6615
   593.0000     13.7623 100000.0000     85.6536
   593.2500     14.2863 100000.0000     84.8613
   593.5000     16.1734 100000.0000     75.8323
   593.7500     16.3617 100000.0000     77.9784
   594.0000     16.5595 100000.0000     83.6023
   594.2500     16.4648 100000.0000     86.0097
   594.5000     16.5027 100000.0000     82.7179
   594.7500     15.9812 100000.0000     80.2498
   595.0000     15.5207 100000.0000     78.5528
   595.2500     13.2937 100000.0000     74.9733
   595.5000     11.7270 100000.0000     74.7444
   595.7500     13.5926 100000.0000     71.8620
   596.0000     17.7058 100000.0000     79.0295
   596.2500     21.0161 100000.0000     74.7522
   596.5000     21.9213 100000.0000     74.0467
   596.7500     21.1587 100000.0000     78.8368
   597.0000     21.1767 100000.0000     73.7794
   597.2500     19.7356 100000.0000     75.8518
   597.5000     19.7032 100000.0000     78.6379
   597.7500     17.8742 100000.0000     75.8805
   598.0000     16.1508 100000.0000     73.4744
   598.2500     17.8099 100000.0000     71.1623
   598.5000     30.4786 100000.0000     66.0318
   598.7500    103.1359 100000.0000     65.9078
   599.0000 100000.0000 100000.0000     59.8126
   599.2500     59.4340 100000.0000     57.6849
   599.5000     19.8437 100000.0000     55.7015
   599.7500     14.4779 100000.0000     53.1347
   600.0000     13.3161 100000.0000     49.8561
   600.2500     13.6493 100000.0000     49.4984
   600.5000     13.4146 100000.0000     49.4302
   600.7500     13.2372 100000.0000     48.7159
   601.0000     12.3521 100000.0000     50.4918
   601.2500     11.0691 100000.0000     55.6670
   601.5000     14.6714 100000.0000     59.4969
   601.7500 100000.0000 100000.0000     59.8033
   602.0000 100000.0000 100000.0000     63.4823
   602.2500 100000.0000 100000.0000     69.9715
   602.5000     15.8611 100000.0000     84.8587
   602.7500      5.2906 100000.0000     97.5731
   603.0000      4.5702 100000.0000    109.5775
   603.2500      5.3259 100000.0000    120.1923
   603.5000      6.1202 100000.0000    120.3157
   603.7500      6.5532 100000.0000    123.1307
   604.0000      6.8658 100000.0000    130.3362
   604.2500      7.4948 100000.0000    127.7045
   604.5000     16.3066 100000.0000    113.5224
   604.7500 100000.0000 100000.0000    103.9156
   605.0000      6.6540 100000.0000     90.3281
   605.2500      2.2384 100000.0000     88.2291
   605.5000      1.3617 100000.0000     89.6197
   605.7500      1.7326 100000.0000     88.9634
   606.0000      3.9387      3.0012    101.4766
   606.2500     10.4217      2.9437    113.1045
   606.5000     24.0087      5.8139    128.9698
   606.7500     53.1830     28.5265    139.7326
   607.0000    150.7230     28.3149    189.5145
   607.2500 100000.0000     16.3051    187.4919
   607.5000 100000.0000     13.7071    162.4659
   607.7500 100000.0000     13.3139    150.4257
   608.0000 100000.0000     12.7851    135.1265
   608.2500 100000.0000     13.5925    135.9327
   608.5000     19.5371     19.2591    129.1434
   608.7500     13.0497 100000.0000    127.2062
   609.0000     14.0321 100000.0000    125.3416
   609.2500     14.8111     27.5400    125.3194
   609.5000     15.2436     18.9068    128.1772
   609.7500     16.2517     17.4946    127.2057
   610.0000     16.7886     16.9093    119.9135
   610.2500     17.4467     18.3052    118.3014
   610.5000     17.9117     19.2833    113.6873
   610.7500     20.0240     18.6903    108.7166
   611.0000     24.5889     16.5670    107.6990
   611.2500     20.4517     15.7824    105.8820
   611.5000     18.5545     14.9956    108.6517
   611.7500     17.6386     13.5976    102.8479
   612.0000     17.1352     15.0880    113.9394
   612.2500     16.5901     16.3607    122.1543
   612.5000     16.5614     16.1286    122.1436
   612.7500     16.3948     15.8335    125.0384
   613.0000     16.3379     15.1097    121.5292
   613.2500     16.5266     14.4479    129.0017
   613.5000     16.2645     14.1269    136.9638
   613.7500     16.1429     14.2750    143.8000
   614.0000     16.5261     14.2138    147.4719
   614.2500     16.3301     14.4938    136.0079
   614.5000     15.7089     14.7438    133.6736
   614.7500     15.2576     14.3889    131.2227
   615.0000     15.1928     14.3325    119.7506
   615.2500     14.9126     14.5697    126.3742
   615.5000     14.6592     14.9354    131.4154
   615.7500     14.7326     15.0621    130.5452
   616.0000     14.4343     15.3449    135.3019
   616.2500     14.7247     15.0880    138.0657
   616.5000     14.8060     14.9519    150.3104
   616.7500     15.0456     14.6490    154.1534
   617.0000     15.2290     14.4757    148.9453
   617.2500     15.3205     14.8732    145.2394
   617.5000     15.4007     14.9748    145.2844
   617.7500     15.1440     14.3536    145.9100
   618.0000     14.7718     14.3487    138.2666
   618.2500     14.3491     14.3309    137.8636
   618.5000     14.1269     14.1550    140.3074
   618.7500     14.2748     13.7738    146.7746
   619.0000     13.8927     13.6695    148.6870
   619.2500     13.4771     13.8518    148.6681
   619.5000     13.6759     13.5512    152.8782
   619.7500     13.5377     13.5566    150.5925
   620.0000     13.7673     13.6901    156.6921
   620.2500     13.4072     13.2584    158.9740
   620.5000     12.8806     13.0475    164.7660
   620.7500     12.5408     12.9468    167.1132
   621.0000     12.7105     12.8731    155.3455
   621.2500     12.5454     12.5062    151.3398
   621.5000     12.5859     12.1753    150.0549
   621.7500     12.3178     12.1478    156.4695
   622.0000     12.1240     11.7828    146.6884
   622.2500     11.7842     11.6306    144.7759
   622.5000     11.5178     11.3020    151.7294
   622.7500     11.4103     11.2210    143.0043
   623.0000     11.4328     11.3870    149.4467
   623.2500     11.3565     11.1214    150.9818
   623.5000     11.0467     11.0135    156.2888
   623.7500     10.9230     10.7952    146.5701
   624.0000     10.8436     10.8094    149.4308
   624.2500     10.6958     10.8849    147.3340
   624.5000     10.5955     10.9562    142.1542
   624.7500     10.7204     10.7174    146.0522
   625.0000     10.6387     10.7392    140.6627
   625.2500     11.0513     10.5018    147.3134
   625.5000     10.9813     10.5534    150.2575
   625.7500     10.9505     10.5043    155.6608
   626.0000     10.8462     10.6780    149.6655
   626.2500     11.0334     11.0008    144.0791
   626.5000     10.4719     11.1811    147.4664
   626.7500     10.9355     11.1990    151.0984
   627.0000     11.2140     11.0966    152.2651
   627.2500     11.1814     11.3553    160.9338
   627.5000     11.1730     11.5848    164.2188
   627.7500     11.1244     11.4162    160.0086
   628.0000     11.2412     11.4879    166.6664
   628.2500     11.4945     11.6132    161.7524
   628.5000     11.9260     11.5247    159.6240
   628.7500     12.3461     11.7407    154.4469
   629.0000     12.4547     11.4947    155.3585
   629.2500     12.8563     11.7891    147.8763
   629.5000     13.3076     12.4895    145.5974
   629.7500     13.9718     13.3428    144.0301
   630.0000     14.2659     13.9909    132.9706
   630.2500     14.0213     15.8629    128.5461
   630.5000     14.9862     16.4026    129.5746
   630.7500     16.2059     16.9811    122.2233
   631.0000     17.0077     17.9434    107.4800
   631.2500     18.0841     19.6680     99.8643
   631.5000     18.1256     22.1051     94.9842
