~Version Information
VERS.                      2.0: CWLS Log ASCII Standard - VERSION 2.0
WRAP.                       NO: One line per depth step
~Well Information Block
STRT.FT               630.0000: 
STOP.FT              1155.5000: 
STEP.FT                 0.1000: 
NULL.                -999.2500: 
COMP.          Pioneer Natural Resources: COMPANY
WELL.          Drewmeister 34-34: WELL
FLD.           Purgatoire River: FIELD
LOC.           958' FSL & 1857' FEL: LOCATION
STAT.                 Colorado: State
CNTY.               Las Animas: COUNTY
CTRY. USA : Country
SECT. 34 : Section
TOWN. 32S : Township
RANG. 65W : Range
SRVC.                Patterson: SERVICE COMPANY
DATE.          Tue Oct 04 08:23:16 2005: LOG DATE
API.           05 071 08131 00: UNIQUE WELL ID
~Curve Information Block
DEPT.FT            0 000 00 00: Depth
DCAL.in                       : CDL Caliper
RHOB.g/cc                     : CDL Bulk Density
RHOC.g/cc                     : CDL Density Correction
DPOR.pu                       : CDL Density Porosity
GR.GAPI                       : Gamma Ray
NPOR.pu                       : Neutron Porosity
~Parameter Information Block
~A  Depth       DCAL        RHOB        RHOC        DPOR         GR         NPOR    
   630.0000      3.3884      2.1731      0.1345     28.9053     56.6267     14.0478
   630.1000      3.3884      2.2120      0.1738     26.5482     60.1934     13.8422
   630.2000      3.3884      2.2406      0.2192     24.8140     63.1237     13.9713
   630.3000      3.3866      2.2540      0.2175     24.0013     61.0057     14.4966
   630.4000      3.3866      2.2547      0.1812     23.9547     55.6864     15.2706
   630.5000      3.3838      2.2497      0.1425     24.2616     52.7620     15.7110
   630.6000      3.3838      2.2452      0.1308     24.5305     53.2220     15.5763
   630.7000      3.3838      2.2488      0.1481     24.3150     53.2715     15.5983
   630.8000      3.3817      2.2610      0.1267     23.5728     54.6307     16.0919
   630.9000      3.3817      2.2701      0.1676     23.0232     58.4799     16.5248
   631.0000      3.3795      2.2669      0.1009     23.2182     59.8447     16.6407
   631.1000      3.3795      2.2564      0.0960     23.8559     58.7796     16.3482
   631.2000      3.3795      2.2451      0.0721     24.5394     59.7027     16.0556
   631.3000      3.3766      2.2386      0.0669     24.9359     63.1453     16.3139
   631.4000      3.3766      2.2413      0.0737     24.7714     65.3044     16.7502
   631.5000      3.3741      2.2526      0.0538     24.0829     61.2417     16.7434
   631.6000      3.3741      2.2675      0.0655     23.1846     53.2701     16.3575
   631.7000      3.3741      2.2735      0.0982     22.8190     49.8270     16.0385
   631.8000      3.3731      2.2657      0.0560     23.2907     54.4968     15.8422
   631.9000      3.3731      2.2575      0.0157     23.7901     62.1407     15.5836
   632.0000      3.3722      2.2601     -0.0061     23.6304     68.3366     15.1769
   632.1000      3.3722      2.2646      0.0471     23.3564     71.3538     14.7516
   632.2000      3.3722      2.2591      0.0028     23.6908     69.4145     14.5727
   632.3000      3.3711      2.2496     -0.0035     24.2637     64.5217     14.6712
   632.4000      3.3711      2.2480      0.0038     24.3665     58.3053     14.8827
   632.5000      3.3709      2.2567     -0.0015     23.8351     51.7548     14.8248
   632.6000      3.3709      2.2674      0.0357     23.1890     49.0130     14.5583
   632.7000      3.3709      2.2733     -0.0149     22.8328     52.8696     14.5426
   632.8000      3.3730      2.2780     -0.0118     22.5460     59.1124     14.6323
   632.9000      3.3730      2.2815     -0.0133     22.3311     61.8395     14.5129
   633.0000      3.3993      2.2810     -0.0350     22.3640     61.5212     14.3736
   633.1000      3.3993      2.2781     -0.0395     22.5411     62.1826     14.3183
   633.2000      3.3993      2.2782     -0.0377     22.5340     63.6621     14.3622
   633.3000      3.6612      2.2862     -0.0397     22.0458     64.4384     14.7914
   633.4000      3.6612      2.2994     -0.0184     21.2506     65.5566     15.5113
   633.5000      4.8208      2.3231     -0.0386     19.8097     66.8660     15.8617
   633.6000      4.8208      2.3925     -0.0530     15.6057     66.1758     15.7543
   633.7000      4.8208      2.5125      0.0024      8.3340     63.5493     15.4684
   633.8000      6.7525      2.6194      0.0320      1.8559     60.6791     15.0570
   633.9000      6.7525      2.6656      0.0542     -0.9458     59.2095     15.0656
   634.0000      7.9535      2.6627      0.0146     -0.7721     62.3658     15.5292
   634.1000      7.9535      2.6239      0.0192      1.5818     67.7507     15.6400
   634.2000      7.9535      2.5300      0.0620      7.2757     70.3337     15.4008
   634.3000      8.2380      2.3945     -0.3543     15.4847     70.6849     15.2903
   634.4000      8.2380      2.2819     -0.4327     22.3073     69.1788     15.0396
   634.5000      8.2651      2.2192     -0.4361     26.1084     66.4765     14.5826
   634.6000      8.2651      2.1876     -0.4800     28.0236     66.9540     14.4113
   634.7000      8.2651      2.1727     -0.5202     28.9294     70.2100     14.5470
   634.8000      8.2666      2.1696     -0.4586     29.1151     70.8471     14.7477
   634.9000      8.2666      2.1701     -0.4648     29.0826     68.2739     14.8388
   635.0000      8.2670      2.1698     -0.4639     29.1003     66.1114     15.1100
   635.1000      8.2670      2.1730     -0.4601     28.9084     66.5409     15.6710
   635.2000      8.2670      2.1789     -0.4989     28.5519     67.9935     15.7953
   635.3000      8.2675      2.1893     -0.4657     27.9224     68.2076     15.3706
   635.4000      8.2675      2.2173     -0.4661     26.2262     66.4455     15.2984
   635.5000      8.2679      2.2585     -0.3823     23.7252     63.5897     15.7067
   635.6000      8.2679      2.2858     -0.3696     22.0702     60.5358     15.8328
   635.7000      8.2679      2.2890     -0.4552     21.8795     59.0864     15.3995
   635.8000      8.2682      2.2820     -0.3813     22.3031     61.7835     15.0378
   635.9000      8.2682      2.2706     -0.4012     22.9928     65.0978     15.0649
   636.0000      8.2680      2.2584     -0.4316     23.7335     63.3758     14.9701
   636.1000      8.2680      2.2540     -0.4426     23.9972     57.2492     14.4458
   636.2000      8.2680      2.2550     -0.4385     23.9364     52.3286     14.0282
   636.3000      8.2674      2.2568     -0.4297     23.8284     52.8960     14.0585
   636.4000      8.2674      2.2611     -0.4397     23.5681     58.3195     14.1626
   636.5000      8.2665      2.2610     -0.4251     23.5747     65.6110     14.1905
   636.6000      8.2665      2.2498     -0.4388     24.2560     70.5285     14.2921
   636.7000      8.2665      2.2404     -0.4914     24.8256     69.9785     14.3568
   636.8000      8.2660      2.2417     -0.4364     24.7444     65.4252     14.2216
   636.9000      8.2660      2.2483     -0.4344     24.3474     60.4076     14.2504
   637.0000      8.2667      2.2588     -0.4101     23.7119     59.7487     14.3094
   637.1000      8.2667      2.2718     -0.4074     22.9210     67.0150     13.7916
   637.2000      8.2667      2.2813     -0.3947     22.3462     77.1241     13.1398
   637.3000      8.2674      2.2788     -0.3990     22.4955     80.0407     13.1393
   637.4000      8.2674      2.2637     -0.4464     23.4116     73.7124     13.6224
   637.5000      8.2673      2.2487     -0.4343     24.3221     66.7661     13.8346
   637.6000      8.2673      2.2430     -0.4314     24.6692     66.3799     13.6739
   637.7000      8.2673      2.2450     -0.4483     24.5464     71.0948     13.7283
   637.8000      8.2673      2.2511     -0.4440     24.1729     75.8498     13.8211
   637.9000      8.2673      2.2604     -0.4554     23.6119     78.4861     13.4960
   638.0000      8.2669      2.2727     -0.4330     22.8655     75.5395     13.2239
   638.1000      8.2669      2.2864     -0.4780     22.0347     67.5107     13.1891
   638.2000      8.2669      2.2968     -0.4062     21.4090     63.5438     12.9531
   638.3000      8.2656      2.3016     -0.4198     21.1133     67.8837     12.7626
   638.4000      8.2656      2.3026     -0.4172     21.0574     73.0568     13.0594
   638.5000      8.2631      2.2938     -0.4391     21.5871     73.3878     13.2152
   638.6000      8.2631      2.2677     -0.4736     23.1712     72.4573     12.8847
   638.7000      8.2631      2.2316     -0.5024     25.3566     73.0267     13.0683
   638.8000      8.2613      2.2052     -0.5162     26.9582     70.8322     14.5187
   638.9000      8.2613      2.1975     -0.5144     27.4233     64.7741     16.2648
   639.0000      8.2636      2.2068     -0.5177     26.8621     60.0470     17.1934
   639.1000      8.2636      2.2268     -0.4644     25.6492     59.2958     17.5078
   639.2000      8.2636      2.2436     -0.4587     24.6312     59.4885     17.2537
   639.3000      8.2667      2.2484     -0.5018     24.3412     58.5720     16.5047
   639.4000      8.2667      2.2371     -0.4132     25.0217     59.1237     15.8155
   639.5000      8.2684      2.2042     -0.4617     27.0167     63.0352     15.5645
