~Version Information
VERS.                      2.0: CWLS Log ASCII Standard - VERSION 2.0
WRAP.                       NO: One line per depth step
~Well Information Block
STRT.FT               430.0000: 
STOP.FT              2417.0000: 
STEP.FT                 0.2500: 
NULL.                -999.2500: 
COMP.          Evergreen Operating Corporation: COMPANY
WELL.          McCullough 34-32: WELL
FLD.           Purgatorie River: FIELD
LOC.           261' FSL & 2098' FEL: LOCATION
PROV.                 Colorado: PROVINCE
CNTY.               Las Animas: COUNTRY
SRVC.                Patterson: SERVICE COMPANY
DATE.          Sun May 16 02:33:07 2004: LOG DATE
UWI.           05 071 07953 00: UNIQUE WELL ID
~Curve Information Block
DEPT.FT            0 000 00 00: Depth
SN.Ohm-m                      : IEL Short Normal
SP.mV                         : IEL Spontaneous Potential
DIR.Ohm-m                     : IEL Induction Resistivity
GR.GAPI                       : Gamma Ray
~Parameter Information Block
~A  Depth        SN          SP         DIR          GR     
# ...
   564.0000   2000.0000   2000.0000     23.9324    109.4670
   564.2500   2000.0000   2000.0000     22.2833    108.7940
   564.5000   2000.0000   2000.0000     20.5694    107.9767
   564.7500   2000.0000   2000.0000     18.9530    107.4434
   565.0000   2000.0000   2000.0000     17.5302    107.3618
   565.2500   2000.0000   2000.0000     16.3335    108.4847
   565.5000   2000.0000   2000.0000     15.3414    112.8578
   565.7500   2000.0000   2000.0000     14.4990    117.6283
   566.0000   2000.0000   2000.0000     13.7469    126.5931
   566.2500   2000.0000   2000.0000     13.0495    132.7018
   566.5000   2000.0000   2000.0000     12.4070    140.1460
   566.7500   2000.0000   2000.0000     11.8423    143.2501
   567.0000   2000.0000   2000.0000     11.3772    144.9764
   567.2500   2000.0000   2000.0000     11.0158    144.7291
   567.5000   2000.0000   2000.0000     10.7453    144.0013
   567.7500   2000.0000   2000.0000     10.5489    144.3542
   568.0000   2000.0000   2000.0000     10.4186    147.2761
   568.2500   2000.0000   2000.0000     10.3571    150.8675
   568.5000   2000.0000   2000.0000     10.3703    157.8820
   568.7500   2000.0000   2000.0000     10.4561    162.8027
   569.0000   2000.0000   2000.0000     10.5998    168.7071
   569.2500   2000.0000   2000.0000     10.7784    170.4398
   569.5000   2000.0000   2000.0000     10.9707    168.0771
   569.7500   2000.0000   2000.0000     11.1665    163.1131
   570.0000   2000.0000   2000.0000     11.3664    152.5161
   570.2500   2000.0000   2000.0000     11.5745    145.2011
   570.5000   2000.0000   2000.0000     11.7907    136.5115
   570.7500   2000.0000   2000.0000     12.0089    132.8434
   571.0000   2000.0000   2000.0000     12.2220    130.0194
   571.2500   2000.0000   2000.0000     12.4272    129.2248
   571.5000   2000.0000   2000.0000     12.6293    128.6421
   571.7500   2000.0000   2000.0000     12.8414    128.4047
   572.0000   2000.0000   2000.0000     13.0832    128.4828
   572.2500   2000.0000   2000.0000     13.3737    129.1219
   572.5000   2000.0000   2000.0000     13.7170    131.1951
   572.7500   2000.0000   2000.0000     14.0872    133.1666
   573.0000   2000.0000   2000.0000     14.4255    136.5764
   573.2500   2000.0000   2000.0000     14.6634    138.9618
   573.5000   2000.0000   2000.0000     14.7622    142.2428
   573.7500   2000.0000   2000.0000     14.7354    143.7557
   574.0000   2000.0000   2000.0000     14.6335    144.3774
   574.2500   2000.0000   2000.0000     14.5092    143.8499
   574.5000   2000.0000   2000.0000     14.3958    142.6691
   574.7500   2000.0000   2000.0000     14.3053    142.1316
   575.0000   2000.0000   2000.0000     14.2331    141.8934
   575.2500   2000.0000   2000.0000     14.1640    142.0426
   575.5000   2000.0000   2000.0000     14.0810    142.7963
   575.7500   2000.0000   2000.0000     13.9776    143.7282
   576.0000   2000.0000   2000.0000     13.8622    145.4633
   576.2500   2000.0000   2000.0000     13.7504    146.3582
   576.5000   2000.0000   2000.0000     13.6490    146.4974
   576.7500   2000.0000   2000.0000     13.5499    145.6893
   577.0000   2000.0000   2000.0000     13.4366    143.7729
   577.2500   2000.0000   2000.0000     13.2992    142.7270
   577.5000   2000.0000   2000.0000     13.1419    142.7862
   577.7500   2000.0000   2000.0000     12.9786    144.3029
   578.0000   2000.0000   2000.0000     12.8227    148.1681
   578.2500   2000.0000   2000.0000     12.6795    150.8160
   578.5000   2000.0000   2000.0000     12.5463    153.5183
   578.7500   2000.0000   2000.0000     12.4163    154.5131
   579.0000   2000.0000   2000.0000     12.2829    155.8945
   579.2500   2000.0000   2000.0000     12.1429    157.0942
   579.5000   2000.0000   2000.0000     11.9984    158.4768
   579.7500   2000.0000   2000.0000     11.8575    158.2227
   580.0000   2000.0000   2000.0000     11.7338    155.3824
   580.2500   2000.0000   2000.0000     11.6430    152.3192
   580.5000   2000.0000   2000.0000     11.5989    147.5641
   580.7500   2000.0000   2000.0000     11.6121    144.9491
   581.0000   2000.0000   2000.0000     11.6917    141.7975
   581.2500   2000.0000   2000.0000     11.8439    139.7916
   581.5000   2000.0000   2000.0000     12.0669    136.6591
   581.7500   2000.0000   2000.0000     12.3426    134.7278
   582.0000   2000.0000   2000.0000     12.6365    132.3717
   582.2500   2000.0000   2000.0000     12.9093    131.0363
   582.5000   2000.0000   2000.0000     13.1357    129.1776
   582.7500   2000.0000   2000.0000     13.3155    128.1956
   583.0000   2000.0000   2000.0000     13.4701    127.5280
   583.2500   2000.0000   2000.0000     13.6273    127.6165
   583.5000   2000.0000   2000.0000     13.8085    128.0090
   583.7500   2000.0000   2000.0000     14.0234    128.0322
   584.0000   2000.0000   2000.0000     14.2711    127.3167
   584.2500   2000.0000   2000.0000     14.5417    126.3933
   584.5000   2000.0000   2000.0000     14.8176    124.6358
   584.7500   2000.0000   2000.0000     15.0788    123.3177
   585.0000   2000.0000   2000.0000     15.3135    121.2984
   585.2500   2000.0000   2000.0000     15.5245    120.2011
   585.5000   2000.0000   2000.0000     15.7254    119.5319
   585.7500   2000.0000   2000.0000     15.9272    119.8536
   586.0000   2000.0000   2000.0000     16.1293    121.0640
   586.2500   2000.0000   2000.0000     16.3211    121.9672
   586.5000   2000.0000   2000.0000     16.4913    123.0594
   586.7500   2000.0000   2000.0000     16.6361    123.5738
   587.0000   2000.0000   2000.0000     16.7585    124.0976
   587.2500   2000.0000   2000.0000     16.8590    124.3670
   587.5000   2000.0000   2000.0000     16.9277    125.0420
   587.7500   2000.0000   2000.0000     16.9479    126.0094
   588.0000   2000.0000   2000.0000     16.9161    128.4562
   588.2500   2000.0000   2000.0000     16.8606    130.3999
   588.5000   2000.0000   2000.0000     16.8401    132.6593
   588.7500   2000.0000   2000.0000     16.9162    133.2744
   589.0000   2000.0000   2000.0000     17.1203    133.0841
   589.2500   2000.0000   2000.0000     17.4384    132.7432
   589.5000   2000.0000   2000.0000     17.8233    132.4167
   589.7500   2000.0000   2000.0000     18.2243    132.0184
   590.0000   2000.0000   2000.0000     18.6128    130.2879
   590.2500   2000.0000   2000.0000     18.9865    128.4086
   590.5000   2000.0000   2000.0000     19.3592    125.7767
   590.7500   2000.0000   2000.0000     19.7514    124.9741
   591.0000   2000.0000   2000.0000     20.1884    125.5341
   591.2500   2000.0000   2000.0000     20.6990    126.6187
   591.5000   2000.0000   2000.0000     21.3116    128.1432
   591.7500   2000.0000   2000.0000     22.0489    128.5639
   592.0000   2000.0000   2000.0000     22.9273    127.8459
   592.2500   2000.0000   2000.0000     23.9525    126.4397
   592.5000   2000.0000   2000.0000     25.1094    123.3774
   592.7500   2000.0000   2000.0000     26.3520    121.2204
   593.0000   2000.0000   2000.0000     27.6138    118.5636
   593.2500   2000.0000   2000.0000     28.8535    117.1434
   593.5000   2000.0000   2000.0000     30.1093    114.6567
   593.7500   2000.0000   2000.0000     31.5099    112.1574
   594.0000   2000.0000   2000.0000     33.2153    106.7901
   594.2500   2000.0000   2000.0000     35.3186    102.5232
   594.5000   2000.0000   2000.0000     37.7654     96.2619
   594.7500   2000.0000   2000.0000     40.3431     92.5359
   595.0000   2000.0000   2000.0000     42.7624     87.1036
   595.2500   2000.0000   2000.0000     44.7711     83.0156
   595.5000   2000.0000   2000.0000     46.1799     75.8122
   595.7500   2000.0000   2000.0000     46.7842     70.5690
   596.0000   2000.0000   2000.0000     46.3402     62.8788
   596.2500   2000.0000   2000.0000     44.7120     58.3609
   596.5000   2000.0000   2000.0000     42.0508     53.2884
   596.7500   2000.0000   2000.0000     38.7861     51.5181
   597.0000   2000.0000   2000.0000     35.4150     52.2253
   597.2500   2000.0000   2000.0000     32.3113     55.5756
