~Version Information
VERS.                      2.0: CWLS Log ASCII Standard - VERSION 2.0
WRAP.                       NO: One line per depth step
~Well Information Block
STRT.FT               748.2500: 
STOP.FT              2498.5000: 
STEP.FT                 0.2500: 
NULL.                -999.2500: 
COMP.          Petrogulf Corporation: COMPANY
WELL.           Montoya 13-41V: WELL
FLD.           Purgatorie River: FIELD
LOC.           449' FNL & 891' FEL: LOCATION
CNTY.               Las Animas: COUNTY
SRVC.                         : SERVICE COMPANY
DATE.          Tue Aug 17 13:22:31 2004: LOG DATE
UWI.           05 071 08021 00: UNIQUE WELL ID
STAT.                 Colorado: STATE
~Curve Information Block
DEPT.FT            0 000 00 00: Depth
SP.mV                         : DIL Spontaneous Potential
RILD.Ohm-m                    : DIL Deep Resistivity
RILM.Ohm-m                    : DIL Medium Resistivity
RLL3.Ohm-m                    : DIL Shallow Resistivity
GR.GAPI                       : Gamma Ray
~Parameter Information Block
~A  Depth        SP         RILD        RILM        RLL3         GR     
# ...
  1224.2500     56.7005      7.7961      7.7564      9.2287    145.1895
  1224.5000     56.3493      7.9433      7.8688      9.4154    144.7926
  1224.7500     56.2166      8.1043      8.0223      9.7469    144.4439
  1225.0000     56.2120      8.2644      8.2183     10.2591    142.8188
  1225.2500     56.1955      8.4075      8.4544     10.9977    140.6454
  1225.5000     56.0271      8.5222      8.7231     12.0428    135.6228
  1225.7500     55.6230      8.6067      9.0108     13.4632    131.2993
  1226.0000     54.9953      8.6687      9.2983     15.2058    123.8620
  1226.2500     54.2536      8.7209      9.5618     17.0186    118.6335
  1226.5000     53.5728      8.7752      9.7775     18.4955    111.3926
  1226.7500     53.1330      8.8375      9.9265     19.2420    107.6640
  1227.0000     53.0652      8.9064      9.9988     19.0609    104.4850
  1227.2500     53.4186      8.9726      9.9959     18.0449    104.1342
  1227.5000     54.1484      9.0219      9.9282     16.5257    106.5054
  1227.7500     55.1255      9.0385      9.8110     14.9209    110.1507
  1228.0000     56.1596      9.0100      9.6600     13.5668    118.3052
  1228.2500     57.0374      8.9322      9.4881     12.6226    124.6921
  1228.5000     57.5740      8.8096      9.3037     12.0727    133.7123
  1228.7500     57.6596      8.6537      9.1121     11.7990    138.3675
  1229.0000     57.2915      8.4785      8.9163     11.6599    142.3368
  1229.2500     56.5687      8.2966      8.7191     11.5365    142.8293
  1229.5000     55.6544      8.1180      8.5245     11.3474    141.1352
  1229.7500     54.7069      7.9514      8.3380     11.0549    139.6159
  1230.0000     53.8226      7.8062      8.1664     10.6725    139.2891
  1230.2500     53.0088      7.6929      8.0174     10.2623    141.0679
  1230.5000     52.2132      7.6226      7.8992      9.9097    145.4040
  1230.7500     51.3858      7.6041      7.8194      9.6791    147.7450
  1231.0000     50.5358      7.6414      7.7854      9.5736    148.6930
  1231.2500     49.7513      7.7322      7.8033      9.5336    148.1019
  1231.5000     49.1626      7.8671      7.8785      9.4905    147.7696
  1231.7500     48.8633      8.0311      8.0150      9.4443    148.9255
  1232.0000     48.8524      8.2075      8.2151      9.5010    152.2604
  1232.2500     49.0159      8.3825      8.4786      9.8247    154.2473
  1232.5000     49.1819      8.5498      8.8026     10.5329    154.8822
  1232.7500     49.2077      8.7108      9.1798     11.6191    153.6197
  1233.0000     49.0510      8.8711      9.5985     12.9585    150.4416
  1233.2500     48.7923      9.0346     10.0413     14.3804    148.2555
  1233.5000     48.5867      9.2007     10.4857     15.7373    145.5644
  1233.7500     48.5758      9.3659     10.9051     16.9231    144.1572
  1234.0000     48.8064      9.5289     11.2712     17.8513    141.8976
  1234.2500     49.1969      9.6943     11.5591     18.4359    139.7245
  1234.5000     49.5652      9.8720     11.7515     18.5988    135.5110
  1234.7500     49.7060     10.0716     11.8428     18.2940    133.0304
  1235.0000     49.4796     10.2970     11.8409     17.5278    132.0152
  1235.2500     48.8721     10.5420     11.7648     16.3755    133.8249
  1235.5000     47.9989     10.7904     11.6399     14.9892    139.6237
  1235.7500     47.0623     11.0188     11.4930     13.5826    144.4103
  1236.0000     46.2804     11.2004     11.3475     12.3773    150.8084
  1236.2500     45.8223     11.3113     11.2210     11.5283    153.6536
  1236.5000     45.7757     11.3372     11.1248     11.0740    155.2011
  1236.7500     46.1463     11.2800     11.0645     10.9451    154.5307
  1237.0000     46.8766     11.1584     11.0416     11.0238    151.7420
  1237.2500     47.8654     11.0025     11.0552     11.2135    149.4048
  1237.5000     48.9762     10.8452     11.1026     11.4829    146.4217
  1237.7500     50.0391     10.7149     11.1802     11.8665    145.2420
  1238.0000     50.8596     10.6327     11.2830     12.4275    144.8343
  1238.2500     51.2524     10.6109     11.4041     13.2025    145.1160
  1238.5000     51.0876     10.6520     11.5345     14.1533    144.9984
  1238.7500     50.3390     10.7468     11.6627     15.1530    143.7332
  1239.0000     49.1087     10.8731     11.7760     16.0209    139.9229
  1239.2500     47.6097     10.9974     11.8620     16.5837    137.0313
  1239.5000     46.1229     11.0824     11.9106     16.7288    134.3327
  1239.7500     44.9300     11.0991     11.9157     16.4309    134.2714
  1240.0000     44.2607     11.0374     11.8767     15.7565    136.1677
  1240.2500     44.2526     10.9074     11.7980     14.8531    137.9236
  1240.5000     44.9255     10.7315     11.6880     13.9117    140.5119
  1240.7500     46.1769     10.5337     11.5571     13.1084    142.4062
  1241.0000     47.7905     10.3330     11.4158     12.5508    146.1722
  1241.2500     49.4690     10.1430     11.2726     12.2617    149.2873
  1241.5000     50.8887      9.9743     11.1334     12.1959    153.7267
  1241.7500     51.7757      9.8343     11.0005     12.2717    155.4526
  1242.0000     51.9778      9.7261     10.8728     12.4024    154.6724
  1242.2500     51.5043      9.6467     10.7465     12.5294    151.7998
  1242.5000     50.5227      9.5875     10.6155     12.6510    145.4173
  1242.7500     49.2984      9.5387     10.4731     12.8235    141.1050
  1243.0000     48.1073      9.4933     10.3143     13.1190    136.3857
  1243.2500     47.1514      9.4505     10.1370     13.5555    134.8469
  1243.5000     46.5198      9.4148      9.9443     14.0443    134.6025
  1243.7500     46.1961      9.3926      9.7446     14.4003    135.0792
  1244.0000     46.1155      9.3897      9.5505     14.4225    134.9245
  1244.2500     46.2216      9.4099      9.3768     14.0064    133.2592
  1244.5000     46.5031      9.4545      9.2381     13.2121    128.0446
  1244.7500     46.9943      9.5207      9.1469     12.2467    123.6474
  1245.0000     47.7351      9.5973      9.1120     11.3812    118.2934
  1245.2500     48.7411      9.6642      9.1381     10.8707    116.8086
  1245.5000     49.9765      9.6963      9.2256     10.9225    118.3384
  1245.7500     51.3582      9.6757      9.3698     11.6975    121.5385
  1246.0000     52.7689      9.6037      9.5612     13.2857    128.9474
  1246.2500     54.0769      9.5034      9.7854     15.6291    135.4908
  1246.5000     55.1525      9.4086     10.0234     18.4285    147.2610
  1246.7500     55.8825      9.3468     10.2540     21.1333    155.3962
  1247.0000     56.1837      9.3283     10.4561     23.0818    164.6571
  1247.2500     56.0141      9.3452     10.6130     23.7561    166.4927
  1247.5000     55.3905      9.3795     10.7148     23.0083    159.9464
  1247.7500     54.4023      9.4136     10.7597     21.1194    149.5491
  1248.0000     53.2122      9.4382     10.7526     18.6566    128.5872
  1248.2500     52.0370      9.4521     10.7020     16.2238    114.0634
  1248.5000     51.1046      9.4560     10.6169     14.2482     95.2449
  1248.7500     50.5949      9.4460     10.5039     12.8957     85.3442
  1249.0000     50.5938      9.4112     10.3673     12.1167     73.8028
  1249.2500     51.0751      9.3373     10.2087     11.7512     67.6847
  1249.5000     51.9182      9.2143     10.0292     11.6280     60.3625
  1249.7500     52.9497      9.0423      9.8306     11.6211     56.9493
  1250.0000     53.9899      8.8327      9.6154     11.6604     55.1950
  1250.2500     54.8870      8.6044      9.3884     11.7111     57.0501
  1250.5000     55.5378      8.3778      9.1554     11.7456     65.0933
  1250.7500     55.8927      8.1697      8.9234     11.7338     73.7535
  1251.0000     55.9630      7.9921      8.7002     11.6601     90.2080
  1251.2500     55.8045      7.8519      8.4942     11.5422    102.1308
  1251.5000     55.4983      7.7531      8.3139     11.4255    118.7585
  1251.7500     55.1127      7.6978      8.1682     11.3513    127.5670
  1252.0000     54.6726      7.6875      8.0653     11.3273    135.8862
