~Version Information
VERS.                      2.0: CWLS Log ASCII Standard - VERSION 2.0
WRAP.                       NO: One line per depth step
~Well Information Block
STRT.FT                -7.0500: 
STOP.FT              3072.6000: 
STEP.FT                 0.0500: 
NULL.                -999.2500: 
COMP.          Pioneer Natural Resources: COMPANY
WELL.              Stones 24-8: WELL
FLD.           Purgatoire River: FIELD
LOC.           648' FSL & 2264' FWL--: LOCATION
PROV.                 Colorado: PROVINCE
CNTY.               Las Animas: COUNTRY
SRVC.                Patterson: SERVICE COMPANY
DATE.          Fri Feb 04 12:43:19 2005: LOG DATE
UWI.           05 071 07945 00: UNIQUE WELL ID
~Curve Information Block
DEPT.FT            0 000 00 00: Depth
CCL.                          : Casing Collar Locator
TT3.usec                      : CBL 3' Travel Time
AMP3.mV                       : CBL 3' Amplitude
GR.GAPI                       : Gamma Ray
~Parameter Information Block
~A  Depth       CCL         TT3         AMP3         GR     
# ...
    -0.3500   -999.2500   1497.0000      0.3372     36.3599
    -0.3000   -999.2500   1497.0000      0.3372     36.3599
    -0.2500   -999.2500   1497.0000      0.3372     36.3599
    -0.2000   -999.2500   1497.0000      0.3372     36.3599
    -0.1500   -999.2500   1497.0000      0.3372     36.3599
    -0.1000   -999.2500   1497.0000      0.3366     37.5402
    -0.0500   -999.2500   1497.0000      0.3366     37.5402
     0.0000   -999.2500   1497.0000      0.3357     41.0075
     0.0500   -999.2500   1497.0000      0.3357     41.0075
     0.1000   -999.2500   1497.0000      0.3357     41.0075
     0.1500   -999.2500   1497.0000      0.3357     41.0075
     0.2000   -999.2500   1497.0000      0.3357     41.0075
     0.2500   -999.2500   1497.0000      0.3360     44.0285
     0.3000   -999.2500   1497.0000      0.3360     44.0285
     0.3500   -999.2500   1497.0000      0.3360     44.0285
     0.4000   -999.2500   1497.0000      0.3360     44.0285
     0.4500   -999.2500   1497.0000      0.3360     44.0285
     0.5000   -999.2500   1497.0000      0.3396     43.9537
     0.5500   -999.2500   1497.0000      0.3396     43.9537
     0.6000   -999.2500   1497.0000      0.3396     43.9537
     0.6500   -999.2500   1497.0000      0.3396     43.9537
     0.7000   -999.2500   1497.0000      0.3396     43.9537
     0.7500   -999.2500   1497.0000      0.3468     40.3740
     0.8000   -999.2500   1497.0000      0.3468     40.3740
     0.8500   -999.2500   1497.0000      0.3468     40.3740
     0.9000   -999.2500   1497.0000      0.3468     40.3740
     0.9500   -999.2500   1497.0000      0.3468     40.3740
     1.0000   -999.2500   1497.0000      0.3568     35.1585
     1.0500   -999.2500   1497.0000      0.3568     35.1585
     1.1000   -999.2500   1497.0000      0.3568     35.1585
     1.1500   -999.2500   1497.0000      0.3568     35.1585
     1.2000   -999.2500   1497.0000      0.3568     35.1585
     1.2500   -999.2500   1497.0000      0.3671     30.6100
     1.3000   -999.2500   1497.0000      0.3671     30.6100
     1.3500   -999.2500   1497.0000      0.3671     30.6100
     1.4000   -999.2500   1497.0000      0.3671     30.6100
     1.4500   -999.2500   1497.0000      0.3671     30.6100
     1.5000   -999.2500   1497.0000      0.3745     27.8347
     1.5500   -999.2500   1497.0000      0.3745     27.8347
     1.6000   -999.2500   1497.0000      0.3745     27.8347
     1.6500   -999.2500   1497.0000      0.3745     27.8347
     1.7000   -999.2500   1497.0000      0.3745     27.8347
     1.7500   -999.2500   1497.0000      0.3768     26.4764
     1.8000   -999.2500   1497.0000      0.3768     26.4764
     1.8500   -999.2500   1497.0000      0.3768     26.4764
     1.9000   -999.2500   1497.0000      0.3768     26.4764
     1.9500   -999.2500   1497.0000      0.3768     26.4764
     2.0000   -999.2500   1497.0000      0.3739     25.4300
     2.0500   -999.2500   1497.0000      0.3739     25.4300
     2.1000   -999.2500   1497.0000      0.3739     25.4300
     2.1500   -999.2500   1497.0000      0.3739     25.4300
     2.2000   -999.2500   1497.0000      0.3739     25.4300
     2.2500   -999.2500   1497.0000      0.3692     23.8990
     2.3000   -999.2500   1497.0000      0.3692     23.8990
     2.3500   -999.2500   1497.0000      0.3692     23.8990
     2.4000   -999.2500   1497.0000      0.3692     23.8990
     2.4500   -999.2500   1497.0000      0.3692     23.8990
     2.5000   -999.2500   1497.0000      0.3672     22.1302
     2.5500   -999.2500   1497.0000      0.3672     22.1302
     2.6000   -999.2500   1497.0000      0.3672     22.1302
     2.6500   -999.2500   1497.0000      0.3672     22.1302
     2.7000   -999.2500   1497.0000      0.3672     22.1302
     2.7500   -999.2500   1497.0000      0.3703     21.1695
     2.8000   -999.2500   1497.0000      0.3703     21.1695
     2.8500   -999.2500   1497.0000      0.3703     21.1695
     2.9000   -999.2500   1497.0000      0.3703     21.1695
     2.9500   -999.2500   1497.0000      0.3703     21.1695
     3.0000   -999.2500   1497.0000      0.3762     21.9778
     3.0500   -999.2500   1497.0000      0.3762     21.9778
     3.1000   -999.2500   1497.0000      0.3762     21.9778
     3.1500   -999.2500   1497.0000      0.3762     21.9778
     3.2000   -999.2500   1497.0000      0.3762     21.9778
     3.2500   -999.2500   1497.0000      0.3797     24.9212
     3.3000   -999.2500   1497.0000      0.3797     24.9212
     3.3500   -999.2500   1497.0000      0.3797     24.9212
     3.4000   -999.2500   1497.0000      0.3797     24.9212
     3.4500   -999.2500   1497.0000      0.3797     24.9212
     3.5000   -999.2500   1497.0000      0.3771     29.8043
     3.5500   -999.2500   1497.0000      0.3771     29.8043
     3.6000   -999.2500   1497.0000      0.3771     29.8043
     3.6500   -999.2500   1497.0000      0.3771     29.8043
     3.7000   -999.2500   1497.0000      0.3771     29.8043
     3.7500   -999.2500   1497.0000      0.3700     35.9960
     3.8000   -999.2500   1497.0000      0.3700     35.9960
     3.8500   -999.2500   1497.0000      0.3700     35.9960
     3.9000   -999.2500   1497.0000      0.3700     35.9960
     3.9500   -999.2500   1497.0000      0.3700     35.9960
     4.0000      0.0000   1497.0000      0.3627     42.7146
     4.0500      0.0000   1497.0000      0.3627     42.7146
     4.1000      0.0000   1497.0000      0.3627     42.7146
     4.1500      0.0000   1497.0000      0.3627     42.7146
     4.2000      0.0000   1497.0000      0.3627     42.7146
     4.2500      0.0000   1497.0000      0.3589     49.4500
     4.3000      0.0000   1497.0000      0.3589     49.4500
     4.3500      0.0000   1497.0000      0.3589     49.4500
     4.4000      0.0000   1497.0000      0.3589     49.4500
     4.4500      0.0000   1497.0000      0.3589     49.4500
     4.5000      0.0000   1497.0000      0.3588     55.9499
     4.5500      0.0000   1497.0000      0.3588     55.9499
     4.6000      0.0000   1497.0000      0.3588     55.9499
     4.6500      0.0000   1497.0000      0.3588     55.9499
     4.7000      0.0000   1497.0000      0.3588     55.9499
     4.7500      0.0000   1497.0000      0.3607     61.7969
     4.8000      0.0000   1497.0000      0.3607     61.7969
     4.8500      0.0000   1497.0000      0.3607     61.7969
     4.9000      0.0000   1497.0000      0.3607     61.7969
     4.9500      0.0000   1497.0000      0.3607     61.7969
     5.0000      0.0000   1497.0000      0.3629     66.3793
     5.0500      0.0000   1497.0000      0.3629     66.3793
     5.1000      0.0000   1497.0000      0.3629     66.3793
     5.1500      0.0000   1497.0000      0.3629     66.3793
     5.2000      0.0000   1497.0000      0.3629     66.3793
     5.2500      0.0000   1497.0000      0.3648     69.2128
     5.3000      0.0000   1497.0000      0.3648     69.2128
     5.3500      0.0000   1497.0000      0.3648     69.2128
     5.4000      0.0000   1497.0000      0.3648     69.2128
     5.4500      0.0000   1497.0000      0.3648     69.2128
     5.5000      0.0000   1497.0000      0.3664     69.9397
     5.5500      0.0000   1497.0000      0.3664     69.9397
     5.6000      0.0000   1497.0000      0.3664     69.9397
     5.6500      0.0000   1497.0000      0.3664     69.9397
     5.7000      0.0000   1497.0000      0.3664     69.9397
     5.7500      0.0000   1497.0000      0.3672     68.2008
     5.8000      0.0000   1497.0000      0.3672     68.2008
     5.8500      0.0000   1497.0000      0.3672     68.2008
     5.9000      0.0000   1497.0000      0.3672     68.2008
     5.9500      0.0000   1497.0000      0.3672     68.2008
     6.0000      0.0000   1497.0000      0.3673     64.0603
     6.0500      0.0000   1497.0000      0.3673     64.0603
     6.1000      0.0000   1497.0000      0.3673     64.0603
     6.1500      0.0000   1497.0000      0.3673     64.0603
     6.2000      0.0000   1497.0000      0.3673     64.0603
     6.2500      0.0000   1497.0000      0.3679     58.6643
     6.3000      0.0000   1497.0000      0.3679     58.6643
