~Version Information
 VERS.                                  2.0 : CWLS LAS VERSION
 WRAP.                                   NO : WRAPING MODE
 SWARE .                 MController 2.5.0J : SOFTWARE VERSION
~Well Information
 WELL.                  Lorencito 6-3-34-66 : WELL
 COMP.    Pioneer Natural Resources USA Inc : COMPANY
 FLD.                      Purgatoire River : FIELD
 LOC.                  SE/NW SEC3 T34S R66W : LOCATION
 DATE.                             09/09/05 : DATE(S) LOGGED
 SRVC.       Blanco Geological Services LLC : SERVICE COMPANY
 STAT.                             Colorado : STATE
 CNTY.                           Las Animas : COUNTY
 CTRY.                                  USA : COUNTRY
 API.                       05-071-08369-00 : API NUMBER
 STRT.FT                             394.00 : START DEPTH
 STOP.FT                            1390.00 : STOP DEPTH
 STEP.FT                               1.00 : DEPTH INCREMENT
 NULL.                                -9999 : NULL VALUE
~Curve information
 DEPTH.FT                                   :
 ROP.MIN/FT                                 :
 GAS.UNITS                                  :
~ASCII Log data
# ...
       594.0         0.40          8.4 
       595.0         0.40          8.6 
       596.0         3.95          8.5 
       597.0         1.85          9.8 
       598.0         0.20          9.7 
       599.0         0.27          9.1 
       600.0         0.40         11.4 
       601.0         0.47          9.7 
       602.0         0.55          9.4 
       603.0         0.53          9.0 
       604.0         0.47          9.4 
       605.0         0.50          9.6 
       606.0         0.57          9.3 
       607.0         0.67          9.1 
       608.0         0.68          9.0 
       609.0         0.63          9.6 
       610.0         0.67          9.9 
       611.0         0.60         10.1 
       612.0         0.60          9.8 
       613.0         0.53          9.4 
       614.0         0.68          9.6 
       615.0         0.33         10.3 
       616.0         0.30          9.7 
       617.0         0.30          9.8 
       618.0         0.33          9.4 
       619.0         0.27          9.5 
       620.0         0.37          9.2 
       621.0         0.37         10.0 
       622.0         0.40         11.6 
       623.0         0.78          9.8 
       624.0         0.30          9.8 
       625.0         0.30         10.7 
       626.0        22.22         11.7 
       627.0         1.40         10.9 
       628.0         1.10         10.9 
       629.0         0.30         15.0 
       630.0         0.33         12.0 
       631.0         0.35         11.1 
       632.0         0.33         10.9 
       633.0         0.07         11.0 
       634.0         2.95         11.2 
       635.0         0.33         11.1 
       636.0         0.27         11.2 
       637.0         0.30         11.4 
       638.0         0.30         11.2 
       639.0         0.30         10.7 
       640.0         0.33         11.1 
       641.0         0.27         11.0 
       642.0         0.27         11.5 
       643.0         0.33         11.4 
       644.0         0.37         10.9 
       645.0         0.38         12.4 
       646.0         0.30         10.8 
       647.0         0.30         11.2 
       648.0         0.37         10.4 
       649.0         0.40         10.4 
       650.0         0.57          9.9 
       651.0         0.23         10.4 
       652.0         0.80         10.4 
       653.0         1.42         11.0 
       654.0         0.43         11.6 
       655.0         0.23         15.2 
       656.0         0.43         10.4 
       657.0         0.30         10.1 
       658.0         0.30         10.2 
       659.0         0.27         10.3 
       660.0         0.52         10.3 
       661.0         0.40         10.6 
       662.0         0.43         10.6 
       663.0         0.43         10.8 
       664.0         0.43         10.6 
       665.0         0.40         10.7 
       666.0         0.47         11.2 
       667.0         0.42         11.0 
       668.0         0.37         10.9 
       669.0         0.50         10.7 
       670.0         0.37         10.6 
       671.0         0.30         10.5 
       672.0         0.23         10.6 
       673.0         0.27         10.6 
       674.0         0.27         10.4 
       675.0         0.30         10.9 
       676.0         0.30         11.2 
       677.0         0.27         10.4 
       678.0         0.25         10.6 
       679.0         0.27         10.7 
       680.0         0.27         10.9 
       681.0         0.27         10.9 
       682.0         0.23         11.7 
       683.0         0.27         11.8 
       684.0         0.23         11.2 
       685.0         3.12         11.5 
       686.0         2.18         13.0 
       687.0         0.23         12.1 
       688.0         0.43         11.2 
       689.0         0.43         10.6 
       690.0         0.47         11.0 
       691.0         0.37         13.2 
       692.0         0.33         12.1 
       693.0         0.37         11.5 
       694.0         0.40         11.6 
       695.0         0.42         11.7 
       696.0         0.37         11.2 
       697.0         0.43         11.7 
       698.0         0.40         11.6 
       699.0         0.40         11.3 
       700.0         0.40         11.6 
       701.0         0.50         11.4 
       702.0         0.82         97.7 
       703.0         0.50       1036.6 
       704.0         0.50        786.8 
       705.0         0.97       1019.2 
       706.0         0.40       1316.9 
       707.0         0.53       1500.0 
       708.0         1.05       1279.2 
       709.0         0.97       1259.6 
       710.0         0.80       1253.1 
       711.0         0.95       1206.7 
       712.0         0.93       1109.1 
       713.0         0.80       1075.2 
       714.0         0.73       1056.9 
       715.0         0.78        992.4 
       716.0         8.23       3141.9 
       717.0         0.63        792.0 
       718.0         0.87        666.6 
       719.0         1.02        551.6 
       720.0         0.93        511.9 
       721.0         1.00        509.0 
       722.0         0.95        504.5 
       723.0         0.87        503.9 
       724.0         0.77        492.9 
       725.0         0.73        498.1 
       726.0         0.58        502.9 
       727.0         0.57        501.6 
       728.0         0.50        453.6 
       729.0         0.53        485.2 
       730.0         0.63        489.7 
       731.0         0.60        518.4 
       732.0         0.62        502.2 
       733.0         0.50        505.1 
       734.0         0.47        498.1 
       735.0         0.37        493.2 
       736.0         0.33        488.4 
       737.0         0.60        483.9 
       738.0         0.67        493.2 
       739.0         0.55        496.1 
       740.0         0.57        485.8 
       741.0         0.63        476.1 
       742.0         0.73        512.2 
       743.0         0.93        505.1 
       744.0         0.95        480.0 
       745.0         1.33        491.3 
       746.0         3.28         14.6 
       747.0         0.67       1177.7 
       748.0         0.37        562.5 
       749.0         0.52        557.0 
       750.0         0.87        455.2 
       751.0         1.50         52.4 
       752.0         1.75         83.4 
       753.0         1.53         16.6 
       754.0         1.22         23.3 
       755.0         1.20        102.8 
       756.0         1.00         65.5 
       757.0         0.98         77.2 
       758.0         1.00         87.7 
       759.0         0.53         76.1 
       760.0         0.77         45.6 
       761.0         0.95        136.4 
       762.0         1.10         34.0 
       763.0         1.03         51.5 
       764.0         0.57         66.1 
       765.0         0.43         60.7 
       766.0         0.48         82.5 
       767.0         0.43         73.4 
       768.0         0.40         86.3 
       769.0         0.47         72.8 
       770.0         0.50         67.3 
       771.0         0.57         77.9 
       772.0         0.57         86.5 
       773.0         0.38        119.3 
       774.0         0.47         96.4 
       775.0         0.50         90.9 
       776.0         3.62         51.3 
       777.0         0.93        472.9 
       778.0         0.43         42.3 
       779.0         0.45         90.6 
       780.0         0.43         87.8 
       781.0         0.40         37.8 
       782.0         0.40         46.5 
       783.0         0.37         78.6 
       784.0         0.30         91.9 
       785.0         0.37         75.9 
       786.0         0.40         59.1 
       787.0         0.37         62.2 
       788.0         0.32         63.1 
       789.0         0.27         59.5 
       790.0         0.40         54.6 
       791.0         0.43         57.5 
       792.0         0.47         60.2 
       793.0         0.40         59.3 
