~Version Information
VERS.                      2.0: CWLS Log ASCII Standard - VERSION 2.0
WRAP.                       NO: One line per depth step
~Well Information Block
STRT.FT               430.0000: 
STOP.FT              2417.0000: 
STEP.FT                 0.1000: 
NULL.                -999.2500: 
COMP.          Evergreen Operating Corporation: COMPANY
WELL.          McCullough 34-32: WELL
FLD.           Purgatorie River: FIELD
LOC.           261' FSL & 2098' FEL: LOCATION
PROV.                 Colorado: PROVINCE
CNTY.               Las Animas: COUNTRY
SRVC.                Patterson: SERVICE COMPANY
DATE.          Mon May 17 11:25:23 2004: LOG DATE
UWI.           05 071 07953 00: UNIQUE WELL ID
~Curve Information Block
DEPT.FT            0 000 00 00: Depth
DCAL.in                       : CDL Caliper
RHOB.g/cc                     : CDL Bulk Density
RHOC.g/cc                     : CDL Density Correction
DPOR.pu                       : CDL Density Porosity
NPOR.pu                       : Neutron Porosity
GR.GAPI                       : Gamma Ray
~Parameter Information Block
~A  Depth       DCAL        RHOB        RHOC        DPOR        NPOR         GR     
# ...
   689.2000      8.3332      2.5617      0.0574      5.3508     22.7514     80.7381
   689.3000      8.3295      2.5875      0.0367      3.7865     23.1204     83.9765
   689.4000      8.3295      2.5996      0.0499      3.0529     23.4476     91.7220
   689.5000      8.3306      2.5940      0.0620      3.3922     23.7644    101.2010
   689.6000      8.3306      2.5765      0.0620      4.4519     24.2303    108.8111
   689.7000      8.3306      2.5544      0.0787      5.7961     24.4839    111.3950
   689.8000      8.3314      2.5258      0.0619      7.5253     24.1483    108.9446
   689.9000      8.3314      2.4955      0.0194      9.3621     23.7499    105.2821
   690.0000      8.3357      2.4820     -0.0214     10.1796     23.7670    102.9712
   690.1000      8.3357      2.4925      0.0486      9.5466     24.0496    105.1490
   690.2000      8.3357      2.5150      0.0191      8.1818     24.2607    111.5023
   690.3000      8.3354      2.5388      0.0517      6.7401     24.3725    116.8742
   690.4000      8.3354      2.5519      0.0717      5.9444     24.4437    118.8700
   690.5000      8.3365      2.5425      0.0868      6.5124     24.4105    118.9865
   690.6000      8.3365      2.5253      0.0227      7.5551     24.2830    120.8870
   690.7000      8.3365      2.5261      0.0865      7.5111     24.0488    125.5906
   690.8000      8.3992      2.5396      0.0776      6.6892     23.6911    129.9910
   690.9000      8.3992      2.5500      0.0555      6.0621     23.2541    129.8821
   691.0000      8.4421      2.5540      0.0525      5.8169     22.7451    124.2819
   691.1000      8.4421      2.5481      0.0812      6.1730     22.1317    118.3956
   691.2000      8.4421      2.5366      0.0092      6.8719     21.6931    116.3401
   691.3000      8.4582      2.5396      0.0220      6.6923     21.5637    118.3640
   691.4000      8.4582      2.5605      0.0615      5.4266     21.2400    122.1899
   691.5000      8.4623      2.5703      0.0799      4.8333     20.5066    123.2733
   691.6000      8.4623      2.5439      0.0692      6.4315     19.8439    120.1213
   691.7000      8.4623      2.5000     -0.0236      9.0929     19.1916    114.1255
   691.8000      8.4624      2.4811     -0.0466     10.2380     18.2344    107.6545
   691.9000      8.4624      2.4991      0.0198      9.1455     17.5395    102.7653
   692.0000      8.4568      2.5314      0.0247      7.1858     17.5786     98.5743
   692.1000      8.4568      2.5506      0.0716      6.0219     18.0056     94.5405
   692.2000      8.4568      2.5418      0.0665      6.5560     18.4740     89.3176
   692.3000      8.4222      2.5187      0.0123      7.9570     18.8346     81.8499
   692.4000      8.4222      2.5065     -0.0138      8.6992     18.8543     77.0676
   692.5000      8.3699      2.5094      0.0103      8.5182     18.6251     76.6991
   692.6000      8.3699      2.5184      0.0204      7.9776     18.6915     76.6084
   692.7000      8.3699      2.5347      0.0052      6.9877     19.2782     77.3332
   692.8000      8.3329      2.5613      0.0585      5.3765     19.9845     79.9864
   692.9000      8.3329      2.5782      0.0995      4.3538     20.2234     80.4593
   693.0000      8.2641      2.5634      0.0269      5.2472     20.0627     78.0159
   693.1000      8.2641      2.5335      0.0035      7.0589     19.9066     75.5231
   693.2000      8.2641      2.5267      0.0069      7.4709     19.7658     74.7381
   693.3000      8.2378      2.5512      0.0381      5.9859     19.7921     74.7489
   693.4000      8.2378      2.5749      0.0460      4.5516     20.0268     73.9278
   693.5000      8.2403      2.5698      0.0369      4.8593     19.9715     75.0777
   693.6000      8.2403      2.5471      0.0001      6.2346     19.4327     79.1186
   693.7000      8.2403      2.5307      0.0088      7.2308     18.8425     81.2491
   693.8000      8.2567      2.5294     -0.0427      7.3087     18.5889     79.6414
   693.9000      8.2567      2.5391      0.0377      6.7206     18.6384     76.7400
   694.0000      8.2545      2.5468      0.0678      6.2537     18.8716     74.0923
   694.1000      8.2545      2.5491      0.0746      6.1132     19.1690     72.2583
   694.2000      8.2545      2.5485      0.0740      6.1535     19.2527     72.2984
   694.3000      8.2791      2.5474      0.0251      6.2180     19.2563     74.1381
   694.4000      8.2791      2.5598      0.0171      5.4640     19.6077     74.6950
   694.5000      8.3011      2.5852      0.1197      3.9260     20.2222     72.2827
   694.6000      8.3011      2.6057      0.0743      2.6824     20.7757     69.6664
   694.7000      8.3011      2.6214      0.0536      1.7310     21.3018     70.1366
   694.8000      8.3035      2.6389      0.0459      0.6731     21.9984     73.3347
   694.9000      8.3035      2.6438      0.0772      0.3767     22.6262     75.3112
   695.0000      8.3028      2.6210      0.0496      1.7573     22.8401     74.1391
   695.1000      8.3028      2.5904      0.0078      3.6097     22.9164     71.7747
   695.2000      8.3028      2.5816      0.0413      4.1430     23.1671     70.3424
   695.3000      8.3066      2.5888      0.0432      3.7103     23.5602     71.3015
   695.4000      8.3066      2.5864      0.0608      3.8528     24.1054     76.4083
   695.5000      8.3295      2.5627      0.0139      5.2929     24.6134     84.2035
   695.6000      8.3295      2.5252      0.0518      7.5636     24.9054     89.3969
   695.7000      8.3295      2.4829      0.0461     10.1264     25.2104     90.1024
   695.8000      8.3302      2.4419      0.0292     12.6127     25.4440     91.1271
   695.9000      8.3302      2.4126      0.0155     14.3879     25.3123     95.8331
   696.0000      8.3336      2.4020      0.0559     15.0304     24.9928    102.2035
   696.1000      8.3336      2.4081      0.0552     14.6630     24.6335    107.5830
   696.2000      8.3336      2.4241      0.0959     13.6887     24.1053    110.6362
   696.3000      8.3574      2.4402      0.0961     12.7142     23.7380    112.3395
   696.4000      8.3574      2.4500      0.1284     12.1188     23.7155    113.7685
   696.5000      8.3797      2.4568      0.0960     11.7065     23.6389    115.4574
   696.6000      8.3797      2.4615      0.1481     11.4244     23.3504    116.7920
   696.7000      8.3797      2.4592      0.0909     11.5622     23.1489    115.1045
   696.8000      8.4055      2.4563      0.0687     11.7397     23.2281    112.7275
   696.9000      8.4055      2.4618      0.0863     11.4037     23.3355    112.4122
   697.0000      8.4113      2.4711      0.0980     10.8411     23.1545    112.6899
   697.1000      8.4113      2.4761      0.0826     10.5366     22.7382    112.3132
   697.2000      8.4113      2.4806      0.0422     10.2657     22.5170    112.0671
   697.3000      8.4070      2.4884      0.0569      9.7924     22.6736    113.7422
   697.4000      8.4070      2.4907      0.0455      9.6571     22.8948    119.6190
   697.5000      8.4087      2.4850      0.0552     10.0028     22.8572    128.3248
   697.6000      8.4087      2.4781      0.0685     10.4183     22.4695    132.0466
   697.7000      8.4087      2.4695      0.0696     10.9382     22.0295    124.5768
   697.8000      8.4080      2.4590      0.0640     11.5749     21.7242    113.6385
   697.9000      8.4080      2.4543      0.0222     11.8621     21.5612    113.4283
   698.0000      8.4127      2.4575      0.0770     11.6668     21.5388    123.4780
   698.1000      8.4127      2.4603      0.0659     11.4952     21.5669    128.7721
   698.2000      8.4127      2.4618      0.0614     11.4033     21.9202    123.4324
   698.3000      8.4113      2.4642      0.0648     11.2607     22.6409    118.3859
   698.4000      8.4113      2.4677      0.0310     11.0492     23.2772    121.8216
   698.5000      8.4082      2.4692      0.0907     10.9592     23.5235    128.9062
   698.6000      8.4082      2.4573      0.0476     11.6793     23.6095    132.0390
   698.7000      8.4082      2.4353     -0.0005     13.0142     23.7930    130.9378
