~Version Information
 VERS.                                  2.0 : CWLS LAS VERSION
 WRAP.                                   NO : WRAPING MODE
 SWARE .                 MController 2.5.0J : SOFTWARE VERSION
~Well Information
 WELL.                         McLeod 9-42V: WELL
 COMP.                       Petrogulf Corp : COMPANY
 FLD.                       Purgatoire River: FIELD
 LOC.                  SE/NE Sec 9 T33S R67W: LOCATION
 DATE.                             11/11/04 : DATE(S) LOGGED
 SRVC.        Blanco Geological Services LLC: SERVICE COMPANY
 STAT.                                    CO: STATE
 CNTY.                            Las Animas: COUNTY
 CTRY.                                   USA: COUNTRY
 API.                           05-071-08071: API NUMBER
 STRT.FT                             424.00 : START DEPTH
 STOP.FT                            2270.00 : STOP DEPTH
 STEP.FT                               1.00 : DEPTH INCREMENT
 NULL.                                -9999 : NULL VALUE
~Curve information
 DEPTH.FT                                   :
 ROP.MIN/FT                                 :
 GAS.UNITS                                  :
~ASCII Log data
# ...
      1624.0         0.22         38.2 
      1625.0         0.13         39.1 
      1626.0         0.17         39.1 
      1627.0         0.23         37.7 
      1628.0         0.13         37.1 
      1629.0         0.13         35.0 
      1630.0         0.17         35.0 
      1631.0         0.13         33.6 
      1632.0         0.17         33.2 
      1633.0         0.17         32.8 
      1634.0         0.20         33.0 
      1635.0         0.17         33.3 
      1636.0         0.17         33.4 
      1637.0         0.20         31.7 
      1638.0         0.23         28.6 
      1639.0         0.33         28.5 
      1640.0         0.27         26.9 
      1641.0         0.30         22.3 
      1642.0         0.33         19.3 
      1643.0         0.27         20.2 
      1644.0         0.20         23.3 
      1645.0         0.37         36.7 
      1646.0         0.27         53.0 
      1647.0         0.27         71.8 
      1648.0         0.23         82.1 
      1649.0         0.28         81.7 
      1650.0         0.27         69.9 
      1651.0         0.27         56.3 
      1652.0         0.30         48.1 
      1653.0         0.20         46.6 
      1654.0         0.23         47.8 
      1655.0         0.23         46.6 
      1656.0         0.20         45.4 
      1657.0         0.23         41.4 
      1658.0         0.23         39.0 
      1659.0         0.23         37.4 
      1660.0         0.20         37.7 
      1661.0         0.23         38.3 
      1662.0         0.20         37.1 
      1663.0         0.20         36.0 
      1664.0         0.22         36.4 
      1665.0         0.20         35.5 
      1666.0         0.23         35.6 
      1667.0         0.23         34.8 
      1668.0         0.23         34.5 
      1669.0         0.20         34.1 
      1670.0         0.23         32.1 
      1671.0         0.23         30.8 
      1672.0         0.10         36.2 
      1673.0         0.30         55.2 
      1674.0         0.33         74.9 
      1675.0         0.27         78.7 
      1676.0         0.28         72.6 
      1677.0         0.27         61.9 
      1678.0         0.27         53.7 
      1679.0         0.27         51.8 
      1680.0         0.23         51.5 
      1681.0         0.27         50.3 
      1682.0         0.23         47.4 
      1683.0         0.23         45.6 
      1684.0         0.20         42.5 
      1685.0         0.20         40.9 
      1686.0         0.20         39.6 
      1687.0         0.20         38.3 
      1688.0         0.20         36.5 
      1689.0         0.17         35.3 
      1690.0         0.22         36.4 
      1691.0         0.20         38.7 
      1692.0         0.23         42.3 
      1693.0         0.27         45.0 
      1694.0         0.20         46.6 
      1695.0         0.23         47.8 
      1696.0         0.23         50.9 
      1697.0         0.23         57.2 
      1698.0         0.20         61.1 
      1699.0         0.23         61.1 
      1700.0         0.20         58.3 
      1701.0         0.20         31.8 
      1702.0         0.27         29.5 
      1703.0         0.27         29.6 
      1704.0         0.43         35.0 
      1705.0         0.30         47.4 
      1706.0         0.30         71.3 
      1707.0         0.37        100.8 
      1708.0         0.32        106.9 
      1709.0         0.33         95.7 
      1710.0         0.23         84.9 
      1711.0         0.20         78.5 
      1712.0         0.23         76.2 
      1713.0         0.23         77.2 
      1714.0         0.23         76.8 
      1715.0         0.23         74.2 
      1716.0         0.20         70.8 
      1717.0         0.23         66.4 
      1718.0         0.27         63.1 
      1719.0         0.23         61.3 
      1720.0         0.23         59.4 
      1721.0         0.22         57.6 
      1722.0         0.23         55.3 
      1723.0         0.23         53.1 
      1724.0         0.27         52.1 
      1725.0         0.33         50.8 
      1726.0         0.30         49.8 
      1727.0         0.23         48.9 
      1728.0         0.20         48.0 
      1729.0         0.30         45.9 
      1730.0         0.23         45.7 
      1731.0         0.20         44.3 
      1732.0         0.23         41.1 
      1733.0         0.23         32.6 
      1734.0         0.27         37.7 
      1735.0         0.42         54.2 
      1736.0         0.43         89.1 
      1737.0         0.33        109.8 
      1738.0         0.40        107.9 
      1739.0         0.40         87.3 
      1740.0         0.33         76.7 
      1741.0         0.30         76.1 
      1742.0         0.30         75.8 
      1743.0         0.30         73.4 
      1744.0         0.27         68.6 
      1745.0         0.25         63.9 
      1746.0         0.30         59.3 
      1747.0         0.27         57.2 
      1748.0         0.27         55.6 
      1749.0         0.23         53.9 
      1750.0         0.30         52.0 
      1751.0         0.23         51.7 
      1752.0         0.17         49.7 
      1753.0         0.17         49.2 
      1754.0         0.13         48.8 
      1755.0         0.20         47.8 
      1756.0         0.20         47.1 
      1757.0         0.17         46.2 
      1758.0         0.17         44.8 
      1759.0         0.17         44.3 
      1760.0         0.23         43.6 
      1761.0         0.45         41.9 
      1762.0         0.17         50.5 
      1763.0         0.27         71.1 
      1764.0         0.27         93.9 
      1765.0         0.40        118.2 
      1766.0         0.23        116.0 
      1767.0         0.23        103.7 
      1768.0         0.23         87.9 
      1769.0         0.27         73.4 
      1770.0         0.23         68.2 
      1771.0         0.20         67.6 
      1772.0         0.27         67.6 
      1773.0         0.22         67.0 
      1774.0         0.20         65.6 
      1775.0         0.20         62.6 
      1776.0         0.20         60.1 
      1777.0         0.20         58.2 
      1778.0         0.20         57.3 
      1779.0         0.20         56.3 
      1780.0         0.17         55.6 
      1781.0         0.20         54.6 
      1782.0         0.17         53.3 
      1783.0         0.17         52.0 
      1784.0         0.13         51.3 
      1785.0         0.20         50.4 
      1786.0         0.20         49.3 
      1787.0         0.13         48.5 
      1788.0         0.13         47.9 
      1789.0         0.13         53.4 
      1790.0         0.10         60.9 
      1791.0         0.30         85.9 
      1792.0         0.27        109.1 
      1793.0         0.17        118.7 
      1794.0         0.27        120.9 
      1795.0         0.33        102.9 
      1796.0         0.23         85.8 
      1797.0         0.23         74.8 
      1798.0         0.27         70.4 
      1799.0         0.23         70.3 
      1800.0         0.30         71.0 
      1801.0         0.13         70.6 
      1802.0         0.20         67.2 
      1803.0         0.23         62.3 
      1804.0         0.25         58.1 
      1805.0         0.23         56.1 
      1806.0         0.27         55.1 
      1807.0         0.23         55.0 
      1808.0         0.20         53.7 
      1809.0         0.20         52.3 
      1810.0         0.27         52.2 
      1811.0         0.13         52.7 
      1812.0         0.17         53.7 
      1813.0         0.20         53.5 
      1814.0         0.20         52.8 
      1815.0         0.20         51.1 
      1816.0         0.17         50.2 
      1817.0         0.17         48.6 
      1818.0         0.33         37.0 
      1819.0         0.17         42.6 
      1820.0         0.10         48.7 
      1821.0         0.07         52.1 
      1822.0         0.25         68.7 
      1823.0         0.23         87.6 
