~Version Information
 VERS.                                  2.0 : CWLS LAS VERSION
 WRAP.                                   NO : WRAPING MODE
 SWARE .                 MController 2.5.0J : SOFTWARE VERSION
~Well Information
 WELL.                        Montoya 1-24V : WELL
 COMP.                       Petrogulf Corp : COMPANY
 FLD.                      Purgatoire River : FIELD
 LOC.                 SE/SW Sec 1 T33S R68W : LOCATION
 DATE.                          10/19-20/04 : DATE(S) LOGGED
 SRVC.       Blanco Geological Services LLC : SERVICE COMPANY
 STAT.                                   CO : STATE
 CNTY.                           Las Animas : COUNTY
 CTRY.                                  USA : COUNTRY
 API.                       05-071-08194-00 : API NUMBER
 STRT.FT                             116.00 : START DEPTH
 STOP.FT                            2700.00 : STOP DEPTH
 STEP.FT                               1.00 : DEPTH INCREMENT
 NULL.                                -9999 : NULL VALUE
~Curve information
 DEPTH.FT                                   :
 ROP.MIN/FT                                 :
 GAS.UNITS                                  :
~ASCII Log data
# ...
       916.0         0.27          4.9 
       917.0         0.25          5.5 
       918.0         0.30        241.4 
       919.0         0.27         71.1 
       920.0         0.27         67.5 
       921.0         0.30         62.9 
       922.0         0.27         57.4 
       923.0         0.27         51.0 
       924.0         0.33         44.6 
       925.0         0.30         29.4 
       926.0         0.20         22.2 
       927.0         0.20         22.2 
       928.0         0.23         21.2 
       929.0         0.23         11.9 
       930.0         0.27          9.5 
       931.0         0.27          8.5 
       932.0         0.40          6.5 
       933.0         0.30          6.3 
       934.0         0.28          5.3 
       935.0         0.30          3.8 
       936.0         0.27          3.5 
       937.0         0.27          3.1 
       938.0         0.27          2.6 
       939.0         0.33          2.8 
       940.0         0.37          2.9 
       941.0         0.37          3.0 
       942.0         0.27          2.8 
       943.0         0.27          2.5 
       944.0         0.17          2.5 
       945.0         0.13          2.7 
       946.0         0.17          2.6 
       947.0         0.25          2.5 
       948.0         0.27          2.8 
       949.0         0.20          2.9 
       950.0         0.30          2.6 
       951.0         0.23          3.0 
       952.0         0.20          3.6 
       953.0         0.27          4.3 
       954.0         0.27          4.7 
       955.0         0.27          5.5 
       956.0         0.27          6.6 
       957.0         0.20          7.0 
       958.0         0.37          7.6 
       959.0         0.37          7.6 
       960.0         0.37          7.1 
       961.0         0.33          7.0 
       962.0         0.35          6.4 
       963.0         0.33          6.3 
       964.0         0.30          6.2 
       965.0         0.30          6.1 
       966.0         0.30          5.6 
       967.0         0.33          4.9 
       968.0         0.27          4.2 
       969.0         0.27          3.2 
       970.0         0.30          1.7 
       971.0         0.30          1.8 
       972.0         0.30          2.0 
       973.0         0.30          1.5 
       974.0         0.32          1.6 
       975.0         0.30          2.2 
       976.0         0.30          2.0 
       977.0         0.27       1759.5 
       978.0         0.30       1759.5 
       979.0         0.27       1870.7 
       980.0         0.23       1718.4 
       981.0         0.27       1013.6 
       982.0         0.23        607.3 
       983.0         0.27        440.0 
       984.0         0.27        440.0 
       985.0         0.27         77.1 
       986.0         0.40         41.7 
       987.0         0.40         24.5 
       988.0         0.30         12.2 
       989.0         0.35          6.2 
       990.0         0.37          3.9 
       991.0         0.33          4.0 
       992.0         0.47          3.7 
       993.0         0.47          3.5 
       994.0         0.40          3.4 
       995.0         0.30          3.6 
       996.0         0.30          3.8 
       997.0         0.23          3.7 
       998.0         0.20          5.0 
       999.0         0.28          5.1 
      1000.0         0.30          5.3 
      1001.0         0.23          4.4 
      1002.0         0.43          3.7 
      1003.0         0.40          3.7 
      1004.0         0.20          4.3 
      1005.0         0.23          4.3 
      1006.0         0.27          3.9 
      1007.0         0.30          3.6 
      1008.0         0.30       3714.3 
      1009.0         0.23       3714.3 
      1010.0         0.38       4536.0 
      1011.0         0.30       5702.8 
      1012.0         0.40       4890.8 
      1013.0         0.27       2336.7 
      1014.0         0.20       2093.1 
      1015.0         0.30       1352.5 
      1016.0         0.27        830.7 
      1017.0         0.23        463.8 
      1018.0         0.20        440.0 
      1019.0         0.33        107.5 
      1020.0         0.27         41.2 
      1021.0         0.27         23.2 
      1022.0         0.20         13.3 
      1023.0         0.30         10.3 
      1024.0         0.15          6.9 
      1025.0         0.17          6.2 
      1026.0         0.33          4.5 
      1027.0         0.30          4.3 
      1028.0         0.30          4.1 
      1029.0         0.27          4.2 
      1030.0         0.27          4.0 
      1031.0         0.30      10441.8 
      1032.0         0.30         16.2 
      1033.0         0.27         15.3 
      1034.0         0.27         15.8 
      1035.0         0.30         12.7 
      1036.0         0.32         11.6 
      1037.0         0.27       1155.8 
      1038.0         0.33        899.4 
      1039.0         0.20        822.6 
      1040.0         0.20        686.5 
      1041.0         0.20        594.8 
      1042.0         0.30        440.0 
      1043.0         0.27         83.2 
      1044.0         0.27         44.5 
      1045.0         0.42         26.8 
      1046.0         0.27         18.1 
      1047.0         0.27         17.7 
      1048.0         0.23         15.8 
      1049.0         0.27         11.9 
      1050.0         0.23          9.2 
      1051.0         0.27          9.1 
      1052.0         0.20          8.6 
      1053.0         0.25          8.1 
      1054.0         0.23          8.2 
      1055.0         0.33          8.5 
      1056.0         0.30         11.1 
      1057.0         0.23         11.9 
      1058.0         0.23         10.6 
      1059.0         0.20          9.4 
      1060.0         0.27          8.2 
      1061.0         0.23          8.4 
      1062.0         0.33          7.8 
      1063.0         0.17          6.9 
      1064.0         0.33          6.9 
      1065.0         0.30          7.0 
      1066.0         0.22        415.1 
      1067.0         0.27        219.2 
      1068.0         0.23        203.9 
      1069.0         0.27        108.8 
      1070.0         0.40         58.8 
      1071.0         0.17         33.8 
      1072.0         0.20         22.4 
      1073.0         0.20         15.3 
      1074.0         0.20         11.2 
      1075.0         0.17          6.8 
      1076.0         0.27          6.2 
      1077.0         0.27          6.2 
      1078.0         0.23          5.4 
      1079.0         0.20          5.2 
      1080.0         0.20          5.5 
      1081.0         0.20          6.2 
      1082.0         0.10          6.2 
      1083.0         0.18          6.5 
      1084.0         0.17          5.5 
      1085.0         0.17          5.4 
      1086.0         0.17          5.1 
      1087.0         0.23          4.8 
      1088.0         0.20          4.7 
      1089.0         0.17          4.4 
      1090.0         0.20          4.3 
      1091.0         0.20          4.6 
      1092.0         0.17          4.5 
      1093.0         0.17          4.5 
      1094.0         0.20          4.4 
      1095.0         0.20       1008.5 
      1096.0         0.23        484.3 
      1097.0         0.13        484.3 
      1098.0         0.17        444.9 
      1099.0         0.17         94.9 
      1100.0         0.17         68.3 
      1101.0         0.22         48.8 
      1102.0         0.27         25.9 
      1103.0         0.27         16.0 
      1104.0         0.27         11.2 
      1105.0         0.23          8.0 
      1106.0         0.28          7.2 
      1107.0         0.20          6.2 
      1108.0         0.23          5.9 
      1109.0         0.27          5.2 
      1110.0         0.27          5.0 
      1111.0         0.27          4.6 
      1112.0         0.20          4.5 
      1113.0         0.20          4.7 
      1114.0         0.23          4.7 
      1115.0         0.17          4.5 
