~Version Information
VERS.                      2.0: CWLS Log ASCII Standard - VERSION 2.0
WRAP.                       NO: One line per depth step
~Well Information Block
STRT.FT               423.0000: 
STOP.FT              2308.2500: 
STEP.FT                 0.2500: 
NULL.                -999.2500: 
COMP.          Pioneer Natural Resources: COMPANY
WELL.             Culver 14-12: WELL
FLD.           Purgatoire River: FIELD
LOC.           913' FSL & 1140' FWL: LOCATION
PROV.                 Colorado: PROVINCE
CNTY.               Las Animas: COUNTRY
SRVC.                Patterson: SERVICE COMPANY
DATE.          Tue Jun 07 00:21:41 2005: LOG DATE
UWI.           05 071 08386 00: UNIQUE WELL ID
~Curve Information Block
DEPT.FT            0 000 00 00: Depth
SN.Ohm-m                      : IEL Short Normal
SP.mV                         : IEL Spontaneous Potential
DIR.Ohm-m                     : IEL Induction Resistivity
GR.GAPI                       : Gamma Ray
~Parameter Information Block
~A  Depth        SN          SP         DIR          GR     
# ...
  1897.0000     25.1262    -36.9460     24.0953    109.5969
  1897.2500     24.3057    -36.4030     23.3448    112.9894
  1897.5000     23.5029    -35.8316     22.6716    115.2608
  1897.7500     22.7245    -35.2470     22.1246    116.1316
  1898.0000     22.0368    -34.6654     21.7338    117.4820
  1898.2500     21.4941    -34.1046     21.4979    118.1269
  1898.5000     21.1071    -33.5805     21.3813    117.7230
  1898.7500     20.8527    -33.1029     21.3304    116.3032
  1899.0000     20.6972    -32.6736     21.2968    112.6506
  1899.2500     20.6289    -32.2901     21.2558    109.2731
  1899.5000     20.6846    -31.9487     21.2100    102.6184
  1899.7500     20.9316    -31.6453     21.1818     97.1385
  1900.0000     21.4118    -31.3727     21.2046     87.9923
  1900.2500     22.0848    -31.1170     21.3145     81.8925
  1900.5000     22.8213    -30.8576     21.5426     73.6133
  1900.7500     23.4714    -30.5724     21.9054     68.8217
  1901.0000     23.9478    -30.2456     22.3964     62.5440
  1901.2500     24.2533    -29.8781     22.9828     58.9716
  1901.5000     24.4603    -29.4929     23.6102     54.9303
  1901.7500     24.6602    -29.1270     24.2160     53.2153
  1902.0000     24.9153    -28.8092     24.7475     51.5007
  1902.2500     25.2448    -28.5446     25.1805     50.3541
  1902.5000     25.6369    -28.3202     25.5300     48.2032
  1902.7500     26.0568    -28.1187     25.8416     46.7447
  1903.0000     26.4556    -27.9260     26.1628     45.2998
  1903.2500     26.8060    -27.7324     26.5116     45.0756
  1903.5000     27.1360    -27.5351     26.8686     45.6364
  1903.7500     27.4951    -27.3395     27.1975     46.2684
  1904.0000     27.8739    -27.1573     27.4777     47.1615
  1904.2500     28.1689    -27.0000     27.7174     47.7625
  1904.5000     28.2495    -26.8727     27.9416     49.1792
  1904.7500     28.0867    -26.7721     28.1755     50.7339
  1905.0000     27.8170    -26.6947     28.4372     53.8181
  1905.2500     27.6616    -26.6512     28.7366     55.8285
  1905.5000     27.7876    -26.6662     29.0682     57.5592
  1905.7500     28.2324    -26.7567     29.4018     57.4613
  1906.0000     28.9006    -26.9107     29.6830     55.7188
  1906.2500     29.6108    -27.0926     29.8477     54.0259
  1906.5000     30.1940    -27.2659     29.8456     51.7219
  1906.7500     30.5699    -27.4075     29.6616     50.9063
  1907.0000     30.7332    -27.5001     29.3268     51.6529
  1907.2500     30.6998    -27.5193     28.9143     53.9694
  1907.5000     30.4743    -27.4326     28.5113     61.0264
  1907.7500     30.0617    -27.2167     28.1826     68.3927
  1908.0000     29.4968    -26.8780     27.9423     82.8296
  1908.2500     28.8381    -26.4579     27.7566     93.5720
  1908.5000     28.1336    -26.0195     27.5762    108.5010
  1908.7500     27.4183    -25.6237     27.3777    115.9638
  1909.0000     26.7414    -25.3109     27.1780    121.3860
  1909.2500     26.1706    -25.0971     27.0067    120.7524
  1909.5000     25.7579    -24.9789     26.8668    114.0932
  1909.7500     25.5131    -24.9404     26.7222    106.8843
  1910.0000     25.4017    -24.9594     26.5235     94.2863
  1910.2500     25.3788    -25.0165     26.2489     85.8783
  1910.5000     25.4473    -25.1057     25.9231     74.0506
  1910.7500     25.6597    -25.2376     25.6018     66.6278
  1911.0000     26.0339    -25.4298     25.3383     56.3801
  1911.2500     26.4981    -25.6904     25.1605     50.6454
  1911.5000     26.9314    -26.0119     25.0705     44.4387
  1911.7500     27.2217    -26.3748     25.0558     41.8991
  1912.0000     27.3192    -26.7589     25.0996     39.9371
  1912.2500     27.2712    -27.1509     25.1793     39.4075
  1912.5000     27.1570    -27.5459     25.2606     38.9235
  1912.7500     26.9995    -27.9404     25.3014     38.4377
  1913.0000     26.7835    -28.3232     25.2709     37.5259
  1913.2500     26.5162    -28.6710     25.1713     37.2296
  1913.5000     26.2424    -28.9540     25.0395     37.9555
  1913.7500     26.0226    -29.1467     24.9225     39.1686
  1914.0000     25.9027    -29.2411     24.8453     41.0836
  1914.2500     25.8977    -29.2521     24.7984     41.6797
  1914.5000     25.9734    -29.2113     24.7560     40.8919
  1914.7500     26.0430    -29.1522     24.7084     39.4242
  1915.0000     26.0426    -29.0956     24.6782     36.7556
  1915.2500     26.0097    -29.0417     24.7060     35.1978
  1915.5000     26.0267    -28.9743     24.8192     33.5308
  1915.7500     26.1329    -28.8729     25.0145     32.7400
  1916.0000     26.3177    -28.7246     25.2648     31.6983
  1916.2500     26.5483    -28.5259     25.5406     31.0075
  1916.5000     26.7930    -28.2764     25.8227     29.9436
  1916.7500     27.0347    -27.9742     26.0980     29.1879
  1917.0000     27.2687    -27.6172     26.3494     28.0991
  1917.2500     27.4888    -27.2081     26.5564     27.7208
  1917.5000     27.6814    -26.7596     26.7086     28.4411
  1917.7500     27.8398    -26.2961     26.8171     29.9659
  1918.0000     27.9701    -25.8466     26.9127     33.3062
  1918.2500     28.0750    -25.4274     27.0269     35.7076
  1918.5000     28.1504    -25.0317     27.1644     39.0479
  1918.7500     28.1965    -24.6385     27.2832     41.1461
  1919.0000     28.2158    -24.2342     27.3085     44.4024
  1919.2500     28.2103    -23.8258     27.1889     46.7049
  1919.5000     28.1735    -23.4360     26.9523     50.0522
  1919.7500     28.0842    -23.0898     26.6961     51.7865
  1920.0000     27.9397    -22.8021     26.5058     52.7627
  1920.2500     27.7983    -22.5726     26.3727     52.0615
  1920.5000     27.7523    -22.3840     26.1791     49.2772
  1920.7500     27.8356    -22.2074     25.7637     46.6974
  1921.0000     27.9557    -22.0145     25.0216     42.4440
  1921.2500     27.9212    -21.7912     23.9627     39.7605
  1921.5000     27.5354    -21.5349     22.6875     37.0957
  1921.7500     26.6632    -21.2374     21.3215     37.2499
  1922.0000     25.2614    -20.8700     19.9676     42.4288
  1922.2500     23.4280    -20.3924     18.6932     50.1124
  1922.5000     21.4049    -19.7821     17.5346     68.1746
  1922.7500     19.4510    -19.0609     16.5041     83.4878
  1923.0000     17.7023    -18.2996     15.5963    107.5199
  1923.2500     16.1844    -17.5926     14.7956    121.5169
  1923.5000     14.9028    -17.0161     14.0845    136.0533
  1923.7500     13.8670    -16.6010     13.4494    141.0856
  1924.0000     13.0676    -16.3391     12.8820    143.5534
  1924.2500     12.4780    -16.2113     12.3761    143.2152
  1924.5000     12.0674    -16.2062     11.9250    140.7987
  1924.7500     11.7997    -16.3149     11.5215    137.9306
  1925.0000     11.6364    -16.5120     11.1616    132.2626
  1925.2500     11.5482    -16.7494     10.8482    128.4375
  1925.5000     11.5092    -16.9722     10.5897    124.1057
  1925.7500     11.4910    -17.1492     10.3958    122.5731
  1926.0000     11.4799    -17.2858     10.2723    122.4792
  1926.2500     11.4839    -17.4061     10.2193    123.9767
  1926.5000     11.5127    -17.5263     10.2325    128.6708
  1926.7500     11.5637    -17.6465     10.3065    133.1541
  1927.0000     11.6289    -17.7583     10.4369    140.4136
  1927.2500     11.7053    -17.8506     10.6197    144.4023
  1927.5000     11.7966    -17.9092     10.8483    147.6685
  1927.7500     11.9091    -17.9209     11.1116    147.8703
  1928.0000     12.0559    -17.8841     11.3966    145.5909
  1928.2500     12.2637    -17.8165     11.6954    142.6998
  1928.5000     12.5628    -17.7494     12.0102    137.2506
  1928.7500     12.9706    -17.7085     12.3519    133.5012
  1929.0000     13.4861    -17.7000     12.7339    128.0392
  1929.2500     14.0911    -17.7137     13.1664    124.1782
  1929.5000     14.7687    -17.7359     13.6553    117.6240
  1929.7500     15.5299    -17.7554     14.2017    113.0359
  1930.0000     16.4070    -17.7628     14.7982    106.8943
  1930.2500     17.4108    -17.7523     15.4268    103.7269
