~Version Information
 VERS.                                  2.0 : CWLS LAS VERSION
 WRAP.                                   NO : WRAPING MODE
 SWARE .                 MController 2.5.0J : SOFTWARE VERSION
~Well Information
 WELL.                  Dude Canyon 22-32Tr : WELL
 COMP.   Pioneer Natural Resources USA Inc. : COMPANY
 FLD.                      Purgatoire River : FIELD
 LOC.                SE/NW Sec 32 T32S R67W : LOCATION
 DATE.                             07/08/04 : DATE(S) LOGGED
 SRVC.       BLANCO Geological Services LLC : SERVICE COMPANY
 STAT.                                   CO : STATE
 CNTY.                           Las Animas : COUNTY
 CTRY.                                  USA : COUNTRY
 API.                       05-071-08421-00 : API NUMBER
 STRT.FT                             476.00 : START DEPTH
 STOP.FT                             1630.00 : STOP DEPTH
 STEP.FT                               1.00 : DEPTH INCREMENT
 NULL.                                -9999 : NULL VALUE
~Curve information
 DEPTH.FT                                   :
 ROP.MIN/FT                                 :
 GAS.UNITS                                  :
~ASCII Log data
# ...
      1474.0         0.33         26.4 
      1475.0         0.33         20.8 
      1476.0         0.42         20.7 
      1477.0         0.27         19.5 
      1478.0         0.30         18.8 
      1479.0         0.37         17.4 
      1480.0         0.27         15.3 
      1481.0         0.27          9.8 
      1482.0         0.27          9.8 
      1483.0         0.23          7.9 
      1484.0         0.20          7.5 
      1485.0         0.20          8.7 
      1486.0         0.23          9.3 
      1487.0         0.20          8.3 
      1488.0         0.32          6.8 
      1489.0         0.20          7.4 
      1490.0         0.17          6.3 
      1491.0         0.20          6.8 
      1492.0         0.27          5.7 
      1493.0         0.27          4.6 
      1494.0         0.23          4.6 
      1495.0         0.30          3.3 
      1496.0         4.62         89.2 
      1497.0         0.42         18.1 
      1498.0         0.20         13.7 
      1499.0         0.13         13.4 
      1500.0         0.13         14.6 
      1501.0         0.27         17.3 
      1502.0         0.20         24.8 
      1503.0         0.17         30.2 
      1504.0         0.10         33.7 
      1505.0         0.10         33.7 
      1506.0         0.20         40.1 
      1507.0         0.27         43.7 
      1508.0         0.33         42.4 
      1509.0         0.23         42.5 
      1510.0         0.17         36.6 
      1511.0         0.20         35.1 
      1512.0         0.23         25.8 
      1513.0         0.25         20.9 
      1514.0         0.23         21.0 
      1515.0         0.30         15.5 
      1516.0         0.30         11.4 
      1517.0         0.30         10.1 
      1518.0         0.27          8.6 
      1519.0         0.23          6.3 
      1520.0         0.27          5.7 
      1521.0         0.23          5.1 
      1522.0         0.20          5.0 
      1523.0         0.17          5.0 
      1524.0         0.10          6.9 
      1525.0         0.20          6.9 
      1526.0         5.63        248.6 
      1527.0         0.30         72.1 
      1528.0         0.30         50.1 
      1529.0         0.30         28.0 
      1530.0         0.30         22.0 
      1531.0         0.27         21.0 
      1532.0         0.25         15.8 
      1533.0         0.20         13.6 
      1534.0         0.43         13.6 
      1535.0         0.60          9.0 
      1536.0         0.27          5.9 
      1537.0         0.30          6.9 
      1538.0         0.37          7.9 
      1539.0         0.27          6.4 
      1540.0         0.27          5.8 
      1541.0         0.27          5.2 
      1542.0         0.32          4.4 
      1543.0         0.30          4.5 
      1544.0         0.23          8.4 
      1545.0         0.27         15.8 
      1546.0         0.27         16.9 
      1547.0         0.27         15.6 
      1548.0         0.27         11.1 
      1549.0         0.27          8.1 
      1550.0         0.33          6.3 
      1551.0         0.23          4.7 
      1552.0         0.30          3.9 
      1553.0         0.33          2.6 
      1554.0         0.28          1.6 
      1555.0         0.30          2.2 
      1556.0         3.68        102.5 
      1557.0         0.37         24.2 
      1558.0         0.33         21.1 
      1559.0         0.30         16.5 
      1560.0         0.27          9.5 
      1561.0         0.27          7.3 
      1562.0         0.33          6.7 
      1563.0         0.37          6.2 
      1564.0         0.38          6.1 
      1565.0         0.30          6.6 
      1566.0         0.37          5.5 
      1567.0         0.97          4.4 
      1568.0         0.50          4.1 
      1569.0         0.33          4.3 
      1570.0         0.23          5.3 
      1571.0         0.23          6.1 
      1572.0         0.27          6.9 
      1573.0         0.28          6.6 
      1574.0         0.33          5.9 
      1575.0         0.30          5.1 
      1576.0         0.27          2.5 
      1577.0         0.27          3.0 
      1578.0         0.37          2.6 
      1579.0         0.37          2.4 
      1580.0         0.40          3.6 
      1581.0         0.33          2.8 
      1582.0         0.23          2.7 
      1583.0         0.20          5.0 
      1584.0         0.42          8.1 
      1585.0         0.50          8.3 
      1586.0         5.28        225.6 
      1587.0         0.33         22.9 
      1588.0         0.32         16.2 
      1589.0         0.30         16.8 
      1590.0         0.20         15.6 
      1591.0         0.17         13.2 
      1592.0         0.17         11.7 
      1593.0         0.27         12.0 
      1594.0         0.47         12.5 
      1595.0         0.20         14.2 
      1596.0         0.27         15.3 
      1597.0         0.57         14.8 
      1598.0         0.37          9.9 
      1599.0         0.35          4.7 
      1600.0         0.40          2.0 
      1601.0         0.47          0.5 
      1602.0         0.50          0.1 
      1603.0         0.40          0.3 
      1604.0         0.27          0.5 
      1605.0         0.23          1.2 
      1606.0         0.23          1.8 
      1607.0         0.23          1.9 
      1608.0         0.30          2.3 
      1609.0         0.38          3.4 
      1610.0         0.27          2.8 
      1611.0         0.40          3.3 
      1612.0         0.47          2.8 
      1613.0         0.30          3.3 
      1614.0         0.40          3.4 
      1615.0         0.27          3.0 
      1616.0         4.08        145.5 
      1617.0         0.30         46.9 
      1618.0         0.32         27.7 
      1619.0         0.27         20.2 
      1620.0         0.33         16.1 
      1621.0         0.30         12.0 
      1622.0         0.27         11.3 
      1623.0         0.27          9.1 
      1624.0         0.27          6.5 
      1625.0         0.27          5.1 
      1626.0         0.23          3.8 
      1627.0         0.23          3.1 
      1628.0         0.17          2.8 
      1629.0         0.30          2.7 
      1630.0         0.25          3.4 
