~Version Information
VERS.                      2.0: CWLS Log ASCII Standard - VERSION 2.0
WRAP.                       NO: One line per depth step
~Well Information Block
STRT.FT               702.7000: 
STOP.FT              2529.2000: 
STEP.FT                 0.1000: 
NULL.                -999.2500: 
COMP.          Pioneer Natural Resources: COMPANY
WELL.          Aztec Federal 41-15: WELL
FLD.           Purgatorie River: FIELD
LOC.           706' FNL & 1253' FEL: LOCATION
CNTY.               Las Animas: COUNTY
SRVC.          Superior Well Services: SERVICE COMPANY
DATE.          Tue Mar 18 09-36-47 2008: LOG DATE
UWI.           05-071-08342-00: UNIQUE WELL ID
STAT.                       CO: STATE
~Curve Information Block
DEPT.FT            0 000 00 00: Depth
DCAL.in                       : CDL Caliper
DPOR.pu                       : CDL Density Porosity
GR.GAPI                       : Gamma Ray
RHOB.g/cc                     : CDL Bulk Density
RHOC.g/cc                     : CDL Density Correction
~Parameter Information Block
~A  Depth       DCAL        DPOR         GR         RHOB        RHOC    
# ...
   713.9000      8.1193     26.7100     79.9394      2.2093     -0.3944
   714.0000      8.1183     29.2588     78.8526      2.1672     -0.4199
   714.1000      8.1172     31.0510     79.9417      2.1377     -0.4466
   714.2000      8.1162     31.7602     82.2217      2.1260     -0.4650
   714.3000      8.1152     30.8720     81.8924      2.1406     -0.4569
   714.4000      8.1145     29.4818     78.6154      2.1636     -0.4339
   714.5000      8.1139     28.9793     75.4126      2.1718     -0.4204
   714.6000      8.1134     29.3980     73.7071      2.1649     -0.4214
   714.7000      8.1130     30.1963     72.3244      2.1518     -0.4353
   714.8000      8.1128     30.5603     71.2213      2.1458     -0.4524
   714.9000      8.1127     29.8221     71.3453      2.1579     -0.4520
   715.0000      8.1129     27.9219     72.1735      2.1893     -0.4358
   715.1000      8.1131     25.3697     71.8496      2.2314     -0.4181
   715.2000      8.1134     23.2150     69.6309      2.2670     -0.4008
   715.3000      8.1137     22.2599     66.6627      2.2827     -0.3892
   715.4000      8.1138     22.1190     63.9284      2.2850     -0.3905
   715.5000      8.1137     22.1377     63.0178      2.2847     -0.3966
   715.6000      8.1134     22.6609     63.6440      2.2761     -0.4010
   715.7000      8.1131     24.1731     63.4764      2.2511     -0.4092
   715.8000      8.1128     25.1224     62.6311      2.2355     -0.4144
   715.9000      8.1127     24.8220     61.2480      2.2404     -0.4175
   716.0000      8.1130     24.8136     59.8285      2.2406     -0.4341
   716.1000      8.1135     25.4855     60.0924      2.2295     -0.4596
   716.2000      8.1141     25.8807     61.7922      2.2230     -0.4750
   716.3000      8.1147     26.1400     63.7962      2.2187     -0.4779
   716.4000      8.1151     26.4634     65.4106      2.2134     -0.4696
   716.5000      8.1154     25.9238     66.7057      2.2223     -0.4427
   716.6000      8.1158     24.4329     68.4796      2.2469     -0.4090
   716.7000      8.1164     23.0674     70.1049      2.2694     -0.3949
   716.8000      8.1171     22.8848     70.3195      2.2724     -0.4078
   716.9000      8.1180     23.8009     70.4621      2.2573     -0.4303
   717.0000      8.1189     24.9304     72.6307      2.2386     -0.4447
   717.1000      8.1198     25.8100     77.0962      2.2241     -0.4476
   717.2000      8.1206     26.6594     80.1792      2.2101     -0.4533
   717.3000      8.1213     27.7285     79.6529      2.1925     -0.4720
   717.4000      8.1219     29.0574     80.1619      2.1706     -0.5001
   717.5000      8.1222     30.3396     84.1097      2.1494     -0.5354
   717.6000      8.1220     30.3999     87.3481      2.1484     -0.5780
   717.7000      8.1213     29.0884     87.0882      2.1700     -0.6358
   717.8000      8.1200     28.6571     85.1856      2.1772     -0.7119
   717.9000      8.1180     32.3904     84.4937      2.1156     -0.8155
   718.0000      8.1155     40.6459     84.9436      1.9793     -0.9693
   718.1000      8.1127     50.1794     84.3063      1.8220     -1.1398
   718.2000      8.1098     55.4883     82.7626      1.7344     -1.2135
   718.3000      8.1070     54.7504     80.7434      1.7466     -1.1523
   718.4000      8.1040     49.8949     78.1702      1.8267     -1.0281
   718.5000      8.1007     39.9556     76.0108      1.9907     -0.8693
   718.6000      8.0966     25.5193     75.0850      2.2289     -0.6822
   718.7000      8.0914     11.3305     74.7107      2.4630     -0.5136
   718.8000      8.0852      1.2799     72.5367      2.6289     -0.4011
   718.9000      8.0784     -3.0536     68.9808      2.7004     -0.3488
   719.0000      8.0714     -1.6995     67.2856      2.6780     -0.3490
   719.1000      8.0652      5.1359     68.0483      2.5653     -0.3931
   719.2000      8.0604     14.4244     69.9915      2.4120     -0.4480
   719.3000      8.0575     21.4246     71.3095      2.2965     -0.4771
   719.4000      8.0565     24.8894     71.3134      2.2393     -0.4788
   719.5000      8.0572     25.2652     73.0571      2.2331     -0.4598
   719.6000      8.0591     23.9535     77.8280      2.2548     -0.4295
   719.7000      8.0618     23.3645     82.2221      2.2645     -0.4085
   719.8000      8.0648     23.7069     84.6036      2.2588     -0.3998
   719.9000      8.0677     24.1971     87.0667      2.2507     -0.4011
   720.0000      8.0704     25.2207     89.7170      2.2339     -0.4184
   720.1000      8.0725     26.2946     90.2342      2.2161     -0.4388
   720.2000      8.0742     26.7210     88.8374      2.2091     -0.4446
   720.3000      8.0756     27.2151     87.8493      2.2010     -0.4439
   720.4000      8.0766     28.0509     86.5122      2.1872     -0.4492
   720.5000      8.0775     28.3429     82.2745      2.1823     -0.4587
   720.6000      8.0781     27.4205     76.4756      2.1976     -0.4637
   720.7000      8.0784     25.8318     73.5217      2.2238     -0.4573
   720.8000      8.0784     24.9248     74.2620      2.2387     -0.4489
   720.9000      8.0781     25.1214     76.0990      2.2355     -0.4529
   721.0000      8.0775     25.3270     77.7012      2.2321     -0.4611
   721.1000      8.0769     25.4270     78.3537      2.2305     -0.4661
   721.2000      8.0763     26.5688     77.7441      2.2116     -0.4763
   721.3000      8.0758     27.9159     76.8903      2.1894     -0.4849
   721.4000      8.0753     27.3259     77.1583      2.1991     -0.4750
   721.5000      8.0747     24.4464     79.5408      2.2466     -0.4418
   721.6000      8.0738     20.9720     82.5100      2.3040     -0.3965
   721.7000      8.0727     18.8568     83.5854      2.3389     -0.3641
   721.8000      8.0716     18.4686     81.7724      2.3453     -0.3594
   721.9000      8.0707     19.5786     78.8322      2.3270     -0.3794
   722.0000      8.0702     22.0173     78.9170      2.2867     -0.4142
   722.1000      8.0701     24.5000     82.1376      2.2458     -0.4480
   722.2000      8.0704     26.0523     83.3591      2.2201     -0.4685
   722.3000      8.0711     26.9945     79.7122      2.2046     -0.4790
   722.4000      8.0721     27.5945     74.0578      2.1947     -0.4830
   722.5000      8.0731     27.9363     70.1354      2.1891     -0.4815
   722.6000      8.0742     27.4076     67.8312      2.1978     -0.4708
   722.7000      8.0753     25.4222     67.1980      2.2305     -0.4502
   722.8000      8.0765     23.1926     68.9166      2.2673     -0.4341
   722.9000      8.0778     22.5618     70.6874      2.2777     -0.4288
   723.0000      8.0789     23.2991     70.6056      2.2656     -0.4266
   723.1000      8.0797     23.4127     70.5117      2.2637     -0.4204
   723.2000      8.0801     22.1721     72.6015      2.2842     -0.4059
   723.3000      8.0802     21.7064     76.2726      2.2918     -0.4030
   723.4000      8.0800     23.8471     78.9760      2.2565     -0.4293
   723.5000      8.0796     26.5607     79.8361      2.2117     -0.4556
   723.6000      8.0792     27.8653     80.1762      2.1902     -0.4609
   723.7000      8.0790     28.3621     81.1776      2.1820     -0.4620
   723.8000      8.0788     28.7527     82.8215      2.1756     -0.4686
   723.9000      8.0788     28.6532     83.6096      2.1772     -0.4693
   724.0000      8.0786     26.8348     82.8007      2.2072     -0.4545
   724.1000      8.0783     23.7030     80.9672      2.2589     -0.4363
   724.2000      8.0779     21.5987     78.2354      2.2936     -0.4312
   724.3000      8.0775     21.6751     75.6662      2.2924     -0.4364
   724.4000      8.0771     22.7826     75.7668      2.2741     -0.4374
   724.5000      8.0770     23.4674     77.6589      2.2628     -0.4310
   724.6000      8.0770     23.3476     77.7926      2.2648     -0.4282
   724.7000      8.0772     22.3738     75.2385      2.2808     -0.4291
   724.8000      8.0774     21.1810     71.7276      2.3005     -0.4273
   724.9000      8.0774     20.9313     70.5615      2.3046     -0.4294
   725.0000      8.0772     21.5722     73.2059      2.2941     -0.4392
