~Version Information
VERS.                      2.0: CWLS Log ASCII Standard - VERSION 2.0
WRAP.                       NO: One line per depth step
~Well Information Block
STRT.FT               494.2500: 
STOP.FT              1992.0000: 
STEP.FT                 0.2500: 
NULL.                -999.2500: 
COMP.          Petrogulf Corporation: COMPANY
WELL.               Furu 6-23R: WELL
FLD.           Purgatoire River: FIELD
LOC.           2211' FSL & 1780' FWL--: LOCATION
CNTY.               Las Animas: COUNTY
SRVC.                Patterson: SERVICE COMPANY
DATE.          Wed Jun 21 14:57:59 2006: LOG DATE
UWI.           05 071 08266 00: UNIQUE WELL ID
STAT.                 Colorado: STATE
~Curve Information Block
DEPT.FT            0 000 00 00: Depth
GR.GAPI                       : Gamma Ray
RILD.Ohm-m                    : DIL Deep Resistivity
RILM.Ohm-m                    : DIL Medium Resistivity
RLL3.Ohm-m                    : DIL Shallow Resistivity
SP.mV                         : DIL Spontaneous Potential
~Parameter Information Block
~A  Depth        GR         RILD        RILM        RLL3         SP     
# ...
  1306.2500    131.3058     14.0470     13.2859     14.7273     75.7280
  1306.5000    132.7188     14.1185     13.3873     14.9231     75.5817
  1306.7500    132.3606     14.2070     13.5831     15.6511     75.5036
  1307.0000    130.3952     14.3041     13.8543     16.7990     75.5297
  1307.2500    128.5652     14.4064     14.1733     18.1121     75.6306
  1307.5000    125.3878     14.5182     14.5095     19.2950     75.7429
  1307.7500    123.0283     14.6525     14.8373     20.1165     75.8062
  1308.0000    119.3045     14.8260     15.1440     20.4761     75.7770
  1308.2500    116.8864     15.0515     15.4311     20.4281     75.6282
  1308.5000    113.8109     15.3314     15.7104     20.1660     75.3551
  1308.7500    112.5827     15.6567     15.9960     19.9488     74.9848
  1309.0000    112.9699     16.0109     16.2957     19.9743     74.5688
  1309.2500    114.8976     16.3767     16.6076     20.2775     74.1589
  1309.5000    118.9278     16.7402     16.9210     20.7352     73.7845
  1309.7500    120.8397     17.0929     17.2235     21.1614     73.4439
  1310.0000    120.5678     17.4325     17.5081     21.4277     73.1149
  1310.2500    118.3473     17.7639     17.7776     21.5401     72.7764
  1310.5000    113.7658     18.0994     18.0450     21.6289     72.4278
  1310.7500    111.0676     18.4576     18.3304     21.8376     72.0883
  1311.0000    108.6872     18.8593     18.6594     22.1890     71.7805
  1311.2500    108.3276     19.3221     19.0619     22.5662     71.5132
  1311.5000    109.2502     19.8557     19.5714     22.8467     71.2730
  1311.7500    110.3186     20.4606     20.2239     23.0820     71.0273
  1312.0000    111.1786     21.1268     21.0564     23.5938     70.7407
  1312.2500    110.3770     21.8309     22.1052     24.9780     70.3996
  1312.5000    106.3742     22.5328     23.3970     28.0451     70.0282
  1312.7500    102.1199     23.1749     24.9308     33.6344     69.6791
  1313.0000     94.7097     23.6911     26.6522     42.2330     69.4079
  1313.2500     89.8910     24.0262     28.4287     53.5459     69.2489
  1313.5000     83.5306     24.1559     30.0447     66.3087     69.2081
  1313.7500     79.9256     24.0935     31.2324     78.4201     69.2743
  1314.0000     75.8345     23.8757     31.7430     87.2759     69.4316
  1314.2500     74.6626     23.5404     31.4389     90.3631     69.6640
  1314.5000     76.5818     23.1142     30.3576     86.2439     69.9537
  1314.7500     80.5601     22.6158     28.6990     75.5183     70.2833
  1315.0000     89.7004     22.0647     26.7416     60.8925     70.6410
  1315.2500     97.0189     21.4840     24.7435     46.0076     71.0219
  1315.5000    108.4908     20.8957     22.8845     33.7815     71.4265
  1315.7500    115.9049     20.3129     21.2583     25.4087     71.8559
  1316.0000    125.8959     19.7387     19.8926     20.5095     72.3022
  1316.2500    131.3434     19.1717     18.7778     18.0026     72.7333
  1316.5000    137.0048     18.6154     17.8889     16.8979     73.0960
  1316.7500    138.9865     18.0848     17.1998     16.5681     73.3472
  1317.0000    139.8048     17.6047     16.6885     16.6509     73.4872
  1317.2500    139.4475     17.2024     16.3371     16.9279     73.5583
  1317.5000    138.1550     16.8989     16.1309     17.2989     73.6119
  1317.7500    136.8557     16.7049     16.0573     17.7629     73.6763
  1318.0000    134.4734     16.6207     16.1055     18.3565     73.7461
  1318.2500    132.9991     16.6385     16.2656     19.0948     73.7910
  1318.5000    131.3720     16.7435     16.5265     19.9568     73.7808
  1318.7500    130.2907     16.9149     16.8744     20.9000     73.7143
  1319.0000    127.6026     17.1272     17.2899     21.8703     73.6326
  1319.2500    125.0275     17.3523     17.7481     22.8027     73.6005
  1319.5000    120.9683     17.5629     18.2184     23.6229     73.6677
  1319.7500    118.6969     17.7350     18.6661     24.2617     73.8398
  1320.0000    116.2717     17.8505     19.0532     24.6793     74.0832
  1320.2500    115.4398     17.8968     19.3403     24.8738     74.3555
  1320.5000    115.8958     17.8653     19.4898     24.8609     74.6312
  1320.7500    117.4497     17.7505     19.4746     24.6427     74.8963
  1321.0000    120.8091     17.5530     19.2859     24.2126     75.1251
  1321.2500    122.9876     17.2833     18.9361     23.5898     75.2716
  1321.5000    125.7757     16.9635     18.4546     22.8185     75.2918
  1321.7500    127.7102     16.6227     17.8805     21.9091     75.1782
  1322.0000    131.3573     16.2875     17.2569     20.8064     74.9729
  1322.2500    134.1425     15.9730     16.6279     19.4673     74.7476
  1322.5000    137.9621     15.6807     16.0344     17.9875     74.5689
  1322.7500    139.7457     15.4025     15.5093     16.6396     74.4738
  1323.0000    140.7945     15.1304     15.0718     15.7635     74.4660
  1323.2500    140.3837     14.8642     14.7256     15.5707     74.5328
  1323.5000    138.3204     14.6113     14.4604     15.9886     74.6651
  1323.7500    136.1884     14.3833     14.2573     16.6690     74.8664
  1324.0000    132.4557     14.1905     14.0966     17.1922     75.1367
  1324.2500    130.1437     14.0400     13.9646     17.3388     75.4454
  1324.5000    127.8693     13.9363     13.8570     17.2083     75.7217
  1324.7500    127.4262     13.8825     13.7776     17.0696     75.8806
  1325.0000    128.1112     13.8790     13.7340     17.0890     75.8665
  1325.2500    129.0161     13.9216     13.7330     17.2099     75.6802
  1325.5000    130.2734     14.0001     13.7767     17.2873     75.3695
  1325.7500    130.7244     14.0994     13.8616     17.2886     74.9967
  1326.0000    130.3317     14.2046     13.9781     17.3354     74.6119
  1326.2500    129.1271     14.3082     14.1118     17.5717     74.2459
  1326.5000    126.0612     14.4136     14.2444     18.0254     73.9137
  1326.7500    123.7791     14.5330     14.3573     18.5806     73.6141
  1327.0000    121.5037     14.6827     14.4376     19.0386     73.3315
  1327.2500    121.4139     14.8771     14.4844     19.1986     73.0533
  1327.5000    123.4308     15.1257     14.5129     18.9312     72.7892
  1327.7500    125.5542     15.4310     14.5545     18.2564     72.5711
  1328.0000    128.4691     15.7878     14.6513     17.3906     72.4296
  1328.2500    129.7538     16.1826     14.8481     16.6881     72.3747
  1328.5000    130.6311     16.5944     15.1849     16.5017     72.3997
  1328.7500    130.4386     16.9982     15.6901     17.1209     72.4937
  1329.0000    128.0829     17.3699     16.3738     18.8716     72.6315
  1329.2500    124.4431     17.6938     17.2176     22.1963     72.7565
  1329.5000    115.7086     17.9671     18.1651     27.4156     72.7989
  1329.7500    108.6648     18.2000     19.1211     34.1692     72.7253
  1330.0000     99.3523     18.4134     19.9688     41.0297     72.5650
  1330.2500     95.7971     18.6325     20.6090     45.8770     72.3850
  1330.5000     95.9550     18.8791     20.9989     46.9955     72.2424
  1330.7500     99.3115     19.1629     21.1642     44.1069     72.1573
  1331.0000    106.8776     19.4736     21.1764     38.5379     72.1191
  1331.2500    111.9280     19.7786     21.1123     32.4206     72.1182
  1331.5000    117.4390     20.0294     21.0230     27.5291     72.1722
  1331.7500    119.4928     20.1767     20.9217     24.5789     72.3195
  1332.0000    121.1651     20.1893     20.7894     23.3628     72.5848
  1332.2500    122.1246     20.0639     20.5915     23.3129     72.9486
  1332.5000    124.0071     19.8245     20.2998     23.8443     73.3447
  1332.7500    125.5247     19.5121     19.9094     24.3893     73.6874
  1333.0000    127.7644     19.1737     19.4436     24.4817     73.9104
  1333.2500    128.8662     18.8553     18.9443     23.9732     73.9874
  1333.5000    129.2292     18.5971     18.4572     23.0842     73.9285
  1333.7500    128.4062     18.4305     18.0217     22.1565     73.7620
  1334.0000    126.0979     18.3747     17.6697     21.3764     73.5161
