~Version Information
 VERS.                      2.0: CWLS Log ASCII Standard - VERSION 2.0
 WRAP.                       NO: One line per depth step
 ~Well Information Block
 STRT.FT                -8.0000: 
 STOP.FT              2581.0000: 
 STEP.FT                 0.2500: 
 NULL.                -999.2500: 
 COMP.          Petrogulf Corporation: COMPANY
 WELL.               YWAM 7-23V: WELL
 FLD.           Purgatorie River: FIELD
 LOC.           230' FSL & 225' FWL: LOCATION
 CNTY.               Las Animas: COUNTY
 SRVC.                         : SERVICE COMPANY
 DATE.          Mon Nov 22 10:51:24 2004: LOG DATE
 UWI.           05-071-08227-00: UNIQUE WELL ID
 STAT.                 Colorado: STATE
 PROV.                         :Province
 ~Curve Information Block
 DEPT.FT            0 000 00 00: Depth
 TT3.usec                      : CBL 3' Travel Time
 AMP3.mV                       : CBL 3' Amplitude
 GR.GAPI                       : Gamma Ray
 CCL.                          : Casing Collar Locator
 ~Parameter Information Block
 ~A  Depth       TT3         AMP3         GR         CCL     
# ...
   997.0000    781.1479      6.2845    152.1096      0.0000
   997.2500    785.1517      6.1950    156.3460      0.0000
   997.5000    791.2001      6.1258    158.5663      0.0000
   997.7500    797.8361      6.0960    156.0523      0.0000
   998.0000    802.5468      6.1105    148.5594      0.0000
   998.2500    803.3648      6.1568    138.9523      0.0000
   998.5000    800.4534      6.2117    131.1416      0.0000
   998.7500    796.2488      6.2536    127.4011      0.0000
   999.0000    793.7482      6.2743    127.7235      0.0000
   999.2500    794.1942      6.2796    131.0849      0.0000
   999.5000    796.2267      6.2785    136.3926      0.0000
   999.7500    797.2750      6.2697    142.4552      0.0000
  1000.0000    795.6367      6.2422    148.1109      0.0000
  1000.2500    791.3618      6.1930    152.7706      0.0000
  1000.5000    785.7859      6.1422    156.4591      0.0000
  1000.7500    780.5891      6.1244    159.2797      0.0000
  1001.0000    776.9302      6.1621    161.1512      0.0000
  1001.2500    775.0486      6.2508    162.1246      0.0000
  1001.5000    774.5485      6.3657    162.5800      0.0000
  1001.7500    774.9135      6.4766    162.7250      0.0000
  1002.0000    775.7079      6.5582    162.0799      0.0000
  1002.2500    776.5263      6.5950    159.9628      0.0000
  1002.5000    777.0316      6.5859    156.5102      0.0000
  1002.7500    777.0889      6.5437    152.9523      0.0000
  1003.0000    776.7958      6.4912    150.8235      0.0000
  1003.2500    776.3895      6.4539    150.9724      0.0000
  1003.5000    776.1391      6.4522    153.1543      0.0000
  1003.7500    776.3280      6.4950    156.3226      0.0000
  1004.0000    777.3752      6.5728    159.2786      0.0000
  1004.2500    779.9551      6.6539    161.2319      0.0000
  1004.5000    784.7321      6.6951    161.9448      0.0000
  1004.7500    791.6218      6.6714    161.6261      0.0000
  1005.0000    799.2629      6.5962    160.7665      0.0000
  1005.2500    805.4565      6.5103    159.7407      0.0000
  1005.5000    808.1356      6.4519    158.4319      0.0000
  1005.7500    805.7889      6.4355    156.6995      0.0000
  1006.0000    797.3317      6.4495    155.2446      0.0000
  1006.2500    782.1870      6.4689    155.2314      0.0000
  1006.5000    760.8032      6.4738    156.6790      0.0000
  1006.7500    735.5541      6.4608    157.7960      0.0000
  1007.0000    711.8148      6.4408    156.3857      0.0000
  1007.2500    697.1304      6.4305    151.9160      0.0000
  1007.5000    696.6371      6.4423    146.1315      0.0000
  1007.7500    708.2573      6.4750    141.6541      0.0000
  1008.0000    723.6014      6.5152    139.9572      0.0000
  1008.2500    733.9006      6.5539    140.4754      0.0000
  1008.5000    734.2793      6.5947    141.4386      0.0000
  1008.7500    723.2256      6.6435    141.5354      0.0000
  1009.0000    700.4822      6.6943    140.7626      0.0000
  1009.2500    667.0977      6.7331    139.7737      0.0000
  1009.5000    627.0532      6.7512    138.8788      0.0000
  1009.7500    587.0769      6.7527    137.9081      0.0000
  1010.0000    553.4239      6.7518    136.6653      0.0000
  1010.2500    528.6968      6.7635    135.1392      0.0000
  1010.5000    511.9828      6.7914    133.4555      0.0000
  1010.7500    501.3612      6.8223    131.8965      0.0000
  1011.0000    495.6915      6.8373    130.6919      0.0000
  1011.2500    494.6452      6.8290    129.4638      0.0000
  1011.5000    497.9250      6.8074    127.3006      0.0000
  1011.7500    504.3701      6.7878    123.8713      0.0000
  1012.0000    511.4459      6.7766    120.1683      0.0000
  1012.2500    515.8657      6.7694    117.7497      0.0000
  1012.5000    515.2724      6.7616    117.4661      0.0000
  1012.7500    509.7298      6.7553    119.1077      0.0000
  1013.0000    501.7898      6.7546    121.9887      0.0000
  1013.2500    495.0715      6.7570    125.6017      0.0000
  1013.5000    492.2782      6.7537    129.7279      0.0000
  1013.7500    493.7549      6.7375    134.0902      0.0000
  1014.0000    497.3224      6.7096    138.3109      0.0000
  1014.2500    500.1448      6.6775    142.4484      0.0000
  1014.5000    502.1479      6.6473    147.1208      0.0000
  1014.7500    507.2830      6.6197    152.4763      0.0000
  1015.0000    519.4313      6.5927    157.2091      0.0000
  1015.2500    536.9289      6.5667    159.1805      0.0000
  1015.5000    553.2776      6.5441    157.2236      0.0000
  1015.7500    563.6900      6.5213    152.4032      0.0000
  1016.0000    569.3523      6.4816    147.6582      0.0000
  1016.2500    575.4515      6.4016    145.8587      0.0000
  1016.5000    587.1743      6.2698    147.5970      0.0000
  1016.7500    607.9518      6.0970    150.7792      0.0000
  1017.0000    639.1201      5.9069    152.5596      0.0000
  1017.2500    678.7453      5.7183    151.6040      0.0000
  1017.5000    720.7797      5.5400    148.5253      0.0000
  1017.7500    757.3446      5.3784    144.8043      0.0000
  1018.0000    783.0109      5.2443    141.8766      0.0000
  1018.2500    796.9008      5.1468    140.8590      0.0000
  1018.5000    801.3730      5.0826    142.2598      0.0000
  1018.7500    799.7567      5.0362    145.5667      0.0000
  1019.0000    794.7612      4.9931    149.4273      0.0000
  1019.2500    787.3818      4.9519    152.5955      0.0000
  1019.5000    775.9468      4.9236    154.6180      0.0000
  1019.7500    755.9125      4.9243    155.4347      0.0000
  1020.0000    722.0554      4.9685    154.6604      0.0000
  1020.2500    673.5068      5.0672    151.7132      0.0000
  1020.5000    617.6548      5.2227    146.5663      0.0000
  1020.7500    567.5076      5.4285    139.9158      0.0000
  1021.0000    534.5359      5.6750    132.4305      0.0000
  1021.2500    524.7159      5.9466    124.1042      0.0000
  1021.5000    539.1714      6.2132    114.5277      0.0000
  1021.7500    573.7787      6.4572    103.6796      0.0000
  1022.0000    616.8857      6.7235     92.4270      0.0000
  1022.2500    651.1317      7.0956     82.3534      0.0000
  1022.5000    660.8878      7.5884     75.0792      0.0000
  1022.7500    640.0222      8.1028     71.6090      0.0000
  1023.0000    597.0294      8.4997     72.2022      2.9434
  1023.2500    555.0291      8.6865     76.6852      0.0000
  1023.5000    540.2199      8.6450     84.7846      0.0000
  1023.7500    561.6603      8.4434     96.2077      0.0000
  1024.0000    601.6107      8.2251    110.4119      0.0000
  1024.2500    630.4232      8.1187    126.2067      0.0000
  1024.5000    632.5132      8.1156    141.6566      0.0000
  1024.7500    615.5927      8.0620    154.5170      0.0000
  1025.0000    595.5469      7.8035    162.8587      0.0000
  1025.2500    578.3774      7.3302    165.5689      0.0000
  1025.5000    559.6357      6.7762    162.8571      0.0000
  1025.7500    535.7090      6.3029    156.5094      0.0000
  1026.0000    509.5984      5.9973    149.2066      0.0000
  1026.2500    487.3489      5.8528    143.1192      0.0000
  1026.5000    473.3401      5.8107    138.9990      0.0000
  1026.7500    469.3777      5.8087    136.3334      0.0000
  1027.0000    475.4809      5.8082    134.1252      0.0000
  1027.2500    489.3791      5.8001    131.6598      0.0000
  1027.5000    505.6502      5.7951    128.8872      0.0000
  1027.7500    517.2765      5.8048    126.3292      0.0000
  1028.0000    519.7029      5.8271    124.8514      0.0000
  1028.2500    513.6406      5.8484    125.4665      0.0000
  1028.5000    503.5262      5.8607    128.8004      0.0000
  1028.7500    493.6970      5.8709    134.1223      0.0000
  1029.0000    486.6339      5.8911    139.0477      0.0000
  1029.2500    484.0047      5.9239    140.9748      0.0000
  1029.5000    487.4577      5.9573    139.1527      0.0000
  1029.7500    497.3870      5.9751    135.0378      0.0000
  1030.0000    511.8158      5.9736    130.6948      0.0000
  1030.2500    527.4600      5.9686    127.4448      0.0000
