~Version Information
VERS.                      2.0: CWLS Log ASCII Standard - VERSION 2.0
WRAP.                       NO: One line per depth step
~Well Information Block
STRT.FT               700.0000: 
STOP.FT              1869.5000: 
STEP.FT                 0.2500: 
NULL.                -999.2500: 
COMP.          Petrogulf Corporation: COMPANY
WELL.             State 16-24R: WELL
FLD.           Purgatorie River: FIELD
LOC.           541' FSL & 2371' FWL: LOCATION
PROV.                 Colorado: PROVINCE
CNTY.               Las Animas: COUNTRY
SRVC.                Patterson: SERVICE COMPANY
DATE.          Fri Aug 12 09:07:22 2005: LOG DATE
UWI.                071-08312 : UNIQUE WELL ID
~Curve Information Block
DEPT.FT            0 000 00 00: Depth
SP.mV                         : DIL Spontaneous Potential
RILD.Ohm-m                    : DIL Deep Resistivity
RILM.Ohm-m                    : DIL Medium Resistivity
RLL3.Ohm-m                    : DIL Shallow Resistivity
GR.GAPI                       : Gamma Ray
~Parameter Information Block
~A  Depth        SP         RILD        RILM        RLL3         GR     
# ...
   784.0000    -61.8460     41.2759     36.2898     25.8808     74.4045
   784.2500    -64.4128     43.5192     36.0499     27.2548     70.3659
   784.5000    -67.9256     43.6878     40.9100     29.1170     68.5331
   784.7500    -70.7883     40.9175     42.7502     31.9957     56.8301
   785.0000    -72.3018     44.6900     42.1506     35.3106     50.3581
   785.2500    -74.7908     40.8574     48.0336     38.9080     44.0223
   785.5000    -76.7529     38.4208     48.8090     43.1759     37.0643
   785.7500    -78.2296     35.7360     47.5582     45.8372     33.8662
   786.0000    -79.1148     34.0037     45.8387     45.8226     27.0663
   786.2500    -76.3212     34.2538     46.0418     44.9402     28.7144
   786.5000    -73.4315     36.0967     49.3451     44.2663     30.7071
   786.7500    -68.9132     33.3605     48.4319     44.4016     32.3663
   787.0000    -64.7393     33.0828     48.4215     45.2872     36.2121
   787.2500    -58.0271     30.4167     43.9809     44.2712     41.9238
   787.5000    -50.1666     29.6080     40.8068     38.5372     53.9018
   787.7500    -41.5425     26.1074     37.3816     31.8168     60.0127
   788.0000    -31.1145     24.9547     32.4270     26.7226     77.1577
   788.2500    -22.7667     22.7389     29.3029     23.1464     82.1025
   788.5000    -15.8007     20.7017     26.5309     21.8278     81.6077
   788.7500    -10.6554     18.8724     23.4073     21.3628     80.3956
   789.0000     -8.1110     16.7702     21.6863     20.8347     83.2291
   789.2500     -6.2584     15.9274     19.1373     19.6820     80.0497
   789.5000     -6.8074     14.4723     17.2445     18.1434     81.5721
   789.7500     -6.9031     12.9702     15.6850     15.9200     80.3191
   790.0000     -5.4595     12.2164     14.4263     14.5651     85.5197
   790.2500      0.1650     11.6078     12.8947     13.8013     86.9851
   790.5000      8.0127     10.9580     12.3010     13.4031     85.8413
   790.7500     16.3269     10.5217     11.5949     13.1593     89.5125
   791.0000     23.0785     10.3918     11.3318     13.0167     89.7508
   791.2500     26.0660      9.8586     10.8742     13.0409     84.2964
   791.5000     29.7192      9.5990     10.6723     13.1308     81.7484
   791.7500     36.6559      9.1974     10.4834     13.3037     80.8857
   792.0000     44.2097      9.0280     10.5169     13.4843     94.3461
   792.2500     48.6545      8.7772     10.3290     13.7019     89.4706
   792.5000     51.6245      8.6286     10.2349     13.9155     87.1435
   792.7500     52.6663      8.4266     10.2620     13.9897     92.1704
   793.0000     53.3991      8.2917      9.9929     13.9182     95.4946
   793.2500     55.2020      8.2979      9.8984     13.7822    100.5728
   793.5000     56.3366      8.2215      9.9540     13.6902     93.5161
   793.7500     57.1214      8.2665     10.0308     13.5859    100.5846
   794.0000     57.9681      8.4140      9.9495     13.5511     97.2926
   794.2500     58.5793      8.4310     10.0645     13.5648     96.3272
   794.5000     58.7302      8.3939      9.9824     13.6131     96.2812
   794.7500     58.3826      8.4655      9.9029     13.6200     93.6970
   795.0000     57.8353      8.3772     10.0952     13.6633     87.7852
   795.2500     57.1192      8.3407     10.0316     13.6844     99.6135
   795.5000     56.6473      8.2018      9.9998     13.7042     95.2506
   795.7500     56.2545      8.1507      9.9146     13.7168     92.9000
   796.0000     57.3023      8.1592     10.0247     13.6812     94.1748
   796.2500     59.9986      8.2532     10.1838     13.7229     95.9112
   796.5000     64.0549      8.2753     10.0736     13.9565     91.0549
   796.7500     65.7558      8.3613     10.1187     13.8173     89.9382
   797.0000     66.8126      8.4088     10.0677     13.5443     99.3442
   797.2500     65.5484      8.4437     10.2537     13.4552     98.5607
   797.5000     66.9288      8.5710     10.2850     13.5166    101.6663
   797.7500     67.1765      8.7144     10.3300     13.6162     99.5434
   798.0000     66.5179      8.8818     10.4635     13.4975     90.4183
   798.2500     66.3893      8.9477     10.7905     13.4049     86.9817
   798.5000     66.3840      8.9470     11.1000     13.7248     89.6313
   798.7500     66.7774      8.8130     11.5591     14.6732     88.6954
   799.0000     66.1758      8.6692     11.8288     16.1613     69.1419
   799.2500     65.9660      8.6347     12.2264     17.6847     77.4493
   799.5000     66.2541      8.5351     12.2186     18.3566     82.0157
   799.7500     65.3513      8.5382     11.7667     17.8964     80.9323
   800.0000     65.0700      8.6992     11.4026     16.1058     92.6497
   800.2500     64.5044      8.7292     10.9578     14.5110     95.7365
   800.5000     63.8712      8.7948     10.6342     13.1104     98.2339
   800.7500     63.0137      8.8292     10.3964     12.4491     90.3951
   801.0000     62.3093      9.0349     10.3520     12.3661     93.5753
   801.2500     62.2347      8.9558     10.4394     12.4818     97.9235
   801.5000     61.8512      8.8699     10.6388     12.6453    105.1379
   801.7500     60.9358      8.7455     10.7431     12.8836    100.8517
   802.0000     59.8013      8.7042     10.8070     13.1871     96.3220
   802.2500     59.0800      8.4993     10.8474     13.4382    100.8695
   802.5000     59.4949      8.3972     10.9581     13.5995     95.2699
   802.7500     58.5337      8.4369     11.1130     13.7170     94.5140
   803.0000     58.6350      8.3305     11.1132     13.8033     93.6640
   803.2500     59.0494      8.2326     11.2242     13.9096     96.6969
   803.5000     58.9113      8.2189     11.3222     14.0761     89.9720
   803.7500     58.2451      8.1472     11.0708     14.0808     93.3744
   804.0000     58.2201      8.1814     10.9463     13.9230     95.0413
   804.2500     58.9095      8.1293     10.8979     13.7460     93.9674
   804.5000     57.0083      8.0753     10.6703     13.4964     87.3457
   804.7500     56.0949      8.0124     10.3821     12.9982     93.2485
   805.0000     56.7888      8.0337     10.1801     12.6711     94.8243
   805.2500     57.3548      7.8732     10.1021     12.5095     94.4694
   805.5000     56.2982      7.7518     10.0553     12.4391     97.1535
   805.7500     56.4870      7.6930      9.9020     12.3642    100.3084
   806.0000     55.4120      7.4864      9.8024     12.3402     93.2548
   806.2500     54.8169      7.4230      9.7122     12.4041     91.6632
   806.5000     54.5961      7.3451      9.5477     12.5949     90.5380
   806.7500     54.8575      7.3355      9.4596     12.8202     91.5303
   807.0000     55.2953      7.2365      9.2254     13.0327     95.5372
   807.2500     54.2139      7.2292      8.9445     12.8011     98.4508
   807.5000     54.0154      7.2797      8.6622     12.2945     94.7632
   807.7500     53.4472      7.2958      8.3917     11.8189    100.7070
   808.0000     53.0158      7.3916      8.1783     11.6200     91.6826
   808.2500     53.1621      7.5539      8.0246     11.5783     92.4706
   808.5000     52.9228      7.6283      7.9669     11.5172     97.3847
   808.7500     53.0526      7.6619      7.8787     11.4281    102.6731
   809.0000     52.9505      7.7351      7.9952     11.4556    103.2050
   809.2500     53.2433      7.8853      8.1529     11.6762    102.3341
   809.5000     53.5899      7.9415      8.3630     11.9429    100.7344
   809.7500     52.8982      7.8272      8.5614     12.2240     95.1898
   810.0000     52.7844      7.7676      8.7080     12.5193    114.4457
   810.2500     52.6105      7.8003      8.9216     12.7159    115.4674
   810.5000     52.4916      7.8944      9.1381     12.8549    107.0679
   810.7500     52.3848      7.6429      9.4235     12.9203     97.1021
   811.0000     52.2423      7.5707      9.6938     13.0062    104.8248
   811.2500     52.1092      7.4659      9.8867     13.0546    119.5845
   811.5000     51.0288      7.5950     10.3975     13.1364    108.8747
   811.7500     50.0604      7.4090     10.8487     13.2450    105.1567
