~Version Information
VERS.                      2.0: CWLS Log ASCII Standard - VERSION 2.0
WRAP.                       NO: One line per depth step
~Well Information Block
STRT.FT               491.0000: 
STOP.FT              1055.5000: 
STEP.FT                 0.1000: 
NULL.                -999.2500: 
COMP.          Evergreen Operating Corporation: COMPANY
WELL.              Sunset 24-3: WELL
FLD.           Purgatorie River: FIELD
LOC.           467' FSL & 2262' FWL: LOCATION
PROV.                 Colorado: PROVINCE
CNTY.               Las Animas: COUNTRY
SRVC.                         : SERVICE COMPANY
DATE.          Wed Sep 22 14:05:09 2004: LOG DATE
UWI.           05 071 08158 00: UNIQUE WELL ID
~Curve Information Block
DEPT.FT            0 000 00 00: Depth
DCAL.in                       : CDL Caliper
RHOB.g/cc                     : CDL Bulk Density
RHOC.g/cc                     : CDL Density Correction
DPOR.pu                       : CDL Density Porosity
GR.GAPI                       : Gamma Ray
NPOR.pu                       : Neutron Porosity
~Parameter Information Block
~A  Depth       DCAL        RHOB        RHOC        DPOR         GR         NPOR    
# ...
   932.6000      7.9155      2.4734     -0.0152     10.7059     77.1929     14.4574
   932.7000      7.9155      2.4682     -0.0186     11.0157     65.6533     15.0010
   932.8000      7.9348      2.4756      0.0067     10.5716     55.6369     15.1725
   932.9000      7.9348      2.4872     -0.0017      9.8677     54.8178     15.1892
   933.0000      7.9291      2.4876      0.0322      9.8400     62.7084     14.8811
   933.1000      7.9291      2.4718      0.0219     10.7970     71.8140     14.0419
   933.2000      7.9291      2.4526      0.0144     11.9609     73.7721     13.1636
   933.3000      7.9204      2.4453      0.0175     12.4041     71.0673     12.7594
   933.4000      7.9204      2.4521      0.0528     11.9921     70.6899     13.0138
   933.5000      7.9192      2.4627      0.0407     11.3521     71.8242     13.9851
   933.6000      7.9192      2.4657      0.0622     11.1690     72.5464     15.2037
   933.7000      7.9192      2.4574      0.0584     11.6699     75.8301     15.8952
   933.8000      7.9205      2.4477      0.0252     12.2627     81.7191     15.9072
   933.9000      7.9205      2.4446      0.0902     12.4472     85.3846     15.6312
   934.0000      7.9228      2.4460      0.0633     12.3641     84.5423     15.3258
   934.1000      7.9228      2.4507      0.0782     12.0811     80.6060     15.3367
   934.2000      7.9228      2.4499      0.0989     12.1283     74.1720     15.7546
   934.3000      7.9438      2.4360      0.0692     12.9714     66.8687     16.1164
   934.4000      7.9438      2.4225      0.0189     13.7866     64.4345     16.2880
   934.5000      7.9452      2.4244      0.0495     13.6729     69.9930     16.2942
   934.6000      7.9452      2.4345      0.0478     13.0589     79.0884     16.0350
   934.7000      7.9452      2.4397      0.0376     12.7470     86.3701     16.0407
   934.8000      7.9456      2.4395      0.0457     12.7580     90.7094     16.8115
   934.9000      7.9456      2.4412      0.0341     12.6518     91.7467     17.9660
   935.0000      7.9493      2.4471      0.0306     12.2940     89.5935     18.7327
   935.1000      7.9493      2.4498      0.0577     12.1334     85.7586     18.6900
   935.2000      7.9493      2.4458      0.0650     12.3767     79.9574     18.0594
   935.3000      7.9464      2.4463      0.0591     12.3441     75.7536     17.3114
   935.4000      7.9464      2.4568      0.0682     11.7081     78.0951     16.7547
   935.5000      7.9454      2.4658      0.0616     11.1658     82.6341     16.4638
   935.6000      7.9454      2.4620      0.0540     11.3955     83.9235     16.2085
   935.7000      7.9454      2.4486      0.0164     12.2041     83.5315     15.9393
   935.8000      7.9444      2.4387      0.0066     12.8059     84.7618     16.1124
   935.9000      7.9444      2.4392      0.0379     12.7766     88.3037     16.9050
   936.0000      7.9450      2.4459      0.0450     12.3673     92.6460     17.8907
   936.1000      7.9450      2.4482      0.0478     12.2296     95.1103     18.6448
   936.2000      7.9450      2.4391      0.0479     12.7821     94.2968     18.8402
   936.3000      7.9479      2.4326     -0.0164     13.1780     91.5300     18.5771
   936.4000      7.9479      2.4491      0.0146     12.1774     86.8752     18.4918
   936.5000      7.9438      2.4826      0.0711     10.1458     80.2598     18.6933
   936.6000      7.9438      2.5081      0.0795      8.5999     74.2902     18.5272
   936.7000      7.9438      2.5070      0.0901      8.6668     71.8957     17.8055
   936.8000      7.9452      2.4833      0.0213     10.1007     74.2536     17.3156
   936.9000      7.9452      2.4582      0.0350     11.6229     79.9319     17.6712
   937.0000      7.9451      2.4454      0.0119     12.4012     85.8295     18.2697
   937.1000      7.9451      2.4471     -0.0036     12.2954     85.9805     18.4454
   937.2000      7.9451      2.4537      0.0337     11.8956     78.5010     18.6590
   937.3000      7.9446      2.4492      0.0359     12.1716     70.5460     19.2456
   937.4000      7.9446      2.4346     -0.0362     13.0569     68.2477     19.8777
   937.5000      7.9442      2.4231     -0.0066     13.7535     72.1710     20.1948
   937.6000      7.9442      2.4158      0.0048     14.1916     77.8579     20.0588
   937.7000      7.9442      2.4095     -0.0016     14.5745     81.8919     19.2900
   937.8000      7.9441      2.4087      0.0146     14.6268     84.7507     18.1569
   937.9000      7.9441      2.4193     -0.0091     13.9818     85.6938     17.5494
   938.0000      7.9465      2.4357      0.0350     12.9880     85.7536     17.8877
   938.1000      7.9465      2.4439      0.0084     12.4907     88.7887     18.9839
   938.2000      7.9465      2.4420      0.0126     12.6089     91.2267     20.2435
   938.3000      7.9468      2.4382      0.0276     12.8357     87.4989     20.9077
   938.4000      7.9468      2.4398      0.0032     12.7385     81.7860     21.1124
   938.5000      7.9464      2.4501      0.0442     12.1168     79.8916     21.3494
   938.6000      7.9464      2.4615      0.0162     11.4246     79.5890     21.4558
   938.7000      7.9464      2.4668      0.0072     11.1012     76.5198     21.1010
   938.8000      7.9462      2.4662      0.0433     11.1394     73.2120     20.4885
   938.9000      7.9462      2.4567      0.0134     11.7148     70.8590     20.0660
   939.0000      7.9449      2.4471     -0.0082     12.2956     67.5416     19.6172
   939.1000      7.9449      2.4535      0.0566     11.9080     64.5982     18.8480
   939.2000      7.9449      2.4721      0.0418     10.7830     65.2018     18.2701
   939.3000      7.9447      2.4876      0.0674      9.8449     68.9562     18.1598
   939.4000      7.9447      2.4918      0.0516      9.5871     72.5183     18.2108
   939.5000      7.9418      2.4897      0.0347      9.7148     74.6095     18.4706
   939.6000      7.9418      2.4879      0.0610      9.8259     73.6553     19.2250
   939.7000      7.9418      2.4852      0.0271      9.9858     71.9979     19.8016
   939.8000      7.9336      2.4811      0.0318     10.2341     75.2366     19.5448
   939.9000      7.9336      2.4742      0.0458     10.6550     79.9590     19.2662
   940.0000      7.9202      2.4653     -0.0035     11.1927     79.7927     19.7693
   940.1000      7.9202      2.4570      0.0445     11.6978     76.7767     20.7282
   940.2000      7.9202      2.4457     -0.0009     12.3828     72.5880     21.4104
   940.3000      7.9178      2.4372      0.0185     12.9000     65.8204     21.5325
   940.4000      7.9178      2.4423      0.0002     12.5903     60.3993     21.2059
   940.5000      7.9178      2.4617      0.0033     11.4147     61.5377     20.9090
   940.6000      7.9178      2.4844      0.0222     10.0361     65.6910     21.1345
   940.7000      7.9178      2.4961      0.0676      9.3261     67.3050     21.6501
   940.8000      7.9185      2.4951      0.0513      9.3905     67.1039     21.8802
   940.9000      7.9185      2.4948      0.0358      9.4083     68.0006     21.0888
   941.0000      7.9185      2.5049      0.0244      8.7938     69.1173     19.3129
   941.1000      7.9185      2.5175      0.0415      8.0313     69.3438     17.5682
   941.2000      7.9185      2.5186      0.0395      7.9615     70.1229     16.7305
   941.3000      7.9178      2.5105      0.0387      8.4543     71.6698     16.9994
   941.4000      7.9178      2.5094      0.0125      8.5185     71.5100     17.5118
   941.5000      7.9176      2.5178      0.0500      8.0148     70.2295     17.4331
   941.6000      7.9176      2.5215      0.0552      7.7859     71.5455     17.1292
   941.7000      7.9176      2.5145      0.0663      8.2137     74.2517     16.9896
   941.8000      7.9170      2.4988      0.0554      9.1627     73.5591     16.7592
   941.9000      7.9170      2.4842      0.0072     10.0486     70.7995     16.6517
   942.0000      7.9175      2.4832      0.0031     10.1103     69.8081     16.8735
   942.1000      7.9175      2.4973      0.0099      9.2573     68.8288     16.8607
