~Version Information
VERS.                      2.0: CWLS Log ASCII Standard - VERSION 2.0
WRAP.                       NO: One line per depth step
~Well Information Block
STRT.FT               245.0000: 
STOP.FT              1919.7000: 
STEP.FT                 0.1000: 
NULL.                -999.2500: 
COMP.          Pioneer Natural Resources: COMPANY
WELL.          Oink Oink 14-36 Tr: WELL
FLD.           Purgatoire River: FIELD
LOC.           236' FSL & 164' FWL--: LOCATION
PROV.                 Colorado: PROVINCE
CNTY.               Las Animas: COUNTRY
SRVC.                Patterson: SERVICE COMPANY
DATE.          Fri Jun 10 08:23:18 2005: LOG DATE
UWI.           05 071 08393 00: UNIQUE WELL ID
~Curve Information Block
DEPT.FT            0 000 00 00: Depth
DCAL.in                       : CDL Caliper
RHOB.g/cc                     : CDL Bulk Density
RHOC.g/cc                     : CDL Density Correction
DPOR.pu                       : CDL Density Porosity
NPOR.pu                       : Neutron Porosity
GR.GAPI                       : Gamma Ray
~Parameter Information Block
~A  Depth       DCAL        RHOB        RHOC        DPOR        NPOR         GR     
# ...
  1560.2000      7.9594      2.6341      0.0436      0.9659     18.9011     78.9361
  1560.3000      7.9603      2.6281      0.0426      1.3274     20.6049     81.7272
  1560.4000      7.9603      2.6274      0.0543      1.3706     22.3496     86.5477
  1560.5000      7.9618      2.6205      0.0480      1.7849     23.8970     95.9052
  1560.6000      7.9618      2.6075      0.0187      2.5750     25.0143    108.8076
  1560.7000      7.9618      2.5950      0.0554      3.3319     25.9542    121.1163
  1560.8000      7.9615      2.5800      0.0287      4.2439     26.8356    129.8351
  1560.9000      7.9615      2.5605      0.0232      5.4246     27.2914    133.1306
  1561.0000      7.9591      2.5446      0.0125      6.3894     26.9714    135.1301
  1561.1000      7.9591      2.5421      0.0412      6.5408     25.8918    140.5556
  1561.2000      7.9591      2.5559      0.0821      5.7021     24.5131    145.2769
  1561.3000      7.9499      2.5746      0.1365      4.5721     23.3618    143.4180
  1561.4000      7.9499      2.5822      0.0985      4.1094     22.7104    135.5347
  1561.5000      7.9341      2.5905      0.0524      3.6052     22.4365    127.3133
  1561.6000      7.9341      2.6212      0.1120      1.7469     22.2494    119.3028
  1561.7000      7.9341      2.6640      0.1584     -0.8465     21.8115    112.0985
  1561.8000      7.9148      2.6898      0.1834     -2.4106     21.2313    112.4330
  1561.9000      7.9148      2.6846      0.1192     -2.0975     21.1555    118.2716
  1562.0000      7.8947      2.6565      0.1046     -0.3932     21.8343    121.3968
  1562.1000      7.8947      2.6281      0.0520      1.3286     22.7171    120.2496
  1562.2000      7.8947      2.6180      0.0468      1.9421     22.9838    116.8737
  1562.3000      7.8833      2.6139      0.1031      2.1855     22.4076    111.6881
  1562.4000      7.8833      2.5947      0.0932      3.3498     21.6243    106.6399
  1562.5000      7.8799      2.5763      0.0258      4.4642     21.2494    102.9707
  1562.6000      7.8799      2.5892      0.0433      3.6875     21.2672    101.2152
  1562.7000      7.8799      2.6209      0.1156      1.7635     21.4410    100.8084
  1562.8000      7.8784      2.6306      0.0899      1.1746     21.4066    101.4087
  1562.9000      7.8784      2.6084      0.0578      2.5219     21.1070    100.8444
  1563.0000      7.8780      2.5836      0.0434      4.0227     21.1320     95.4532
  1563.1000      7.8780      2.5820      0.0577      4.1235     21.4639     90.2317
  1563.2000      7.8780      2.5995      0.0583      3.0632     21.3771     91.2222
  1563.3000      7.8791      2.6208      0.0893      1.7671     20.8276     95.0762
  1563.4000      7.8791      2.6408      0.0854      0.5579     20.5316     99.3896
  1563.5000      7.8808      2.6526      0.1048     -0.1548     20.7937    102.8347
  1563.6000      7.8808      2.6423      0.0905      0.4649     21.1850    101.6318
  1563.7000      7.8808      2.6136      0.0447      2.2057     21.4603     98.7877
  1563.8000      7.8818      2.5891      0.0399      3.6918     21.7768     97.1304
  1563.9000      7.8818      2.5881      0.0550      3.7534     22.1785     94.2563
  1564.0000      7.8816      2.6142      0.0576      2.1676     22.3345     91.4752
  1564.1000      7.8816      2.6525      0.0767     -0.1544     22.0916     92.1875
  1564.2000      7.8816      2.6737      0.1418     -1.4384     21.8990     95.8253
  1564.3000      7.8796      2.6622      0.0891     -0.7391     22.0232     99.6052
  1564.4000      7.8796      2.6356      0.0817      0.8715     22.0941    103.5869
  1564.5000      7.8777      2.6138      0.0664      2.1929     21.8831    106.9189
  1564.6000      7.8777      2.5981      0.0703      3.1479     21.9956    105.4572
  1564.7000      7.8777      2.5897      0.0530      3.6552     22.5033     98.4690
  1564.8000      7.8770      2.5928      0.0636      3.4658     22.4950     91.3858
  1564.9000      7.8770      2.5946      0.0518      3.3551     21.9467     87.4917
  1565.0000      7.8756      2.5776      0.0698      4.3856     21.5319     84.3426
  1565.1000      7.8756      2.5538      0.0162      5.8297     21.2358     81.2885
  1565.2000      7.8756      2.5586     -0.0202      5.5377     21.0265     80.6145
  1565.3000      7.8746      2.6049      0.0369      2.7338     21.0510     82.3033
  1565.4000      7.8746      2.6668      0.0923     -1.0174     21.1984     83.7353
  1565.5000      7.8758      2.7134      0.0998     -3.8419     21.3800     83.9857
  1565.6000      7.8758      2.7309      0.1472     -4.9036     21.6657     86.3812
  1565.7000      7.8758      2.7120      0.1633     -3.7583     22.3205     92.9610
  1565.8000      7.8780      2.6615      0.1199     -0.6969     23.5517    101.8908
  1565.9000      7.8780      2.6055      0.0555      2.6981     24.8814    110.2551
  1566.0000      7.8779      2.5701      0.0393      4.8397     25.6168    116.1735
  1566.1000      7.8779      2.5647     -0.0126      5.1725     25.9251    118.4542
  1566.2000      7.8779      2.5777      0.0248      4.3804     26.2424    117.8081
  1566.3000      7.8765      2.5831      0.0046      4.0532     26.4570    118.2877
  1566.4000      7.8765      2.5650      0.0199      5.1532     26.4942    123.2996
  1566.5000      7.8767      2.5426     -0.0315      6.5061     26.6426    131.9587
  1566.6000      7.8767      2.5481      0.0570      6.1730     26.8615    141.0826
  1566.7000      7.8767      2.5689      0.1221      4.9175     27.0930    145.4828
  1566.8000      7.8772      2.5645      0.1049      5.1807     27.6377    141.9042
  1566.9000      7.8772      2.5185      0.0880      7.9704     28.3920    134.8073
  1567.0000      7.8766      2.4328      0.0256     13.1628     28.9915    131.3662
  1567.1000      7.8766      2.3102      0.0185     20.5949     29.7032    130.4492
  1567.2000      7.8766      2.1675     -0.0221     29.2430     30.8645    130.5706
  1567.3000      7.8769      2.0487     -0.1045     36.4394     31.6805    136.8875
  1567.4000      7.8769      1.9876     -0.1001     40.1438     31.7571    145.6262
  1567.5000      7.8802      1.9783     -0.0897     40.7086     31.8191    147.0623
  1567.6000      7.8802      2.0065     -0.0806     39.0027     31.9415    138.8137
  1567.7000      7.8802      2.0703     -0.0306     35.1310     31.4168    125.8539
  1567.8000      7.9004      2.1577      0.1452     29.8364     30.2806    116.5818
  1567.9000      7.9004      2.2444      0.1889     24.5829     29.1956    114.0722
  1568.0000      7.9551      2.3185      0.2369     20.0883     28.0886    112.7683
  1568.1000      7.9551      2.3804      0.2936     16.3392     26.7266    112.5698
  1568.2000      7.9551      2.4457      0.2555     12.3823     25.5578    117.6387
  1568.3000      8.0175      2.5272      0.2340      7.4414     24.9227    121.2757
  1568.4000      8.0175      2.5968      0.2272      3.2246     24.3663    117.6476
  1568.5000      8.0228      2.6196      0.1289      1.8453     23.4029    112.5515
  1568.6000      8.0228      2.6077      0.0531      2.5652     22.4036    108.9128
  1568.7000      8.0228      2.5959      0.0708      3.2787     21.6649    104.8733
  1568.8000      7.9756      2.5974      0.0805      3.1876     21.1953    103.6805
  1568.9000      7.9756      2.6054      0.0802      2.7014     21.0408    106.0820
  1569.0000      7.9426      2.6174      0.0545      1.9756     20.7577    107.8494
  1569.1000      7.9426      2.6420      0.0801      0.4830     20.4317    106.7742
  1569.2000      7.9426      2.6713      0.1441     -1.2893     20.3718    104.1520
  1569.3000      7.9357      2.6845      0.1089     -2.0906     20.4598    101.8387
  1569.4000      7.9357      2.6795      0.0947     -1.7862     20.8877     98.7498
  1569.5000      7.9352      2.6640      0.0659     -0.8458     21.5968     96.8784
  1569.6000      7.9352      2.6407      0.0657      0.5640     22.3298     98.2995
  1569.7000      7.9352      2.6132      0.0524      2.2310     23.6083    100.9462
