~Version Information
VERS.                      2.0: CWLS Log ASCII Standard - VERSION 2.0
WRAP.                       NO: One line per depth step
~Well Information Block
STRT.FT                -7.2500: 
STOP.FT              2610.0000: 
STEP.FT                 0.2500: 
NULL.                -999.2500: 
COMP.          Pioneer Natural Resources: COMPANY
WELL.              Wagner 13-9: WELL
FLD.           Purgatorie River: FIELD
LOC.           1819' FSL & 1111' FWL--: LOCATION
PROV.                       CO: PROVINCE
CNTY.               Las Animas: COUNTRY
SRVC.          Patterson Wireline: SERVICE COMPANY
DATE.          Wed May 18 09:08:26 2005: LOG DATE
UWI.           05 071 08302 00: UNIQUE WELL ID
~Curve Information Block
DEPT.FT            0 000 00 00: Depth
CCL.                          : Casing Collar Locator
TT3.usec                      : CBL 3' Travel Time
AMP3.mV                       : CBL 3' Amplitude
GR.GAPI                       : Gamma Ray
~Parameter Information Block
~A  Depth       CCL         TT3         AMP3         GR     
# ...
  2237.2500      0.0000    672.8146      4.7232     33.9905
  2237.5000      0.0000    667.0147      4.7786     33.7225
  2237.7500      0.0000    667.2907      4.7129     34.1628
  2238.0000      0.0000    674.0319      4.4842     35.1500
  2238.2500      0.0000    683.2712      4.1758     36.4228
  2238.5000      0.0000    690.2245      3.9323     37.7931
  2238.7500      0.0000    692.2934      3.8505     39.1486
  2239.0000      0.0000    689.2805      3.9231     40.3192
  2239.2500      0.0000    682.2226      4.0643     41.0837
  2239.5000      0.0000    672.5847      4.1754     41.2899
  2239.7500      0.0000    661.6628      4.2068     40.8425
  2240.0000      0.0000    649.7371      4.1834     39.7110
  2240.2500      0.0000    635.6152      4.1571     38.0954
  2240.5000      0.0000    618.3989      4.1220     36.3403
  2240.7500      0.0000    601.1492      4.0060     34.5018
  2241.0000     -2.0000    591.6852      3.7661     32.3614
  2241.2500     -2.0000    596.7341      3.4727     30.1161
  2241.5000      0.0000    614.3668      3.2808     28.7177
  2241.7500      0.0000    634.4359      3.3178     29.1771
  2242.0000      0.0000    647.7905      3.5841     31.6580
  2242.2500      0.0000    653.4317      3.9488     35.4821
  2242.5000      0.0000    655.9424      4.2529     39.9501
  2242.7500      0.0000    658.6840      4.4338     44.9395
  2243.0000      0.0000    661.6328      4.5424     50.5637
  2243.2500      0.0000    664.1279      4.6507     56.3421
  2243.5000      0.0000    666.9829      4.7694     61.0859
  2243.7500      0.0000    671.4750      4.8479     63.9652
  2244.0000      0.0000    677.2798      4.8354     65.6249
  2244.2500      0.0000    681.5256      4.7405     67.7267
  2244.5000      0.0000    679.6767      4.6264     71.1474
  2244.7500      0.0000    667.3987      4.5322     75.0795
  2245.0000      0.0000    642.1486      4.4103     78.2768
  2245.2500      0.0000    604.1636      4.1727     80.6209
  2245.5000      0.0000    557.3153      3.8006     82.8845
  2245.7500      0.0000    508.9960      3.3902     85.4353
  2246.0000      0.0000    467.4923      3.0836     87.8833
  2246.2500      0.0000    438.2012      2.9691     89.7933
  2246.5000      0.0000    422.0478      3.0543     91.1985
  2246.7500      0.0000    416.6300      3.3092     92.4189
  2247.0000      0.0000    417.9623      3.6882     93.7238
  2247.2500      0.0000    421.9173      4.1035     95.2741
  2247.5000      0.0000    425.5356      4.4307     97.1585
  2247.7500      0.0000    427.6380      4.5907     99.3623
  2248.0000      0.0000    428.3417      4.6229    101.7408
  2248.2500      0.0000    428.1779      4.6371    103.9102
  2248.5000      0.0000    427.5987      4.6876    104.9550
  2248.7500      0.0000    426.9030      4.7193    103.6963
  2249.0000      0.0000    426.3141      4.6407     99.9393
  2249.2500      0.0000    426.1959      4.4225     95.2504
  2249.5000      0.0000    427.4110      4.1252     91.7838
  2249.7500      0.0000    431.8390      3.8633     90.4925
  2250.0000      0.0000    442.3520      3.7357     90.9611
  2250.2500      0.0000    461.4091      3.7484     92.4177
  2250.5000      0.0000    489.0281      3.7987     93.9749
  2250.7500      0.0000    522.4900      3.7609     94.3078
  2251.0000      0.0000    558.0317      3.6016     92.3302
  2251.2500      0.0000    591.8928      3.4087     88.3956
  2251.5000      0.0000    620.2701      3.3196     84.1899
  2251.7500      0.0000    640.4564      3.4194     81.2432
  2252.0000      0.0000    652.6442      3.6761     79.8889
  2252.2500      0.0000    659.7041      3.9474     79.7677
  2252.5000      0.0000    665.1318      4.0805     80.8325
  2252.7500      0.0000    671.3404      4.0454     83.5525
  2253.0000      0.0000    679.0197      3.9641     88.4669
  2253.2500      0.0000    687.2654      3.9856     95.7913
  2253.5000      0.0000    694.4330      4.1414    104.9061
  2253.7500      0.0000    699.3745      4.3337    113.8037
  2254.0000      0.0000    701.9268      4.4432    119.5030
  2254.2500      0.0000    702.3481      4.4272    119.8106
  2254.5000      0.0000    700.5745      4.3356    114.9734
  2254.7500      0.0000    696.3767      4.2673    107.5433
  2255.0000      0.0000    690.4213      4.3062    100.5734
  2255.2500      0.0000    684.9720      4.4719     95.7746
  2255.5000      0.0000    682.9283      4.7052     93.0509
  2255.7500      0.0000    685.6539      4.8970     91.5260
  2256.0000      0.0000    691.7328      4.9471     90.8628
  2256.2500      0.0000    697.9974      4.8271     91.3990
  2256.5000      0.0000    701.6230      4.5958     93.2158
  2256.7500      0.0000    701.2427      4.3362     95.6995
  2257.0000      0.0000    696.7882      4.0762     98.2722
  2257.2500      0.0000    689.1714      3.7933    101.1677
  2257.5000      0.0000    680.1513      3.4972    105.0183
  2257.7500      0.0000    671.6012      3.2650    109.6200
  2258.0000      0.0000    664.2029      3.1793    113.4625
  2258.2500      0.0000    656.6722      3.2532    114.9682
  2258.5000      0.0000    646.7270      3.4381    114.0596
  2258.7500      0.0000    633.8702      3.6837    112.0450
  2259.0000      0.0000    621.8015      3.9704    110.2931
  2259.2500      0.0000    616.7546      4.2867    109.6476
  2259.5000      0.0000    621.8528      4.6016    110.6285
  2259.7500      0.0000    633.7599      4.8689    113.2128
  2260.0000      0.0000    645.9458      5.0557    116.5004
  2260.2500      0.0000    654.2081      5.1583    119.2838
  2260.5000      0.0000    658.2759      5.1926    120.9865
  2260.7500      0.0000    659.5278      5.1692    121.7536
  2261.0000      0.0000    658.3621      5.0807    121.9005
  2261.2500      0.0000    652.8276      4.9148    121.6479
  2261.5000      0.0000    638.6918      4.6692    121.1256
  2261.7500      0.0000    611.7156      4.3506    120.2367
  2262.0000      0.0000    571.9534      3.9751    118.6961
  2262.2500      0.0000    526.4415      3.5783    116.4920
  2262.5000      0.0000    486.6258      3.2072    114.1227
  2262.7500      0.0000    462.8356      2.8970    112.1550
  2263.0000      0.0000    461.2675      2.6736    110.6933
  2263.2500      0.0000    483.4677      2.5834    109.5025
  2263.5000      0.0000    524.7331      2.6931    108.5125
  2263.7500      0.0000    573.4107      3.0384    107.8006
  2264.0000      0.0000    615.9620      3.5665    107.0466
  2264.2500      0.0000    644.7919      4.1356    105.5285
  2264.5000      0.0000    660.5490      4.5852    102.8343
  2264.7500      0.0000    667.6665      4.8222     99.2656
  2265.0000      0.0000    669.7136      4.8486     95.6141
  2265.2500      0.0000    668.7017      4.7183     92.8206
  2265.5000      0.0000    666.3802      4.4827     91.5273
  2265.7500      0.0000    664.5800      4.1731     91.4535
  2266.0000      0.0000    664.4712      3.8143     91.2790
  2266.2500      0.0000    665.9493      3.4402     89.5194
  2266.5000      0.0000    667.7262      3.1019     85.7687
  2266.7500      0.0000    668.2316      2.8645     81.1625
  2267.0000      0.0000    666.8840      2.7838     77.6311
  2267.2500      0.0000    664.6470      2.8679     76.6183
  2267.5000      0.0000    663.3246      3.0585     78.3289
  2267.7500      0.0000    664.3911      3.2707     81.7431
  2268.0000      0.0000    668.2127      3.4639     85.1524
  2268.2500      0.0000    673.6006      3.6497     87.2839
  2268.5000      0.0000    677.9694      3.8140     88.4891
  2268.7500      0.0000    678.9006      3.8727     90.5050
  2269.0000      0.0000    676.3541      3.7532     94.4822
  2269.2500      0.0000    672.9567      3.4980     99.3915
  2269.5000      0.0000    671.6133      3.2389    102.7131
  2269.7500      0.0000    673.3361      3.0664    102.5665
  2270.0000      0.0000    677.6219      2.9685     99.0681
  2270.2500      0.0000    683.7162      2.9032     93.9045
  2270.5000      0.0000    690.5913      2.8841     88.8561
