~Version Information
 VERS.                                  2.0 : CWLS LAS VERSION
 WRAP.                                   NO : WRAPING MODE
 SWARE .                 MController 2.5.0J : SOFTWARE VERSION
~Well Information
 WELL.                  Great Plains 22-22R : WELL
 COMP.                Petrogulf Corporation : COMPANY
 FLD.                      Purgatoire River : FIELD
 LOC.                SE/NW Sec 22 T33S R67W : LOCATION
 DATE.                        09/08-09/2005 : DATE(S) LOGGED
 SRVC.       BLANCO Geological Services LLC : SERVICE COMPANY
 STAT.                                   CO : STATE
 CNTY.                           Las Animas : COUNTY
 CTRY.                                  USA : COUNTRY
 API.                       05-071-08028-00 : API NUMBER
 STRT.FT                              23.00 : START DEPTH
 STOP.FT                            1400.00 : STOP DEPTH
 STEP.FT                               1.00 : DEPTH INCREMENT
 NULL.                                -9999 : NULL VALUE
~Curve information
 DEPTH.FT                                   :
 ROP.MIN/FT                                 :
 GAS.UNITS                                  :
~ASCII Log data
# ...
       623.0         0.13         21.1 
       624.0         0.17         25.2 
       625.0         0.13         26.7 
       626.0         0.13         28.7 
       627.0         0.13         30.1 
       628.0         1.15         30.2 
       629.0         0.23         22.0 
       630.0         0.20         20.6 
       631.0         0.27         19.4 
       632.0         0.23         18.2 
       633.0         0.23         16.9 
       634.0         0.23         15.8 
       635.0         0.27         15.4 
       636.0         0.23         14.4 
       637.0         0.13         14.6 
       638.0         0.27         14.4 
       639.0         0.23         14.4 
       640.0         0.20         14.0 
       641.0         0.25         14.1 
       642.0         0.17         13.9 
       643.0         0.23         14.3 
       644.0         0.10         14.1 
       645.0         0.17         14.4 
       646.0         0.17         13.9 
       647.0         0.17         14.7 
       648.0         0.27         14.7 
       649.0         0.20         14.8 
       650.0         0.17         14.7 
       651.0         0.17         14.5 
       652.0         0.23         13.9 
       653.0         0.20         13.2 
       654.0         0.10         12.4 
       655.0         0.27         12.4 
       656.0         0.27         15.8 
       657.0         0.13         18.1 
       658.0         1.05         45.7 
       659.0         0.20         48.1 
       660.0         0.17         48.5 
       661.0         0.23         48.3 
       662.0         0.23         46.3 
       663.0         0.20         42.5 
       664.0         0.17         38.7 
       665.0         0.17         36.3 
       666.0         0.17         33.4 
       667.0         0.13         30.6 
       668.0         0.17         29.2 
       669.0         0.13         26.5 
       670.0         0.17         25.6 
       671.0         0.15         25.1 
       672.0         0.13         24.1 
       673.0         0.20         23.6 
       674.0         0.17         23.0 
       675.0         0.23         21.9 
       676.0         0.13         20.7 
       677.0         0.10         20.8 
       678.0         0.20         20.4 
       679.0         0.17         19.3 
       680.0         0.10         18.2 
       681.0         0.13         17.3 
       682.0         0.17         17.1 
       683.0         0.23         15.7 
       684.0         0.13         15.0 
       685.0         0.23         14.6 
       686.0         0.27         13.7 
       687.0         0.23         12.7 
       688.0         1.42         51.3 
       689.0         0.20         53.6 
       690.0         0.17         53.9 
       691.0         0.33         53.6 
       692.0         0.30         49.0 
       693.0         0.20         44.1 
       694.0         0.23         41.2 
       695.0         0.20         37.0 
       696.0         0.17         34.8 
       697.0         0.22         32.8 
       698.0         0.13         30.5 
       699.0         0.20         30.1 
       700.0         0.17         28.8 
       701.0         0.17         28.2 
       702.0         0.17         27.7 
       703.0         0.20         27.1 
       704.0         0.17         26.0 
       705.0         0.17         25.9 
       706.0         0.13         23.9 
       707.0         0.17         24.5 
       708.0         0.20         23.3 
       709.0         0.20         22.7 
       710.0         0.13         22.4 
       711.0         0.17         21.8 
       712.0         0.33         21.0 
       713.0         0.20         20.4 
       714.0         0.20         19.7 
       715.0         0.18         17.9 
       716.0         0.17         16.5 
       717.0         0.27         16.1 
       718.0         1.57         47.6 
       719.0         0.23         49.7 
       720.0         0.10         50.0 
       721.0         0.13         50.3 
       722.0         0.13         50.0 
       723.0         0.17         49.5 
       724.0         0.27         48.3 
       725.0         0.17         45.1 
       726.0         0.18         43.2 
       727.0         0.17         40.1 
       728.0         0.17         38.4 
       729.0         0.17         36.4 
       730.0         0.17         34.1 
       731.0         0.17         32.1 
       732.0         0.13         31.1 
       733.0         0.20         29.7 
       734.0         0.17         29.0 
       735.0         0.20         27.4 
       736.0         0.17         26.3 
       737.0         0.17         25.7 
       738.0         0.20         24.9 
       739.0         0.20         24.4 
       740.0         0.17         23.3 
       741.0         0.17         22.5 
       742.0         0.20         20.7 
       743.0         0.17         20.6 
       744.0         0.17         18.8 
       745.0         0.18         17.9 
       746.0         0.17         16.3 
       747.0         0.20         14.7 
       748.0         0.70         22.4 
       749.0         0.20         28.9 
       750.0         0.30         35.1 
       751.0         0.27         40.0 
       752.0         0.23         41.5 
       753.0         0.23         42.4 
       754.0         0.23         41.9 
       755.0         0.27         39.5 
       756.0         0.18         36.8 
       757.0         0.17         34.7 
       758.0         0.17         31.8 
       759.0         0.17         29.5 
       760.0         0.20         28.0 
       761.0         0.17         25.6 
       762.0         0.17         24.2 
       763.0         0.17         22.2 
       764.0         0.20         21.9 
       765.0         0.17         20.6 
       766.0         0.17         19.9 
       767.0         0.13         19.3 
       768.0         0.23         19.1 
       769.0         0.20         18.2 
       770.0         0.32         17.9 
       771.0         0.20         17.3 
       772.0         0.17         17.0 
       773.0         0.17         16.2 
       774.0         0.20         15.7 
       775.0         0.17         14.7 
       776.0         0.13         14.4 
       777.0         0.13         13.1 
       778.0         1.50         19.4 
       779.0         0.18         23.3 
       780.0         0.17         27.1 
       781.0         0.17         31.9 
       782.0         0.20         35.5 
       783.0         0.17         37.1 
       784.0         0.17         37.7 
       785.0         0.23         38.2 
       786.0         0.23         37.8 
       787.0         0.17         35.7 
       788.0         0.17         34.4 
       789.0         0.17         33.7 
       790.0         0.17         32.9 
       791.0         0.17         33.2 
       792.0         0.20         33.3 
       793.0         0.17         33.6 
       794.0         0.17         33.7 
       795.0         0.23         33.7 
       796.0         0.18         33.6 
       797.0         0.13         32.7 
       798.0         0.13         32.0 
       799.0         0.17         31.4 
       800.0         0.23         30.7 
       801.0         0.20         29.0 
       802.0         0.13         27.9 
       803.0         0.17         26.3 
       804.0         0.23         24.3 
       805.0         0.17         21.1 
       806.0         0.23         20.0 
       807.0         0.23         16.6 
       808.0         0.98         35.7 
       809.0         0.33         46.3 
       810.0         0.27         51.3 
       811.0         0.27         53.5 
       812.0         0.23         53.6 
       813.0         0.20         52.6 
       814.0         0.17         49.9 
       815.0         0.17         46.9 
       816.0         0.17         45.2 
       817.0         0.13         42.3 
       818.0         0.17         39.5 
       819.0         0.17         37.4 
       820.0         0.20         35.4 
       821.0         0.15         28.6 
       822.0         0.17         28.3 
