~Version Information
VERS.                      2.0: CWLS Log ASCII Standard - VERSION 2.0
WRAP.                       NO: One line per depth step
~Well Information Block
STRT.FT               850.0000: 
STOP.FT              1609.7000: 
STEP.FT                 0.1000: 
NULL.                -999.2500: 
COMP.          Petrogulf Corporation: COMPANY
WELL.          Great Plains 22-21R: WELL
FLD.           Purgatorie River: FIELD
LOC.           73' FNL & 1992' FWL: LOCATION
PROV.                 Colorado: PROVINCE
CNTY.               Las Animas: COUNTRY
SRVC.                Patterson: SERVICE COMPANY
DATE.          Wed Sep 14 12:10:29 2005: LOG DATE
UWI.                          : UNIQUE WELL ID
~Curve Information Block
DEPT.FT            0 000 00 00: Depth
NPOR.pu                       : Neutron Porosity
GR.GAPI                       : Gamma Ray
CCL.                          : Casing Collar Locator
~Parameter Information Block
~A  Depth       NPOR         GR         CCL     
# ...
  1050.4000     27.2913     77.4043      0.0000
  1050.5000     26.2000     77.6705      0.0000
  1050.6000     26.2000     77.6705      0.0000
  1050.7000     26.2000     77.6705      0.0000
  1050.8000     25.1296     79.2897      0.0000
  1050.9000     25.1296     79.2897      0.0000
  1051.0000     24.1295     80.8716      0.0000
  1051.1000     24.1295     80.8716      0.0000
  1051.2000     24.1295     80.8716      0.0000
  1051.3000     23.2846     81.2929      0.0000
  1051.4000     23.2846     81.2929      0.0000
  1051.5000     22.6669     80.1709      0.0000
  1051.6000     22.6669     80.1709      0.0000
  1051.7000     22.6669     80.1709      0.0000
  1051.8000     22.2848     77.8927      0.0000
  1051.9000     22.2848     77.8927      0.0000
  1052.0000     22.0841     75.2642      0.0000
  1052.1000     22.0841     75.2642      0.0000
  1052.2000     22.0841     75.2642      0.0000
  1052.3000     21.9850     72.9641      0.0000
  1052.4000     21.9850     72.9641      0.0000
  1052.5000     21.9129     71.1927      0.0000
  1052.6000     21.9129     71.1927      0.0000
  1052.7000     21.9129     71.1927      0.0000
  1052.8000     21.8161     69.7814      0.0000
  1052.9000     21.8161     69.7814      0.0000
  1053.0000     21.6679     68.5436      0.0000
  1053.1000     21.6679     68.5436      0.0000
  1053.2000     21.6679     68.5436      0.0000
  1053.3000     21.4557     67.4396      0.0000
  1053.4000     21.4557     67.4396      0.0000
  1053.5000     21.1802     66.4466      0.0000
  1053.6000     21.1802     66.4466      0.0000
  1053.7000     21.1802     66.4466      0.0000
  1053.8000     20.8680     65.3898      0.0000
  1053.9000     20.8680     65.3898      0.0000
  1054.0000     20.5666     64.0091      0.0000
  1054.1000     20.5666     64.0091      0.0000
  1054.2000     20.5666     64.0091      0.0000
  1054.3000     20.3141     62.2945      0.0000
  1054.4000     20.3141     62.2945      0.0000
  1054.5000     20.1146     60.6471      0.0000
  1054.6000     20.1146     60.6471      0.0000
  1054.7000     20.1146     60.6471      0.0000
  1054.8000     19.9426     59.4401      0.0000
  1054.9000     19.9426     59.4401      0.0000
  1055.0000     19.7687     58.4794      0.0000
  1055.1000     19.7687     58.4794      0.0000
  1055.2000     19.7687     58.4794      0.0000
  1055.3000     19.5872     57.3269      0.0000
  1055.4000     19.5872     57.3269      0.0000
  1055.5000     19.4211     56.2267      0.0000
  1055.6000     19.4211     56.2267      0.0000
  1055.7000     19.4211     56.2267      0.0000
  1055.8000     19.2935     56.1799      0.0000
  1055.9000     19.2935     56.1799      0.0000
  1056.0000     19.2002     57.8486      0.0000
  1056.1000     19.2002     57.8486      0.0000
  1056.2000     19.2002     57.8486      0.0000
  1056.3000     19.1234     60.7566      0.0000
  1056.4000     19.1234     60.7566      0.0000
  1056.5000     19.0645     63.7566      0.0000
  1056.6000     19.0645     63.7566      0.0000
  1056.7000     19.0645     63.7566      0.0000
  1056.8000     19.0437     66.0394      0.0000
  1056.9000     19.0437     66.0394      0.0000
  1057.0000     19.0714     67.6070      0.0000
  1057.1000     19.0714     67.6070      0.0000
  1057.2000     19.0714     67.6070      0.0000
  1057.3000     19.1399     68.8851      0.0000
  1057.4000     19.1399     68.8851      0.0000
  1057.5000     19.2473     69.9470      0.0000
  1057.6000     19.2473     69.9470      0.0000
  1057.7000     19.2473     69.9470      0.0000
  1057.8000     19.4031     70.3358      0.0000
  1057.9000     19.4031     70.3358      0.0000
  1058.0000     19.6000     69.8581      0.0000
  1058.1000     19.6000     69.8581      0.0000
  1058.2000     19.6000     69.8581      0.0000
  1058.3000     19.8026     69.2730      0.0000
  1058.4000     19.8026     69.2730      0.0000
  1058.5000     19.9824     69.7483      0.0000
  1058.6000     19.9824     69.7483      0.0000
  1058.7000     19.9824     69.7483      0.0000
  1058.8000     20.1410     71.7190      0.0000
  1058.9000     20.1410     71.7190      0.0000
  1059.0000     20.2822     74.5962      0.0000
  1059.1000     20.2822     74.5962      0.0000
  1059.2000     20.2822     74.5962      0.0000
  1059.3000     20.3846     77.4781      0.0000
  1059.4000     20.3846     77.4781      0.0000
  1059.5000     20.4373     79.9073      0.0000
  1059.6000     20.4373     79.9073      0.0000
  1059.7000     20.4373     79.9073      0.0000
  1059.8000     20.4904     82.0743      0.0000
  1059.9000     20.4904     82.0743      0.0000
  1060.0000     20.6356     84.3907      0.0000
  1060.1000     20.6356     84.3907      0.0000
  1060.2000     20.6356     84.3907      0.0000
  1060.3000     20.9103     86.6649      0.0000
  1060.4000     20.9103     86.6649      0.0000
  1060.5000     21.2302     87.8046      0.0000
  1060.6000     21.2302     87.8046      0.0000
  1060.7000     21.2302     87.8046      0.0000
  1060.8000     21.4479     86.8012      0.0000
  1060.9000     21.4479     86.8012      0.0000
  1061.0000     21.4929     83.9984      0.0000
  1061.1000     21.4929     83.9984      0.0000
  1061.2000     21.4929     83.9984      0.0000
  1061.3000     21.4524     81.0390      0.0000
  1061.4000     21.4524     81.0390      0.0000
  1061.5000     21.5077     79.6148      0.0000
  1061.6000     21.5077     79.6148      0.0000
  1061.7000     21.5077     79.6148      0.0000
  1061.8000     21.7882     80.5416      0.0000
  1061.9000     21.7882     80.5416      0.0000
  1062.0000     22.2767     83.7868      0.0000
  1062.1000     22.2767     83.7868      0.0000
  1062.2000     22.2767     83.7868      0.0000
  1062.3000     22.8463     88.8056      0.0000
  1062.4000     22.8463     88.8056      0.0000
  1062.5000     23.3648     94.7415      0.0000
  1062.6000     23.3648     94.7415      0.0000
  1062.7000     23.3648     94.7415      0.0000
  1062.8000     23.7400    100.6691      0.0000
  1062.9000     23.7400    100.6691      0.0000
  1063.0000     23.9039    105.8930      0.0000
  1063.1000     23.9039    105.8930      0.0000
  1063.2000     23.9039    105.8930      0.0000
  1063.3000     23.8335    110.1043      0.0000
  1063.4000     23.8335    110.1043      0.0000
  1063.5000     23.6057    113.2771      0.0000
  1063.6000     23.6057    113.2771      0.0000
  1063.7000     23.6057    113.2771      0.0000
  1063.8000     23.3786    115.3253      0.0000
  1063.9000     23.3786    115.3253      0.0000
  1064.0000     23.2816    115.8053      0.0000
  1064.1000     23.2816    115.8053      0.0000
  1064.2000     23.2816    115.8053      0.0000
  1064.3000     23.3292    114.2221      0.0000
  1064.4000     23.3292    114.2221      0.0000
  1064.5000     23.4429    110.8718      0.0000
  1064.6000     23.4429    110.8718      0.0000
  1064.7000     23.4429    110.8718      0.0000
  1064.8000     23.5415    107.1286      0.0000
  1064.9000     23.5415    107.1286      0.0000
  1065.0000     23.5962    104.5305      0.0000
  1065.1000     23.5962    104.5305      0.0000
  1065.2000     23.5962    104.5305      0.0000
  1065.3000     23.6214    103.5994      0.0000
  1065.4000     23.6214    103.5994      0.0000
  1065.5000     23.6297    103.6501      0.0000
  1065.6000     23.6297    103.6501      0.0000
  1065.7000     23.6297    103.6501      0.0000
  1065.8000     23.5974    103.6217      0.0000
  1065.9000     23.5974    103.6217      0.0000
  1066.0000     23.4613    102.9374      0.0000
  1066.1000     23.4613    102.9374      0.0000
  1066.2000     23.4613    102.9374      0.0000
  1066.3000     23.1504    101.6047      0.0000
  1066.4000     23.1504    101.6047      0.0000
  1066.5000     22.6359     99.6806      0.0000
  1066.6000     22.6359     99.6806      0.0000
  1066.7000     22.6359     99.6806      0.0000
  1066.8000     21.9704     96.9258      0.0000
  1066.9000     21.9704     96.9258      0.0000
  1067.0000     21.2842     93.1834      0.0000
