~Version Information
VERS.                      2.0: CWLS Log ASCII Standard - VERSION 2.0
WRAP.                       NO: One line per depth step
~Well Information Block
STRT.FT               245.0000: 
STOP.FT              2464.2000: 
STEP.FT                 0.1000: 
NULL.                -999.2500: 
COMP.          Pioneer Natural Resources: COMPANY
WELL.          Oink Oink 14-36: WELL
FLD.           Purgatoire River: FIELD
LOC.           216' FSL & 263' FWL--: LOCATION
PROV.                 Colorado: PROVINCE
CNTY.               Las Animas: COUNTRY
SRVC.                Patterson: SERVICE COMPANY
DATE.          Wed Jun 08 16:53:09 2005: LOG DATE
UWI.           05 071 08394 00: UNIQUE WELL ID
~Curve Information Block
DEPT.FT            0 000 00 00: Depth
DCAL.in                       : CDL Caliper
RHOB.g/cc                     : CDL Bulk Density
RHOC.g/cc                     : CDL Density Correction
DPOR.pu                       : CDL Density Porosity
NPOR.pu                       : Neutron Porosity
GR.GAPI                       : Gamma Ray
~Parameter Information Block
~A  Depth       DCAL        RHOB        RHOC        DPOR        NPOR         GR     
# ...
  1704.2000      8.5229      2.7040      0.2501     -3.2730     23.7698    139.4968
  1704.3000      8.4335      2.7243      0.2851     -4.5014     24.9872    135.9109
  1704.4000      8.4335      2.7155      0.2495     -3.9688     25.8876    132.2778
  1704.5000      8.3108      2.6911      0.1503     -2.4931     26.5555    127.4486
  1704.6000      8.3108      2.6707      0.1158     -1.2568     26.8370    120.7807
  1704.7000      8.3108      2.6609      0.1144     -0.6623     26.9045    114.9424
  1704.8000      8.2431      2.6595      0.0822     -0.5728     27.0060    109.9378
  1704.9000      8.2431      2.6573      0.0699     -0.4424     26.8704    106.6495
  1705.0000      8.2288      2.6409      0.0318      0.5519     26.5307    109.1303
  1705.1000      8.2288      2.6154     -0.0073      2.0966     26.4529    115.7598
  1705.2000      8.2288      2.5963      0.0335      3.2567     26.6236    121.6787
  1705.3000      8.2295      2.5827      0.0321      4.0768     26.6091    125.5515
  1705.4000      8.2295      2.5751      0.0118      4.5403     26.4315    127.4974
  1705.5000      8.2301      2.5792      0.0284      4.2879     26.3303    127.1967
  1705.6000      8.2301      2.5873      0.0672      3.8006     26.4767    124.2435
  1705.7000      8.2301      2.5873      0.0564      3.7976     26.7788    121.0195
  1705.8000      8.2292      2.5760      0.0559      4.4824     26.7115    119.4644
  1705.9000      8.2292      2.5590      0.0446      5.5166     26.1111    118.2590
  1706.0000      8.2278      2.5497      0.0276      6.0788     25.4524    116.9306
  1706.1000      8.2278      2.5501      0.0345      6.0558     25.1139    118.5993
  1706.2000      8.2278      2.5412      0.0768      6.5965     24.9237    122.3553
  1706.3000      8.2272      2.5187      0.0151      7.9547     24.4487    123.4886
  1706.4000      8.2272      2.5074      0.0219      8.6398     23.6824    123.3651
  1706.5000      8.2274      2.5172      0.0571      8.0477     23.3019    125.9287
  1706.6000      8.2274      2.5348      0.0279      6.9823     23.6371    132.0449
  1706.7000      8.2274      2.5474      0.0784      6.2174     24.0671    137.6238
  1706.8000      8.2283      2.5534      0.0559      5.8572     24.0302    138.3328
  1706.9000      8.2283      2.5585      0.0559      5.5457     23.7236    136.5466
  1707.0000      8.2296      2.5559      0.1122      5.7056     23.4702    137.4483
  1707.1000      8.2296      2.5344      0.0821      7.0051     23.3591    142.6327
  1707.2000      8.2296      2.5092      0.0581      8.5335     23.4977    148.0996
  1707.3000      8.2302      2.5080      0.0528      8.6054     23.7950    149.2018
  1707.4000      8.2302      2.5306      0.1221      7.2380     24.0563    145.4838
  1707.5000      8.2296      2.5528      0.1205      5.8905     24.2297    137.9367
  1707.6000      8.2296      2.5674      0.0729      5.0047     24.4273    129.9748
  1707.7000      8.2296      2.5826      0.0877      4.0856     24.8841    124.7644
  1707.8000      8.2299      2.5952      0.0827      3.3190     25.5798    122.3100
  1707.9000      8.2299      2.5980      0.0678      3.1536     26.1343    121.9933
  1708.0000      8.2334      2.5944      0.0437      3.3716     26.3649    125.5703
  1708.1000      8.2334      2.5919      0.0417      3.5225     26.5545    131.5768
  1708.2000      8.2334      2.5937      0.0313      3.4130     27.0376    133.8894
  1708.3000      8.2373      2.5970      0.0685      3.2127     27.7709    132.0050
  1708.4000      8.2373      2.5903      0.0756      3.6163     28.2620    130.3328
  1708.5000      8.2424      2.5741      0.0053      4.6018     28.1119    131.6054
  1708.6000      8.2424      2.5666      0.0102      5.0533     27.7208    136.0959
  1708.7000      8.2424      2.5716      0.0320      4.7530     27.5516    139.7581
  1708.8000      8.2497      2.5745      0.0452      4.5746     27.3175    138.6037
  1708.9000      8.2497      2.5651      0.0631      5.1425     26.9705    135.0299
  1709.0000      8.2534      2.5469      0.0281      6.2458     26.7409    131.6617
  1709.1000      8.2534      2.5296      0.0506      7.2976     26.4283    126.1320
  1709.2000      8.2534      2.5190      0.0272      7.9397     25.8879    119.0187
  1709.3000      8.2537      2.5206      0.0564      7.8446     25.3710    117.7785
  1709.4000      8.2537      2.5371      0.0553      6.8432     25.0409    126.0738
  1709.5000      8.2533      2.5578      0.0996      5.5859     24.8154    136.9155
  1709.6000      8.2533      2.5574      0.1231      5.6114     24.5909    144.7329
  1709.7000      8.2533      2.5231      0.0738      7.6881     24.4537    149.9955
  1709.8000      8.2526      2.4728      0.0107     10.7373     24.3889    151.9941
  1709.9000      8.2526      2.4372     -0.0293     12.8985     24.2714    149.8255
  1710.0000      8.2545      2.4311      0.0257     13.2682     24.1228    144.4675
  1710.1000      8.2545      2.4418      0.0789     12.6181     24.0358    139.5898
  1710.2000      8.2545      2.4537      0.0407     11.8974     24.0505    138.8300
  1710.3000      8.2573      2.4680      0.0718     11.0317     24.1411    141.7059
  1710.4000      8.2573      2.4839      0.0842     10.0670     24.1326    145.0063
  1710.5000      8.2621      2.4913      0.0931      9.6189     24.0178    147.3996
  1710.6000      8.2621      2.4853      0.0965      9.9834     23.9579    147.6486
  1710.7000      8.2621      2.4710      0.0856     10.8496     23.7222    144.7152
  1710.8000      8.2762      2.4507      0.1266     12.0816     23.4205    143.4760
  1710.9000      8.2762      2.4204      0.0743     13.9164     23.2394    148.1858
  1711.0000      8.3007      2.3933      0.0237     15.5547     23.0769    153.8319
  1711.1000      8.3007      2.3886      0.0514     15.8412     23.4165    154.6283
  1711.2000      8.3007      2.4037      0.0840     14.9246     24.1366    153.2359
  1711.3000      8.3273      2.4268      0.0859     13.5297     24.1747    152.5487
  1711.4000      8.3273      2.4495      0.1087     12.1542     23.5003    150.5365
  1711.5000      8.3472      2.4665      0.1179     11.1194     22.7965    148.4133
  1711.6000      8.3472      2.4748      0.1454     10.6168     22.0685    148.3230
  1711.7000      8.3472      2.4736      0.1629     10.6897     21.3547    149.4212
  1711.8000      8.3593      2.4647      0.1502     11.2316     21.0955    149.7734
  1711.9000      8.3593      2.4410      0.1684     12.6648     21.0770    150.5549
  1712.0000      8.3709      2.3854      0.1414     16.0381     20.7001    155.4526
  1712.1000      8.3709      2.2946      0.0280     21.5396     19.9680    159.8202
  1712.2000      8.3709      2.1907     -0.0187     27.8338     19.1238    156.5369
  1712.3000      8.3912      2.1013     -0.0148     33.2567     18.5287    149.2975
  1712.4000      8.3912      2.0494     -0.0730     36.3981     18.4809    146.8634
  1712.5000      8.4163      2.0525     -0.0413     36.2144     18.8977    149.8517
  1712.6000      8.4163      2.1091      0.0085     32.7849     19.6139    151.2848
  1712.7000      8.4163      2.2044      0.0833     27.0049     20.2261    148.3341
  1712.8000      8.4322      2.3241      0.1675     19.7516     20.3833    145.9627
  1712.9000      8.4322      2.4411      0.3637     12.6591     20.3453    146.6867
  1713.0000      8.4212      2.5121      0.4277      8.3605     20.5400    148.1338
  1713.1000      8.4212      2.5219      0.3559      7.7652     21.0311    148.7321
  1713.2000      8.4212      2.4976      0.3144      9.2389     21.3176    150.3144
  1713.3000      8.3550      2.4639      0.2493     11.2790     21.1658    153.7974
  1713.4000      8.3550      2.4285      0.1896     13.4253     20.8962    154.7600
  1713.5000      8.2556      2.3944      0.1270     15.4911     20.4412    152.8000
  1713.6000      8.2556      2.3601      0.0904     17.5706     19.7686    151.6250
  1713.7000      8.2556      2.3216      0.0552     19.9006     19.3205    150.5415
