~Version Information
VERS.                      2.0: CWLS Log ASCII Standard - VERSION 2.0
WRAP.                       NO: One line per depth step
~Well Information Block
STRT.FT                 0.6000: 
STOP.FT              2735.2000: 
STEP.FT                 0.1000: 
NULL.                -999.2500: 
COMP.          Pioneer Natural Resources: COMPANY
WELL.              Cluck 21-25: WELL
FLD.           Purgatoire River: FIELD
LOC.           91' FNL & 1834' FWL--: LOCATION
PROV.                 Colorado: PROVINCE
CNTY.               Las Animas: COUNTRY
SRVC.                Patterson: SERVICE COMPANY
DATE.          Mon Jun 06 19:08:34 2005: LOG DATE
UWI.           05 071 08397 00: UNIQUE WELL ID
~Curve Information Block
DEPT.FT            0 000 00 00: Depth
SN.Ohm-m                      : IEL Short Normal
SP.mV                         : IEL Spontaneous Potential
DIR.Ohm-m                     : IEL Induction Resistivity
GR.GAPI                       : Gamma Ray
~Parameter Information Block
~A  Depth        SN          SP         DIR          GR     
# ...
   925.2000   2000.0000   1981.0000     11.7521    129.7019
   925.3000   2000.0000   1981.0000     11.7689    130.9152
   925.4000   2000.0000   1981.0000     11.7689    131.8943
   925.5000   2000.0000   1981.0000     11.8216    132.5876
   925.6000   2000.0000   1981.0000     11.8216    132.9648
   925.7000   2000.0000   1981.0000     11.8216    133.0187
   925.8000   2000.0000   1981.0000     11.9141    132.7687
   925.9000   2000.0000   1981.0000     11.9141    132.2540
   926.0000   2000.0000   1981.0000     12.0587    131.5280
   926.1000   2000.0000   1981.0000     12.0587    130.6469
   926.2000   2000.0000   1981.0000     12.0587    129.6600
   926.3000   2000.0000   1981.0000     12.2744    128.5975
   926.4000   2000.0000   1981.0000     12.2744    127.4693
   926.5000   2000.0000   1981.0000     12.5854    126.2607
   926.6000   2000.0000   1981.0000     12.5854    124.9367
   926.7000   2000.0000   1981.0000     12.5854    123.4472
   926.8000   2000.0000   1981.0000     13.0196    121.7319
   926.9000   2000.0000   1981.0000     13.0196    119.7312
   927.0000   2000.0000   1981.0000     13.6050    117.3881
   927.1000   2000.0000   1981.0000     13.6050    114.6563
   927.2000   2000.0000   1981.0000     13.6050    111.5036
   927.3000   2000.0000   1981.0000     14.3633    107.9147
   927.4000   2000.0000   1981.0000     14.3633    103.8941
   927.5000   2000.0000   1981.0000     15.3036     99.4668
   927.6000   2000.0000   1981.0000     15.3036     94.6824
   927.7000   2000.0000   1981.0000     15.3036     89.6122
   927.8000   2000.0000   1981.0000     16.4202     84.3496
   927.9000   2000.0000   1981.0000     16.4202     79.0050
   928.0000   2000.0000   1981.0000     17.7010     73.6981
   928.1000   2000.0000   1981.0000     17.7010     68.5504
   928.2000   2000.0000   1981.0000     17.7010     63.6757
   928.3000   2000.0000   1981.0000     19.1476     59.1712
   928.4000   2000.0000   1981.0000     19.1476     55.1115
   928.5000   2000.0000   1981.0000     20.7976     51.5418
   928.6000   2000.0000   1981.0000     20.7976     48.4807
   928.7000   2000.0000   1981.0000     20.7976     45.9191
   928.8000   2000.0000   1981.0000     22.7305     43.8269
   928.9000   2000.0000   1981.0000     22.7305     42.1564
   929.0000   2000.0000   1981.0000     25.0444     40.8513
   929.1000   2000.0000   1981.0000     25.0444     39.8529
   929.2000   2000.0000   1981.0000     25.0444     39.1070
   929.3000   2000.0000   1981.0000     27.8012     38.5699
   929.4000   2000.0000   1981.0000     27.8012     38.2147
   929.5000   2000.0000   1981.0000     30.9436     38.0332
   929.6000   2000.0000   1981.0000     30.9436     38.0360
   929.7000   2000.0000   1981.0000     30.9436     38.2478
   929.8000   2000.0000   1981.0000     34.2012     38.7032
   929.9000   2000.0000   1981.0000     34.2012     39.4342
   930.0000   2000.0000   1981.0000     37.0478     40.4619
   930.1000   2000.0000   1981.0000     37.0478     41.7883
   930.2000   2000.0000   1981.0000     37.0478     43.3893
   930.3000   2000.0000   1981.0000     38.8198     45.2214
   930.4000   2000.0000   1981.0000     38.8198     47.2236
   930.5000   2000.0000   1981.0000     39.0343     49.3313
   930.6000   2000.0000   1981.0000     39.0343     51.4906
   930.7000   2000.0000   1981.0000     39.0343     53.6708
   930.8000   2000.0000   1981.0000     37.6966     55.8721
   930.9000   2000.0000   1981.0000     37.6966     58.1339
   931.0000   2000.0000   1981.0000     35.2894     60.5273
   931.1000   2000.0000   1981.0000     35.2894     63.1457
   931.2000   2000.0000   1981.0000     35.2894     66.0891
   931.3000   2000.0000   1981.0000     32.4635     69.4440
   931.4000   2000.0000   1981.0000     32.4635     73.2645
   931.5000   2000.0000   1981.0000     29.7381     77.5585
   931.6000   2000.0000   1981.0000     29.7381     82.2808
   931.7000   2000.0000   1981.0000     29.7381     87.3310
   931.8000   2000.0000   1981.0000     27.3972     92.5650
   931.9000   2000.0000   1981.0000     27.3972     97.8117
   932.0000   2000.0000   1981.0000     25.5305    102.8926
   932.1000   2000.0000   1981.0000     25.5305    107.6439
   932.2000   2000.0000   1981.0000     25.5305    111.9311
   932.3000   2000.0000   1981.0000     24.1121    115.6611
   932.4000   2000.0000   1981.0000     24.1121    118.7855
   932.5000   2000.0000   1981.0000     23.0660    121.2956
   932.6000   2000.0000   1981.0000     23.0660    123.2174
   932.7000   2000.0000   1981.0000     23.0660    124.5993
   932.8000   2000.0000   1981.0000     22.3103    125.5048
   932.9000   2000.0000   1981.0000     22.3103    126.0048
   933.0000   2000.0000   1981.0000     21.7838    126.1716
   933.1000   2000.0000   1981.0000     21.7838    126.0784
   933.2000   2000.0000   1981.0000     21.7838    125.7929
   933.3000   2000.0000   1981.0000     21.4591    125.3748
   933.4000   2000.0000   1981.0000     21.4591    124.8730
   933.5000   2000.0000   1981.0000     21.3397    124.3216
   933.6000   2000.0000   1981.0000     21.3397    123.7356
   933.7000   2000.0000   1981.0000     21.3397    123.1150
   933.8000   2000.0000   1981.0000     21.4479    122.4455
   933.9000   2000.0000   1981.0000     21.4479    121.7041
   934.0000   2000.0000   1981.0000     21.8063    120.8634
   934.1000   2000.0000   1981.0000     21.8063    119.8995
   934.2000   2000.0000   1981.0000     21.8063    118.7917
   934.3000   2000.0000   1981.0000     22.4209    117.5269
   934.4000   2000.0000   1981.0000     22.4209    116.0920
   934.5000   2000.0000   1981.0000     23.2673    114.4772
   934.6000   2000.0000   1981.0000     23.2673    112.6763
   934.7000   2000.0000   1981.0000     23.2673    110.6869
   934.8000   2000.0000   1981.0000     24.2829    108.5182
   934.9000   2000.0000   1981.0000     24.2829    106.1981
   935.0000   2000.0000   1981.0000     25.3727    103.7777
   935.1000   2000.0000   1981.0000     25.3727    101.3346
   935.2000   2000.0000   1981.0000     25.3727     98.9720
   935.3000   2000.0000   1981.0000     26.4320     96.8051
   935.4000   2000.0000   1981.0000     26.4320     94.9520
   935.5000   2000.0000   1981.0000     27.3814     93.5161
   935.6000   2000.0000   1981.0000     27.3814     92.5700
   935.7000   2000.0000   1981.0000     27.3814     92.1452
   935.8000   2000.0000   1981.0000     28.1962     92.2246
   935.9000   2000.0000   1981.0000     28.1962     92.7442
   936.0000   2000.0000   1981.0000     28.9115     93.5962
   936.1000   2000.0000   1981.0000     28.9115     94.6451
   936.2000   2000.0000   1981.0000     28.9115     95.7403
   936.3000   2000.0000   1981.0000     29.6015     96.7340
   936.4000   2000.0000   1981.0000     29.6015     97.4928
   936.5000   2000.0000   1981.0000     30.3465     97.9105
   936.6000   2000.0000   1981.0000     30.3465     97.9145
   936.7000   2000.0000   1981.0000     30.3465     97.4646
   936.8000   2000.0000   1981.0000     31.2068     96.5546
   936.9000   2000.0000   1981.0000     31.2068     95.2064
   937.0000   2000.0000   1981.0000     32.2124     93.4634
   937.1000   2000.0000   1981.0000     32.2124     91.3897
   937.2000   2000.0000   1981.0000     32.2124     89.0611
   937.3000   2000.0000   1981.0000     33.3665     86.5643
   937.4000   2000.0000   1981.0000     33.3665     83.9921
   937.5000   2000.0000   1981.0000     34.6520     81.4353
   937.6000   2000.0000   1981.0000     34.6520     78.9765
   937.7000   2000.0000   1981.0000     34.6520     76.6848
   937.8000   2000.0000   1981.0000     36.0317     74.6066
   937.9000   2000.0000   1981.0000     36.0317     72.7663
   938.0000   2000.0000   1981.0000     37.4451     71.1660
   938.1000   2000.0000   1981.0000     37.4451     69.7940
   938.2000   2000.0000   1981.0000     37.4451     68.6302
   938.3000   2000.0000   1981.0000     38.8102     67.6603
   938.4000   2000.0000   1981.0000     38.8102     66.8779
   938.5000   2000.0000   1981.0000     40.0297     66.2901
