~Version Information
VERS.                      2.0: CWLS Log ASCII Standard - VERSION 2.0
WRAP.                       NO: One line per depth step
~Well Information Block
STRT.FT               350.0000: 
STOP.FT              1391.5000: 
STEP.FT                 0.2500: 
NULL.                -999.2500: 
COMP.          Petrogulf Corporation: COMPANY
WELL.             Leier 17-42R: WELL
FLD.           Purgatorie River: FIELD
LOC.           2398' FNL & 1109' FEL: LOCATION
PROV.                 Colorado: PROVINCE
CNTY.               Las Animas: COUNTRY
SRVC.                Patterson: SERVICE COMPANY
DATE.          Mon Oct 17 09:42:26 2005: LOG DATE
UWI.                          : UNIQUE WELL ID
~Curve Information Block
DEPT.FT            0 000 00 00: Depth
SP.mV                         : DIL Spontaneous Potential
RILD.Ohm-m                    : DIL Deep Resistivity
RILM.Ohm-m                    : DIL Medium Resistivity
RLL3.Ohm-m                    : DIL Shallow Resistivity
GR.GAPI                       : Gamma Ray
~Parameter Information Block
~A  Depth        SP         RILD        RILM        RLL3         GR     
# ...
   826.0000    211.0057     12.9846     12.4631     15.3798    109.8002
   826.2500    211.5071     13.1742     12.4475     14.0795    108.4964
   826.5000    212.0490     13.3737     12.5315     13.4522    106.8905
   826.7500    212.5420     13.5660     12.7212     13.5324    107.0240
   827.0000    212.9077     13.7392     13.0155     14.3549    110.1928
   827.2500    213.0922     13.8910     13.4056     15.8725    114.2890
   827.5000    213.0818     14.0292     13.8761     17.8916    121.9813
   827.7500    212.9096     14.1681     14.4055     20.1140    126.5766
   828.0000    212.6430     14.3231     14.9684     22.2377    129.9057
   828.2500    212.3593     14.5065     15.5381     24.0328    129.1451
   828.5000    212.1227     14.7257     16.0891     25.3517    125.3821
   828.7500    211.9717     14.9824     16.5998     26.0940    123.3190
   829.0000    211.9180     15.2710     17.0532     26.1817    123.9510
   829.2500    211.9548     15.5736     17.4359     25.5925    127.2310
   829.5000    212.0692     15.8561     17.7357     24.4499    134.8828
   829.7500    212.2532     16.0710     17.9393     23.0802    140.3159
   830.0000    212.5052     16.1701     18.0305     21.9350    146.3673
   830.2500    212.8247     16.1230     17.9917     21.3832    147.7784
   830.5000    213.2026     15.9303     17.8085     21.4973    145.1007
   830.7500    213.6113     15.6225     17.4772     21.9767    140.6575
   831.0000    214.0017     15.2465     17.0101     22.2829    132.3377
   831.2500    214.3090     14.8502     16.4384     21.9406    127.2166
   831.5000    214.4660     14.4742     15.8069     20.8248    122.0062
   831.7500    214.4228     14.1492     15.1670     19.2187    120.5706
   832.0000    214.1690     13.8984     14.5679     17.5902    120.9787
   832.2500    213.7461     13.7384     14.0512     16.2755    122.2263
   832.5000    213.2404     13.6779     13.6495     15.3244    124.5754
   832.7500    212.7585     13.7165     13.3873     14.5973    126.4797
   833.0000    212.4010     13.8425     13.2831     14.0058    130.3407
   833.2500    212.2488     14.0348     13.3512     13.7519    133.3502
   833.5000    212.3659     14.2664     13.6021     14.5675    136.6142
   833.7500    212.8078     14.5097     14.0413     18.0535    136.4936
   834.0000    213.6218     14.7421     14.6655     27.0258    131.1957
   834.2500    214.8386     14.9489     15.4562     45.2245    124.2792
   834.5000    216.4664     15.1261     16.3716     75.4260    110.7440
   834.7500    218.4931     15.2806     17.3399    115.9043    101.4419
   835.0000    220.8923     15.4278     18.2610    157.6053     90.0698
   835.2500    223.6236     15.5850     19.0212    186.0173     85.1378
   835.5000    226.6242     15.7619     19.5215    188.9401     81.4129
   835.7500    229.7952     15.9526     19.7084    164.9390     80.5786
   836.0000    232.9925     16.1315     19.5867    124.6690     80.8865
   836.2500    236.0362     16.2562     19.2102     83.4799     82.2280
   836.5000    238.7449     16.2777     18.6551     52.1767     86.5489
   836.7500    240.9840     16.1554     17.9955     33.3469     91.0271
   837.0000    242.7009     15.8708     17.2888     23.9376     99.2480
   837.2500    243.9266     15.4335     16.5722     19.6918    104.7516
   837.5000    244.7491     14.8788     15.8669     17.7594    111.2927
   837.7500    245.2838     14.2587     15.1840     16.9278    113.9017
   838.0000    245.6544     13.6290     14.5296     16.7435    115.4536
   838.2500    245.9754     13.0371     13.9094     16.7887    115.9073
   838.5000    246.3269     12.5155     13.3302     16.5938    117.9765
   838.7500    246.7266     12.0809     12.8001     15.9191    120.9526
   839.0000    247.1291     11.7383     12.3281     14.9132    126.7270
   839.2500    247.4623     11.4853     11.9225     13.9324    130.0298
   839.5000    247.6778     11.3146     11.5899     13.2313    132.4594
   839.7500    247.7750     11.2144     11.3341     12.8280    132.2934
   840.0000    247.7865     11.1681     11.1562     12.6027    129.9979
   840.2500    247.7480     11.1562     11.0541     12.4618    127.5979
   840.5000    247.6762     11.1606     11.0223     12.4077    123.9314
   840.7500    247.5603     11.1675     11.0521     12.5031    122.2936
   841.0000    247.3635     11.1688     11.1308     12.8138    121.6439
   841.2500    247.0345     11.1603     11.2411     13.3881    121.9450
   841.5000    246.5269     11.1399     11.3624     14.2459    122.2117
   841.7500    245.8198     11.1079     11.4715     15.3361    121.9393
   842.0000    244.9273     11.0688     11.5465     16.4893    120.9024
   842.2500    243.8923     11.0320     11.5711     17.4356    119.6773
   842.5000    242.7680     11.0107     11.5389     17.9035    116.8674
   842.7500    241.5998     11.0185     11.4562     17.7343    114.9288
   843.0000    240.4166     11.0655     11.3408     16.9366    113.8882
   843.2500    239.2291     11.1551     11.2182     15.6631    115.0861
   843.5000    238.0315     11.2823     11.1158     14.1606    118.8107
   843.7500    236.8064     11.4341     11.0580     12.7336    121.6026
   844.0000    235.5379     11.5918     11.0623     11.7038    125.6541
   844.2500    234.2289     11.7354     11.1372     11.3393    128.3288
   844.5000    232.9092     11.8484     11.2814     11.7882    131.2523
   844.7500    231.6268     11.9235     11.4845     13.0506    131.1469
   845.0000    230.4282     11.9659     11.7288     14.9487    126.8175
   845.2500    229.3378     11.9918     11.9927     17.0624    122.1350
   845.5000    228.3459     12.0230     12.2558     18.7665    115.4476
   845.7500    227.4078     12.0797     12.5028     19.5156    112.2381
   846.0000    226.4608     12.1752     12.7258     19.2162    109.0317
   846.2500    225.4508     12.3143     12.9240     18.3036    107.5145
   846.5000    224.3556     12.4933     13.0996     17.4162    106.3937
   846.7500    223.1864     12.7011     13.2548     16.9749    106.8872
   847.0000    221.9716     12.9195     13.3891     16.9930    109.4249
   847.2500    220.7366     13.1263     13.5001     17.1665    111.4546
   847.5000    219.4940     13.2996     13.5851     17.1255    113.0348
   847.7500    218.2468     13.4239     13.6438     16.6905    112.5430
   848.0000    216.9980     13.4926     13.6787     15.9731    110.4458
   848.2500    215.7588     13.5075     13.6944     15.2739    109.3675
   848.5000    214.5497     13.4755     13.6952     14.9011    109.4393
   848.7500    213.3947     13.4068     13.6825     15.0454    110.2016
   849.0000    212.3156     13.3131     13.6546     15.7119    110.7757
   849.2500    211.3296     13.2070     13.6075     16.6766    110.1886
   849.5000    210.4522     13.1008     13.5379     17.5306    107.9543
   849.7500    209.6981     13.0050     13.4459     17.8820    105.9775
   850.0000    209.0774     12.9281     13.3363     17.6097    103.1649
   850.2500    208.5868     12.8765     13.2189     16.9283    101.9452
   850.5000    208.2048     12.8537     13.1060     16.1932    101.7276
   850.7500    207.8974     12.8597     13.0104     15.6444    102.6139
   851.0000    207.6315     12.8910     12.9435     15.3168    104.8785
   851.2500    207.3853     12.9431     12.9146     15.1286    106.6067
   851.5000    207.1477     13.0135     12.9310     15.0049    108.9364
   851.7500    206.9159     13.1028     12.9983     14.9354    110.0497
   852.0000    206.6924     13.2152     13.1210     14.9678    110.9551
   852.2500    206.4832     13.3566     13.3025     15.1868    111.2609
   852.5000    206.2940     13.5332     13.5459     15.6905    111.6634
   852.7500    206.1258     13.7500     13.8534     16.5296    111.7810
   853.0000    205.9749     14.0108     14.2274     17.6104    111.0332
   853.2500    205.8377     14.3174     14.6712     18.6744    109.7278
   853.5000    205.7166     14.6698     15.1891     19.4704    107.1841
   853.7500    205.6240     15.0676     15.7868     20.0232    105.6715
