~Version Information
VERS.                      2.0: CWLS Log ASCII Standard - VERSION 2.0
WRAP.                       NO: One line per depth step
~Well Information Block
STRT.FT                -9.5000: 
STOP.FT              2451.0000: 
STEP.FT                 0.2500: 
NULL.                -999.2500: 
COMP.          Petrogulf Corporation: COMPANY
WELL.           Vallejo 19-31V: WELL
FLD.           Purgatorie River: FIELD
LOC.           345' FNL & 2457' FEL: LOCATION
CNTY.               Las Animas: COUNTY
SRVC.                         : SERVICE COMPANY
DATE.          Mon Mar 08 08:24:37 2004: LOG DATE
UWI.           05-071-07919-00: UNIQUE WELL ID
STAT.                 Colorado: STATE
~Curve Information Block
DEPT.FT            0 000 00 00: Depth
MINMK.                        : Surface Line Tension
GR.GAPI                       : Gamma Ray
CCL.                          : Casing Collar Locator
TT3.usec                      : CBL 3' Travel Time
AMP3.mV                       : CBL 3' Amplitude
~Parameter Information Block
~A  Depth      MINMK         GR         CCL         TT3         AMP3    
# ...
   158.5000      0.0000     81.1846      0.0000    277.4984     55.3455
   158.7500      0.0000     83.2217      0.0000    277.6601     55.4054
   159.0000      0.0000     87.0336      0.0000    277.8747     55.6543
   159.2500      0.0000     91.1977      0.0000    277.9222     56.2861
   159.5000      0.0000     93.2967      0.0000    277.3570     58.0538
   159.7500      0.0000     91.6085      0.0000    275.9120     61.8772
   160.0000      0.0000     86.6968      0.0000    274.0740     66.9992
   160.2500      0.0000     81.1087      0.0000    272.6013     71.6297
   160.5000      0.0000     77.3467      0.0000    271.7247     75.4905
   160.7500      0.0000     76.1863      0.0000    271.2751     78.8413
   161.0000      0.0000     76.9885      0.0000    271.0790     81.1519
   161.2500      0.0000     79.3376      0.0000    271.0157     82.2246
   161.5000      0.0000     83.8110      0.0000    271.0020     82.5523
   161.7500      0.0000     90.9251      0.0000    271.0001     82.6043
   162.0000      0.0000     99.8884      0.0000    270.9990     82.5747
   162.2500      0.0000    108.9561      0.0000    270.9924     82.5012
   162.5000      0.0000    116.7718      0.0000    270.9640     82.3725
   162.7500      0.0000    122.9540      0.0000    270.8907     82.2434
   163.0000      0.0000    127.6704      0.0000    270.7870     82.2086
   163.2500      0.0000    131.2034      0.0000    270.7340     82.2438
   163.5000      0.0000    133.7250      0.0000    270.7870     82.2436
   163.7500      0.0000    135.0297      0.0000    270.8896     82.1919
   164.0000      0.0000    134.7161      0.0000    270.9564     82.1374
   164.2500      0.0000    132.9950      0.0000    270.9564     82.0735
   164.5000      0.0000    130.9960      0.0000    270.8896     81.9754
   164.7500      0.0000    129.9687      0.0000    270.7870     81.8749
   165.0000      0.0000    130.3544      0.0000    270.7339     81.8036
   165.2500      0.0000    131.6242      0.0000    270.7860     81.7564
   165.5000      0.0000    132.6721      0.0000    270.8831     81.7306
   165.7500      0.0000    132.3421      0.0000    270.9280     81.7114
   166.0000      0.0000    130.0052      0.0000    270.8831     81.6619
   166.2500      0.0000    126.0113      0.0000    270.7860     81.5703
   166.5000      0.0000    121.5854      0.0000    270.7339     81.4837
   166.7500      0.0000    117.8878      0.0000    270.7870     81.4562
   167.0000      0.0000    115.0727      0.0000    270.8895     81.4728
   167.2500      0.0000    112.6669      0.0000    270.9554     81.5204
   167.5000      0.0000    110.7395      0.0000    270.9488     81.6358
   167.7500      0.0000    110.1392      0.0000    270.8536     81.7781
   168.0000      0.0000    111.6404      0.0000    270.6776     81.8453
   168.2500      0.0000    115.1338      0.0000    270.5211     81.8275
   168.5000      0.0000    119.4245      0.0000    270.5210     81.7910
   168.7500      0.0000    122.6566      0.0000    270.6766     81.7741
   169.0000      0.0000    123.2514      0.0000    270.8460     81.7206
   169.2500      0.0000    120.8014      0.0000    270.9128     81.5601
   169.5000      0.0000    116.1131      0.0000    270.8460     81.3895
   169.7500      0.0000    110.3395      0.0000    270.6766     81.3568
   170.0000      0.0000    104.1704      0.0000    270.5210     81.4379
   170.2500      0.0000     97.9890      0.0000    270.5211     81.5297
   170.5000      0.0000     92.5545      0.0000    270.6776     81.5856
   170.7500      0.0000     88.9142      0.0000    270.8535     81.5991
   171.0000      0.0000     87.2774      0.0000    270.9478     81.5645
   171.2500      0.0000     86.2652      0.0000    270.9477     81.4591
   171.5000      0.0000     83.8667      0.0000    270.8525     81.3112
   171.7500      0.0000     79.2727      0.0000    270.6700     81.2103
   172.0000      0.0000     73.4799      0.0000    270.4851     81.1739
   172.2500      0.0000     68.1282      0.0000    270.4117     81.1489
   172.5000      0.0000     64.2542      0.0000    270.4647     81.1244
   172.7500      0.0000     62.3024      0.0000    270.5887     81.1303
   173.0000      0.0000     62.6231      0.0000    270.7433     81.1827
   173.2500      0.0000     65.2685      0.0000    270.8809     81.2237
   173.5000      0.0000     69.4966      0.0000    270.9542     81.1498
   173.7500      0.0000     74.0004      0.0000    270.9476     80.9714
   174.0000      0.0000     77.7224      0.0000    270.8450     80.8096
   174.2500      0.0000     80.4411      0.0000    270.6340     80.7182
   174.5000      0.0000     82.8609      0.0000    270.3757     80.6380
   174.7500      0.0000     86.1528      0.0000    270.1988     80.5319
   175.0000      0.0000     91.0078      0.0000    270.1988     80.4462
   175.2500      0.0000     96.8884      0.0000    270.3757     80.4011
   175.5000      0.0000    102.2976      0.0000    270.6341     80.3721
   175.7500      0.0000    105.8790      0.0000    270.8460     80.3768
   176.0000      0.0000    107.3401      0.0000    270.9552     80.4355
   176.2500      0.0000    107.4769      0.0000    270.9902     80.5002
   176.5000      0.0000    107.4366      0.0000    270.9902     80.5118
   176.7500      0.0000    107.8951      0.0000    270.9552     80.4733
   177.0000      0.0000    108.6900      0.0000    270.8459     80.4203
   177.2500      0.0000    109.0946      0.0000    270.6330     80.3521
   177.5000      0.0000    108.7133      0.0000    270.3670     80.2312
   177.7500      0.0000    108.4477      0.0000    270.1541     80.0545
   178.0000      0.0000    110.3142      0.0000    270.0458     79.8994
   178.2500      0.0000    115.6721      0.0000    270.0174     79.8723
   178.5000      0.0000    123.4889      0.0000    270.0458     79.9604
   178.7500      0.0000    130.7170      0.0000    270.1541     80.0072
   179.0000      0.0000    134.5262      0.0000    270.3670     79.9473
   179.2500      0.0000    134.0055      0.0000    270.6330     79.9329
   179.5000      0.0000    130.0061      0.0000    270.8459     80.1050
   179.7500      0.0000    123.9228      0.0000    270.9553     80.3569
   180.0000      0.0000    116.7953      0.0000    270.9913     80.4529
   180.2500      0.0000    109.3538      0.0000    270.9989     80.3341
   180.5000      0.0000    102.5599      0.0000    270.9999     80.1507
   180.7500      0.0000     97.5999      0.0000    271.0000     80.0439
   181.0000      0.0000     95.0402      0.0000    270.9999     80.0748
   181.2500      0.0000     94.1966      0.0000    270.9989     80.2038
   181.5000      0.0000     93.6968      0.0000    270.9913     80.2873
   181.7500      0.0000     92.8354      0.0000    270.9553     80.2611
   182.0000      0.0000     92.2247      0.0000    270.8459     80.2145
   182.2500      0.0000     92.9731      0.0000    270.6330     80.2756
   182.5000      0.0000     95.4115      0.0000    270.3670     80.4670
   182.7500      1.0000     98.6101      0.0000    270.1541     80.6217
   183.0000      0.0000    100.7614      0.0000    270.0447     80.5795
   183.2500      0.0000    100.2473      0.0000    270.0087     80.3939
   183.5000      0.0000     96.9357      0.0000    270.0011     80.2206
   183.7500      0.0000     92.2354      0.0000    270.0001     80.2204
   184.0000      0.0000     87.4853      0.0000    270.0000     80.4813
   184.2500      0.0000     82.7859      0.0000    270.0000     80.8255
   184.5000      0.0000     77.7983      0.0000    270.0000     80.9592
   184.7500      0.0000     73.1073      0.0000    270.0000     80.8711
   185.0000      0.0000     70.2813      0.0000    270.0000     80.8020
   185.2500      0.0000     70.7171      0.0000    270.0000     80.8795
   185.5000      0.0000     74.4575      0.0000    270.0000     81.0025
   185.7500      0.0000     80.0164      0.0000    270.0000     81.0702
   186.0000      0.0000     85.3196      0.0000    270.0000     81.1515
   186.2500      0.0000     88.9431      0.0000    270.0001     81.3232
