~Version Information
VERS.                      2.0: CWLS Log ASCII Standard - VERSION 2.0
WRAP.                       NO: One line per depth step
~Well Information Block
STRT.FT               720.0000: 
STOP.FT              2730.2000: 
STEP.FT                 0.1000: 
NULL.                -999.2500: 
COMP.          Evergreen Operating Corporation: COMPANY
WELL.            Rangely 22-28: WELL
FLD.           Purgatoire River: FIELD
LOC.           1741' FNL & 2335' FWL: LOCATION
PROV.                 Colorado: PROVINCE
CNTY.               Las Animas: COUNTRY
SRVC.                Patterson: SERVICE COMPANY
DATE.          Thu Sep 16 15:10:36 2004: LOG DATE
UWI.           05 071 08044 00: UNIQUE WELL ID
~Curve Information Block
DEPT.FT            0 000 00 00: Depth
DCAL.in                       : CDL Caliper
DPOR.pu                       : CDL Density Porosity
NPOR.pu                       : Neutron Porosity
RHOB.g/cc                     : CDL Bulk Density
RHOC.g/cc                     : CDL Density Correction
GR.GAPI                       : Gamma Ray
~Parameter Information Block
~A  Depth       DCAL        DPOR        NPOR        RHOB        RHOC         GR     
# ...
  1843.2000      8.0099      7.1228     22.0976      2.5325      0.0284    127.3169
  1843.3000      8.0114      6.6099     21.9342      2.5409      0.0299    130.4808
  1843.4000      8.0114      5.7232     21.9754      2.5556      0.0110    130.0720
  1843.5000      8.0117      5.1703     22.2139      2.5647      0.0736    126.8245
  1843.6000      8.0117      5.5061     22.5890      2.5591      0.0097    123.3932
  1843.7000      8.0117      6.1163     22.9171      2.5491      0.0285    123.4888
  1843.8000      8.0108      6.6652     23.0155      2.5400      0.0426    127.2055
  1843.9000      8.0108      7.3786     22.9464      2.5283      0.0400    129.2273
  1844.0000      8.0106      8.1656     22.9622      2.5153      0.0349    128.1269
  1844.1000      8.0106      8.3261     23.1463      2.5126     -0.0016    126.3697
  1844.2000      8.0106      7.5484     23.4060      2.5255      0.0204    123.4753
  1844.3000      8.0114      6.8972     23.4578      2.5362      0.0309    121.2029
  1844.4000      8.0114      7.1977     23.1008      2.5312      0.0445    121.2794
  1844.5000      8.0116      7.8639     22.6244      2.5202      0.0085    122.1636
  1844.6000      8.0116      8.1200     22.3889      2.5160      0.0360    124.8035
  1844.7000      8.0116      8.2866     22.3937      2.5133      0.0209    128.7769
  1844.8000      8.0115      8.7428     22.3956      2.5057      0.0213    129.4079
  1844.9000      8.0115      9.2712     22.2933      2.4970      0.0343    128.4853
  1845.0000      8.0113     10.0083     22.1161      2.4849      0.0440    134.7280
  1845.1000      8.0113     10.6314     21.7989      2.4746      0.0111    147.1237
  1845.2000      8.0113     10.1982     21.5442      2.4817      0.0131    154.1066
  1845.3000      8.0117      8.9381     21.5107      2.5025      0.0397    149.2824
  1845.4000      8.0117      7.6833     21.4350      2.5232      0.0354    138.6829
  1845.5000      8.0115      6.7642     21.2314      2.5384      0.0909    131.6602
  1845.6000      8.0115      6.2616     20.8393      2.5467      0.0419    130.1100
  1845.7000      8.0115      6.1286     20.2685      2.5489      0.0935    132.7037
  1845.8000      8.0117      6.5467     19.9504      2.5420      0.0658    135.6097
  1845.9000      8.0117      7.1807     20.1147      2.5315      0.0189    131.8378
  1846.0000      8.0121      6.9880     20.5144      2.5347      0.0173    122.6209
  1846.1000      8.0121      5.8437     20.9740      2.5536      0.0791    114.3224
  1846.2000      8.0121      4.7655     21.3086      2.5714      0.0455    109.1008
  1846.3000      8.0120      4.7456     21.1649      2.5717      0.1062    107.9819
  1846.4000      8.0120      5.9291     20.6375      2.5522      0.0377    110.3717
  1846.5000      8.0136      6.8181     20.3803      2.5375      0.0254    110.8044
  1846.6000      8.0136      5.9744     20.7652      2.5514      0.0384    105.3101
  1846.7000      8.0136      4.0103     21.3566      2.5838      0.0533     98.8140
  1846.8000      8.0215      2.9367     21.6373      2.6015      0.0911     96.8971
  1846.9000      8.0215      3.9851     21.6397      2.5842      0.0281     98.0631
  1847.0000      8.0336      6.2518     21.8191      2.5468      0.0037     98.9924
  1847.1000      8.0336      7.8805     22.4075      2.5200     -0.0140     99.1804
  1847.2000      8.0336      8.1226     23.0368      2.5160      0.0089    100.9309
  1847.3000      8.0385      7.4613     23.3394      2.5269     -0.0156    103.3757
  1847.4000      8.0385      6.3805     23.4544      2.5447      0.0322    104.8577
  1847.5000      8.0343      5.6379     23.5453      2.5570      0.0460    106.7528
  1847.6000      8.0343      6.0850     23.5461      2.5496      0.0563    108.0322
  1847.7000      8.0343      7.6109     23.3153      2.5244      0.0590    108.7837
  1847.8000      8.0286      9.0612     22.8672      2.5005      0.0094    112.2803
  1847.9000      8.0286      9.1440     22.3942      2.4991      0.0095    117.2629
  1848.0000      8.0296      8.2802     22.1366      2.5134      0.0622    120.2176
  1848.1000      8.0296      8.0787     22.2108      2.5167      0.0527    121.3624
  1848.2000      8.0296      8.5362     22.6750      2.5092      0.0209    122.5849
  1848.3000      8.0339      8.7850     23.3016      2.5050      0.0600    125.4776
  1848.4000      8.0339      8.8672     23.5191      2.5037      0.0202    131.8736
  1848.5000      8.0374      8.8962     23.2566      2.5032      0.0251    140.8818
  1848.6000      8.0374      9.0585     22.8870      2.5005      0.0248    149.1259
  1848.7000      8.0374      9.5996     22.7065      2.4916      0.0383    153.7826
  1848.8000      8.0382     10.3087     22.7550      2.4799      0.0293    154.7318
  1848.9000      8.0382     11.1465     22.7204      2.4661      0.0477    153.6301
  1849.0000      8.0371     12.0983     22.5581      2.4504     -0.0009    151.5838
  1849.1000      8.0371     12.2068     22.6804      2.4486     -0.0021    147.5979
  1849.2000      8.0371     10.8741     23.1081      2.4706      0.0215    141.0333
  1849.3000      8.0360      9.2644     23.2635      2.4971      0.0533    135.9899
  1849.4000      8.0360      8.4309     22.9246      2.5109      0.0462    137.4123
  1849.5000      8.0362      7.9258     22.4787      2.5192      0.0567    144.6760
  1849.6000      8.0362      7.5186     22.2394      2.5259      0.0757    153.5398
  1849.7000      8.0362      7.5432     21.9090      2.5255      0.0688    159.6971
  1849.8000      8.0382      7.6265     21.3598      2.5242      0.0847    161.7832
  1849.9000      8.0382      7.2996     21.1219      2.5296      0.0654    161.6488
  1850.0000      8.0399      6.9012     21.3683      2.5361      0.0954    158.7995
  1850.1000      8.0399      6.7311     21.8025      2.5389      0.0287    153.5930
  1850.2000      8.0399      6.6598     22.0521      2.5401      0.0922    149.7019
  1850.3000      8.0404      6.8432     21.8776      2.5371      0.0333    146.7911
  1850.4000      8.0404      7.1583     21.6410      2.5319      0.0419    141.8868
  1850.5000      8.0411      7.3021     21.7123      2.5295      0.0384    137.5675
  1850.6000      8.0411      7.2575     21.9639      2.5303      0.0599    137.5011
  1850.7000      8.0411      6.7307     22.1746      2.5389      0.0072    136.7676
  1850.8000      8.0411      5.6871     22.2989      2.5562      0.0732    133.3242
  1850.9000      8.0411      5.3884     22.3847      2.5611      0.0731    133.9857
  1851.0000      8.0393      6.6164     22.3404      2.5408      0.0503    138.1736
  1851.1000      8.0393      8.4234     22.2960      2.5110      0.0187    141.1848
  1851.2000      8.0393      9.6238     22.3965      2.4912      0.0438    144.1350
  1851.3000      8.0378      9.6892     22.2019      2.4901     -0.0319    148.7488
  1851.4000      8.0378      8.7513     21.6263      2.5056      0.0611    153.4950
  1851.5000      8.0402      7.8368     21.2404      2.5207      0.0389    156.8863
  1851.6000      8.0402      7.4523     21.2866      2.5270      0.0157    158.1488
  1851.7000      8.0402      7.0770     21.4556      2.5332      0.0150    155.1807
  1851.8000      8.0452      6.5299     21.5039      2.5423      0.0480    148.3308
  1851.9000      8.0452      5.9588     21.4205      2.5517      0.0333    144.3977
  1852.0000      8.0466      5.1218     21.3152      2.5655      0.0492    145.3295
  1852.1000      8.0466      4.5901     21.3479      2.5743      0.1032    143.3140
  1852.2000      8.0466      5.6792     21.6498      2.5563      0.0859    134.8325
  1852.3000      8.0434      7.7092     22.2100      2.5228     -0.0041    124.5857
  1852.4000      8.0434      8.4919     22.7445      2.5099     -0.0125    118.9272
  1852.5000      8.0409      7.5477     22.6940      2.5255      0.0389    117.9741
  1852.6000      8.0409      6.0389     21.9446      2.5504      0.0417    116.1653
  1852.7000      8.0409      4.7964     21.0918      2.5709      0.0323    112.8204
