~Version Information
VERS.                      2.0: CWLS Log ASCII Standard - VERSION 2.0
WRAP.                       NO: One line per depth step
~Well Information Block
STRT.FT               450.0000: 
STOP.FT              2756.0000: 
STEP.FT                 0.2500: 
NULL.                -999.2500: 
COMP.          Pioneer Natural Resources: COMPANY
WELL.             Squeal 11-26: WELL
FLD.           Purgatoire River: FIELD
LOC.           1186' FNL & 152' FWL: LOCATION
PROV.                 Colorado: PROVINCE
CNTY.               Las Animas: COUNTRY
SRVC.                Patterson: SERVICE COMPANY
DATE.          Wed Jun 15 02:22:08 2005: LOG DATE
UWI.           05 071 08404 00: UNIQUE WELL ID
~Curve Information Block
DEPT.FT            0 000 00 00: Depth
SN.Ohm-m                      : IEL Short Normal
SP.mV                         : IEL Spontaneous Potential
DIR.Ohm-m                     : IEL Induction Resistivity
GR.GAPI                       : Gamma Ray
~Parameter Information Block
~A  Depth        SN          SP         DIR          GR     
# ...
  1053.0000     20.4667   -200.0001     19.2368    120.7224
  1053.2500     21.0221   -200.0001     20.0430    116.7383
  1053.5000     21.8182   -200.0001     20.8608    110.8902
  1053.7500     22.8989   -200.0001     21.6962    106.9628
  1054.0000     24.1835   -200.0001     22.5510     99.8306
  1054.2500     25.6422   -200.0001     23.4257     93.5009
  1054.5000     27.3486   -200.0001     24.3351     81.4361
  1054.7500     29.3662   -200.0001     25.3239     72.3648
  1055.0000     31.6917   -200.0001     26.4572     59.1609
  1055.2500     34.2437   -200.0001     27.7909     51.6635
  1055.5000     36.8547   -200.0001     29.3400     43.2630
  1055.7500     39.3338   -200.0001     31.0683     39.5062
  1056.0000     41.5758   -200.0001     32.9000     35.9214
  1056.2500     43.6209   -200.0001     34.7432     34.3532
  1056.5000     45.5866   -200.0001     36.5117     32.4371
  1056.7500     47.5287   -200.0001     38.1403     31.2004
  1057.0000     49.4267   -200.0001     39.5979     29.3249
  1057.2500     51.2667   -200.0001     40.8882     28.0757
  1057.5000     53.0633   -200.0001     42.0294     26.2282
  1057.7500     54.8178   -200.0001     43.0258     25.1233
  1058.0000     56.4906   -200.0001     43.8680     24.0204
  1058.2500     58.0490   -200.0001     44.5709     23.7612
  1058.5000     59.4824   -200.0001     45.1980     23.7876
  1058.7500     60.7691   -200.0001     45.8330     23.7611
  1059.0000     61.8995   -200.0001     46.5244     23.3861
  1059.2500     62.8823   -200.0001     47.2704     23.0493
  1059.5000     63.7075   -200.0001     48.0596     22.9874
  1059.7500     64.3614   -200.0001     48.9101     23.5580
  1060.0000     64.9158   -200.0001     49.8465     25.3809
  1060.2500     65.4837   -200.0001     50.8359     26.8922
  1060.5000     66.0285   -200.0001     51.7517     28.7621
  1060.7500     66.4202   -200.0001     52.4324     29.4697
  1061.0000     66.6588   -200.0001     52.7943     29.8566
  1061.2500     66.8708   -200.0001     52.8847     29.9120
  1061.5000     67.1469   -200.0001     52.7994     30.0430
  1061.7500     67.4665   -200.0001     52.5676     30.3125
  1062.0000     67.7402   -200.0001     52.1388     31.1961
  1062.2500     67.8840   -200.0001     51.4879     32.0957
  1062.5000     67.8741   -200.0001     50.7085     33.5733
  1062.7500     67.7581   -200.0001     49.9753     34.4128
  1063.0000     67.5809   -200.0001     49.4160     35.3744
  1063.2500     67.3031   -200.0001     49.0165     35.9854
  1063.5000     66.8604   -200.0001     48.6202     37.2587
  1063.7500     66.2389   -200.0001     48.0037     38.4761
  1064.0000     65.4147   -200.0001     46.9830     40.7904
  1064.2500     64.3244   -200.0001     45.4910     42.5089
  1064.5000     62.9516   -200.0001     43.5825     45.0149
  1064.7500     61.3281   -200.0001     41.3826     46.4596
  1065.0000     59.3972   -200.0001     39.0372     48.3776
  1065.2500     56.9939   -200.0001     36.6913     49.9815
  1065.5000     53.9638   -200.0001     34.4819     54.2277
  1065.7500     50.2671   -200.0001     32.5208     58.9812
  1066.0000     46.0428   -200.0001     30.8722     69.5846
  1066.2500     41.5889   -200.0001     29.5456     78.9385
  1066.5000     37.2640   -200.0001     28.5022     95.4776
  1066.7500     33.4361   -200.0001     27.6663    106.8741
  1067.0000     30.3947   -200.0001     26.9355    121.1098
  1067.2500     28.1666   -200.0001     26.1998    126.8107
  1067.5000     26.5445   -200.0001     25.3811    128.7333
  1067.7500     25.3681   -200.0001     24.4783    126.7807
  1068.0000     24.6439   -200.0001     23.5771    122.4358
  1068.2500     24.3495   -200.0001     22.8018    120.1451
  1068.5000     24.2668   -200.0001     22.2448    118.5452
  1068.7500     24.1047   -200.0001     21.9276    118.5570
  1069.0000     23.7296   -200.0001     21.8075    119.5372
  1069.2500     23.2653   -200.0001     21.8187    120.3348
  1069.5000     22.9502   -200.0001     21.9153    120.7810
  1069.7500     22.8794   -200.0001     22.0886    120.2012
  1070.0000     22.9942   -200.0001     22.3553    118.2172
  1070.2500     23.2483   -200.0001     22.7343    116.6560
  1070.5000     23.6416   -200.0001     23.2283    114.4263
  1070.7500     24.2131   -200.0001     23.8130    112.6410
  1071.0000     25.0335   -200.0001     24.4342    108.3256
  1071.2500     26.0941   -200.0001     25.0179    104.1135
  1071.5000     27.2638   -200.0001     25.4939     96.9346
  1071.7500     28.4475   -200.0001     25.8207     92.8004
  1072.0000     29.6671   -200.0001     25.9917     89.1578
  1072.2500     30.9205   -200.0001     26.0164     88.5253
  1072.5000     32.0574   -200.0001     25.8984     89.2935
  1072.7500     32.8111   -200.0001     25.6305     90.3240
  1073.0000     32.9119   -200.0001     25.2098     92.2460
  1073.2500     32.2226   -200.0001     24.6530     93.8708
  1073.5000     30.8421   -200.0001     23.9945     97.1263
  1073.7500     29.0513   -200.0001     23.2690    100.0326
  1074.0000     27.1159   -200.0001     22.4979    105.7155
  1074.2500     25.2009   -200.0001     21.6907    110.2853
  1074.5000     23.4381   -200.0001     20.8588    117.7371
  1074.7500     21.9331   -200.0001     20.0257    122.7289
  1075.0000     20.7023   -200.0001     19.2284    129.8781
  1075.2500     19.6922   -200.0001     18.5082    134.3560
  1075.5000     18.8753   -200.0001     17.8997    140.5428
  1075.7500     18.2959   -200.0001     17.4234    144.0864
  1076.0000     17.9948   -200.0001     17.0856    147.8955
  1076.2500     17.9003   -200.0001     16.8823    149.1890
  1076.5000     17.8544   -200.0001     16.8059    149.3598
  1076.7500     17.7470   -200.0001     16.8471    148.4534
  1077.0000     17.5526   -200.0001     16.9923    145.4055
  1077.2500     17.2730   -200.0001     17.2227    141.9037
  1077.5000     16.9790   -200.0001     17.5198    134.1373
  1077.7500     16.8865   -200.0001     17.8781    127.6136
  1078.0000     17.2943   -200.0001     18.3093    117.0682
  1078.2500     18.4562   -200.0001     18.8282    110.2800
  1078.5000     20.4921   -200.0001     19.4272    101.3637
  1078.7500     23.2601   -200.0001     20.0627     96.6686
  1079.0000     26.2675   -200.0001     20.6684     92.0596
  1079.2500     28.8803   -200.0001     21.1902     90.7267
  1079.5000     30.7084   -200.0001     21.6139     91.1702
  1079.7500     31.7117   -200.0001     21.9616     92.9919
  1080.0000     31.9687   -200.0001     22.2618     97.8603
  1080.2500     31.5229   -200.0001     22.5204    102.2075
  1080.5000     30.4574   -200.0001     22.7161    109.2499
  1080.7500     28.9355   -200.0001     22.8180    113.5673
  1081.0000     27.1682   -200.0001     22.8101    118.6812
  1081.2500     25.4355   -200.0001     22.7005    120.9767
  1081.5000     24.0314   -200.0001     22.5045    122.4734
  1081.7500     23.0946   -200.0001     22.2168    121.9600
  1082.0000     22.5630   -200.0001     21.8013    118.7162
  1082.2500     22.2934   -200.0001     21.2189    115.1642
  1082.5000     22.1527   -200.0001     20.4788    109.2351
  1082.7500     22.0037   -200.0001     19.6593    106.2034
  1083.0000     21.7443   -200.0001     18.8706    105.1675
  1083.2500     21.3604   -200.0001     18.1944    107.4426
  1083.5000     20.8218   -200.0001     17.6568    114.7720
  1083.7500     20.0686   -200.0001     17.2428    121.0932
  1084.0000     19.1568   -200.0001     16.9244    130.1605
  1084.2500     18.2486   -200.0001     16.6781    134.8394
  1084.5000     17.4941   -200.0001     16.4812    139.3951
  1084.7500     16.9716   -200.0001     16.3027    141.1534
  1085.0000     16.6559   -200.0001     16.1044    142.4639
  1085.2500     16.4439   -200.0001     15.8537    142.5021
  1085.5000     16.2410   -200.0001     15.5412    141.3325
  1085.7500     16.0472   -200.0001     15.1881    140.0218
  1086.0000     15.9702   -200.0001     14.8399    138.0061
  1086.2500     16.0901   -200.0001     14.5487    136.8906
