~Version Information
 VERS.                                  2.0 : CWLS LAS VERSION
 WRAP.                                   NO : WRAPING MODE
 SWARE .                 MController 2.5.0J : SOFTWARE VERSION
~Well Information
 WELL.                      Bucksnort 41-35 : WELL
 COMP.   Pioneer Natural Resources USA Inc. : COMPANY
 FLD.                      Purgatoire River : FIELD
 LOC.                NE/NE Sec 35 T32S R66W : LOCATION
 DATE.                              7/22/05 : DATE(S) LOGGED
 SRVC.       BLANCO Geological Services LLC : SERVICE COMPANY
 STAT.                             Colorado : STATE
 CNTY.                           Las Animas : COUNTY
 CTRY.                               U.S.A. : COUNTRY
 API.                                   N/A : API NUMBER
 STRT.FT                             581.00 : START DEPTH
 STOP.FT                            2010.00 : STOP DEPTH
 STEP.FT                               1.00 : DEPTH INCREMENT
 NULL.                                -9999 : NULL VALUE
~Curve information
 DEPTH.FT                                   :
 ROP.MIN/FT                                 :
 GAS.UNITS                                  :
~ASCII Log data
# ...
       781.0         4.57          7.3 
       782.0         0.53          8.0 
       783.0         0.27          7.6 
       784.0         0.20          6.4 
       785.0         0.27          6.5 
       786.0         0.20          6.4 
       787.0         0.30          6.6 
       788.0         0.30          7.0 
       789.0         0.27          6.6 
       790.0         0.30          7.3 
       791.0         0.28          7.4 
       792.0         0.30          7.6 
       793.0         0.27          7.4 
       794.0         0.47          7.6 
       795.0         0.30          7.6 
       796.0         0.30          6.8 
       797.0         0.30          7.4 
       798.0         0.27          7.1 
       799.0         0.27          7.6 
       800.0         0.40          7.6 
       801.0         0.48          7.8 
       802.0         0.30          7.8 
       803.0         0.27          7.3 
       804.0         0.30          7.4 
       805.0         0.27          7.9 
       806.0         0.27          7.3 
       807.0         0.30          7.4 
       808.0         0.27          6.9 
       809.0         0.20          7.7 
       810.0         0.20          7.9 
       811.0         5.40          9.7 
       812.0         0.37          9.6 
       813.0         0.30          9.4 
       814.0         0.27          9.0 
       815.0         0.20          9.1 
       816.0         0.13          9.0 
       817.0         0.10          8.8 
       818.0         0.10          9.6 
       819.0         0.10          9.5 
       820.0         0.23          9.2 
       821.0         0.20         11.3 
       822.0         0.17         11.5 
       823.0         0.22         12.3 
       824.0         0.30         11.7 
       825.0         0.23          9.2 
       826.0         0.13          8.0 
       827.0         0.17          8.5 
       828.0         0.20          8.8 
       829.0         0.23          8.5 
       830.0         0.23          8.3 
       831.0         0.23          8.6 
       832.0         0.23          8.6 
       833.0         0.23          7.9 
       834.0         0.23          8.2 
       835.0         0.20          8.2 
       836.0         0.23          8.2 
       837.0         0.23          7.7 
       838.0         0.25          7.2 
       839.0         0.23          7.8 
       840.0         0.37          7.5 
       841.0         5.05          9.4 
       842.0         0.30          9.0 
       843.0         0.30          9.3 
       844.0         0.20          9.0 
       845.0         0.22          8.2 
       846.0         0.17          8.0 
       847.0         0.20          8.2 
       848.0         0.20          7.8 
       849.0         0.13          8.9 
       850.0         0.17          8.5 
       851.0         0.20          9.2 
       852.0         0.17          9.0 
       853.0         0.13          8.9 
       854.0         0.17         10.2 
       855.0         0.23          9.2 
       856.0         0.23         10.0 
       857.0         0.23          9.8 
       858.0         0.23          9.8 
       859.0         0.27          9.7 
       860.0         0.33          9.4 
       861.0         0.28          8.5 
       862.0         0.27          9.0 
       863.0         0.30          9.2 
       864.0         0.40          9.0 
       865.0         0.33          9.0 
       866.0         0.30          8.9 
       867.0         0.30          9.1 
       868.0         0.27          8.4 
       869.0         0.23          8.9 
       870.0         0.27          8.5 
       871.0         5.17         10.5 
       872.0         0.40          9.7 
       873.0         0.43         11.9 
       874.0         0.23         13.2 
       875.0         1.15         18.3 
       876.0         1.27          9.3 
       877.0         0.90          9.5 
       878.0         0.10          8.3 
       879.0         0.10          8.4 
       880.0         0.17          8.2 
       881.0         0.10          2.5 
       882.0         0.13          2.5 
       883.0         0.17          2.1 
       884.0         0.20          0.5 
       885.0         0.25          1.8 
       886.0         0.23          1.6 
       887.0         0.20          1.5 
       888.0         0.10          2.1 
       889.0         0.20          1.9 
       890.0         0.27          1.6 
       891.0         0.30          1.6 
       892.0         0.27          1.4 
       893.0         0.30          1.6 
       894.0         0.23          1.4 
       895.0         0.20          1.3 
       896.0         0.20          1.5 
       897.0         0.13          1.4 
       898.0         0.23          1.9 
       899.0         0.17          2.2 
       900.0         0.18          2.2 
       901.0         5.05          3.7 
       902.0         0.13          2.3 
       903.0         0.13          1.9 
       904.0         0.17          2.6 
       905.0         0.30          2.5 
       906.0         0.27          3.4 
       907.0         0.33          4.3 
       908.0         0.32          4.6 
       909.0         0.40          3.8 
       910.0         0.43          2.2 
       911.0         0.37          1.9 
       912.0         0.33          1.8 
       913.0         0.30          2.1 
       914.0         0.37          1.7 
       915.0         0.40          2.3 
       916.0         0.27          2.3 
       917.0         0.23          3.0 
       918.0         0.52          2.3 
       919.0         0.43          1.9 
       920.0         0.43          2.7 
       921.0         0.47          2.3 
       922.0         0.43          2.5 
       923.0         0.47          2.4 
       924.0         0.50          2.6 
       925.0         0.55          2.0 
       926.0         0.40          2.0 
       927.0         0.37          2.7 
       928.0         0.37          2.4 
       929.0         0.37          3.1 
       930.0         0.37          2.0 
       931.0         6.20          2.9 
       932.0         0.43          2.8 
       933.0         0.23          2.3 
       934.0         0.27          1.8 
       935.0         0.20          2.1 
       936.0         0.27          3.4 
       937.0         0.27          3.7 
       938.0         0.28          3.8 
       939.0         0.27          3.1 
       940.0         0.23          1.8 
       941.0         0.30          1.9 
       942.0         0.23          1.4 
       943.0         0.23          2.2 
       944.0         0.23          2.3 
       945.0         0.73          2.3 
       946.0         0.33          1.4 
       947.0         1.08          2.0 
       948.0         0.50          2.0 
       949.0         0.70          1.6 
       950.0         0.67          1.5 
       951.0         0.70          1.7 
       952.0         0.65          1.6 
       953.0         0.30          1.7 
       954.0         0.20          2.4 
       955.0         0.23          1.7 
       956.0         0.33          1.6 
       957.0         0.30          1.5 
       958.0         0.30          1.6 
       959.0         0.30          1.2 
       960.0         0.30          1.6 
       961.0         7.20          2.6 
       962.0         0.58          1.7 
       963.0         0.53          1.2 
       964.0         0.50          1.4 
       965.0         0.60          1.8 
       966.0         0.20          1.7 
       967.0         0.20          2.0 
       968.0         0.53          2.3 
       969.0         0.27          4.2 
       970.0         0.15          4.9 
       971.0         0.37          5.1 
       972.0         0.27          4.9 
       973.0         0.27          8.3 
       974.0         0.40          8.7 
       975.0         0.67          7.2 
       976.0         0.60          1.9 
       977.0         0.53          0.4 
       978.0         0.62          0.8 
       979.0         0.53          0.9 
       980.0         1.03          2.2 
