~Version Information
VERS.                      2.0: CWLS Log ASCII Standard - VERSION 2.0
WRAP.                       NO: One line per depth step
~Well Information Block
STRT.FT               780.0000: 
STOP.FT              2866.2000: 
STEP.FT                 0.1000: 
NULL.                -999.2500: 
COMP.          Pioneer Natural Resources: COMPANY
WELL.            Sebring 42-29: WELL
FLD.           Purgatoire River: FIELD
LOC.           1751' FNL & 584' FEL--: LOCATION
PROV.                 Colorado: PROVINCE
CNTY.               Las Animas: COUNTRY
SRVC.                Patterson: SERVICE COMPANY
DATE.          Mon Aug 15 07:11:37 2005: LOG DATE
UWI.           05 071 08293 00: UNIQUE WELL ID
~Curve Information Block
DEPT.FT            0 000 00 00: Depth
DCAL.in                       : CDL Caliper
RHOB.g/cc                     : CDL Bulk Density
RHOC.g/cc                     : CDL Density Correction
DPOR.pu                       : CDL Density Porosity
NPOR.pu                       : Neutron Porosity
GR.GAPI                       : Gamma Ray
~Parameter Information Block
~A  Depth       DCAL        RHOB        RHOC        DPOR        NPOR         GR     
# ...
  2700.0000      8.6971      1.2416      0.0250     85.3594     35.2137     24.8312
  2700.1000      8.6971      1.2627      0.0015     84.0797     34.4805     32.9105
  2700.2000      8.6971      1.3089      0.0317     81.2807     33.5481     35.7465
  2700.3000      8.8254      1.3782      0.0593     77.0787     32.7356     31.9229
  2700.4000      8.8254      1.4696      0.0967     71.5401     32.2206     28.5693
  2700.5000      8.8244      1.5858      0.1224     64.4967     31.6466     31.3490
  2700.6000      8.8244      1.7258      0.1900     56.0126     30.4037     41.4927
  2700.7000      8.8244      1.8756      0.2327     46.9363     28.8437     54.5406
  2700.8000      8.5922      2.0167      0.2870     38.3798     28.0163     62.5659
  2700.9000      8.5922      2.1466      0.3022     30.5084     27.8863     64.2676
  2701.0000      8.2108      2.2744      0.3019     22.7637     27.5603     65.9390
  2701.1000      8.2108      2.3899      0.3429     15.7663     26.8021     71.8987
  2701.2000      8.2108      2.4643      0.2566     11.2568     26.0380     79.3976
  2701.3000      7.9872      2.4910      0.1739      9.6373     25.7598     81.7732
  2701.4000      7.9872      2.4924      0.0707      9.5521     26.0748     80.9124
  2701.5000      7.9407      2.4916      0.0665      9.6004     26.5370     86.6624
  2701.6000      7.9407      2.4944      0.0376      9.4274     26.3342    101.5306
  2701.7000      7.9407      2.4919      0.0494      9.5838     25.2970    116.5135
  2701.8000      7.9375      2.4817      0.0142     10.2026     24.2707    124.2754
  2701.9000      7.9375      2.4822      0.0130     10.1691     23.9018    128.5627
  2702.0000      7.9357      2.4985      0.0874      9.1837     24.0027    131.4277
  2702.1000      7.9357      2.5124      0.0707      8.3364     24.0778    131.1845
  2702.2000      7.9357      2.5186      0.0607      7.9633     24.2239    129.8134
  2702.3000      7.9346      2.5265      0.0441      7.4830     24.7944    129.5499
  2702.4000      7.9346      2.5429      0.0540      6.4919     25.3331    128.2343
  2702.5000      7.9332      2.5618      0.0836      5.3460     25.2346    124.8468
  2702.6000      7.9332      2.5641      0.1021      5.2064     24.6675    123.3886
  2702.7000      7.9332      2.5421      0.0455      6.5370     24.0636    125.6126
  2702.8000      7.9303      2.5153      0.0451      8.1659     23.6807    127.8065
  2702.9000      7.9303      2.5009      0.0466      9.0347     23.5398    127.4096
  2703.0000      7.9279      2.4959      0.0425      9.3419     23.3598    120.8119
  2703.1000      7.9279      2.4945      0.0157      9.4247     22.9392    104.2739
  2703.2000      7.9279      2.5086      0.0153      8.5682     22.2313     88.3577
  2703.3000      7.9260      2.5440      0.0413      6.4245     21.5731     84.7928
  2703.4000      7.9260      2.5717      0.0872      4.7455     21.3186     88.4162
  2703.5000      7.9251      2.5635      0.0391      5.2428     21.2227     89.2166
  2703.6000      7.9251      2.5368      0.0105      6.8578     20.9005     88.4594
  2703.7000      7.9251      2.5244      0.0231      7.6094     20.4796     88.6103
  2703.8000      7.9249      2.5357      0.0375      6.9295     20.5012     87.9038
  2703.9000      7.9249      2.5667      0.0370      5.0511     21.0336     87.2589
  2704.0000      7.9241      2.5982      0.0880      3.1385     21.2871     86.4432
  2704.1000      7.9241      2.6044      0.0670      2.7622     20.7559     83.4967
  2704.2000      7.9241      2.5926      0.0290      3.4775     19.7357     79.6076
  2704.3000      7.9229      2.5808      0.0918      4.1922     18.6496     78.4484
  2704.4000      7.9229      2.5709      0.0182      4.7932     17.9819     79.9648
  2704.5000      7.9215      2.5682      0.0512      4.9568     17.6261     80.6172
  2704.6000      7.9215      2.5779      0.0521      4.3704     16.9706     75.3509
  2704.7000      7.9215      2.5976      0.0581      3.1741     16.2243     66.1897
  2704.8000      7.9218      2.6135      0.1052      2.2114     15.8326     60.1988
  2704.9000      7.9218      2.6100      0.0373      2.4222     15.5321     56.7459
  2705.0000      7.9238      2.5968      0.0340      3.2221     15.2595     53.7613
  2705.1000      7.9238      2.5910      0.0319      3.5781     15.0968     52.0124
  2705.2000      7.9238      2.5899      0.0218      3.6437     14.9966     52.2221
  2705.3000      7.9234      2.5866     -0.0050      3.8427     15.1344     53.5854
  2705.4000      7.9234      2.5858      0.0105      3.8898     15.3205     56.7064
  2705.5000      7.9214      2.5875      0.0277      3.7895     15.1535     62.7927
  2705.6000      7.9214      2.5853      0.0298      3.9218     14.9491     68.2526
  2705.7000      7.9214      2.5820      0.0367      4.1229     15.3094     71.1113
  2705.8000      7.9205      2.5787      0.0491      4.3197     16.1842     72.2533
  2705.9000      7.9205      2.5770      0.0323      4.4215     16.9267     69.0196
  2706.0000      7.9213      2.5864      0.0397      3.8522     17.2833     62.8867
  2706.1000      7.9213      2.6004      0.0768      3.0034     17.3888     60.6427
  2706.2000      7.9213      2.6028      0.0157      2.8623     17.0029     62.6917
  2706.3000      7.9237      2.6001      0.0180      3.0269     16.3949     64.3514
  2706.4000      7.9237      2.6043      0.0331      2.7686     16.1277     65.5850
  2706.5000      7.9271      2.6120      0.0643      2.3004     16.0382     68.5190
  2706.6000      7.9271      2.6131      0.0484      2.2339     15.8481     69.1423
  2706.7000      7.9271      2.6022      0.0616      2.8971     15.7635     64.8513
  2706.8000      7.9302      2.5862      0.0095      3.8662     16.0022     59.9687
  2706.9000      7.9302      2.5755      0.0582      4.5170     16.4722     56.2464
  2707.0000      7.9315      2.5697      0.0294      4.8694     16.7332     53.3663
  2707.1000      7.9315      2.5726      0.0374      4.6898     16.4404     53.6986
  2707.2000      7.9315      2.5856      0.0664      3.9009     16.0638     58.3125
  2707.3000      7.9319      2.5953      0.0755      3.3155     16.2053     65.2786
  2707.4000      7.9319      2.6000      0.0647      3.0309     16.7307     70.3951
  2707.5000      7.9321      2.6138      0.0747      2.1911     17.3478     69.7012
  2707.6000      7.9321      2.6293      0.1138      1.2554     17.8386     61.8560
  2707.7000      7.9321      2.6271      0.0488      1.3908     17.9133     52.3350
  2707.8000      7.9318      2.6076      0.1025      2.5684     17.8045     49.5423
  2707.9000      7.9318      2.5904      0.0014      3.6107     17.9694     54.5548
  2708.0000      7.9322      2.5989      0.0537      3.0985     18.2526     61.5516
  2708.1000      7.9322      2.6302      0.0523      1.1981     18.3268     64.7993
  2708.2000      7.9322      2.6575      0.1281     -0.4558     18.4096     64.6032
  2708.3000      7.9344      2.6498      0.1033      0.0139     18.7437     67.7394
  2708.4000      7.9344      2.6060      0.0383      2.6644     19.2339     78.2510
  2708.5000      7.9375      2.5588      0.0044      5.5282     19.8104     89.8878
  2708.6000      7.9375      2.5280      0.0138      7.3950     20.3777     95.7746
  2708.7000      7.9375      2.5172      0.0119      8.0468     20.8179    100.4304
  2708.8000      7.9385      2.5272      0.0424      7.4439     21.2812    105.4052
  2708.9000      7.9385      2.5395      0.0435      6.6965     21.9688    104.2926
  2709.0000      7.9382      2.5280      0.0499      7.3948     22.5911    101.7258
  2709.1000      7.9382      2.4916      0.0343      9.5999     22.7348    105.8622
  2709.2000      7.9382      2.4562      0.0067     11.7431     22.6020    112.9242
  2709.3000      7.9380      2.4455      0.0047     12.3946     22.6555    119.6946
  2709.4000      7.9380      2.4554      0.0457     11.7925     23.1590    125.8138
  2709.5000      7.9371      2.4697      0.0155     10.9290     24.0934    130.7336
