~Version Information
VERS.                      2.0: CWLS Log ASCII Standard - VERSION 2.0
WRAP.                       NO: One line per depth step
~Well Information Block
STRT.FT               430.0000: 
STOP.FT              1910.2000: 
STEP.FT                 0.1000: 
NULL.                -999.2500: 
COMP.          Pioneer Natural Resources: COMPANY
WELL.          Formula 23-11 Tr: WELL
FLD.           Purgatoire River: FIELD
LOC.           1976' FSL & 1935' FWL--: LOCATION
PROV.                 Colorado: PROVINCE
CNTY.               Las Animas: COUNTRY
SRVC.                Patterson: SERVICE COMPANY
DATE.          Mon Jun 13 07:32:15 2005: LOG DATE
UWI.           05 071 08399 00: UNIQUE WELL ID
~Curve Information Block
DEPT.FT            0 000 00 00: Depth
DCAL.in                       : CDL Caliper
RHOB.g/cc                     : CDL Bulk Density
RHOC.g/cc                     : CDL Density Correction
DPOR.pu                       : CDL Density Porosity
NPOR.pu                       : Neutron Porosity
GR.GAPI                       : Gamma Ray
~Parameter Information Block
~A  Depth       DCAL        RHOB        RHOC        DPOR        NPOR         GR     
# ...
  1399.6000      8.0039      2.6099      0.0962      2.4274     27.5769    124.2218
  1399.7000      8.0039      2.6137      0.0762      2.1997     27.0905    126.5282
  1399.8000      8.0033      2.6094      0.0930      2.4634     27.1572    127.4485
  1399.9000      8.0033      2.6005      0.0425      3.0027     27.4642    124.1167
  1400.0000      8.0005      2.5972      0.0386      3.1979     27.4515    118.3861
  1400.1000      8.0005      2.6059      0.0787      2.6724     27.0960    114.4081
  1400.2000      8.0005      2.6242      0.0985      1.5608     26.6633    112.2835
  1400.3000      8.0000      2.6430      0.0830      0.4263     26.4316    110.0834
  1400.4000      8.0000      2.6487      0.0683      0.0762     26.5368    108.8997
  1400.5000      8.0025      2.6424      0.0784      0.4631     26.7149    107.1835
  1400.6000      8.0025      2.6384      0.0586      0.7027     26.5168    104.3375
  1400.7000      8.0025      2.6357      0.1011      0.8694     26.1781    104.6235
  1400.8000      8.0039      2.6259      0.0514      1.4625     26.2948    107.6191
  1400.9000      8.0039      2.6219      0.0219      1.7017     26.6060    109.6026
  1401.0000      8.0040      2.6246      0.1037      1.5367     26.8079    110.3194
  1401.1000      8.0040      2.6110      0.0331      2.3650     26.9965    114.0709
  1401.2000      8.0040      2.5882      0.0129      3.7427     27.0098    120.7091
  1401.3000      8.0042      2.5886      0.0245      3.7211     26.8774    123.3804
  1401.4000      8.0042      2.6079      0.1095      2.5513     26.8050    122.2194
  1401.5000      8.0040      2.6126      0.1085      2.2673     26.9198    121.2206
  1401.6000      8.0040      2.5986      0.0728      3.1134     27.3471    118.1771
  1401.7000      8.0040      2.5852      0.0943      3.9254     27.8272    112.1787
  1401.8000      8.0035      2.5697      0.1061      4.8662     27.9219    108.7110
  1401.9000      8.0035      2.5443      0.0430      6.4080     27.8416    113.2674
  1402.0000      8.0039      2.5192      0.0520      7.9250     28.1861    123.9567
  1402.1000      8.0039      2.5006      0.0452      9.0534     28.6416    130.9693
  1402.2000      8.0039      2.4874      0.0266      9.8559     28.5663    130.1776
  1402.3000      8.0044      2.4808      0.0664     10.2550     28.4605    129.9624
  1402.4000      8.0044      2.4756      0.0531     10.5690     29.0443    135.9835
  1402.5000      8.0047      2.4658      0.0500     11.1625     29.7108    141.2469
  1402.6000      8.0047      2.4552      0.0485     11.8054     29.7730    139.3224
  1402.7000      8.0047      2.4448      0.0663     12.4386     29.8550    132.4684
  1402.8000      8.0045      2.4188      0.0562     14.0138     30.7506    122.8959
  1402.9000      8.0045      2.3623      0.0402     17.4351     32.0121    113.4595
  1403.0000      8.0067      2.2841      0.0109     22.1735     32.7059    110.6868
  1403.1000      8.0067      2.2145     -0.0333     26.3937     32.7965    114.2533
  1403.2000      8.0067      2.1720     -0.0478     28.9709     32.7449    116.5828
  1403.3000      8.0217      2.1421     -0.0005     30.7846     32.9852    117.4646
  1403.4000      8.0217      2.1108     -0.0311     32.6777     33.6104    120.3947
  1403.5000      8.0498      2.0920     -0.0064     33.8152     34.0078    123.1545
  1403.6000      8.0498      2.0987      0.0350     33.4106     34.0385    123.7114
  1403.7000      8.0498      2.1266      0.0813     31.7186     34.1880    122.6342
  1403.8000      8.0710      2.1726      0.1213     28.9338     33.9653    121.8067
  1403.9000      8.0710      2.2386      0.1922     24.9307     32.8290    121.5857
  1404.0000      8.0671      2.3226      0.2309     19.8410     31.4736    120.7918
  1404.1000      8.0671      2.4099      0.2805     14.5512     30.4921    119.7309
  1404.2000      8.0671      2.4690      0.2815     10.9715     29.8315    117.7951
  1404.3000      8.0260      2.4834      0.1919     10.0983     29.3540    115.8343
  1404.4000      8.0260      2.4811      0.1101     10.2393     29.1760    116.3494
  1404.5000      7.9651      2.4930      0.1170      9.5141     29.4411    120.4664
  1404.6000      7.9651      2.5144      0.1243      8.2210     29.7099    128.5530
  1404.7000      7.9651      2.5338      0.0783      7.0419     29.6025    136.5975
  1404.8000      7.9301      2.5539      0.0923      5.8256     29.4303    140.2310
  1404.9000      7.9301      2.5710      0.1009      4.7860     29.5035    140.4288
  1405.0000      7.9226      2.5780      0.0956      4.3656     29.5070    140.0347
  1405.1000      7.9226      2.5739      0.0816      4.6092     29.3051    140.0461
  1405.2000      7.9226      2.5621      0.0783      5.3272     29.4946    139.2913
  1405.3000      7.9229      2.5523      0.0495      5.9237     30.2891    141.1402
  1405.4000      7.9229      2.5580      0.0611      5.5728     30.6419    148.1322
  1405.5000      7.9230      2.5764      0.0877      4.4588     29.9417    153.4526
  1405.6000      7.9230      2.5845      0.1053      3.9689     29.1036    152.2837
  1405.7000      7.9230      2.5719      0.0512      4.7362     29.0059    147.4097
  1405.8000      7.9226      2.5534      0.0456      5.8533     29.4697    140.0329
  1405.9000      7.9226      2.5416      0.0603      6.5726     29.9460    133.6982
  1406.0000      7.9220      2.5327      0.0881      7.1068     30.3922    133.8828
  1406.1000      7.9220      2.5205      0.0600      7.8457     30.8199    137.4278
  1406.2000      7.9220      2.5038      0.0555      8.8626     30.7981    136.7263
  1406.3000      7.9188      2.4812      0.0690     10.2310     30.1229    135.1362
  1406.4000      7.9188      2.4616     -0.0166     11.4153     29.1575    137.1141
  1406.5000      7.9109      2.4683      0.0299     11.0110     28.3991    138.0042
  1406.6000      7.9109      2.5066      0.0409      8.6906     28.0171    133.5708
  1406.7000      7.9109      2.5547      0.0786      5.7749     27.6778    126.3150
  1406.8000      7.9020      2.5841      0.1353      3.9936     27.0306    120.5529
  1406.9000      7.9020      2.5904      0.0917      3.6122     26.0405    117.6226
  1407.0000      7.8992      2.5973      0.0687      3.1913     25.0586    115.9460
  1407.1000      7.8992      2.6103      0.1167      2.4045     24.7382    113.8507
  1407.2000      7.8992      2.6032      0.1342      2.8348     25.2635    109.5031
  1407.3000      7.9001      2.5682      0.0585      4.9548     25.8350    103.3005
  1407.4000      7.9001      2.5371     -0.0014      6.8403     25.8522    100.6529
  1407.5000      7.8999      2.5305      0.0463      7.2430     25.3958    104.3945
  1407.6000      7.8999      2.5332      0.0615      7.0799     24.6281    110.9283
  1407.7000      7.8999      2.5340      0.0621      7.0292     23.9219    117.7017
  1407.8000      7.8961      2.5433      0.0627      6.4683     23.2767    122.4291
  1407.9000      7.8961      2.5684      0.1033      4.9426     22.6877    120.5075
  1408.0000      7.8912      2.6068      0.1171      2.6190     22.5494    113.1085
  1408.1000      7.8912      2.6478      0.1791      0.1348     22.7294    106.0617
  1408.2000      7.8912      2.6772      0.1911     -1.6500     22.6808    100.5911
  1408.3000      7.8914      2.6980      0.1477     -2.9066     22.2798     96.5497
  1408.4000      7.8914      2.7222      0.1718     -4.3732     21.6672     92.6354
  1408.5000      7.8965      2.7452      0.1328     -5.7711     21.2048     85.0300
  1408.6000      7.8965      2.7514      0.1623     -6.1437     20.8640     77.3764
  1408.7000      7.8965      2.7326      0.1049     -5.0035     20.0432     74.6812
  1408.8000      7.9001      2.6976      0.0753     -2.8877     18.8377     73.5661
  1408.9000      7.9001      2.6571      0.0627     -0.4314     18.1314     72.2297
  1409.0000      7.9009      2.6163      0.0444      2.0416     18.4987     71.4945
  1409.1000      7.9009      2.5891      0.0407      3.6925     19.4698     70.9226
