~Version Information
 VERS.                                  2.0 : CWLS LAS VERSION
 WRAP.                                   NO : WRAPING MODE
 SWARE .                 MController 2.5.0I : SOFTWARE VERSION
~Well Information
 WELL.                                  N/A : WELL
 COMP.                                  N/A : COMPANY
 FLD.                                   N/A : FIELD
 LOC.                                   N/A : LOCATION
 DATE.                                  N/A : DATE(S) LOGGED
 SRVC.                                  N/A : SERVICE COMPANY
 STAT.                                  N/A : STATE
 CNTY.                                  N/A : COUNTY
 CTRY.                                  N/A : COUNTRY
 API.                                   N/A : API NUMBER
 STRT.FT                             801.00 : START DEPTH
 STOP.FT                            2405.00 : STOP DEPTH
 STEP.FT                               1.00 : DEPTH INCREMENT
 NULL.                                -9999 : NULL VALUE
~Curve information
 DEPTH.FT                                   :
 ROP.MIN/FT                                 :
 GAS.UNITS                                  :
~ASCII Log data
# ...
      2201.0          0.2         23.3 
      2202.0          0.4         23.3 
      2203.0          0.3         22.3 
      2204.0          0.3         26.2 
      2205.0          0.4         27.0 
      2206.0          0.4         23.7 
      2207.0          0.5         22.1 
      2208.0          0.5         23.5 
      2209.0          0.6         26.5 
      2210.0          1.7         28.5 
      2211.0          1.2         25.9 
      2212.0          0.8         20.9 
      2213.0          0.6         16.2 
      2214.0          0.5         12.8 
      2215.0          0.5         13.6 
      2216.0          0.5         15.6 
      2217.0          0.5         15.9 
      2218.0          0.4         16.8 
      2219.0          0.3         17.3 
      2220.0          0.1         17.4 
      2221.0          0.1         17.0 
      2222.0          0.3         17.6 
      2223.0          0.3         18.0 
      2224.0          4.6         77.6 
      2225.0          0.6         34.6 
      2226.0          0.8         32.4 
      2227.0          0.8         35.5 
      2228.0          0.8         34.8 
      2229.0          0.8         27.2 
      2230.0          0.7         18.6 
      2231.0          0.5         19.7 
      2232.0          0.5         20.3 
      2233.0          0.5         20.0 
      2234.0          0.5         19.0 
      2235.0          0.5         18.2 
      2236.0          0.4         18.3 
      2237.0          0.5         18.3 
      2238.0          0.5         19.2 
      2239.0          0.5         19.4 
      2240.0          0.7         21.7 
      2241.0          0.6         24.3 
      2242.0          0.2         25.3 
      2243.0          0.2         25.4 
      2244.0          0.2         26.0 
      2245.0          0.3         26.1 
      2246.0          1.1         35.2 
      2247.0          1.2         35.4 
      2248.0          0.6         17.3 
      2249.0          0.5         18.1 
      2250.0          0.4         19.9 
      2251.0          0.3         19.9 
      2252.0          0.4         19.1 
      2253.0          0.4         18.9 
      2254.0          7.6         79.7 
      2255.0          1.0         53.0 
      2256.0          0.5         17.6 
      2257.0          0.4         18.0 
      2258.0          0.4         20.1 
      2259.0          0.3         20.1 
      2260.0          0.3         20.3 
      2261.0          0.3         19.9 
      2262.0          0.3         19.3 
      2263.0          0.3         18.9 
      2264.0          0.4         17.8 
      2265.0          0.5         18.3 
      2266.0          0.5         17.9 
      2267.0          0.6         19.5 
      2268.0          0.6         24.1 
      2269.0          0.9         27.4 
      2270.0          1.0         27.2 
      2271.0          1.3         22.4 
      2272.0          1.1         20.0 
      2273.0          0.6         16.5 
      2274.0          0.4         13.5 
      2275.0          0.4         12.3 
      2276.0          0.5         13.2 
      2277.0          0.5         16.6 
      2278.0          0.4         16.6 
      2279.0          0.4         15.1 
      2280.0          0.3         12.6 
      2281.0          0.3         12.8 
      2282.0          0.3         13.1 
      2283.0          0.3         14.4 
      2284.0          6.1        106.9 
      2285.0          0.6         30.8 
      2286.0          0.4         32.7 
      2287.0          0.3         32.3 
      2288.0          0.3         29.8 
      2289.0          0.3         25.8 
      2290.0          0.5         22.6 
      2291.0          0.5         28.9 
      2292.0          0.6         29.5 
      2293.0          0.5         25.5 
      2294.0          0.8         22.3 
      2295.0          1.0         27.7 
      2296.0          1.4         29.9 
      2297.0          0.1         15.8 
      2298.0          0.2         13.9 
      2299.0          0.6         20.4 
      2300.0          0.7         25.6 
      2301.0          0.7         26.8 
      2302.0          0.7         25.9 
      2303.0          0.6         22.3 
      2304.0          0.5         20.7 
      2305.0          0.5         20.4 
      2306.0          0.5         18.8 
      2307.0          0.5         17.2 
      2308.0          0.4         18.4 
      2309.0          0.4         19.9 
      2310.0          0.2         19.9 
      2311.0          0.1         19.7 
      2312.0          0.3         19.7 
      2313.0          0.4         19.7 
      2314.0          5.1         78.8 
      2315.0          0.4         27.3 
      2316.0          0.5         32.2 
      2317.0          0.6         42.8 
      2318.0          0.7         57.3 
      2319.0          0.7         60.8 
      2320.0          0.6         46.1 
      2321.0          0.3         30.4 
      2322.0          0.3         23.8 
      2323.0          0.4         21.1 
      2324.0          0.6         24.8 
      2325.0          0.6         29.2 
      2326.0          0.6         29.8 
      2327.0          0.8         24.1 
      2328.0          0.5         23.9 
      2329.0          0.5         24.8 
      2330.0          0.4         24.5 
      2331.0          0.4         24.2 
      2332.0          0.4         22.7 
      2333.0          0.6         22.1 
      2334.0          0.7         28.0 
      2335.0          0.9         28.8 
      2336.0          0.8         28.2 
      2337.0          1.5         26.9 
      2338.0          0.5         25.8 
      2339.0          0.5         25.3 
      2340.0          0.4         24.2 
      2341.0          0.4         23.2 
      2342.0          0.2         21.8 
      2343.0          0.1         21.4 
      2344.0          6.0        117.5 
      2345.0          0.5         40.9 
      2346.0          0.7         45.2 
      2347.0          0.7         44.9 
      2348.0          0.6         37.0 
      2349.0          0.6         27.0 
      2350.0          0.4         21.7 
      2351.0          0.4         24.6 
      2352.0          0.4         26.7 
      2353.0          0.4         28.0 
      2354.0          0.5         28.2 
      2355.0          0.6         28.2 
      2356.0          0.6         27.3 
      2357.0          0.6         26.1 
      2358.0          0.9         28.5 
      2359.0          0.9         31.1 
      2360.0          0.8         30.9 
      2361.0          0.8         26.5 
      2362.0          1.0         29.9 
      2363.0          1.0         29.9 
      2364.0          1.0         28.5 
      2365.0          0.7         25.0 
      2366.0          0.5         22.6 
      2367.0          0.6         19.7 
      2368.0          0.5         19.2 
      2369.0          0.5         20.2 
      2370.0          0.5         21.2 
      2371.0          0.4         22.0 
      2372.0          0.5         23.0 
      2373.0          0.5         25.2 
      2374.0          5.6        168.4 
      2375.0          0.3         47.0 
      2376.0          0.3         31.2 
      2377.0          0.8         34.4 
      2378.0          0.9         48.6 
      2379.0          1.3         49.5 
      2380.0          1.6         40.5 
      2381.0          0.8         30.8 
      2382.0          0.9         30.3 
      2383.0          0.8         27.2 
      2384.0          0.7         27.8 
      2385.0          0.7         28.1 
      2386.0          0.6         28.4 
      2387.0          0.6         28.1 
      2388.0          0.6         27.9 
      2389.0          0.6         28.1 
      2390.0          0.6         28.8 
      2391.0          0.6         30.3 
      2392.0          0.6         33.2 
      2393.0          0.6         34.5 
      2394.0          0.5         35.3 
      2395.0          0.4         35.1 
      2396.0          0.8         35.2 
      2397.0          0.4         35.2 
      2398.0          0.5         35.0 
      2399.0          0.5         35.0 
      2400.0          0.5         99.0 
