~Version Information
VERS.                      2.0: CWLS Log ASCII Standard - VERSION 2.0
WRAP.                       NO: One line per depth step
~Well Information Block
STRT.FT                -7.2500: 
STOP.FT              2827.7500: 
STEP.FT                 0.2500: 
NULL.                -999.2500: 
COMP.          Pioneer Natural Resources: COMPANY
WELL.           Ei-ei-oh 31-24: WELL
FLD.           Purgatorie River: FIELD
LOC.           235' FNL & 2001' FEL--: LOCATION
PROV.                       CO: PROVINCE
CNTY.               Las Animas: COUNTRY
SRVC.          Patterson Wireline: SERVICE COMPANY
DATE.          Tue Aug 23 12:06:00 2005: LOG DATE
UWI.           05 071 08403 00: UNIQUE WELL ID
~Curve Information Block
DEPT.FT            0 000 00 00: Depth
CCL.                          : Casing Collar Locator
TT3.usec                      : CBL 3' Travel Time
AMP3.mV                       : CBL 3' Amplitude
GR.GAPI                       : Gamma Ray
~Parameter Information Block
~A  Depth       CCL         TT3         AMP3         GR     
# ...
  2806.7500      0.0000    260.2303     69.6755     57.1307
  2807.0000      0.0000    260.2312     69.8434     59.0282
  2807.2500      0.0000    260.2278     69.9544     60.9587
  2807.5000      0.0000    260.2213     69.9764     62.6343
  2807.7500      0.0000    260.2134     69.8969     64.0655
  2808.0000      0.0000    260.2060     69.7290     65.4403
  2808.2500      0.0000    260.2015     69.5133     67.2348
  2808.5000      0.0000    260.2024     69.3046     70.3590
  2808.7500      0.0000    260.2097     69.1489     75.4808
  2809.0000      0.0000    260.2211     69.0670     81.9106
  2809.2500      0.0000    260.2325     69.0569     87.6987
  2809.5000      0.0000    260.2399     69.1016     91.2751
  2809.7500      0.0000    260.2416     69.1767     92.7717
  2810.0000      0.0000    260.2378     69.2556     93.4268
  2810.2500      0.0000    260.2308     69.3108     93.8682
  2810.5000      0.0000    260.2241     69.3086     93.3907
  2810.7500      0.0000    260.2210     69.2204     91.0503
  2811.0000      0.0000    260.2217     69.0551     87.1150
  2811.2500      0.0000    260.2237     68.8744     82.9770
  2811.5000      0.0000    260.2248     68.7551     79.6915
  2811.7500      0.0000    260.2245     68.7313     77.0285
  2812.0000      0.0000    260.2226     68.7786     74.1074
  2812.2500      0.0000    260.2185     68.8478     70.6664
  2812.5000      0.0000    260.2115     68.9067     67.5391
  2812.7500      0.0000    260.2016     68.9557     65.9862
  2813.0000      0.0000    260.1906     69.0163     66.4940
  2813.2500      0.0000    260.1814     69.1101     67.7652
  2813.5000      0.0000    260.1761     69.2409     66.7327
  2813.7500      0.0000    260.1746     69.3896     60.2914
  2814.0000      0.0000    260.1751     69.5288     47.8635
  2814.2500      0.0000    260.1759     69.6459     32.3533
  2814.5000      0.0000    260.1755     69.7479     18.2063
  2814.7500      0.0000    260.1726     69.8446      8.3891
  2815.0000      0.0000    260.1661     69.9357      3.1256
  2815.2500      0.0000    260.1549     70.0131      0.9326
  2815.5000      0.0000    260.1391     70.0687      0.2210
  2815.7500      0.0000    260.1208     70.0952      0.0407
  2816.0000      0.0000    260.1042     70.0844      0.0055
  2816.2500      0.0000    260.0945     70.0301   -999.2500
  2816.5000      0.0000    260.0942     69.9365   -999.2500
  2816.7500      0.0000    260.1023     69.8222   -999.2500
  2817.0000      0.0000    260.1159     69.7133   -999.2500
  2817.2500      0.0000    260.1324     69.6330   -999.2500
  2817.5000      0.0000    260.1494     69.5973   -999.2500
  2817.7500      0.0000    260.1463     69.6088   -999.2500
  2818.0000      0.0000    260.0408     69.6393   -999.2500
  2818.2500      0.0000    259.4643     69.5656   -999.2500
  2818.5000      0.0000    257.1784     69.0236   -999.2500
  2818.7500      0.0000    250.1480     67.1847   -999.2500
  2819.0000      0.0000    233.2954     62.7081   -999.2500
  2819.2500      0.0000    201.8184     54.3496   -999.2500
  2819.5000      0.0000    156.0224     42.2170   -999.2500
  2819.7500      0.0000    104.1292     28.4937   -999.2500
  2820.0000      0.0000     58.3333     16.3963   -999.2500
  2820.2500      0.0000     26.8581      8.0871   -999.2500
  2820.5000      0.0000     10.0106      3.6411   -999.2500
  2820.7500      0.0000      2.9875      1.7881   -999.2500
  2821.0000      0.0000      0.7074      1.1866   -999.2500
  2821.2500      0.0000      0.1309      1.0345   -999.2500
  2821.5000      0.0000   -999.2500   -999.2500   -999.2500
  2821.7500      0.0000   -999.2500   -999.2500   -999.2500
  2822.0000      0.0000   -999.2500   -999.2500   -999.2500
  2822.2500      0.0000   -999.2500   -999.2500   -999.2500
  2822.5000      0.0000   -999.2500   -999.2500   -999.2500
  2822.7500      0.0000   -999.2500   -999.2500   -999.2500
  2823.0000      0.0000   -999.2500   -999.2500   -999.2500
  2823.2500      0.0000   -999.2500   -999.2500   -999.2500
  2823.5000      0.0000   -999.2500   -999.2500   -999.2500
  2823.7500      0.0000   -999.2500   -999.2500   -999.2500
  2824.0000      0.0000   -999.2500   -999.2500   -999.2500
  2824.2500      0.0000   -999.2500   -999.2500   -999.2500
  2824.5000      0.0000   -999.2500   -999.2500   -999.2500
  2824.7500      0.0000   -999.2500   -999.2500   -999.2500
  2825.0000      0.0000   -999.2500   -999.2500   -999.2500
  2825.2500      0.0000   -999.2500   -999.2500   -999.2500
  2825.5000      0.0000   -999.2500   -999.2500   -999.2500
  2825.7500      0.0000   -999.2500   -999.2500   -999.2500
  2826.0000      0.0000   -999.2500   -999.2500   -999.2500
  2826.2500      0.0000   -999.2500   -999.2500   -999.2500
  2826.5000      0.0000   -999.2500   -999.2500   -999.2500
  2826.7500      0.0000   -999.2500   -999.2500   -999.2500
  2827.0000      0.0000   -999.2500   -999.2500   -999.2500
  2827.2500      0.0000   -999.2500   -999.2500   -999.2500
  2827.5000   -999.2500   -999.2500   -999.2500   -999.2500
  2827.7500   -999.2500   -999.2500   -999.2500   -999.2500
