~Version Information
VERS.                      2.0: CWLS Log ASCII Standard - VERSION 2.0
WRAP.                       NO: One line per depth step
~Well Information Block
STRT.FT               275.0000: 
STOP.FT              1682.2500: 
STEP.FT                 0.2500: 
NULL.                -999.2500: 
COMP.          Pioneer Natural Resources: COMPANY
WELL.               Elmo 14-21: WELL
FLD.           Purgatoire River: FIELD
LOC.           623' FSL & 450' FWL----: LOCATION
PROV.                 Colorado: PROVINCE
CNTY.               Las Animas: COUNTRY
SRVC.                Patterson: SERVICE COMPANY
DATE.          Tue May 17 16:07:31 2005: LOG DATE
UWI.           05 071 08360 00: UNIQUE WELL ID
~Curve Information Block
DEPT.FT            0 000 00 00: Depth
SN.Ohm-m                      : IEL Short Normal
SP.mV                         : IEL Spontaneous Potential
DIR.Ohm-m                     : IEL Induction Resistivity
GR.GAPI                       : Gamma Ray
~Parameter Information Block
~A  Depth        SN          SP         DIR          GR     
# ...
   811.0000   2000.0000   2000.0000     24.6396     86.7338
   811.2500   2000.0000   2000.0000     24.6890     87.3982
   811.5000   2000.0000   2000.0000     24.6987     89.5334
   811.7500   2000.0000   2000.0000     24.6363     91.0823
   812.0000   2000.0000   2000.0000     24.4806     92.2814
   812.2500   2000.0000   2000.0000     24.2374     91.9307
   812.5000   2000.0000   2000.0000     23.9339     90.0711
   812.7500   2000.0000   2000.0000     23.5997     88.6064
   813.0000   2000.0000   2000.0000     23.2517     87.1041
   813.2500   2000.0000   2000.0000     22.8915     86.7925
   813.5000   2000.0000   2000.0000     22.5104     87.3281
   813.7500   2000.0000   2000.0000     22.0976     88.3662
   814.0000   2000.0000   2000.0000     21.6489     90.9074
   814.2500   2000.0000   2000.0000     21.1716     92.9494
   814.5000   2000.0000   2000.0000     20.6816     95.5619
   814.7500   2000.0000   2000.0000     20.1942     96.5402
   815.0000   2000.0000   2000.0000     19.7178     96.8208
   815.2500   2000.0000   2000.0000     19.2559     96.6664
   815.5000   2000.0000   2000.0000     18.8135     97.2215
   815.7500   2000.0000   2000.0000     18.3993     98.8502
   816.0000   2000.0000   2000.0000     18.0213    103.4679
   816.2500   2000.0000   2000.0000     17.6774    107.2867
   816.5000   2000.0000   2000.0000     17.3502    112.0682
   816.7500   2000.0000   2000.0000     17.0095    113.7772
   817.0000   2000.0000   2000.0000     16.6271    114.2215
   817.2500   2000.0000   2000.0000     16.1979    113.7736
   817.5000   2000.0000   2000.0000     15.7549    112.9859
   817.7500   2000.0000   2000.0000     15.3643    112.6562
   818.0000   2000.0000   2000.0000     15.1025    112.6908
   818.2500   2000.0000   2000.0000     15.0291    113.0047
   818.5000   2000.0000   2000.0000     15.1714    112.8658
   818.7500   2000.0000   2000.0000     15.5179    111.2723
   819.0000   2000.0000   2000.0000     16.0230    105.1757
   819.2500   2000.0000   2000.0000     16.6167     98.8128
   819.5000   2000.0000   2000.0000     17.2255     88.1575
   819.7500   2000.0000   2000.0000     17.7919     82.1500
   820.0000   2000.0000   2000.0000     18.2817     76.7246
   820.2500   2000.0000   2000.0000     18.6709     75.4706
   820.5000   2000.0000   2000.0000     18.9254     76.0651
   820.7500   2000.0000   2000.0000     18.9947     77.6370
   821.0000   2000.0000   2000.0000     18.8290     81.5894
   821.2500   2000.0000   2000.0000     18.4095     85.3709
   821.5000   2000.0000   2000.0000     17.7686     92.9522
   821.7500   2000.0000   2000.0000     16.9818     99.3046
   822.0000   2000.0000   2000.0000     16.1390    110.3023
   822.2500   2000.0000   2000.0000     15.3172    117.9096
   822.5000   2000.0000   2000.0000     14.5696    128.1105
   822.7500   2000.0000   2000.0000     13.9288    133.2621
   823.0000   2000.0000   2000.0000     13.4165    137.9253
   823.2500   2000.0000   2000.0000     13.0515    139.3218
   823.5000   2000.0000   2000.0000     12.8520    139.8986
   823.7500   2000.0000   2000.0000     12.8349    139.3925
   824.0000   2000.0000   2000.0000     13.0106    136.1371
   824.2500   2000.0000   2000.0000     13.3813    131.4383
   824.5000   2000.0000   2000.0000     13.9445    120.3463
   824.7500   2000.0000   2000.0000     14.6991    111.1801
   825.0000   2000.0000   2000.0000     15.6473     97.5595
   825.2500   2000.0000   2000.0000     16.7854     90.0000
   825.5000   2000.0000   2000.0000     18.0787     81.6209
   825.7500   2000.0000   2000.0000     19.4352     77.4596
   826.0000   2000.0000   2000.0000     20.6988     72.3219
   826.2500   2000.0000   2000.0000     21.6840     69.5921
   826.5000   2000.0000   2000.0000     22.2492     67.2840
   826.7500   2000.0000   2000.0000     22.3515     67.4030
   827.0000   2000.0000   2000.0000     22.0361     70.3485
   827.2500   2000.0000   2000.0000     21.3809     73.9745
   827.5000   2000.0000   2000.0000     20.4621     81.3143
   827.7500   2000.0000   2000.0000     19.3593     87.2041
   828.0000   2000.0000   2000.0000     18.1656     97.3840
   828.2500   2000.0000   2000.0000     16.9747    104.9481
   828.5000   2000.0000   2000.0000     15.8546    116.5463
   828.7500   2000.0000   2000.0000     14.8377    123.5277
   829.0000   2000.0000   2000.0000     13.9311    131.6971
   829.2500   2000.0000   2000.0000     13.1357    135.6631
   829.5000   2000.0000   2000.0000     12.4587    140.3159
   829.7500   2000.0000   2000.0000     11.9121    142.8431
   830.0000   2000.0000   2000.0000     11.5054    145.1699
   830.2500   2000.0000   2000.0000     11.2386    145.0849
   830.5000   2000.0000   2000.0000     11.0987    141.8397
   830.7500   2000.0000   2000.0000     11.0608    137.7248
   831.0000   2000.0000   2000.0000     11.0906    129.6484
   831.2500   2000.0000   2000.0000     11.1506    123.9200
   831.5000   2000.0000   2000.0000     11.2094    116.5648
   831.7500   2000.0000   2000.0000     11.2496    113.2962
   832.0000   2000.0000   2000.0000     11.2686    111.3400
   832.2500   2000.0000   2000.0000     11.2725    111.7242
   832.5000   2000.0000   2000.0000     11.2674    113.8626
   832.7500   2000.0000   2000.0000     11.2559    115.7652
   833.0000   2000.0000   2000.0000     11.2386    118.5186
   833.2500   2000.0000   2000.0000     11.2186    119.8993
   833.5000   2000.0000   2000.0000     11.2050    121.0129
   833.7500   2000.0000   2000.0000     11.2121    121.2781
   834.0000   2000.0000   2000.0000     11.2566    121.5361
   834.2500   2000.0000   2000.0000     11.3551    121.9287
   834.5000   2000.0000   2000.0000     11.5220    123.0594
   834.7500   2000.0000   2000.0000     11.7666    123.9066
   835.0000   2000.0000   2000.0000     12.1399    124.0586
   835.2500   2000.0000   2000.0000     12.5319    122.6116
   835.5000   2000.0000   2000.0000     12.9655    117.8940
   835.7500   2000.0000   2000.0000     13.4110    113.9208
   836.0000   2000.0000   2000.0000     13.9133    109.1330
   836.2500   2000.0000   2000.0000     14.3457    107.7260
   836.5000   2000.0000   2000.0000     14.7912    107.9455
   836.7500    107.7825   2000.0000     15.2769    108.3294
   837.0000     68.1843   2000.0000     15.8132    106.6727
   837.2500     47.2826   2000.0000     16.3771    103.2945
   837.5000     36.2360   2000.0000     16.9167     95.3956
   837.7500     29.8652   2000.0000     17.3771     89.4176
   838.0000     25.8384   2000.0000     17.7335     81.5594
   838.2500     23.1627    -75.0532     18.0055     77.7696
   838.5000     21.3593    -71.1696     18.1123     74.1778
   838.7500     20.1656    -68.2716     18.3699     72.7157
   839.0000     19.4303    -66.2282     18.6873     71.3410
   839.2500     19.0393    -64.8957     19.0774     88.7691
   839.5000     18.8842    -64.1304     19.3788     89.8299
   839.7500     18.8594    -63.7944     19.8581     91.7762
   840.0000     18.8746    -63.7570     20.3360     95.9297
   840.2500     18.8694    -63.9010     20.7767    118.5368
   840.5000     18.8236    -64.1262     21.1499    122.2209
   840.7500     18.7558    -64.3557     21.4383    123.1669
   841.0000     18.7066    -64.5367     21.6482    122.5335
   841.2500     18.7182    -64.6399     21.8162    121.3138
   841.5000     18.8193    -64.6557     19.2582    118.9680
   841.7500     19.0196    -64.5893     19.4777    116.9921
   842.0000     19.3142    -64.4552     19.8152    113.0182
   842.2500     19.6957    -64.2734     20.2904    109.7035
   842.5000     20.1598    -64.0663     18.3938    104.3361
   842.7500     20.6947    -63.8546     18.9335    101.0692
   843.0000     21.2667    -63.6553     19.5038     97.5399
   843.2500     21.8252    -63.4779     20.0733     96.2775
   843.5000     22.3236    -63.3236     20.6254     95.5621
   843.7500     22.7372    -63.1841     21.1568     95.5244
   844.0000     23.0650    -63.0431     21.6644     96.0768
   844.2500     23.3201    -62.8780     22.1316     96.9742
