~Version Information
VERS.                      2.0: CWLS Log ASCII Standard - VERSION 2.0
WRAP.                       NO: One line per depth step
~Well Information Block
STRT.FT               -12.5000: 
STOP.FT              2284.7500: 
STEP.FT                 0.2500: 
NULL.                -999.2500: 
COMP.          Pioneer Natural Resources: COMPANY
WELL.          Hill Climb 22-2: WELL
FLD.           Purgatorie River: FIELD
LOC.           1820' FNL & 2193' FWL--: LOCATION
PROV.                       CO: PROVINCE
CNTY.               Las Animas: COUNTRY
SRVC.                         : SERVICE COMPANY
DATE.          Fri Oct 22 11:44:16 2004: LOG DATE
UWI.                          : UNIQUE WELL ID
~Curve Information Block
DEPT.FT            0 000 00 00: Depth
GR.GAPI                       : Gamma Ray
CCL.                          : Casing Collar Locator
TT3.usec                      : CBL 3' Travel Time
AMP3.mV                       : CBL 3' Amplitude
~Parameter Information Block
~A  Depth        GR         CCL         TT3         AMP3    
# ...
  1796.5000     77.4312      0.0000    267.4070     57.6263
  1796.7500     86.1349      0.0000    263.6314     61.3370
  1797.0000     88.0579      0.0000    261.0237     65.0166
  1797.2500     83.8310      0.0000    259.6635     67.9972
  1797.5000     77.6302      0.0000    259.1084     69.9402
  1797.7500     73.9882      0.0000    258.9293     70.9638
  1798.0000     74.6272      0.0000    258.8840     71.4366
  1798.2500     77.9124      0.0000    258.8719     71.6815
  1798.5000     80.7396      0.0000    258.8626     71.8541
  1798.7500     80.8658      0.0000    258.8485     71.9853
  1799.0000     78.1290      0.0000    258.8291     72.0567
  1799.2500     74.2392      0.0000    258.8060     72.0643
  1799.5000     71.6593      0.0000    258.7832     72.0361
  1799.7500     72.2761      0.0000    258.7653     72.0062
  1800.0000     76.3440      0.0000    258.7550     71.9858
  1800.2500     82.2281      0.0000    258.7527     71.9661
  1800.5000     87.5058      0.0000    258.7569     71.9463
  1800.7500     90.8163      0.0000    258.7644     71.9443
  1801.0000     92.6873      0.0000    258.7719     71.9787
  1801.2500     94.5357      0.0000    258.7784     72.0469
  1801.5000     97.0947      0.0000    258.7848     72.1240
  1801.7500    100.0425      0.0000    258.7916     72.1828
  1802.0000    102.9422      0.0000    258.7971     72.2145
  1802.2500    105.9760      0.0000    258.7999     72.2293
  1802.5000    109.4637      0.0000    258.8004     72.2432
  1802.7500    113.1626      0.0000    258.8004     72.2685
  1803.0000    116.5101      0.0000    258.8000     72.3141
  1803.2500    119.3057      0.0000    258.7963     72.3879
  1803.5000    121.8177      0.0000    258.7873     72.4932
  1803.7500    124.3813      0.0000    258.7741     72.6218
  1804.0000    127.0951      0.0000    258.7614     72.7495
  1804.2500    129.6819      0.0000    258.7523     72.8391
  1804.5000    131.4734      0.0000    258.7466     72.8567
  1804.7500    131.5649      0.0000    258.7437     72.7849
  1805.0000    129.1656      0.0000    258.7447     72.6261
  1805.2500    124.2301      0.0000    258.7519     72.4058
  1805.5000    118.1083      0.0000    258.7663     72.1767
  1805.7500    113.3542      0.0000    258.7860     72.0020
  1806.0000    112.3629      0.0000    258.8048     71.9213
  1806.2500    115.8871      0.0000    258.8145     71.9339
  1806.5000    122.5317      0.0000    258.8113     72.0143
  1806.7500    129.4367      0.0000    258.7992     72.1329
  1807.0000    133.7642      0.0000    258.7847     72.2626
  1807.2500    134.2469      0.0000    258.7702     72.3787
  1807.5000    131.7371      0.0000    258.7539     72.4637
  1807.7500    128.2253      0.0000    258.7354     72.5069
  1808.0000    125.2172      0.0000    258.7202     72.4912
  1808.2500    122.7186      0.0000    258.7252     72.3761
  1808.5000    119.1625      0.0000    258.7827     72.0939
  1808.7500    112.1796      0.0000    258.9289     71.5901
  1809.0000    100.3122      0.0000    259.1665     70.9051
  1809.2500     84.8898      0.0000    259.4247     70.2147
  1809.5000     70.2445      0.0000    259.5815     69.7345
  1809.7500     61.4861      0.0000    259.5581     69.5558
  1810.0000     61.5281      0.0000    259.3868     69.5981
  1810.2500     69.8044      0.0000    259.1714     69.7273
  1810.5000     83.2097      0.0000    258.9941     69.8901
  1810.7500     97.9799      0.0000    258.8742     70.1205
  1811.0000    111.1866      0.0000    258.7925     70.4440
  1811.2500    121.4996      0.0000    258.7320     70.7925
  1811.5000    129.2614      0.0000    258.6939     71.0103
  1811.7500    135.7601      0.0000    258.6913     70.9540
  1812.0000    141.8555      0.0000    258.7348     70.6164
  1812.2500    146.9550      0.0000    258.8176     70.1468
  1812.5000    149.4470      0.0000    258.9132     69.7231
  1812.7500    148.5741      0.0000    258.9882     69.4196
  1813.0000    145.8752      0.0000    259.0205     69.2188
  1813.2500    143.9817      0.0000    259.0082     69.1113
  1813.5000    143.8352      0.0000    258.9651     69.1372
  1813.7500    143.9793      0.0000    258.9099     69.3486
  1814.0000    142.7340      0.0000    258.8558     69.7653
  1814.2500    140.0849      0.0000    258.8078     70.3479
  1814.5000    137.2329      0.0000    258.7665     70.9900
  1814.7500    135.1041      0.0000    258.7353     71.5531
  1815.0000    133.4926      0.0000    258.7211     71.9354
  1815.2500    131.1817      0.0000    258.7259     72.1173
  1815.5000    126.7989      0.0000    258.7417     72.1547
  1815.7500    119.9473      0.0000    258.7560     72.1372
  1816.0000    111.7896      0.0000    258.7620     72.1359
  1816.2500    104.6533      0.0000    258.7623     72.1670
  1816.5000    100.9615      0.0000    258.7653     72.2009
  1816.7500    102.1513      0.0000    258.7778     72.2032
  1817.0000    107.9549      0.0000    258.7998     72.1677
  1817.2500    116.3895      0.0000    258.8224     72.1193
  1817.5000    124.8142      0.0000    258.8346     72.0978
  1817.7500    131.5291      0.0000    258.8305     72.1321
  1818.0000    136.5369      0.0000    258.8124     72.2191
  1818.2500    140.7123      0.0000    258.7874     72.3270
  1818.5000    144.5152      0.0000    258.7636     72.4213
  1818.7500    147.8198      0.0000    258.7467     72.4827
  1819.0000    150.5488      0.0000    258.7385     72.5012
  1819.2500    152.6697      0.0000    258.7395     72.4678
  1819.5000    153.4376      0.0000    258.7510     72.3820
  1819.7500    151.2185      0.0000    258.7737     72.2589
  1820.0000    144.6477      0.0000    258.8029     72.1241
  1820.2500    134.2062      0.0000    258.8286     72.0014
  1820.5000    122.6099      0.0000    258.8405     71.9041
  1820.7500    113.3643      0.0000    258.8338     71.8327
  1821.0000    108.5084      0.0000    258.8117     71.7826
  1821.2500    107.4966      0.0000    258.7811     71.7540
  1821.5000    108.0393      0.0000    258.7498     71.7524
  1821.7500    107.9105      0.0000    258.7245     71.7774
  1822.0000    106.2561      0.0000    258.7106     71.8138
  1822.2500    103.7397      0.0000    258.7130     71.8371
  1822.5000    101.7899      0.0000    258.7329     71.8296
  1822.7500    101.5483      0.0000    258.7648     71.7944
  1823.0000    102.9826      0.0000    258.7964     71.7569
  1823.2500    104.7111      0.0000    258.8146     71.7501
  1823.5000    104.9884      0.0000    258.8137     71.7937
  1823.7500    103.1884      0.0000    258.7985     71.8824
  1824.0000    100.3326      0.0000    258.7810     71.9888
  1824.2500     98.1884      0.0000    258.7714     72.0788
  1824.5000     98.0339      0.0000    258.7731     72.1311
  1824.7500    100.0762      0.0000    258.7824     72.1495
  1825.0000    103.4264      0.0000    258.7902     72.1567
  1825.2500    106.4528      0.0000    258.7874     72.1723
  1825.5000    107.9281      0.0000    258.7723     72.1982
  1825.7500    108.4636      0.0000    258.7538     72.2241
  1826.0000    110.2689      0.0000    258.7425     72.2441
  1826.2500    114.8972      0.0000    258.7410     72.2638
  1826.5000    121.6929      0.0000    258.7441     72.2928
  1826.7500    128.7996      0.0000    258.7461     72.3298
  1827.0000    134.7885      0.0000    258.7456     72.3563
  1827.2500    138.6735      0.0000    258.7436     72.3541
  1827.5000    139.4953      0.0000    258.7401     72.3299
  1827.7500    137.1246      0.0000    258.7337     72.3160
  1828.0000    133.0129      0.0000    258.7246     72.3415
  1828.2500    129.2350      0.0000    258.7171     72.4048
  1828.5000    126.9048      0.0000    258.7174     72.4726
  1828.7500    125.9127      0.0000    258.7278     72.5049
  1829.0000    125.8554      0.0000    258.7432     72.4864
  1829.2500    126.3924      0.0000    258.7554     72.4360
  1829.5000    126.6144      0.0000    258.7599     72.3822
  1829.7500    124.9326      0.0000    258.7576     72.3306
