~Version Information
VERS.                      2.0: CWLS Log ASCII Standard - VERSION 2.0
WRAP.                       NO: One line per depth step
~Well Information Block
STRT.FT               419.7500: 
STOP.FT              1170.0000: 
STEP.FT                 0.2500: 
NULL.                -999.2500: 
COMP.          Evergreen Operating Corporation: COMPANY
WELL.             Bernice 21-3: WELL
FLD.           Purgatoire River: FIELD
LOC.           201' FNL & 2575' FWL: LOCATION
PROV.                 Colorado: PROVINCE
CNTY.               Las Animas: COUNTRY
SRVC.                Patterson: SERVICE COMPANY
DATE.          Mon Jan 26 13:04:04 2004: LOG DATE
UWI.           05 071 07912   : UNIQUE WELL ID
~Curve Information Block
DEPT.FT            0 000 00 00: Depth
SN.Ohm-m                      : IEL Short Normal
SP.mV                         : IEL Spontaneous Potential
DIR.Ohm-m                     : IEL Induction Resistivity
GR.GAPI                       : Gamma Ray
~Parameter Information Block
~A  Depth        SN          SP         DIR          GR     
# ...
   855.2500     30.6511   -292.5582     23.0838    119.1607
   855.5000     32.4622   -291.6411     24.7776    111.2592
   855.7500     34.8080   -290.5862     26.5041    104.3468
   856.0000     37.9987   -289.4812     28.1337     92.8024
   856.2500     42.1308   -288.4450     29.5975     85.1852
   856.5000     47.1180   -287.5764     30.8954     75.0188
   856.7500     52.6774   -286.9178     32.0769     69.6147
   857.0000     58.0363   -286.4496     33.1907     64.5441
   857.2500     62.2279   -286.1129     34.2166     63.6572
   857.5000     64.8497   -285.8305     35.0043     66.0216
   857.7500     66.1173   -285.5167     35.2791     69.3604
   858.0000     66.1788   -285.1039     34.7647     75.5203
   858.2500     64.7136   -284.5853     33.4071     80.2213
   858.5000     61.3456   -284.0278     31.4958     89.5681
   858.7500     56.2523   -283.5352     29.5022     98.2926
   859.0000     50.2244   -283.1925     27.7868    114.7970
   859.2500     44.2897   -283.0275     26.4550    126.3724
   859.5000     39.2934   -283.0016     25.4139    140.6793
   859.7500     35.6236   -283.0258     24.5207    146.6611
   860.0000     33.1777   -282.9957     23.7001    150.1813
   860.2500     31.5711   -282.8321     22.9628    149.7821
   860.5000     30.4140   -282.5081     22.3497    146.5465
   860.7500     29.4291   -282.0501     21.8760    143.1325
   861.0000     28.4490   -281.5216     21.5156    137.0987
   861.2500     27.4402   -281.0001     21.2192    133.5082
   861.5000     26.4820   -280.5532     20.9489    130.6355
   861.7500     25.6780   -280.2125     20.7035    130.6815
   862.0000     25.0981   -279.9578     20.5126    132.3324
   862.2500     24.7509   -279.7260     20.4061    133.2845
   862.5000     24.6122   -279.4453     20.3872    133.0310
   862.7500     24.6963   -279.0743     20.4321    131.3836
   863.0000     25.0445   -278.6268     20.5141    126.7930
   863.2500     25.6649   -278.1622     20.6327    122.8451
   863.5000     26.5070   -277.7342     20.8206    117.1621
   863.7500     27.4647   -277.3312     21.1254    114.4242
   864.0000     28.4192   -276.8804     21.5792    112.4603
   864.2500     29.3032   -276.3227     22.1786    112.1597
   864.5000     30.1282   -275.6707     22.8842    111.7108
   864.7500     30.9619   -274.9880     23.6309    110.6018
   865.0000     31.8704   -274.3286     24.3398    107.1365
   865.2500     32.8571   -273.7089     24.9427    103.6839
   865.5000     33.8663   -273.1260     25.4245     97.0094
   865.7500     34.8303   -272.5891     25.8511     91.6457
   866.0000     35.7117   -272.1256     26.3470     82.8185
   866.2500     36.5428   -271.7550     27.0266     77.2669
   866.5000     37.4021   -271.4565     27.9284     71.0954
   866.7500     38.2960   -271.1596     28.9830     68.7666
   867.0000     39.1117   -270.7632     30.0325     67.2219
   867.2500     39.7542   -270.1800     30.8947     66.8941
   867.5000     40.2468   -269.3889     31.4425     67.1117
   867.7500     40.6515   -268.4554     31.6489     67.8702
   868.0000     40.9850   -267.4777     31.5874     70.0708
   868.2500     41.2575   -266.5023     31.4055     72.0011
   868.5000     41.5038   -265.5087     31.2839     74.6420
   868.7500     41.7346   -264.4752     31.3728     75.7119
   869.0000     41.9420   -263.4360     31.7191     76.1242
   869.2500     42.1236   -262.4632     32.2203     75.9258
   869.5000     42.2443   -261.6144     32.6633     75.4523
   869.7500     42.2570   -260.9026     32.8446     74.9810
   870.0000     42.1483   -260.2964     32.7016     73.5769
   870.2500     41.9222   -259.7389     32.3269     72.1140
   870.5000     41.5941   -259.1746     31.8556     69.8177
   870.7500     41.1910   -258.5729     31.3516     68.7827
   871.0000     40.7337   -257.9356     30.7913     68.2677
   871.2500     40.2427   -257.2832     30.1354     68.2795
   871.5000     39.7226   -256.6352     29.3894     68.0665
   871.7500     39.1019   -256.0089     28.5747     67.6162
   872.0000     38.2457   -255.4369     27.6654     66.7899
   872.2500     37.0919   -254.9644     26.5980     66.4403
   872.5000     35.7400   -254.6101     25.3688     66.7192
   872.7500     34.3312   -254.3281     24.0970     67.7350
   873.0000     32.8831   -254.0188     22.9661     70.6600
   873.2500     31.3260   -253.5833     22.1125     73.1744
   873.5000     29.6392   -252.9881     21.5656     76.7938
   873.7500     27.9123   -252.3045     21.2535     78.9698
   874.0000     26.3157   -251.6827     21.0368     82.9679
   874.2500     24.9824   -251.2493     20.7589     87.1042
   874.5000     23.9223   -250.9931     20.3108     96.4793
   874.7500     23.0497   -250.7467     19.6792    104.4597
   875.0000     22.2279   -250.2828     18.9385    116.5864
   875.2500     21.3753   -249.4276     18.1937    122.7986
   875.5000     20.5744   -248.1130     17.5273    126.7996
   875.7500     19.9874   -246.3885     16.9813    125.8957
   876.0000     19.6801   -244.4181     16.5618    121.9410
   876.2500     19.5703   -242.4306     16.2508    119.9470
   876.5000     19.5121   -240.6227     16.0159    120.6113
   876.7500     19.4055   -239.0829     15.8250    123.2747
   877.0000     19.2416   -237.7831     15.6641    127.8077
   877.2500     19.0700   -236.6170     15.5469    129.4581
   877.5000     18.9257   -235.4547     15.5036    128.6475
   877.7500     18.7986   -234.2023     15.5555    126.2235
   878.0000     18.6703   -232.8442     15.6964    121.0054
   878.2500     18.5618   -231.4436     15.8958    117.2555
   878.5000     18.5358   -230.1042     16.1195    112.5592
   878.7500     18.6337   -228.9242     16.3472    110.7012
   879.0000     18.8051   -227.9671     16.5716    110.1449
   879.2500     18.9114   -227.2447     16.7821    110.8093
   879.5000     18.8595   -226.7123     16.9521    112.0531
   879.7500     18.7195   -226.2850     17.0431    112.5525
   880.0000     18.6322   -225.8760     17.0274    112.6745
   880.2500     18.6511   -225.4290     16.9095    112.2647
   880.5000     18.7161   -224.9266     16.7293    110.3673
   880.7500     18.7648   -224.3855     16.5398    108.1051
   881.0000     18.7961   -223.8558     16.3792    104.1608
   881.2500     18.7951   -223.4114     16.2544    102.1659
   881.5000     18.7338   -223.1093     16.1417    101.1489
   881.7500     18.6499   -222.9371     15.9971    101.5612
   882.0000     18.6009   -222.8119     15.7779    102.7966
   882.2500     18.5554   -222.6391     15.4682    103.6658
   882.5000     18.4212   -222.3590     15.0964    104.9177
   882.7500     18.1642   -221.9437     14.7243    105.6981
   883.0000     17.8231   -221.3857     14.4150    106.8876
   883.2500     17.4532   -220.7078     14.2053    107.9756
   883.5000     17.1073   -219.9663     14.0971    110.7460
   883.7500     16.8194   -219.2160     14.0634    113.5652
   884.0000     16.5673   -218.4669     14.0628    118.8017
   884.2500     16.2999   -217.6808     14.0598    122.1798
   884.5000     16.0353   -216.8103     14.0440    125.4982
   884.7500     15.8621   -215.8336     14.0302    126.0930
   885.0000     15.8330   -214.7455     14.0367    125.0305
   885.2500     15.9192   -213.5292     14.0597    123.5736
   885.5000     16.0586   -212.1661     14.0706    120.6606
   885.7500     16.2014   -210.6848     14.0355    118.1830
   886.0000     16.3059   -209.1866     13.9412    113.9362
   886.2500     16.3503   -207.8048     13.8055    111.3642
   886.5000     16.3669   -206.6437     13.6657    109.2947
   886.7500     16.3968   -205.7531     13.5593    109.5907
   887.0000     16.4474   -205.1391     13.5084    111.8944
   887.2500     16.5345   -204.7879     13.5137    113.5467
   887.5000     16.7063   -204.6723     13.5596    114.5586
   887.7500     16.9614   -204.7276     13.6290    114.2245
   888.0000     17.1810   -204.8277     13.7249    113.3769
   888.2500     17.2763   -204.8198     13.8801    113.1110
   888.5000     17.3684   -204.6128     14.1460    112.8131
