~Version Information
VERS.                      2.0: CWLS Log ASCII Standard - VERSION 2.0
WRAP.                       NO: One line per depth step
~Well Information Block
STRT.FT               630.0000: 
STOP.FT              1156.0000: 
STEP.FT                 0.2500: 
NULL.                -999.2500: 
COMP.          Pioneer Natural Resources: COMPANY
WELL.          Drewmeister 34-34: WELL
FLD.           Purgatoire River: FIELD
LOC.           958' FSL & 1857' FEL: LOCATION
STAT.                 Colorado: State
CNTY.               Las Animas: COUNTY
CTRY. USA : Country
SECT. 34 : Section
TOWN. 32S : Township
RANG. 65W : Range
SRVC.                Patterson: SERVICE COMPANY
DATE.          Mon Oct 03 23:24:37 2005: LOG DATE
API.           05 071 08131 00: UNIQUE WELL ID
~Curve Information Block
DEPT.FT            0 000 00 00: Depth
SN.Ohm-m                      : IEL Short Normal
SP.mV                         : IEL Spontaneous Potential
DIR.Ohm-m                     : IEL Induction Resistivity
GR.GAPI                       : Gamma Ray
~Parameter Information Block
~A  Depth        SN          SP         DIR          GR     
# ...
   797.5000     47.2962    470.4557      1.3826    117.1875
   797.7500    124.1674    524.2687      1.3715    120.4623
   798.0000    272.1246    572.6096      1.3078    123.0105
   798.2500    470.4034    615.1534      1.3020    122.7057
   798.5000    649.8331    651.9111      1.4780    119.6360
   798.7500    748.9565    681.8971      2.1035    116.8041
   799.0000    754.4281    704.0728      4.6978    113.2341
   799.2500    680.3502    719.0404 100000.0000    111.8052
   799.5000    553.3937    729.6633 100000.0000    110.5116
   799.7500    420.6661    739.7820 100000.0000    109.4473
   800.0000    320.2277    751.8239 100000.0000    106.8020
   800.2500    243.0081    765.3099 100000.0000    104.6134
   800.5000    163.9230    777.6507 100000.0000    101.6729
   800.7500     90.7252    786.2644 100000.0000    100.1734
   801.0000     44.7949    789.6967 100000.0000     98.2756
   801.2500     26.2094    786.8968 100000.0000     97.1411
   801.5000     21.2589    776.0257 100000.0000     96.2497
   801.7500     20.2152    754.2834 100000.0000     96.7311
   802.0000     20.1162    718.8154 100000.0000     99.1455
   802.2500     22.0344    668.0591 100000.0000    101.1861
   802.5000     32.0926    603.2600 100000.0000    103.1452
   802.7500     66.9685    530.0667 100000.0000    103.0464
   803.0000    153.8432    459.3777 100000.0000    100.9369
   803.2500    307.0090    405.6568 100000.0000     98.9248
   803.5000    496.7439    381.7021 100000.0000     96.3219
   803.7500    664.1089    392.3004 100000.0000     95.2031
   804.0000    772.4769    431.9111 100000.0000     94.0445
   804.2500    825.4810    488.7977 100000.0000     93.1868
   804.5000    845.0558    551.8257 100000.0000     91.7883
   804.7500    850.2061    613.9771 100000.0000     91.3376
   805.0000    850.0151    671.0843    331.2965     92.1584
   805.2500    843.0164    719.4391     71.5231     93.4359
   805.5000    813.8932    755.7968     36.5207     95.1368
   805.7500    732.6443    779.2018     24.4356     95.6004
   806.0000    578.0953    791.7648     19.0873     95.4646
   806.2500    377.3235    797.2905     16.4947     95.1556
   806.5000    198.4912    799.2589     15.2206     94.2586
   806.7500     88.4045    799.8223     14.6229     92.9803
   807.0000     40.9177    799.9506     14.3921     90.0037
   807.2500     26.3957    799.9735     14.3990     87.8730
   807.5000     23.7539    799.9761     14.6208     85.3433
   807.7500     24.5287    799.9761     15.0844     84.1469
   808.0000     25.6842    799.9761     15.8195     82.9288
   808.2500     25.7128    799.9755     16.8241     82.6636
   808.5000     24.5091    799.9694     18.0459     83.4375
   808.7500     23.1575    799.9384     19.3841     84.4724
   809.0000     22.6096    799.8087     20.7130     85.3330
   809.2500     23.1785    799.3898     21.9141     84.6462
   809.5000     25.0612    798.3518     22.8958     82.0569
   809.7500     29.9466    796.4194     23.6068     80.4253
   810.0000     46.6378    793.8256     24.0527     79.5472
   810.2500     97.4938    791.5873     24.3048     79.6349
   810.5000    207.8166    790.9647     24.4737     78.9511
   810.7500    365.1350    792.3633     24.6507     77.3381
   811.0000    490.9906    794.9255     24.8606     73.7050
   811.2500    497.7742    797.3470     25.0623     71.2014
   811.5000    383.7177    798.8989     25.1953     68.3001
   811.7500    230.8633    799.6144     25.2333     67.2210
   812.0000    115.4363    799.8420     25.2010     66.9886
   812.2500     55.9146    799.8680     25.1540     67.6337
   812.5000     33.4595    799.8397     25.1421     69.4406
   812.7500     27.0899    799.8196     25.1867     71.0061
   813.0000     26.0502    799.8147     25.2797     73.4796
   813.2500     26.3931    799.7729     25.4018     74.8083
   813.5000     26.6230    799.5831     25.5426     75.5027
   813.7500     26.3599    799.1304     25.6985     74.8749
   814.0000     25.9543    798.4277     25.8457     72.8491
   814.2500     25.8625    797.7311     25.9296     71.4877
   814.5000     26.5181    797.4337     25.9000     70.1735
   814.7500     28.4128    797.7327     25.7696     69.5450
   815.0000     31.1388    798.4343     25.6299     68.1385
   815.2500     32.8312    799.1509     25.5966     66.8831
   815.5000     32.0000    799.6321     25.7263     65.4236
   815.7500     29.3633    799.8644     25.9611     65.1682
   816.0000     26.7675    799.9479     26.1388     65.7449
   816.2500     25.1496    799.9706     26.0849     66.5106
   816.5000     24.3364    799.9753     25.7299     68.2578
   816.7500     23.8555    799.9761     25.1386     70.0248
   817.0000     23.3621    799.9761     24.4369     73.4973
   817.2500     22.7812    799.9761     23.7375     75.9328
   817.5000     22.3249    799.9761     23.1347     78.9446
   817.7500     22.5079    799.9750     22.7201     80.3029
   818.0000     24.4823    799.9639     22.5632     81.3782
   818.2500     30.6052    799.8984     22.6632     81.4386
   818.5000     43.7241    799.5979     22.9234     80.4244
   818.7500     64.0319    798.4919     23.1821     79.1627
   819.0000     86.4515    795.1741     23.2935     77.2944
   819.2500    101.1913    786.9724     23.2028     76.6399
   819.5000     98.5478    770.0192     22.9587     76.8774
   819.7500     80.0532    740.1703     22.6624     77.6269
   820.0000     63.1135    694.3589     22.4074     78.9683
   820.2500     68.6130    631.5068     22.2480     79.6083
   820.5000    110.1275    552.9046     22.2008     79.7586
   820.7500    191.0351    462.9184     22.2604     79.3754
   821.0000    304.8188    369.8736     22.4086     78.5710
   821.2500    443.8282    285.1617     22.6120     78.0894
   821.5000    594.7471    219.6012     22.8181     77.3101
   821.7500    724.9975    179.3492     22.9651     76.5257
   822.0000    805.5923    164.5671     23.0070     74.7501
   822.2500    839.6946    171.3739     22.9337     73.3047
   822.5000    849.3915    195.0123     22.7705     71.3582
   822.7500    851.2270    232.0422     22.5619     70.5139
   823.0000    851.4576    280.8042     22.3543     69.8526
   823.2500    851.4747    340.6320     22.1871     69.6196
   823.5000    851.4747    410.6162     22.0897     69.7803
   823.7500    851.4747    488.3226     22.0776     70.5657
   824.0000    851.4747    568.7262     22.1464     72.6055
   824.2500    851.4288    644.2429     22.2691     73.8334
   824.5000    850.8895    706.8470     22.4047     74.3498
   824.7500    846.8590    751.5302     22.5161     73.8496
   825.0000    827.4594    778.4482     22.5845     72.9370
   825.2500    767.1469    791.9302     22.6104     72.8245
   825.5000    646.2709    797.4805     22.6098     73.4452
   825.7500    491.5803    799.3419     22.6115     73.8650
   826.0000    367.9575    799.8466     22.6550     73.5328
   826.2500    302.0825    799.9560     22.7770     72.5282
   826.5000    251.8672    799.9743     22.9894     70.4190
   826.7500    179.5659    799.9761     23.2616     69.0629
   827.0000    104.5790    799.9761     23.5255     67.5904
   827.2500     57.0387    799.9761     23.7075     67.1357
   827.5000     36.2505    799.9761     23.7702     67.3206
   827.7500     28.5978    799.9748     23.7336     67.7846
   828.0000     26.3951    799.9649     23.6600     68.1169
   828.2500     26.8169    799.9100     23.6174     67.6642
   828.5000     28.5701    799.6737     23.6527     65.9641
   828.7500     30.7806    798.8632     23.7855     64.4984
   829.0000     32.4454    796.6064     24.0157     62.4773
   829.2500     33.5111    791.4435     24.3313     61.5103
   829.5000     37.0235    781.6752     24.7083     60.8628
   829.7500     48.9515    766.4597     25.1086     61.0116
   830.0000     74.8143    747.4375     25.4822     61.9346
   830.2500    120.9093    729.6412     25.7827     62.6813
   830.5000    203.1470    719.8498     25.9844     63.1400
   830.7500    337.6161    722.2342     26.0893     62.6592
