~Version Information
VERS.                      2.0: CWLS Log ASCII Standard - VERSION 2.0
WRAP.                       NO: One line per depth step
~Well Information Block
STRT.FT               550.0000: 
STOP.FT              2042.5000: 
STEP.FT                 0.1000: 
NULL.                -999.2500: 
COMP.          Petrogulf Corporation: COMPANY
WELL.          Robinson 15-12V: WELL
FLD.           Purgatorie River: FIELD
LOC.           1788' FNL & 466' FWL: LOCATION
PROV.                 Colorado: PROVINCE
CNTY.               Las Animas: COUNTRY
SRVC.                Patterson: SERVICE COMPANY
DATE.          Mon Sep 12 10:04:59 2005: LOG DATE
UWI.                          : UNIQUE WELL ID
~Curve Information Block
DEPT.FT            0 000 00 00: Depth
DCAL.in                       : CDL Caliper
RHOB.g/cc                     : CDL Bulk Density
RHOC.g/cc                     : CDL Density Correction
DPOR.pu                       : CDL Density Porosity
GR.GAPI                       : Gamma Ray
NPOR.pu                       : Neutron Porosity
~Parameter Information Block
~A  Depth       DCAL        RHOB        RHOC        DPOR         GR         NPOR    
# ...
  1817.2000      7.9249      2.5080      0.1150      8.6060    109.1682     28.1542
  1817.3000      7.8792      2.5353      0.1256      6.9508    111.4905     28.2827
  1817.4000      7.8792      2.5584      0.1619      5.5528    112.4640     28.3175
  1817.5000      7.8740      2.5725      0.1497      4.6963    111.8659     28.1482
  1817.6000      7.8740      2.5783      0.1314      4.3474    111.4023     27.9029
  1817.7000      7.8740      2.5801      0.0842      4.2364    109.4361     27.5886
  1817.8000      7.8988      2.5820      0.0964      4.1227    106.3966     27.4511
  1817.9000      7.8988      2.5799      0.1158      4.2483    104.9131     27.6374
  1818.0000      7.9271      2.5641      0.1076      5.2036    105.5422     27.7490
  1818.1000      7.9271      2.5403      0.0513      6.6475    108.7683     27.6322
  1818.2000      7.9271      2.5240      0.0690      7.6361    113.3511     27.5601
  1818.3000      7.9339      2.5162      0.0694      8.1115    114.3388     27.5839
  1818.4000      7.9339      2.5160      0.0603      8.1184    110.0132     27.5430
  1818.5000      7.9293      2.5239      0.0769      7.6407    104.6012     27.3561
  1818.6000      7.9293      2.5278      0.0968      7.4047    101.6126     27.1703
  1818.7000      7.9293      2.5205      0.0710      7.8510    100.5474     27.0493
  1818.8000      7.9283      2.5086      0.0536      8.5675    101.7991     26.7143
  1818.9000      7.9283      2.4979      0.0588      9.2211    104.4700     26.2073
  1819.0000      7.9247      2.4890      0.0353      9.7606    103.5717     25.9635
  1819.1000      7.9247      2.4867      0.0391      9.8953    100.3141     26.0351
  1819.2000      7.9247      2.4926      0.0638      9.5380     99.9582     26.2603
  1819.3000      7.9117      2.5020      0.0447      8.9708    102.9746     26.4463
  1819.4000      7.9117      2.5090      0.0488      8.5445    105.8527     26.4555
  1819.5000      7.8996      2.5081      0.0752      8.6027    106.6991     26.5956
  1819.6000      7.8996      2.5039      0.0526      8.8556    106.3626     26.9804
  1819.7000      7.8996      2.5109      0.0602      8.4276    104.6159     27.1470
  1819.8000      7.8973      2.5301      0.0989      7.2673    102.7619     26.7889
  1819.9000      7.8973      2.5508      0.0848      6.0117    103.3275     26.2938
  1820.0000      7.8984      2.5662      0.1240      5.0813    105.3773     26.1666
  1820.1000      7.8984      2.5703      0.1086      4.8332    107.7694     26.1429
  1820.2000      7.8984      2.5622      0.1169      5.3229    110.9176     25.8076
  1820.3000      7.8988      2.5457      0.0965      6.3186    112.5109     25.4079
  1820.4000      7.8988      2.5320      0.0550      7.1496    111.3837     25.3687
  1820.5000      7.8940      2.5281      0.0495      7.3882    109.3843     25.6335
  1820.6000      7.8940      2.5217      0.0697      7.7731    106.7216     25.7306
  1820.7000      7.8940      2.5056     -0.0173      8.7492    102.2312     25.7064
  1820.8000      7.8953      2.4955      0.0234      9.3627     96.4607     26.1009
  1820.9000      7.8953      2.5009      0.0633      9.0359     90.6993     26.7018
  1821.0000      7.9052      2.5121      0.0510      8.3591     85.1676     26.7433
  1821.1000      7.9052      2.5172      0.0505      8.0513     82.3745     26.2361
  1821.2000      7.9052      2.5165     -0.0041      8.0933     84.7328     25.7139
  1821.3000      7.9234      2.5200      0.0284      7.8801     89.3948     25.3011
  1821.4000      7.9234      2.5294      0.0551      7.3111     94.1119     25.2792
  1821.5000      7.9149      2.5360      0.0542      6.9111     99.5830     25.9417
  1821.6000      7.9149      2.5358      0.1001      6.9182    103.8223     26.5117
  1821.7000      7.9149      2.5305      0.0927      7.2445    103.7704     26.1343
  1821.8000      7.9101      2.5202      0.0862      7.8659    102.3777     25.3942
  1821.9000      7.9101      2.5071      0.0526      8.6589    103.3236     25.1802
  1822.0000      7.9216      2.4909      0.0586      9.6413    104.7184     25.4990
  1822.1000      7.9216      2.4674      0.0557     11.0662    104.9888     26.1652
  1822.2000      7.9216      2.4435      0.0092     12.5168    105.9245     26.9125
  1822.3000      7.9163      2.4381     -0.0061     12.8422    108.2539     27.0262
  1822.4000      7.9163      2.4580      0.0273     11.6364    109.7862     26.5198
  1822.5000      7.9318      2.4871      0.0378      9.8703    109.1359     26.1596
  1822.6000      7.9318      2.5094      0.0494      8.5203    106.9554     26.1618
  1822.7000      7.9318      2.5211      0.0637      7.8099    103.6770     26.2784
  1822.8000      7.9308      2.5204      0.0893      7.8528    101.5350     26.5420
  1822.9000      7.9308      2.5122      0.0691      8.3521    102.0446     26.9778
  1823.0000      7.8986      2.5105      0.0874      8.4526    102.7346     27.1924
  1823.1000      7.8986      2.5194      0.0918      7.9130    102.6343     26.9463
  1823.2000      7.8986      2.5284      0.1197      7.3674    102.7732     26.5631
  1823.3000      7.8847      2.5281      0.0839      7.3868    103.8467     26.5373
  1823.4000      7.8847      2.5216      0.0666      7.7846    106.6724     26.7983
  1823.5000      7.8886      2.5133      0.0755      8.2835    110.9295     27.0135
  1823.6000      7.8886      2.5028      0.0746      8.9238    113.1937     27.1708
  1823.7000      7.8886      2.4890      0.0840      9.7600    111.5197     27.1456
  1823.8000      7.8925      2.4757      0.0636     10.5642    109.3605     26.8757
  1823.9000      7.8925      2.4709      0.0158     10.8537    108.7673     26.6932
  1824.0000      7.9088      2.4725      0.0544     10.7550    108.5557     26.9651
  1824.1000      7.9088      2.4685      0.0603     11.0026    107.6542     27.5611
  1824.2000      7.9088      2.4596      0.0186     11.5406    107.3555     27.9327
  1824.3000      7.9168      2.4544      0.0249     11.8550    109.9142     28.0844
  1824.4000      7.9168      2.4423      0.0475     12.5890    113.3683     28.2817
  1824.5000      7.9227      2.4140      0.0351     14.3021    114.7803     28.5493
  1824.6000      7.9227      2.3894      0.0245     15.7952    114.0061     28.7994
  1824.7000      7.9227      2.3826      0.0489     16.2080    110.8211     28.7018
  1824.8000      7.9236      2.3736      0.0512     16.7497    106.7730     28.3019
  1824.9000      7.9236      2.3432      0.0276     18.5916    103.7782     28.1175
  1825.0000      7.9254      2.3035      0.0057     20.9972    100.7071     28.5452
  1825.1000      7.9254      2.2759      0.0216     22.6697     96.1243     29.3270
  1825.2000      7.9254      2.2600      0.0658     23.6392     91.9975     29.5948
  1825.3000      7.9242      2.2399      0.0169     24.8522     90.1685     29.2316
  1825.4000      7.9242      2.2088      0.0002     26.7366     90.3020     28.9802
  1825.5000      7.9275      2.1728      0.0025     28.9204     91.7262     28.9945
  1825.6000      7.9275      2.1413      0.0250     30.8285     92.0358     29.1071
  1825.7000      7.9275      2.1193      0.0338     32.1666     90.4478     29.5930
  1825.8000      7.9256      2.1084      0.0114     32.8233     88.4486     30.3236
  1825.9000      7.9256      2.1153     -0.0047     32.4048     85.1322     30.5479
  1826.0000      7.9370      2.1477      0.0301     30.4422     81.3248     30.2330
  1826.1000      7.9370      2.1983      0.0801     27.3751     81.3454     29.9040
  1826.2000      7.9370      2.2471      0.1150     24.4203     84.9801     29.4226
  1826.3000      7.9372      2.2871      0.0910     21.9913     88.2705     28.7576
  1826.4000      7.9372      2.3260      0.1244     19.6386     90.6762     28.6515
  1826.5000      7.9460      2.3634      0.1352     17.3716     94.2419     29.2849
  1826.6000      7.9460      2.3921      0.1298     15.6308     96.6930     29.7732
  1826.7000      7.9460      2.4077      0.0770     14.6871     95.1020     29.3167
