~Version Information
VERS.                      2.0: CWLS Log ASCII Standard - VERSION 2.0
WRAP.                       NO: One line per depth step
~Well Information Block
STRT.FT               -13.5000: 
STOP.FT              2092.5000: 
STEP.FT                 0.2500: 
NULL.                -999.2500: 
COMP.          Petrogulf Corporation: COMPANY
WELL.          Robinson 15-11V: WELL
FLD.           Purgatorie River: FIELD
LOC.           226' FNL & 592' FWL--: LOCATION
CNTY.               Las Animas: COUNTY
SRVC.                         : SERVICE COMPANY
DATE.          Tue Aug 17 13:05:46 2004: LOG DATE
UWI.                          : UNIQUE WELL ID
STAT.                       CO: STATE
~Curve Information Block
DEPT.FT            0 000 00 00: Depth
CCL.                          : Casing Collar Locator
TT3.usec                      : CBL 3' Travel Time
AMP3.mV                       : CBL 3' Amplitude
GR.GAPI                       : Gamma Ray
~Parameter Information Block
~A  Depth       CCL         TT3         AMP3         GR     
# ...
  1226.0000      0.0000    477.9254      7.8137    118.2865
  1226.2500      0.0000    465.4797      7.7977    114.4345
  1226.5000      0.0000    443.6421      7.7354    110.4561
  1226.7500      0.0000    431.2302      7.6143    106.3476
  1227.0000      0.0000    443.6364      7.4949    101.6481
  1227.2500      0.0000    481.8395      7.4638     96.0417
  1227.5000      0.0000    530.3914      7.5421     89.9658
  1227.7500      0.0000    566.9180      7.6744     84.4301
  1228.0000      0.0000    578.0117      7.7981     80.5055
  1228.2500      0.0000    568.6021      7.8993     78.8310
  1228.5000      0.0000    555.9026      8.0031     79.3531
  1228.7500      0.0000    554.6184      8.1263     81.6776
  1229.0000      0.0000    566.7038      8.2461     85.6655
  1229.2500      0.0000    580.7676      8.3210     91.4112
  1229.5000      0.0000    579.4289      8.3302     98.6051
  1229.7500      0.0000    551.8265      8.2835    106.0802
  1230.0000      0.0000    503.3036      8.1976    112.2141
  1230.2500      0.0000    452.5424      8.0810    116.1794
  1230.5000      0.0000    418.1814      7.9428    118.9476
  1230.7500      0.0000    407.2916      7.8008    122.6075
  1231.0000      0.0000    413.2336      7.6765    128.5047
  1231.2500      0.0000    421.5514      7.5934    136.3386
  1231.5000      0.0000    419.9292      7.5709    144.9439
  1231.7500      0.0000    406.0142      7.5941    153.3807
  1232.0000      0.0000    386.6978      7.5913    161.0372
  1232.2500      0.0000    370.3270      7.4773    167.1495
  1232.5000      0.0000    360.5068      7.2446    170.7863
  1232.7500      0.0000    356.1888      6.9951    171.2782
  1233.0000      0.0000    354.8744      6.8707    168.3243
  1233.2500      0.0000    354.7467      6.9528    161.9753
  1233.5000      0.0000    354.9558      7.2151    153.1145
  1233.7500      0.0000    355.1921      7.5423    143.6182
  1234.0000      0.0000    355.3003      7.7903    135.0348
  1234.2500      0.0000    355.1595      7.8537    127.1062
  1234.5000      0.0000    354.8402      7.7045    118.3407
  1234.7500      0.0000    354.8632      7.3876    108.0557
  1235.0000      0.0000    356.2297      7.0007     97.4977
  1235.2500      0.0000    359.8910      6.6683     89.1498
  1235.5000      0.0000    365.7923      6.4829     84.9900
  1235.7500      0.0000    372.2979      6.4458     84.8500
  1236.0000      0.0000    376.8042      6.4855     86.1780
  1236.2500      0.0000    377.2987      6.5400     85.8592
  1236.5000      0.0000    373.6493      6.5966     82.6776
  1236.7500      0.0000    367.6147      6.6697     77.9649
  1237.0000      0.0000    361.6185      6.7838     73.9006
  1237.2500      0.0000    357.2935      6.9669     71.5141
  1237.5000      0.0000    354.9084      7.2127     70.3450
  1237.7500      0.0000    353.8364      7.4436     69.4534
  1238.0000      0.0000    353.3214      7.5427     68.2868
  1238.2500      0.0000    352.9069      7.4389     66.8724
  1238.5000      0.0000    352.4646      7.1606     65.7335
  1238.7500      0.0000    352.0497      6.8129     65.6029
  1239.0000      0.0000    351.7444      6.5163     66.7963
  1239.2500      0.0000    351.5716      6.3618     68.7945
  1239.5000      0.0000    351.4885      6.3960     70.5656
  1239.7500      0.0000    351.4271      6.6170     71.2904
  1240.0000      0.0000    351.3481      6.9659     70.8312
  1240.2500      0.0000    351.2684      7.3339     69.6519
  1240.5000      0.0000    351.2382      7.5991     68.3452
  1240.7500      0.0000    351.2952      7.6826     67.2794
  1241.0000      0.0000    351.4444      7.5855     66.7265
  1241.2500      0.0000    351.6664      7.3742     66.9818
  1241.5000      0.0000    351.9222      7.1289     68.0145
  1241.7500      0.0000    352.1471      6.8989     69.2064
  1242.0000      0.0000    352.2641      6.6955     69.8563
  1242.2500      0.0000    352.2328      6.5165     69.8555
  1242.5000      0.0000    352.1023      6.3792     69.5805
  1242.7500      0.0000    352.0023      6.3253     69.2523
  1243.0000      0.0000    352.0531      6.3871     68.7442
  1243.2500      0.0000    352.2743      6.5611     67.8821
  1243.5000      0.0000    352.5815      6.8166     66.6383
  1243.7500      0.0000    352.8650      7.1096     65.1586
  1244.0000      0.0000    353.0895      7.3840     63.7549
  1244.2500      0.0000    353.3965      7.5875     62.6616
  1244.5000      0.0000    354.2315      7.7027     61.7627
  1244.7500      0.0000    356.3789      7.7551     60.7810
  1245.0000      0.0000    360.6191      7.7858     59.7613
  1245.2500      0.0000    367.0312      7.8173     59.0870
  1245.5000      0.0000    374.6624      7.8425     59.0243
  1245.7500      0.0000    382.3376      7.8448     59.6359
  1246.0000      0.0000    390.0867      7.8304     61.2519
  1246.2500      0.0000    399.6155      7.8340     64.4240
  1246.5000      0.0000    412.9172      7.8815     68.9145
  1246.7500      0.0000    429.7337      7.9444     73.0778
  1247.0000      0.0000    445.7234      7.9418     74.9136
  1247.2500      0.0000    453.5352      7.8031     73.8108
  1247.5000      0.0000    447.4195      7.5473     70.9386
  1247.7500      0.0000    428.1326      7.2908     67.9714
  1248.0000      0.0000    403.1062      7.1524     65.7288
  1248.2500      0.0000    381.3278      7.1495     64.0717
  1248.5000      0.0000    368.2623      7.1981     62.7868
  1248.7500      0.0000    365.1924      7.1972     62.1528
  1249.0000      0.0000    371.5285      7.1021     62.5263
  1249.2500      0.0000    385.9626      6.9491     63.6822
  1249.5000      0.0000    405.2712      6.8295     64.9911
  1249.7500      0.0000    423.4106      6.8026     66.2625
  1250.0000      0.0000    433.6643      6.8262     67.9542
  1250.2500      0.0000    432.8248      6.8105     70.3367
  1250.5000      0.0000    423.2415      6.7456     72.7570
  1250.7500      0.0000    410.5917      6.7275     74.0704
  1251.0000      0.0000    399.8514      6.8406     73.7047
  1251.2500      0.0000    393.0829      7.0455     72.1098
  1251.5000      0.0000    389.8984      7.2063     70.2843
  1251.7500      0.0000    389.0589      7.2152     68.9619
  1252.0000      0.0000    389.8861      7.0700     68.0068
  1252.2500      0.0000    393.3314      6.8339     66.6341
  1252.5000      0.0000    403.0666      6.5544     64.4377
  1252.7500      0.0000    425.5182      6.2515     61.9433
  1253.0000      0.0000    466.4712      5.9775     60.0912
  1253.2500      0.0000    524.3929      5.8405     59.9618
  1253.5000      0.0000    587.1318      5.9282     63.2618
  1253.7500      0.0000    638.7521      6.2135     71.9711
  1254.0000      0.0000    671.6005      6.5625     86.5091
  1254.2500      0.0000    690.1870      6.8414    104.5491
  1254.5000      0.0000    703.2087      7.0013    121.9840
  1254.7500      0.0000    714.4631      7.0538    134.7170
  1255.0000      0.0000    721.7959      7.0082    139.5776
  1255.2500      0.0000    720.9271      6.8731    134.8476
  1255.5000      0.0000    708.4234      6.6998    121.2501
  1255.7500      0.0000    683.9419      6.5786    102.3473
  1256.0000      0.0000    652.7756      6.5832     83.0577
  1256.2500      0.0000    624.6497      6.7257     67.3710
  1256.5000      0.0000    606.9871      6.9309     57.2397
  1256.7500      0.0000    599.4227      7.0327     52.9113
  1257.0000      0.0000    595.7202      6.8580     53.5856
  1257.2500      0.0000    588.6838      6.4084     57.7709
  1257.5000      0.0000    572.0881      5.9541     63.7349
  1257.7500      0.0000    542.0114      5.8593     70.3119
  1258.0000      0.0000    500.4962      6.2720     77.3164
  1258.2500      0.0000    456.8461      7.0113     85.0716
  1258.5000      0.0000    423.2210      7.7461     93.7493
  1258.7500      2.0000    409.1326      8.2236    103.3836
  1259.0000     -2.0000    418.0639      8.3381    114.1597
  1259.2500      0.0000    444.3534      8.0950    126.1159
