~Version Information
VERS.                      2.0: CWLS Log ASCII Standard - VERSION 2.0
WRAP.                       NO: One line per depth step
~Well Information Block
STRT.FT               375.0000: 
STOP.FT              1727.7000: 
STEP.FT                 0.1000: 
NULL.                -999.2500: 
COMP.          Pioneer Natural Resources: COMPANY
WELL.          Warrior 33-1 Tr: WELL
FLD.           Purgatoire River: FIELD
LOC.           2648' FSL & 2341' FEL--: LOCATION
PROV.                 Colorado: PROVINCE
CNTY.               Las Animas: COUNTRY
SRVC.                Patterson: SERVICE COMPANY
DATE.          Sat Jun 18 07:53:12 2005: LOG DATE
UWI.           05 071 08412 00: UNIQUE WELL ID
~Curve Information Block
DEPT.FT            0 000 00 00: Depth
DCAL.in                       : CDL Caliper
RHOB.g/cc                     : CDL Bulk Density
RHOC.g/cc                     : CDL Density Correction
DPOR.pu                       : CDL Density Porosity
NPOR.pu                       : Neutron Porosity
GR.GAPI                       : Gamma Ray
~Parameter Information Block
~A  Depth       DCAL        RHOB        RHOC        DPOR        NPOR         GR     
# ...
  1527.0000      8.0266      2.5393      0.0740      6.7113     17.5339     95.4068
  1527.1000      8.0266      2.5611      0.0984      5.3884     17.6199     93.1931
  1527.2000      8.0266      2.5701      0.1206      4.8401     17.9392     91.5735
  1527.3000      8.0436      2.5541      0.1154      5.8099     18.2312     91.9208
  1527.4000      8.0436      2.5239      0.0857      7.6450     18.4783     89.0859
  1527.5000      8.0540      2.5047      0.0693      8.8081     18.5407     83.5902
  1527.6000      8.0540      2.5105      0.0386      8.4521     18.4401     83.4323
  1527.7000      8.0540      2.5325      0.0884      7.1211     18.6753     87.8480
  1527.8000      8.0557      2.5484      0.0765      6.1599     19.2699     89.9899
  1527.9000      8.0557      2.5434      0.0885      6.4632     19.6913     90.4437
  1528.0000      8.0544      2.5217      0.0270      7.7775     19.9242     93.2395
  1528.1000      8.0544      2.5018      0.0169      8.9835     20.1075     93.6783
  1528.2000      8.0544      2.4988      0.0052      9.1663     19.9462     87.0482
  1528.3000      8.0534      2.5105      0.0709      8.4542     19.4591     79.9781
  1528.4000      8.0534      2.5267      0.0253      7.4743     19.0747     80.6615
  1528.5000      8.0527      2.5421      0.0843      6.5423     19.1667     87.9155
  1528.6000      8.0527      2.5506      0.0773      6.0220     20.0099     94.2750
  1528.7000      8.0527      2.5518      0.0615      5.9500     21.2388     95.0149
  1528.8000      8.0516      2.5544      0.0689      5.7934     21.8305     92.6977
  1528.9000      8.0516      2.5674      0.0539      5.0064     21.4789     90.9285
  1529.0000      8.0513      2.5852      0.0863      3.9283     20.8851     88.5542
  1529.1000      8.0513      2.5930      0.0694      3.4572     20.6844     84.4521
  1529.2000      8.0513      2.5881      0.0863      3.7493     20.8163     80.5734
  1529.3000      8.0520      2.5734      0.0691      4.6452     20.6989     79.7202
  1529.4000      8.0520      2.5557      0.0118      5.7125     20.3925     82.2925
  1529.5000      8.0533      2.5492      0.0341      6.1118     20.5210     87.2052
  1529.6000      8.0533      2.5570      0.0302      5.6337     21.1256     95.4331
  1529.7000      8.0533      2.5692      0.0785      4.8942     21.7304    105.2495
  1529.8000      8.0549      2.5753      0.0483      4.5294     22.0524    108.4364
  1529.9000      8.0549      2.5780      0.0166      4.3615     22.1846    102.2791
  1530.0000      8.0554      2.5828      0.0637      4.0748     22.2829     94.8074
  1530.1000      8.0554      2.5843      0.0579      3.9809     22.3154     93.4162
  1530.2000      8.0554      2.5855      0.0222      3.9089     22.3307     98.4218
  1530.3000      8.0549      2.5871      0.0875      3.8142     22.6949    102.4828
  1530.4000      8.0549      2.5801      0.0411      4.2352     23.5244     99.6792
  1530.5000      8.0548      2.5720      0.0255      4.7251     24.1007     96.2217
  1530.6000      8.0548      2.5748      0.0492      4.5605     23.6725     98.8720
  1530.7000      8.0548      2.5823      0.0875      4.1050     22.7593    102.5080
  1530.8000      8.0533      2.5795      0.0761      4.2730     22.5397    101.3737
  1530.9000      8.0533      2.5650      0.0227      5.1528     22.8818     96.7051
  1531.0000      8.0499      2.5534      0.0193      5.8549     22.9680     95.2148
  1531.1000      8.0499      2.5497      0.0683      6.0778     23.1292    100.8752
  1531.2000      8.0499      2.5450      0.0432      6.3639     23.8996    107.7694
  1531.3000      8.0495      2.5388      0.0282      6.7378     24.7783    112.1995
  1531.4000      8.0495      2.5362      0.0476      6.8941     25.1725    117.5512
  1531.5000      8.0543      2.5368      0.0344      6.8630     25.3734    125.1383
  1531.6000      8.0543      2.5411      0.0152      6.6014     26.0405    131.1905
  1531.7000      8.0543      2.5388      0.0923      6.7376     27.1295    131.4728
  1531.8000      8.0632      2.5120      0.0721      8.3625     27.7198    127.9545
  1531.9000      8.0632      2.4643      0.0063     11.2516     27.5070    127.2088
  1532.0000      8.0730      2.4066      0.0061     14.7500     27.4294    127.6298
  1532.1000      8.0730      2.3317      0.0015     19.2933     28.3522    123.7071
  1532.2000      8.0730      2.2390     -0.0317     24.9095     29.8409    119.8678
  1532.3000      8.0794      2.1498     -0.0712     30.3149     30.7564    119.9875
  1532.4000      8.0794      2.0755     -0.0650     34.8166     30.6497    118.1337
  1532.5000      8.0880      2.0100     -0.0760     38.7852     29.9913    114.9085
  1532.6000      8.0880      1.9614     -0.0824     41.7305     29.3404    119.1820
  1532.7000      8.0880      1.9488     -0.0692     42.4984     29.1447    127.5822
  1532.8000      8.1060      1.9666      0.0247     41.4154     29.4272    126.2031
  1532.9000      8.1060      1.9926      0.0679     39.8426     29.3978    112.8980
  1533.0000      8.1258      2.0290      0.0772     37.6384     28.7434     98.8202
  1533.1000      8.1258      2.0984      0.1356     33.4302     27.8351     91.9852
  1533.2000      8.1258      2.2007      0.2145     27.2326     26.5791     92.6531
  1533.3000      8.1248      2.3048      0.2592     20.9211     24.9584     96.0200
  1533.4000      8.1248      2.3891      0.2312     15.8092     23.6027     97.6837
  1533.5000      8.0995      2.4626      0.2259     11.3554     23.0099     97.2267
  1533.6000      8.0995      2.5267      0.2176      7.4758     22.6348     95.4529
  1533.7000      8.0995      2.5588      0.2183      5.5262     21.6527     95.0772
  1533.8000      8.0762      2.5557      0.1081      5.7157     20.3444     99.5772
  1533.9000      8.0762      2.5477      0.0579      6.2028     19.1888    105.9204
  1534.0000      8.0620      2.5526      0.0629      5.9058     18.2591    105.3746
  1534.1000      8.0620      2.5616      0.0715      5.3558     18.0353     95.4735
  1534.2000      8.0620      2.5653      0.0980      5.1329     18.5931     85.5359
  1534.3000      8.0554      2.5628      0.0682      5.2827     19.0384     82.6303
  1534.4000      8.0554      2.5632      0.0708      5.2613     18.6909     82.3649
  1534.5000      8.0543      2.5714      0.0893      4.7616     17.6781     80.6188
  1534.6000      8.0543      2.5748      0.1333      4.5582     16.7476     81.9752
  1534.7000      8.0543      2.5647      0.0589      5.1668     16.6162     88.3049
  1534.8000      8.0548      2.5607      0.0719      5.4108     17.3171     92.6312
  1534.9000      8.0548      2.5767      0.0837      4.4441     18.0101     90.9395
  1535.0000      8.0534      2.5934      0.1209      3.4300     18.0334     87.3078
  1535.1000      8.0534      2.5886      0.1063      3.7204     17.7389     85.2875
  1535.2000      8.0534      2.5675      0.0569      4.9979     17.4773     84.4295
  1535.3000      8.0512      2.5501      0.0297      6.0529     17.2951     84.3899
  1535.4000      8.0512      2.5472      0.0200      6.2288     17.3300     85.7393
  1535.5000      8.0512      2.5547      0.0637      5.7742     17.7287     89.4732
  1535.6000      8.0512      2.5630      0.0430      5.2711     18.5042     93.5468
  1535.7000      8.0512      2.5640      0.0682      5.2118     19.2418     91.8696
  1535.8000      8.0508      2.5510      0.0783      6.0009     19.2437     83.6403
  1535.9000      8.0508      2.5328     -0.0178      7.1031     18.4594     76.9465
  1536.0000      8.0491      2.5298      0.0160      7.2877     17.7737     76.4873
  1536.1000      8.0491      2.5417      0.0516      6.5606     17.9102     78.8206
  1536.2000      8.0491      2.5565      0.0426      5.6676     18.3055     83.8610
  1536.3000      8.0478      2.5687      0.0781      4.9262     18.1485     92.9960
  1536.4000      8.0478      2.5670      0.0649      5.0312     17.7650    100.1429
  1536.5000      8.0484      2.5473      0.0036      6.2226     18.0266     99.7723
