~Version Information
VERS.                      2.0: CWLS Log ASCII Standard - VERSION 2.0
WRAP.                       NO: One line per depth step
~Well Information Block
STRT.FT               240.0000: 
STOP.FT               966.2000: 
STEP.FT                 0.1000: 
NULL.                -999.2500: 
COMP.          Pioneer Natural Resources: COMPANY
WELL.          New Mexico 21-5: WELL
FLD.           Purgatoire River: FIELD
LOC.           175' FNL & 1700' FWL: LOCATION
PROV.                 Colorado: PROVINCE
CNTY.               Las Animas: COUNTRY
SRVC.                Patterson: SERVICE COMPANY
DATE.          Mon Dec 13 06:55:26 2004: LOG DATE
UWI.           05 071 08234 00: UNIQUE WELL ID
~Curve Information Block
DEPT.FT            0 000 00 00: Depth
DCAL.in                       : CDL Caliper
RHOB.g/cc                     : CDL Bulk Density
RHOC.g/cc                     : CDL Density Correction
DPOR.pu                       : CDL Density Porosity
NPOR.pu                       : Neutron Porosity
GR.GAPI                       : Gamma Ray
~Parameter Information Block
~A  Depth       DCAL        RHOB        RHOC        DPOR        NPOR         GR     
# ...
   892.8000      7.8882      2.6190      0.0910      1.8776     13.2151     85.6350
   892.9000      7.8882      2.5937      0.0247      3.4141     13.8398     82.9641
   893.0000      7.8899      2.5944      0.0027      3.3702     13.7577     84.0103
   893.1000      7.8899      2.6191      0.0981      1.8737     13.1413     86.1682
   893.2000      7.8899      2.6401      0.0481      0.5995     12.8727     85.1312
   893.3000      7.8913      2.6459      0.0419      0.2468     13.0796     79.9195
   893.4000      7.8913      2.6399      0.0348      0.6112     13.1393     73.8690
   893.5000      7.8907      2.6191      0.0945      1.8734     12.7603     70.1687
   893.6000      7.8907      2.5896      0.0297      3.6606     12.2528     67.1227
   893.7000      7.8907      2.5755      0.0174      4.5125     11.8266     63.7256
   893.8000      7.8905      2.5889      0.0180      3.7019     11.6313     64.4943
   893.9000      7.8905      2.6159      0.0639      2.0673     11.9116     72.6351
   894.0000      7.8907      2.6250      0.1078      1.5128     12.5161     81.8537
   894.1000      7.8907      2.6009      0.0076      2.9747     12.9163     82.2505
   894.2000      7.8907      2.5636      0.0329      5.2350     13.1182     75.3817
   894.3000      7.8904      2.5322      0.0198      7.1401     13.6321     73.0241
   894.4000      7.8904      2.5127     -0.0041      8.3199     14.2882     78.2092
   894.5000      7.8896      2.5033      0.0342      8.8905     14.6650     83.5633
   894.6000      7.8896      2.4921      0.0083      9.5712     15.0692     85.6107
   894.7000      7.8896      2.4743      0.0020     10.6457     15.6196     86.3355
   894.8000      7.8897      2.4600     -0.0230     11.5122     15.9253     87.5558
   894.9000      7.8897      2.4622      0.0057     11.3789     15.8736     85.9492
   895.0000      7.8940      2.4793      0.0282     10.3462     15.7642     78.6045
   895.1000      7.8940      2.4931      0.0335      9.5103     15.8862     70.6815
   895.2000      7.8940      2.4906      0.0450      9.6585     16.2127     69.4140
   895.3000      7.8985      2.4720      0.0538     10.7909     16.5058     75.0973
   895.4000      7.8985      2.4458      0.0037     12.3736     16.6102     80.7555
   895.5000      7.8945      2.4269      0.0087     13.5206     16.7007     79.2692
   895.6000      7.8945      2.4204      0.0289     13.9164     16.9900     70.9731
   895.7000      7.8945      2.4235      0.0129     13.7296     17.4298     64.5465
   895.8000      7.8884      2.4323      0.0442     13.1958     17.5792     64.0745
   895.9000      7.8884      2.4372      0.0492     12.8964     17.0899     67.1630
   896.0000      7.8886      2.4352      0.0344     13.0153     16.4508     72.0065
   896.1000      7.8886      2.4328      0.0148     13.1630     16.2947     76.9057
   896.2000      7.8886      2.4335      0.0360     13.1184     16.2821     78.9768
   896.3000      7.8926      2.4351      0.0321     13.0231     16.1346     74.3701
   896.4000      7.8926      2.4350      0.0302     13.0324     16.1543     66.5259
   896.5000      7.8908      2.4320      0.0545     13.2119     16.2435     62.8329
   896.6000      7.8908      2.4225      0.0687     13.7855     16.2259     64.2719
   896.7000      7.8908      2.4073      0.0391     14.7081     16.2690     68.9993
   896.8000      7.8874      2.3961      0.0135     15.3860     16.6037     74.8283
   896.9000      7.8874      2.3934      0.0424     15.5537     17.0811     76.5846
   897.0000      7.8866      2.3949      0.0280     15.4578     17.2839     72.9037
   897.1000      7.8866      2.3947      0.0719     15.4701     17.0514     70.9272
   897.2000      7.8866      2.3861      0.0377     15.9929     16.5843     73.3697
   897.3000      7.8862      2.3759      0.0331     16.6140     16.3724     76.1421
   897.4000      7.8862      2.3736      0.0231     16.7499     16.4145     79.9407
   897.5000      7.8859      2.3759      0.0427     16.6116     16.3399     86.7949
   897.6000      7.8859      2.3843     -0.0253     16.1030     16.2731     91.0267
   897.7000      7.8859      2.4053      0.0277     14.8281     16.4546     88.5768
   897.8000      7.8860      2.4312      0.0196     13.2586     16.7348     85.5459
   897.9000      7.8860      2.4470      0.0622     12.3019     16.6165     84.8509
   898.0000      7.8861      2.4419      0.0725     12.6101     16.0405     81.9723
   898.1000      7.8861      2.4216      0.0212     13.8425     15.7160     75.4422
   898.2000      7.8861      2.4080      0.0083     14.6695     16.1371     68.3865
   898.3000      7.8857      2.4126      0.0165     14.3882     16.9310     65.0657
   898.4000      7.8857      2.4255      0.0442     13.6083     17.2606     68.6513
   898.5000      7.8863      2.4349      0.0595     13.0337     16.8188     76.4984
   898.6000      7.8863      2.4397      0.0350     12.7467     16.1719     80.8229
   898.7000      7.8863      2.4423      0.0683     12.5868     15.9820     82.8740
   898.8000      7.8868      2.4403      0.0469     12.7111     16.1519     86.8781
   898.9000      7.8868      2.4288      0.0598     13.4035     16.2565     89.7724
   899.0000      7.8860      2.4107      0.0368     14.5056     16.2587     89.4828
   899.1000      7.8860      2.3998     -0.0072     15.1666     16.2724     86.7736
   899.2000      7.8860      2.4006      0.0467     15.1176     16.1984     81.6494
   899.3000      7.8853      2.3983      0.0628     15.2545     15.8374     77.0930
   899.4000      7.8853      2.3883      0.0104     15.8620     15.8321     77.3248
   899.5000      7.8853      2.3790      0.0322     16.4247     16.6693     79.9395
   899.6000      7.8853      2.3747     -0.0082     16.6849     17.6122     80.3058
   899.7000      7.8853      2.3734      0.0218     16.7641     17.8453     79.6559
   899.8000      7.8869      2.3728      0.0101     16.7980     17.1852     77.9317
   899.9000      7.8869      2.3787      0.0502     16.4402     16.4453     71.4816
   900.0000      7.8886      2.3899      0.0586     15.7648     16.5657     65.2442
   900.1000      7.8886      2.3950      0.0656     15.4522     17.3170     65.3360
   900.2000      7.8886      2.3919      0.0307     15.6412     18.0611     69.9222
   900.3000      7.8889      2.3856      0.0556     16.0266     18.3130     73.2411
   900.4000      7.8889      2.3794      0.0235     16.3987     18.0659     73.1807
   900.5000      7.8891      2.3778      0.0340     16.4978     17.7339     73.0715
   900.6000      7.8891      2.3811      0.0415     16.2959     17.5064     78.4336
   900.7000      7.8891      2.3850      0.0493     16.0583     17.7129     86.5623
   900.8000      7.8902      2.3857      0.0680     16.0167     18.4786     86.9547
   900.9000      7.8902      2.3865      0.0330     15.9669     19.0730     80.2141
   901.0000      7.8928      2.3979      0.0573     15.2780     18.9081     76.8741
   901.1000      7.8928      2.4190      0.0793     14.0015     18.5397     82.0039
   901.2000      7.8928      2.4325      0.1181     13.1818     18.7882     90.6306
   901.3000      7.8928      2.4234      0.1075     13.7345     19.4013     96.4148
   901.4000      7.8928      2.3944      0.0646     15.4937     19.5948     99.5231
   901.5000      7.8887      2.3654      0.0141     17.2489     19.3433     99.0883
   901.6000      7.8887      2.3512      0.0365     18.1083     19.0408     92.9000
   901.7000      7.8887      2.3442      0.0509     18.5328     18.6268     85.9135
   901.8000      7.8861      2.3379      0.0262     18.9153     18.3607     80.8900
   901.9000      7.8861      2.3371      0.0412     18.9666     18.8105     75.9566
   902.0000      7.8864      2.3356      0.0634     19.0544     19.5255     72.7608
   902.1000      7.8864      2.3266      0.0317     19.6023     19.5250     73.7502
   902.2000      7.8864      2.3223      0.0325     19.8585     18.8167     77.3594
   902.3000      7.8864      2.3312      0.0477     19.3215     18.4426     78.5493
