~Version Information
VERS.                      2.0: CWLS Log ASCII Standard - VERSION 2.0
WRAP.                       NO: One line per depth step
~Well Information Block
STRT.FT                 0.6000: 
STOP.FT              2735.2000: 
STEP.FT                 0.1000: 
NULL.                -999.2500: 
COMP.          Pioneer Natural Resources: COMPANY
WELL.              Cluck 21-25: WELL
FLD.           Purgatoire River: FIELD
LOC.           91' FNL & 1834' FWL--: LOCATION
PROV.                 Colorado: PROVINCE
CNTY.               Las Animas: COUNTRY
SRVC.                Patterson: SERVICE COMPANY
DATE.          Mon Jun 06 19:08:34 2005: LOG DATE
UWI.           05 071 08397 00: UNIQUE WELL ID
~Curve Information Block
DEPT.FT            0 000 00 00: Depth
SN.Ohm-m                      : IEL Short Normal
SP.mV                         : IEL Spontaneous Potential
DIR.Ohm-m                     : IEL Induction Resistivity
GR.GAPI                       : Gamma Ray
~Parameter Information Block
~A  Depth        SN          SP         DIR          GR     
# ...
  1997.2000     17.5538   -112.9858     17.9633    116.5776
  1997.3000     17.6325   -112.7709     18.0093    116.1057
  1997.4000     17.6325   -112.7709     18.0093    115.6977
  1997.5000     17.8752   -112.5102     18.1090    115.3287
  1997.6000     17.8752   -112.5102     18.1090    114.9945
  1997.7000     17.8752   -112.5102     18.1090    114.7077
  1997.8000     18.2575   -112.2319     18.2736    114.4916
  1997.9000     18.2575   -112.2319     18.2736    114.3708
  1998.0000     18.7226   -111.9630     18.5071    114.3635
  1998.1000     18.7226   -111.9630     18.5071    114.4702
  1998.2000     18.7226   -111.9630     18.5071    114.6664
  1998.3000     19.1941   -111.7207     18.7961    114.8987
  1998.4000     19.1941   -111.7207     18.7961    115.0874
  1998.5000     19.5944   -111.5059     19.1065    115.1331
  1998.6000     19.5944   -111.5059     19.1065    114.9263
  1998.7000     19.5944   -111.5059     19.1065    114.3664
  1998.8000     19.8599   -111.3019     19.3889    113.3737
  1998.9000     19.8599   -111.3019     19.3889    111.9072
  1999.0000     19.9551   -111.0777     19.5937    109.9706
  1999.1000     19.9551   -111.0777     19.5937    107.6195
  1999.2000     19.9551   -111.0777     19.5937    104.9558
  1999.3000     19.8896   -110.7946     19.6872    102.1208
  1999.4000     19.8896   -110.7946     19.6872     99.2796
  1999.5000     19.7236   -110.4157     19.6633     96.6054
  1999.6000     19.7236   -110.4157     19.6633     94.2618
  1999.7000     19.7236   -110.4157     19.6633     92.3872
  1999.8000     19.5411   -109.9124     19.5466     91.0838
  1999.9000     19.5411   -109.9124     19.5466     90.4105
  2000.0000     19.3978   -109.2704     19.3810     90.3789
  2000.1000     19.3978   -109.2704     19.3810     90.9594
  2000.2000     19.3978   -109.2704     19.3810     92.0847
  2000.3000     19.2863   -108.4910     19.2077     93.6621
  2000.4000     19.2863   -108.4910     19.2077     95.5904
  2000.5000     19.1467   -107.5894     19.0423     97.7684
  2000.6000     19.1467   -107.5894     19.0423    100.1101
  2000.7000     19.1467   -107.5894     19.0423    102.5487
  2000.8000     18.9073   -106.5909     18.8644    105.0404
  2000.9000     18.9073   -106.5909     18.8644    107.5581
  2001.0000     18.5206   -105.5257     18.6281    110.0852
  2001.1000     18.5206   -105.5257     18.6281    112.6065
  2001.2000     18.5206   -105.5257     18.6281    115.0945
  2001.3000     17.9776   -104.4246     18.2877    117.5118
  2001.4000     17.9776   -104.4246     18.2877    119.8062
  2001.5000     17.3097   -103.3162     17.8236    121.9194
  2001.6000     17.3097   -103.3162     17.8236    123.7938
  2001.7000     17.3097   -103.3162     17.8236    125.3870
  2001.8000     16.5823   -102.2257     17.2554    126.6800
  2001.9000     16.5823   -102.2257     17.2554    127.6849
  2002.0000     15.8800   -101.1764     16.6372    128.4474
  2002.1000     15.8800   -101.1764     16.6372    129.0442
  2002.2000     15.8800   -101.1764     16.6372    129.5726
  2002.3000     15.2821   -100.1906     16.0402    130.1368
  2002.4000     15.2821   -100.1906     16.0402    130.8300
  2002.5000     14.8402    -99.2912     15.5318    131.7179
  2002.6000     14.8402    -99.2912     15.5318    132.8230
  2002.7000     14.8402    -99.2912     15.5318    134.1187
  2002.8000     14.5666    -98.5018     15.1599    135.5268
  2002.9000     14.5666    -98.5018     15.1599    136.9282
  2003.0000     14.4379    -97.8449     14.9446    138.1761
  2003.1000     14.4379    -97.8449     14.9446    139.1167
  2003.2000     14.4379    -97.8449     14.9446    139.6070
  2003.3000     14.4064    -97.3391     14.8774    139.5359
  2003.4000     14.4064    -97.3391     14.8774    138.8288
  2003.5000     14.4210    -96.9957     14.9269    137.4611
  2003.6000     14.4210    -96.9957     14.9269    135.4550
  2003.7000     14.4210    -96.9957     14.9269    132.8752
  2003.8000     14.4541    -96.8155     15.0513    129.8216
  2003.9000     14.4541    -96.8155     15.0513    126.4221
  2004.0000     14.5189    -96.7874     15.2149    122.8157
  2004.1000     14.5189    -96.7874     15.2149    119.1457
  2004.2000     14.5189    -96.7874     15.2149    115.5437
  2004.3000     14.6625    -96.8890     15.4021    112.1215
  2004.4000     14.6625    -96.8890     15.4021    108.9614
  2004.5000     14.9348    -97.0889     15.6213    106.1112
  2004.6000     14.9348    -97.0889     15.6213    103.5871
  2004.7000     14.9348    -97.0889     15.6213    101.3789
  2004.8000     15.3520    -97.3506     15.8950     99.4564
  2004.9000     15.3520    -97.3506     15.8950     97.7804
  2005.0000     15.8796    -97.6375     16.2424     96.3102
  2005.1000     15.8796    -97.6375     16.2424     95.0090
  2005.2000     15.8796    -97.6375     16.2424     93.8495
  2005.3000     16.4438    -97.9172     16.6627     92.8124
  2005.4000     16.4438    -97.9172     16.6627     91.8818
  2005.5000     16.9637    -98.1645     17.1280     91.0456
  2005.6000     16.9637    -98.1645     17.1280     90.2913
  2005.7000     16.9637    -98.1645     17.1280     89.6072
  2005.8000     17.3828    -98.3634     17.5899     88.9817
  2005.9000     17.3828    -98.3634     17.5899     88.4086
  2006.0000     17.6812    -98.5072     17.9986     87.8895
  2006.1000     17.6812    -98.5072     17.9986     87.4309
  2006.2000     17.6812    -98.5072     17.9986     87.0474
  2006.3000     17.8713    -98.5972     18.3220     86.7547
  2006.4000     17.8713    -98.5972     18.3220     86.5653
  2006.5000     17.9858    -98.6412     18.5547     86.4819
  2006.6000     17.9858    -98.6412     18.5547     86.4938
  2006.7000     17.9858    -98.6412     18.5547     86.5761
  2006.8000     18.0638    -98.6517     18.7138     86.6937
  2006.9000     18.0638    -98.6517     18.7138     86.8055
  2007.0000     18.1364    -98.6443     18.8268     86.8730
  2007.1000     18.1364    -98.6443     18.8268     86.8678
  2007.2000     18.1364    -98.6443     18.8268     86.7742
  2007.3000     18.2157    -98.6361     18.9215     86.5903
  2007.4000     18.2157    -98.6361     18.9215     86.3241
  2007.5000     18.2952    -98.6449     19.0190     85.9916
  2007.6000     18.2952    -98.6449     19.0190     85.6064
  2007.7000     18.2952    -98.6449     19.0190     85.1772
  2007.8000     18.3620    -98.6874     19.1334     84.7078
  2007.9000     18.3620    -98.6874     19.1334     84.1933
  2008.0000     18.4104    -98.7786     19.2727     83.6249
  2008.1000     18.4104    -98.7786     19.2727     82.9960
  2008.2000     18.4104    -98.7786     19.2727     82.3026
  2008.3000     18.4463    -98.9303     19.4416     81.5476
  2008.4000     18.4463    -98.9303     19.4416     80.7415
  2008.5000     18.4817    -99.1504     19.6401     79.9019
  2008.6000     18.4817    -99.1504     19.6401     79.0523
  2008.7000     18.4817    -99.1504     19.6401     78.2197
  2008.8000     18.5285    -99.4416     19.8599     77.4309
  2008.9000     18.5285    -99.4416     19.8599     76.7136
  2009.0000     18.5945    -99.8022     20.0817     76.0904
  2009.1000     18.5945    -99.8022     20.0817     75.5784
  2009.2000     18.5945    -99.8022     20.0817     75.1871
  2009.3000     18.6824   -100.2263     20.2794     74.9150
  2009.4000     18.6824   -100.2263     20.2794     74.7533
  2009.5000     18.7880   -100.7057     20.4316     74.6855
  2009.6000     18.7880   -100.7057     20.4316     74.6876
  2009.7000     18.7880   -100.7057     20.4316     74.7337
  2009.8000     18.9030   -101.2308     20.5341     74.7980
  2009.9000     18.9030   -101.2308     20.5341     74.8571
  2010.0000     19.0186   -101.7928     20.6015     74.8911
  2010.1000     19.0186   -101.7928     20.6015     74.8870
  2010.2000     19.0186   -101.7928     20.6015     74.8383
  2010.3000     19.1294   -102.3841     20.6550     74.7435
  2010.4000     19.1294   -102.3841     20.6550     74.6104
  2010.5000     19.2315   -102.9988     20.7070     74.4500
