~Version Information
VERS.                      2.0: CWLS Log ASCII Standard - VERSION 2.0
WRAP.                       NO: One line per depth step
~Well Information Block
STRT.FT               481.5000: 
STOP.FT              2033.5000: 
STEP.FT                 0.2500: 
NULL.                -999.2500: 
COMP.          Petrogulf Corporation: COMPANY
WELL.            Montoya 7-12R: WELL
FLD.           Purgatorie River: FIELD
LOC.           1769' FNL & 658' FWL: LOCATION
CNTY.               Las Animas: COUNTY
SRVC.                         : SERVICE COMPANY
DATE.          Sat Nov 20 02:31:05 2004: LOG DATE
UWI.           05 071 08240 00: UNIQUE WELL ID
STAT.                 Colorado: STATE
~Curve Information Block
DEPT.FT            0 000 00 00: Depth
SP.mV                         : DIL Spontaneous Potential
RILD.Ohm-m                    : DIL Deep Resistivity
RILM.Ohm-m                    : DIL Medium Resistivity
RLL3.Ohm-m                    : DIL Shallow Resistivity
GR.GAPI                       : Gamma Ray
~Parameter Information Block
~A  Depth        SP         RILD        RILM        RLL3         GR     
# ...
  1013.5000   -177.0981     16.0394     16.3325     19.4969    112.5577
  1013.7500   -176.4277     15.7305     16.1164     20.4760    109.8965
  1014.0000   -175.7493     15.5116     15.9675     21.4673    106.2871
  1014.2500   -175.0781     15.3755     15.8671     22.2398    103.8155
  1014.5000   -174.3938     15.3119     15.8003     22.6504     99.8596
  1014.7500   -173.6358     15.3062     15.7554     22.6543     97.7101
  1015.0000   -172.7249     15.3402     15.7230     22.2967     96.8358
  1015.2500   -171.5955     15.3935     15.6952     21.6858     98.1252
  1015.5000   -170.2389     15.4457     15.6653     20.9513    101.6561
  1015.7500   -168.7243     15.4784     15.6274     20.2064    103.9259
  1016.0000   -167.1963     15.4787     15.5777     19.5250    105.9690
  1016.2500   -165.8395     15.4409     15.5141     18.9401    106.5128
  1016.5000   -164.8283     15.3669     15.4365     18.4567    107.2595
  1016.7500   -164.2782     15.2649     15.3471     18.0671    108.3681
  1017.0000   -164.2091     15.1475     15.2499     17.7630    110.9850
  1017.2500   -164.5477     15.0283     15.1494     17.5374    112.6551
  1017.5000   -165.1488     14.9201     15.0517     17.3817    113.4659
  1017.7500   -165.8372     14.8328     14.9628     17.2835    112.4498
  1018.0000   -166.4442     14.7725     14.8903     17.2277    109.3645
  1018.2500   -166.8441     14.7422     14.8425     17.2022    107.2799
  1018.5000   -166.9711     14.7424     14.8289     17.2060    105.5013
  1018.7500   -166.8284     14.7708     14.8593     17.2564    105.3776
  1019.0000   -166.4822     14.8243     14.9431     17.3951    106.1836
  1019.2500   -166.0498     14.8981     15.0876     17.6875    106.9015
  1019.5000   -165.6751     14.9864     15.2961     18.2152    107.5872
  1019.7500   -165.4985     15.0830     15.5666     19.0567    107.4979
  1020.0000   -165.6282     15.1812     15.8899     20.2582    106.3024
  1020.2500   -166.1160     15.2744     16.2488     21.8011    104.8997
  1020.5000   -166.9499     15.3574     16.6182     23.5787    102.3847
  1020.7500   -168.0581     15.4262     16.9661     25.3974    100.6642
  1021.0000   -169.3289     15.4786     17.2574     27.0067     98.0230
  1021.2500   -170.6352     15.5129     17.4585     28.1554     96.2130
  1021.5000   -171.8528     15.5273     17.5435     28.6539     94.0337
  1021.7500   -172.8843     15.5193     17.4981     28.4221     93.6412
  1022.0000   -173.6681     15.4846     17.3238     27.5047     95.5248
  1022.2500   -174.1866     15.4192     17.0362     26.0501     98.2964
  1022.5000   -174.4716     15.3203     16.6625     24.2649    103.5238
  1022.7500   -174.5883     15.1880     16.2353     22.3619    106.8684
  1023.0000   -174.6233     15.0277     15.7878     20.5186    110.5323
  1023.2500   -174.6532     14.8489     15.3496     18.8583    111.7792
  1023.5000   -174.7236     14.6649     14.9440     17.4512    112.2579
  1023.7500   -174.8351     14.4904     14.5875     16.3292    112.3226
  1024.0000   -174.9444     14.3386     14.2909     15.5022    113.1340
  1024.2500   -174.9885     14.2197     14.0600     14.9718    114.3305
  1024.5000   -174.9032     14.1392     13.8971     14.7388    116.5793
  1024.7500   -174.6438     14.0976     13.8022     14.8051    117.8377
  1025.0000   -174.1898     14.0907     13.7733     15.1752    118.5369
  1025.2500   -173.5465     14.1104     13.8063     15.8576    118.0045
  1025.5000   -172.7301     14.1468     13.8956     16.8634    115.9966
  1025.7500   -171.7655     14.1900     14.0329     18.1955    114.1776
  1026.0000   -170.6895     14.2314     14.2073     19.8288    110.8931
  1026.2500   -169.5573     14.2655     14.4053     21.6816    108.0832
  1026.5000   -168.4456     14.2899     14.6109     23.5967    102.4123
  1026.7500   -167.4459     14.3046     14.8071     25.3442     97.7085
  1027.0000   -166.6443     14.3104     14.9776     26.6607     90.4538
  1027.2500   -166.0969     14.3083     15.1087     27.3157     86.6749
  1027.5000   -165.8078     14.2983     15.1911     27.1830     84.3297
  1027.7500   -165.7167     14.2789     15.2205     26.2845     85.1360
  1028.0000   -165.7136     14.2482     15.1981     24.7869     88.6247
  1028.2500   -165.6646     14.2048     15.1289     22.9513     91.4997
  1028.5000   -165.4562     14.1484     15.0209     21.0589     95.7669
  1028.7500   -165.0336     14.0814     14.8835     19.3436     98.6069
  1029.0000   -164.4255     14.0086     14.7279     17.9542    103.1862
  1029.2500   -163.7418     13.9367     14.5663     16.9498    106.5620
  1029.5000   -163.1477     13.8741     14.4129     16.3208    112.0522
  1029.7500   -162.8183     13.8289     14.2830     16.0165    115.7541
  1030.0000   -162.8905     13.8088     14.1931     15.9703    120.4284
  1030.2500   -163.4267     13.8194     14.1596     16.1161    122.2406
  1030.5000   -164.4042     13.8639     14.1972     16.3975    122.1959
  1030.7500   -165.7242     13.9435     14.3176     16.7743    120.4170
  1031.0000   -167.2457     14.0571     14.5281     17.2269    116.1395
  1031.2500   -168.8133     14.2015     14.8299     17.7568    112.9512
  1031.5000   -170.2902     14.3726     15.2169     18.3786    108.5451
  1031.7500   -171.5725     14.5647     15.6750     19.1049    106.0109
  1032.0000   -172.5905     14.7717     16.1815     19.9256    102.5779
  1032.2500   -173.3129     14.9868     16.7068     20.7923    100.3356
  1032.5000   -173.7315     15.2029     17.2171     21.6155     97.0904
  1032.7500   -173.8629     15.4129     17.6803     22.2797     95.3477
  1033.0000   -173.7345     15.6102     18.0709     22.6751     94.1945
  1033.2500   -173.3809     15.7889     18.3742     22.7317     94.7404
  1033.5000   -172.8363     15.9443     18.5881     22.4453     97.4727
  1033.7500   -172.1404     16.0734     18.7197     21.8816    100.1471
  1034.0000   -171.3394     16.1740     18.7818     21.1588    104.5707
  1034.2500   -170.4979     16.2454     18.7877     20.4134    107.5130
  1034.5000   -169.7033     16.2872     18.7472     19.7648    111.8184
  1034.7500   -169.0600     16.2987     18.6652     19.2892    114.5746
  1035.0000   -168.6769     16.2794     18.5420     19.0101    118.3097
  1035.2500   -168.6399     16.2286     18.3751     18.9044    120.3317
  1035.5000   -168.9888     16.1456     18.1624     18.9164    122.2557
  1035.7500   -169.7002     16.0318     17.9045     18.9742    122.6071
  1036.0000   -170.6929     15.8907     17.6071     19.0050    121.6967
  1036.2500   -171.8422     15.7291     17.2814     18.9484    120.2579
  1036.5000   -173.0149     15.5564     16.9435     18.7671    117.1887
  1036.7500   -174.0978     15.3843     16.6121     18.4556    114.8453
  1037.0000   -175.0193     15.2245     16.3059     18.0416    111.7559
  1037.2500   -175.7561     15.0875     16.0408     17.5804    110.5309
  1037.5000   -176.3271     14.9804     15.8280     17.1421    110.2560
  1037.7500   -176.7707     14.9066     15.6724     16.7961    110.6644
  1038.0000   -177.1295     14.8652     15.5726     16.5989    110.6240
  1038.2500   -177.4305     14.8518     15.5210     16.5856    109.4020
  1038.5000   -177.6783     14.8595     15.5046     16.7684    105.7126
  1038.7500   -177.8529     14.8803     15.5077     17.1350    102.6841
  1039.0000   -177.9177     14.9061     15.5140     17.6487     98.5571
  1039.2500   -177.8271     14.9298     15.5099     18.2474     96.3179
  1039.5000   -177.5420     14.9457     15.4866     18.8458     93.2746
  1039.7500   -177.0346     14.9494     15.4421     19.3455     91.2318
  1040.0000   -176.2988     14.9372     15.3798     19.6541     88.7288
  1040.2500   -175.3538     14.9064     15.3075     19.7106     88.2052
  1040.5000   -174.2378     14.8551     15.2342     19.5060     89.9056
  1040.7500   -173.0169     14.7825     15.1675     19.0908     92.2815
  1041.0000   -171.7766     14.6892     15.1119     18.5606     96.0448
  1041.2500   -170.6158     14.5782     15.0685     18.0256     97.9789
