~Version Information
VERS.                      2.0: CWLS Log ASCII Standard - VERSION 2.0
WRAP.                       NO: One line per depth step
~Well Information Block
STRT.FT               819.0000: 
STOP.FT              2497.0000: 
STEP.FT                 0.2500: 
NULL.                -999.2500: 
COMP.          Petrogulf Corporation: COMPANY
WELL.             State 16-21V: WELL
FLD.           Purgatorie River: FIELD
LOC.           1738' FWL & 332' FNL: LOCATION
PROV.                 Colorado: PROVINCE
CNTY.               Las Animas: COUNTRY
SRVC.          Patterson Wireline: SERVICE COMPANY
DATE.          Sun Jul 13 13:45:48 2003: LOG DATE
UWI.              05-071-07884: UNIQUE WELL ID 05 071 08829 00
~Curve Information Block
DEPT.FT            0 000 00 00: Depth
DCAL.in                       : CDL Caliper
RHOB.g/cc                     : CDL Bulk Density
RHOC.g/cc                     : CDL Density Correction
DPOR.pu                       : CDL Density Porosity
GR.GAPI                       : Gamma Ray
NPOR.pu                       : Neutron Porosity
~Parameter Information Block
~A  Depth       DCAL        RHOB        RHOC        DPOR         GR         NPOR    
# ...
  1083.0000      8.3231      2.5919      0.0221      3.5229    103.7215     22.7722
  1083.2500      8.2993      2.5765      0.0224      4.4572    100.7991     22.6178
  1083.5000      8.2731      2.5524      0.0247      5.9139     95.5490     22.0284
  1083.7500      8.2499      2.5355      0.0268      6.9379     91.6125     21.5549
  1084.0000      8.2313      2.5078      0.0286      8.6182     86.0368     21.1487
  1084.2500      8.2216      2.4871      0.0280      9.8709     83.7589     21.3005
  1084.5000      8.2198      2.4524      0.0255     11.9767     84.6038     22.3254
  1084.7500      8.2210      2.4267      0.0248     13.5311     88.2616     23.4695
  1085.0000      8.2245      2.3843      0.0277     16.1002     96.6341     25.5046
  1085.2500      8.2320      2.3529      0.0313     18.0044    102.5830     26.8076
  1085.5000      8.2479      2.2998      0.0333     21.2249    110.2183     28.3916
  1085.7500      8.2706      2.2603      0.0299     23.6195    114.1212     29.1927
  1086.0000      8.2957      2.1976      0.0215     27.4175    118.1828     30.1764
  1086.2500      8.3198      2.1571      0.0191     29.8718    119.6821     30.7773
  1086.5000      8.3382      2.1065      0.0255     32.9400    120.1338     31.6211
  1086.7500      8.3532      2.0843      0.0344     34.2850    119.4245     32.0998
  1087.0000      8.3621      2.0746      0.0480     34.8707    117.6700     32.6100
  1087.2500      8.3667      2.0858      0.0561     34.1948    116.8477     32.7921
  1087.5000      8.3669      2.1283      0.0679     31.6190    117.6849     32.8422
  1087.7500      8.3639      2.1711      0.0749     29.0227    120.0505     32.7443
  1088.0000      8.3687      2.2491      0.0783     24.2956    125.3475     32.3986
  1088.2500      8.3841      2.3044      0.0731     20.9429    128.7265     32.0024
  1088.5000      8.4068      2.3826      0.0561     16.2050    131.5558     31.0725
  1088.7500      8.4109      2.4270      0.0434     13.5130    131.5964     30.1821
  1089.0000      8.3876      2.4775      0.0293     10.4520    129.8340     28.4302
  1089.2500      8.3677      2.4996      0.0238      9.1128    128.4965     27.0880
  1089.5000      8.3606      2.5167      0.0190      8.0762    127.8448     25.2527
  1089.7500      8.3578      2.5196      0.0169      7.9029    128.6982     24.4845
  1090.0000      8.3503      2.5166      0.0171      8.0838    131.7245     24.4335
  1090.2500      8.3228      2.5135      0.0223      8.2732    134.6837     25.1538
  1090.5000      8.2760      2.5125      0.0419      8.3329    140.1225     26.9621
  1090.7500      8.2390      2.5160      0.0610      8.1234    143.9104     28.2598
  1091.0000      8.2244      2.5270      0.0872      7.4519    148.4959     29.7350
  1091.2500      8.2202      2.5370      0.0958      6.8463    150.2036     30.2168
  1091.5000      8.2185      2.5537      0.0914      5.8335    150.6387     30.1735
  1091.7500      8.2190      2.5656      0.0806      5.1168    149.8390     29.7602
  1092.0000      8.2199      2.5847      0.0637      3.9586    147.3296     28.9082
  1092.2500      8.2198      2.5984      0.0561      3.1296    144.5676     28.3695
  1092.5000      8.2188      2.6186      0.0498      1.9035    138.2157     27.7202
  1092.7500      8.2188      2.6298      0.0456      1.2220    132.6098     27.3388
  1093.0000      8.2191      2.6395      0.0343      0.6390    123.3766     26.7050
  1093.2500      8.2190      2.6397      0.0231      0.6269    117.5514     26.2157
  1093.5000      8.2207      2.6311      0.0057      1.1479    110.2262     25.4591
  1093.7500      8.2269      2.6212     -0.0020      1.7481    106.5102     25.0169
  1094.0000      8.2374      2.6042     -0.0020      2.7771    102.9563     24.5681
  1094.2500      8.2408      2.5936      0.0056      3.4200    101.9419     24.4765
  1094.5000      8.2314      2.5808      0.0242      4.1913    101.9535     24.7735
  1094.7500      8.2231      2.5748      0.0386      4.5575    102.5543     25.3083
  1095.0000      8.2216      2.5689      0.0600      4.9152    103.9477     26.5276
  1095.2500      8.2223      2.5665      0.0733      5.0601    105.2272     27.4450
  1095.5000      8.2235      2.5643      0.0916      5.1951    107.7908     28.6256
  1095.7500      8.2267      2.5634      0.1029      5.2495    109.8916     29.1688
  1096.0000      8.2377      2.5631      0.1190      5.2657    113.3444     29.6539
  1096.2500      8.2616      2.5642      0.1296      5.2014    115.5954     29.8490
  1096.5000      8.2984      2.5686      0.1442      4.9308    118.5665     30.0673
  1096.7500      8.3322      2.5737      0.1505      4.6245    120.3059     30.1615
  1097.0000      8.3405      2.5833      0.1487      4.0439    122.8714     30.1228
  1097.2500      8.3372      2.5895      0.1377      3.6641    124.6324     29.9357
  1097.5000      8.3210      2.5955      0.1102      3.3013    127.1178     29.5011
  1097.7500      8.2852      2.5954      0.0901      3.3081    128.5402     29.2177
  1098.0000      8.2646      2.5870      0.0657      3.8200    130.4474     28.9254
  1098.2500      8.2682      2.5756      0.0545      4.5063    131.6791     28.8278
  1098.5000      8.2819      2.5524      0.0430      5.9163    133.1120     28.7951
  1098.7500      8.3038      2.5355      0.0391      6.9385    133.3565     28.8236
  1099.0000      8.3264      2.5145      0.0438      8.2122    132.4978     28.9086
  1099.2500      8.3369      2.5067      0.0563      8.6832    131.5605     28.9967
  1099.5000      8.3502      2.5075      0.0869      8.6376    130.4451     29.1892
  1099.7500      8.3653      2.5159      0.1090      8.1293    129.8793     29.3198
  1100.0000      8.3689      2.5365      0.1317      6.8759    128.3233     29.3457
  1100.2500      8.3698      2.5528      0.1343      5.8918    126.0049     29.1259
  1100.5000      8.3782      2.5764      0.1176      4.4578    119.4621     28.2863
  1100.7500      8.3585      2.5903      0.0965      3.6196    112.8678     27.3601
  1101.0000      8.2824      2.6077      0.0611      2.5648    100.5112     25.5153
  1101.2500      8.2202      2.6178      0.0410      1.9515     91.6925     24.1246
  1101.5000      8.1986      2.6329      0.0220      1.0376     79.2919     22.1478
  1101.7500      8.1850      2.6440      0.0175      0.3643     72.0309     21.0901
  1102.0000      8.1746      2.6627      0.0200     -0.7716     62.7579     20.0324
  1102.2500      8.1703      2.6756      0.0241     -1.5535     57.7363     19.6368
  1102.5000      8.1676      2.6920      0.0267     -2.5461     52.2826     19.3298
  1102.7500      8.1630      2.6986      0.0237     -2.9438     50.1407     19.2157
  1103.0000      8.1522      2.6993      0.0136     -2.9902     49.0521     19.0259
  1103.2500      8.1365      2.6939      0.0069     -2.6621     49.5313     18.7966
  1103.5000      8.1269      2.6798      0.0025     -1.8040     51.3937     18.2317
  1103.7500      8.1259      2.6687      0.0043     -1.1349     52.8729     17.7830
  1104.0000      8.1303      2.6535      0.0120     -0.2097     54.6843     17.2422
  1104.2500      8.1419      2.6454      0.0183      0.2767     55.3915     17.0330
  1104.5000      8.1620      2.6372      0.0250      0.7735     55.4989     16.8083
  1104.7500      8.1872      2.6341      0.0268      0.9641     54.8172     16.5893
  1105.0000      8.2116      2.6321      0.0269      1.0874     52.7070     16.0995
  1105.2500      8.2287      2.6319      0.0270      1.0950     50.9667     15.7454
  1105.5000      8.2419      2.6324      0.0280      1.0655     49.0884     15.3503
  1105.7500      8.2563      2.6324      0.0286      1.0680     48.9666     15.2296
  1106.0000      8.2600      2.6304      0.0276      1.1868     50.6720     15.2308
  1106.2500      8.2435      2.6274      0.0255      1.3720     52.5713     15.2963
  1106.5000      8.2242      2.6203      0.0209      1.8015     55.3035     15.4134
  1106.7500      8.2045      2.6145      0.0180      2.1501     56.5210     15.4884
