~Version Information
VERS.                      2.0: CWLS Log ASCII Standard - VERSION 2.0
WRAP.                       NO: One line per depth step
~Well Information Block
STRT.FT               860.0000: 
STOP.FT              1907.0000: 
STEP.FT                 0.1000: 
NULL.                -999.2500: 
COMP.          Pioneer Natural Resources: COMPANY
WELL.          Victory 12-14 Tr: WELL
FLD.           Purgatoire River: FIELD
LOC.           2522' FNL & 276' FWL: LOCATION
PROV.                 Colorado: PROVINCE
CNTY.               Las Animas: COUNTRY
SRVC.                Patterson: SERVICE COMPANY
DATE.          Mon Jul 18 06:52:40 2005: LOG DATE
UWI.           05 071 08433 00: UNIQUE WELL ID
~Curve Information Block
DEPT.FT            0 000 00 00: Depth
DCAL.in                       : CDL Caliper
RHOB.g/cc                     : CDL Bulk Density
RHOC.g/cc                     : CDL Density Correction
DPOR.pu                       : CDL Density Porosity
GR.GAPI                       : Gamma Ray
NPOR.pu                       : Neutron Porosity
~Parameter Information Block
~A  Depth       DCAL        RHOB        RHOC        DPOR         GR         NPOR    
# ...
  1551.2000      8.1128      2.5683      0.1610      4.9493    130.0171     22.5525
  1551.3000      8.1472      2.5540      0.1522      5.8179    125.5608     22.0287
  1551.4000      8.1472      2.5131      0.1491      8.2971    126.1247     21.3227
  1551.5000      8.1457      2.4536      0.1028     11.9009    128.6221     20.7441
  1551.6000      8.1457      2.3980      0.0119     15.2717    127.9328     20.3938
  1551.7000      8.1457      2.3643      0.0799     17.3131    126.1553     20.2037
  1551.8000      8.0864      2.3532      0.0570     17.9872    126.8983     20.1839
  1551.9000      8.0864      2.3601      0.0944     17.5718    129.7784     20.1515
  1552.0000      8.0933      2.3805      0.1268     16.3317    132.8814     19.8726
  1552.1000      8.0933      2.4146      0.1409     14.2691    135.9660     19.5244
  1552.2000      8.0933      2.4608      0.2575     11.4648    138.1910     19.3476
  1552.3000      8.1737      2.5101      0.3077      8.4769    138.7115     19.2601
  1552.4000      8.1737      2.5515      0.3073      5.9727    139.9775     19.2434
  1552.5000      8.2840      2.5602      0.3652      5.4442    143.6540     19.3802
  1552.6000      8.2840      2.5187      0.3127      7.9571    147.4173     19.6478
  1552.7000      8.2840      2.4540      0.2694     11.8783    148.7170     19.8927
  1552.8000      8.3355      2.4082      0.2647     14.6535    148.2860     19.9509
  1552.9000      8.3355      2.4004      0.2225     15.1282    146.6131     19.9893
  1553.0000      8.3216      2.4241      0.2316     13.6932    143.1557     20.3021
  1553.1000      8.3216      2.4540      0.2160     11.8785    143.4905     20.7177
  1553.2000      8.3216      2.4699      0.1901     10.9156    149.2561     20.7310
  1553.3000      8.3282      2.4665      0.2369     11.1226    151.1584     20.4973
  1553.4000      8.3282      2.4397      0.2763     12.7433    147.5502     20.5838
  1553.5000      8.3358      2.3958      0.2610     15.4050    148.7738     20.8294
  1553.6000      8.3358      2.3510      0.3483     18.1192    158.8292     20.6748
  1553.7000      8.3358      2.3133      0.2267     20.4076    166.9225     20.1665
  1553.8000      8.3317      2.2812      0.1892     22.3537    163.9336     19.7608
  1553.9000      8.3317      2.2527      0.1653     24.0777    154.9254     19.6590
  1554.0000      8.3406      2.2432      0.1324     24.6561    147.1280     19.6429
  1554.1000      8.3406      2.2798      0.2226     22.4373    144.0059     19.2605
  1554.2000      8.3406      2.3796      0.2844     16.3879    147.1291     18.4077
  1554.3000      8.4319      2.5290      0.4506      7.3345    154.3975     17.7335
  1554.4000      8.4319      2.6734      0.5832     -1.4187    160.3346     17.7326
  1554.5000      8.4517      2.7625      0.5481     -6.8153    161.8659     18.2026
  1554.6000      8.4517      2.7795      0.5696     -7.8483    157.5345     18.8559
  1554.7000      8.4517      2.7291      0.4515     -4.7911    147.3101     19.3491
  1554.8000      8.4981      2.6492      0.3003      0.0468    139.3834     19.4621
  1554.9000      8.4981      2.5881      0.2159      3.7531    139.7929     19.6762
  1555.0000      8.4748      2.5509      0.2093      6.0063    143.5767     20.3948
  1555.1000      8.4748      2.5139      0.1584      8.2494    143.3437     21.1021
  1555.2000      8.4748      2.4745      0.0863     10.6378    138.5614     21.2047
  1555.3000      8.3514      2.4454      0.0820     12.3985    136.5871     20.7679
  1555.4000      8.3514      2.4260      0.0476     13.5756    139.4541     20.2345
  1555.5000      8.2260      2.4104      0.0307     14.5186    139.8069     20.0528
  1555.6000      8.2260      2.4025      0.0194     15.0004    134.9437     20.1484
  1555.7000      8.2260      2.4044      0.0764     14.8864    130.1229     20.0147
  1555.8000      8.2192      2.4039      0.1345     14.9177    130.2715     19.4757
  1555.9000      8.2192      2.3959      0.1060     15.4030    134.9816     18.6761
  1556.0000      8.2031      2.3933      0.1632     15.5597    141.0341     17.9315
  1556.1000      8.2031      2.3936      0.2035     15.5420    144.3993     17.7298
  1556.2000      8.2031      2.3811      0.2049     16.2994    140.8990     18.0811
  1556.3000      8.2279      2.3695      0.1474     16.9974    133.7050     18.5116
  1556.4000      8.2279      2.3919      0.1447     15.6438    131.5705     18.7238
  1556.5000      8.3010      2.4457      0.2353     12.3833    135.5184     18.7294
  1556.6000      8.3010      2.4958      0.2371      9.3436    138.2805     18.7634
  1556.7000      8.3010      2.5252      0.2055      7.5640    136.4934     18.9180
  1556.8000      8.3606      2.5342      0.2583      7.0161    134.8310     18.9030
  1556.9000      8.3606      2.5174      0.2394      8.0380    137.2951     18.7557
  1557.0000      8.4114      2.4855      0.2123      9.9675    140.4546     19.0267
  1557.1000      8.4114      2.4732      0.1652     10.7143    139.6742     19.9260
  1557.2000      8.4114      2.4846      0.2656     10.0258    136.1307     21.0865
  1557.3000      8.3132      2.4863      0.2038      9.9216    133.0634     22.0339
  1557.4000      8.3132      2.4849      0.0761     10.0075    130.8935     22.6033
  1557.5000      8.3662      2.5202      0.0591      7.8663    129.5392     22.9090
  1557.6000      8.3662      2.5948      0.1490      3.3466    129.3266     23.1996
  1557.7000      8.3662      2.6769      0.3218     -1.6315    130.6385     23.5394
  1557.8000      8.3878      2.7346      0.3888     -5.1293    134.8846     23.8480
  1557.9000      8.3878      2.7512      0.3782     -6.1349    139.2475     24.1915
  1558.0000      8.2060      2.7260      0.3349     -4.6033    136.9480     24.7049
  1558.1000      8.2060      2.6728      0.2409     -1.3803    128.3392     25.2922
  1558.2000      8.2060      2.6104      0.1254      2.4014    121.3946     25.4496
  1558.3000      8.1819      2.5429      0.1294      6.4918    121.3642     24.8719
  1558.4000      8.1819      2.4774      0.0884     10.4635    127.6411     23.9146
  1558.5000      8.1536      2.4392      0.0445     12.7736    136.4326     23.0641
  1558.6000      8.1536      2.4364      0.1257     12.9483    142.0606     22.4551
  1558.7000      8.1536      2.4451      0.1301     12.4183    143.9141     22.1929
  1558.8000      8.1168      2.4516      0.1043     12.0263    146.6886     22.4851
  1558.9000      8.1168      2.4674      0.1125     11.0685    148.5782     22.9208
  1559.0000      8.0813      2.4977      0.1772      9.2294    146.2166     22.8380
  1559.1000      8.0813      2.5256      0.1945      7.5396    144.0388     22.3500
  1559.2000      8.0813      2.5373      0.1696      6.8288    146.2869     21.9751
  1559.3000      8.0550      2.5375      0.2043      6.8161    151.4815     21.7474
  1559.4000      8.0550      2.5332      0.2088      7.0761    155.4929     21.5820
  1559.5000      8.0459      2.5220      0.2107      7.7554    154.6140     21.6064
  1559.6000      8.0459      2.5012      0.2249      9.0155    148.9665     21.5485
  1559.7000      8.0459      2.4799      0.1803     10.3066    141.6285     21.1104
  1559.8000      8.0676      2.4713      0.1321     10.8282    135.4046     20.5856
  1559.9000      8.0676      2.4806      0.1117     10.2678    134.7868     20.4070
  1560.0000      8.0721      2.5106      0.1465      8.4462    138.3533     20.4950
  1560.1000      8.0721      2.5576      0.1601      5.5976    138.2927     20.4295
  1560.2000      8.0721      2.6012      0.1780      2.9590    133.6357     20.0785
  1560.3000      8.0943      2.6198      0.2993      1.8287    129.8428     19.6816
  1560.4000      8.0943      2.6100      0.2787      2.4259    130.8917     19.5213
  1560.5000      8.1515      2.5832      0.2923      4.0499    132.4229     19.4528
  1560.6000      8.1515      2.5406      0.2760      6.6328    128.3017     19.0330
  1560.7000      8.1515      2.4819      0.0949     10.1902    122.5898     18.4064
