~Version Information
 VERS.                                  2.0 : CWLS LAS VERSION
 WRAP.                                   NO : WRAPING MODE
 SWARE .                 MController 2.5.0J : SOFTWARE VERSION
~Well Information
 WELL.                          Tonto 42-23 : WELL
 COMP.    Pioneer Natural Resources USA Inc : COMPANY
 FLD.                      Purgatoire River : FIELD
 LOC.                SE/NE Sec 23 T32S R66W : LOCATION
 DATE.                              4/16/05 : DATE(S) LOGGED
 SRVC.       Blanco Geological Services LLC : SERVICE COMPANY
 STAT.                                   CO : STATE
 CNTY.                           Las Animas : COUNTY
 CTRY.                                  USA : COUNTRY
 API.                       05-071-08335-00 : API NUMBER
 STRT.FT                             892.00 : START DEPTH
 STOP.FT                            2270.00 : STOP DEPTH
 STEP.FT                               1.00 : DEPTH INCREMENT
 NULL.                                -9999 : NULL VALUE
~Curve information
 DEPTH.FT                                   :
 ROP.MIN/FT                                 :
 GAS.UNITS                                  :
~ASCII Log data
# ...
      2092.0         0.20         33.2 
      2093.0         0.20         36.2 
      2094.0         0.20         41.6 
      2095.0         0.37         61.9 
      2096.0         2.08        345.6 
      2097.0         0.30        338.0 
      2098.0         0.40        288.7 
      2099.0         0.23        223.9 
      2100.0         0.40        189.9 
      2101.0         0.23        147.8 
      2102.0         0.33        133.0 
      2103.0         0.30        113.1 
      2104.0         0.30         96.1 
      2105.0         0.33         84.1 
      2106.0         0.25         77.2 
      2107.0         0.27         73.4 
      2108.0         0.27         71.5 
      2109.0         0.27         70.5 
      2110.0         0.23         84.5 
      2111.0         0.20        117.4 
      2112.0         0.23        161.5 
      2113.0         0.20        182.8 
      2114.0         0.23        184.9 
      2115.0         0.20        177.7 
      2116.0         0.17        164.4 
      2117.0         0.27        157.1 
      2118.0         0.07        152.9 
      2119.0         0.23        153.9 
      2120.0         0.13        155.0 
      2121.0         0.25        160.2 
      2122.0         0.33        183.2 
      2123.0         0.17        205.7 
      2124.0         0.37        274.2 
      2125.0         0.33        363.3 
      2126.0         2.22       2165.2 
      2127.0         0.43       1518.5 
      2128.0         0.37       1343.8 
      2129.0         0.30       1249.9 
      2130.0         0.27       1187.4 
      2131.0         0.27       1147.5 
      2132.0         0.23       1113.8 
      2133.0         0.30       1092.2 
      2134.0         0.50       1073.9 
      2135.0         0.33       1071.2 
      2136.0         0.32       1069.0 
      2137.0         0.33       1062.4 
      2138.0         0.27       1061.8 
      2139.0         0.27       1115.1 
      2140.0         0.37       1153.0 
      2141.0         0.27       1158.3 
      2142.0         0.17       1158.3 
      2143.0         0.17       1154.0 
      2144.0         0.13       1149.8 
      2145.0         0.23       1146.5 
      2146.0         0.27       1138.0 
      2147.0         0.23       1131.1 
      2148.0         0.20       1121.6 
      2149.0         0.23       1080.4 
      2150.0         0.25        998.6 
      2151.0         0.23        944.3 
      2152.0         0.23        937.1 
      2153.0         0.23        944.0 
      2154.0         0.20        963.6 
      2155.0         0.37       1035.9 
      2156.0         4.65       2132.5 
      2157.0         0.43       1121.3 
      2158.0         0.32       1104.9 
      2159.0         0.33       1089.2 
      2160.0         0.33       1084.7 
      2161.0         0.33       1081.7 
      2162.0         0.27       1074.5 
      2163.0         0.27       1068.3 
      2164.0         0.33       1059.5 
      2165.0         0.30       1052.9 
      2166.0         0.30       1050.0 
      2167.0         0.27       1043.1 
      2168.0         0.27       1038.9 
      2169.0         0.25       1036.6 
      2170.0         0.23       1032.0 
      2171.0         0.27       1029.0 
      2172.0         0.23       1026.7 
      2173.0         0.23       1025.4 
      2174.0         0.27       1022.8 
      2175.0         0.23       1019.9 
      2176.0         0.23       1017.3 
      2177.0         0.27       1009.4 
      2178.0         0.27        962.6 
      2179.0         0.23        902.1 
      2180.0         0.23        878.6 
      2181.0         0.27        877.6 
      2182.0         0.28        897.9 
      2183.0         0.40        962.0 
      2184.0         0.43       1077.1 
      2185.0         0.47       1264.9 
      2186.0         3.15       1812.9 
      2187.0         0.60       1128.8 
      2188.0         0.40       1010.4 
      2189.0         0.43        994.7 
      2190.0         0.98       1033.0 
      2191.0         0.63       1030.0 
      2192.0         0.40       1013.3 
      2193.0         0.40       1002.9 
      2194.0         0.43        996.3 
      2195.0         0.43       1002.5 
      2196.0         0.40       1003.5 
      2197.0         0.42        999.9 
      2198.0         0.33        994.4 
      2199.0         0.33        989.5 
      2200.0         0.30        988.8 
      2201.0         0.23        987.2 
      2202.0         0.23        985.9 
      2203.0         0.23        981.9 
      2204.0         0.23        977.3 
      2205.0         0.23        975.7 
      2206.0         0.23        971.5 
      2207.0         0.23        963.6 
      2208.0         0.23        953.8 
      2209.0         0.23        944.0 
      2210.0         0.22        928.3 
      2211.0         0.27        903.7 
      2212.0         0.33        870.7 
      2213.0         0.30        856.0 
      2214.0         0.43        877.9 
      2215.0         0.23        901.5 
      2216.0         5.60       2036.0 
      2217.0         0.70       1009.7 
      2218.0         0.70       1033.0 
      2219.0         0.20       1025.4 
      2220.0         0.37       1016.9 
      2221.0         0.30       1000.9 
      2222.0         0.30        993.1 
      2223.0         0.28        985.5 
      2224.0         0.30        979.3 
      2225.0         0.30        975.7 
      2226.0         0.30        973.4 
      2227.0         0.33        971.5 
      2228.0         0.27        969.2 
      2229.0         0.23        968.8 
      2230.0         0.23        966.6 
      2231.0         0.23        961.6 
      2232.0         0.23        958.0 
      2233.0         0.27        956.7 
      2234.0         0.27        954.4 
      2235.0         0.28        953.1 
      2236.0         0.27        951.2 
      2237.0         0.27        947.9 
      2238.0         0.27        945.0 
      2239.0         0.23        943.0 
      2240.0         0.27        924.4 
      2241.0         0.27        873.6 
      2242.0         0.30        839.6 
      2243.0         0.27        835.4 
      2244.0         0.30        850.4 
      2245.0         0.27        879.2 
      2246.0         1.52       1340.5 
      2247.0         0.30       1439.3 
      2248.0         0.27       1470.4 
      2249.0         0.27       1465.8 
      2250.0         0.27       1405.9 
      2251.0         0.57       1318.9 
      2252.0         0.57       1163.8 
      2253.0         0.55       1066.7 
      2254.0         0.40       1001.9 
      2255.0         0.37        967.2 
      2256.0         0.47        947.3 
      2257.0         0.43        966.6 
      2258.0         0.50        981.3 
      2259.0         0.40        981.3 
      2260.0         0.35        973.1 
      2261.0         0.27        969.5 
      2262.0         0.33        960.3 
      2263.0         0.27        901.1 
      2264.0         0.40        866.8 
      2265.0         0.33        863.5 
      2266.0         0.20        870.7 
      2267.0         0.17        876.6 
      2268.0         0.37        891.6 
      2269.0         0.10        894.6 
      2270.0         0.53        912.6 
