~Version Information
VERS.                      2.0: CWLS Log ASCII Standard - VERSION 2.0
WRAP.                       NO: One line per depth step
~Well Information Block
STRT.FT                -5.2500: 
STOP.FT               769.5000: 
STEP.FT                 0.2500: 
NULL.                -999.2500: 
COMP.          Pioneer Natural Resources: COMPANY
WELL.          HG Duran 34-27 Tr: WELL
FLD.           Purgatorie River: FIELD
LOC.           1076' FSL & 1465' FEL: LOCATION
PROV.                 Colorado: PROVINCE
CNTY.               Las Animas: COUNTRY
SRVC.          Patterson Wireline: SERVICE COMPANY
DATE.          Mon Apr 18 09:19:17 2005: LOG DATE
UWI.           05-071-08218-00: UNIQUE WELL ID
~Curve Information Block
DEPT.FT            0 000 00 00: Depth
CCL.                          : Casing Collar Locator
TT3.usec                      : CBL 3' Travel Time
AMP3.mV                       : CBL 3' Amplitude
GR.GAPI                       : Gamma Ray
~Parameter Information Block
~A  Depth       CCL         TT3         AMP3         GR     
    -5.2500   -999.2500   -999.2500   -999.2500     78.9291
    -5.0000   -999.2500   -999.2500   -999.2500     82.4742
    -4.7500   -999.2500   -999.2500   -999.2500     84.4046
    -4.5000   -999.2500   -999.2500   -999.2500     84.8287
    -4.2500   -999.2500   -999.2500   -999.2500     84.2404
    -4.0000   -999.2500   -999.2500   -999.2500     83.2385
    -3.7500   -999.2500   -999.2500   -999.2500     82.6530
    -3.5000   -999.2500   -999.2500   -999.2500     83.1492
    -3.2500   -999.2500   -999.2500   -999.2500     84.5839
    -3.0000   -999.2500   -999.2500   -999.2500     86.0129
    -2.7500   -999.2500   -999.2500   -999.2500     86.3383
    -2.5000   -999.2500   -999.2500   -999.2500     85.0776
    -2.2500   -999.2500   -999.2500   -999.2500     82.8089
    -2.0000   -999.2500   -999.2500   -999.2500     80.7089
    -1.7500   -999.2500   -999.2500   -999.2500     79.4785
    -1.5000   -999.2500   -999.2500   -999.2500     79.0214
    -1.2500   -999.2500   -999.2500   -999.2500     79.1742
    -1.0000   -999.2500   -999.2500   -999.2500     80.0412
    -0.7500   -999.2500   -999.2500   -999.2500     81.3348
    -0.5000   -999.2500   -999.2500   -999.2500     82.1223
    -0.2500   -999.2500   1470.0000     -2.5692     81.5694
     0.0000   -999.2500   1470.0000     -2.5689     79.4073
     0.2500   -999.2500   1470.0000     -2.5621     75.7967
     0.5000   -999.2500   1470.0000     -2.5478     71.4526
     0.7500   -999.2500   1470.0000     -2.5467     67.6867
     1.0000   -999.2500   1470.0000     -2.5492     65.4807
     1.2500   -999.2500   1470.0000     -2.5551     64.3215
     1.5000   -999.2500   1470.0000     -2.5643     62.3562
     1.7500   -999.2500   1470.0000     -2.5751     57.9818
     2.0000   -999.2500   1470.0000     -2.5840     51.2946
     2.2500   -999.2500   1470.0000     -2.5885     43.8637
     2.5000   -999.2500   1470.0000     -2.5891     37.2012
     2.7500   -999.2500   1470.0000     -2.5882     31.9328
     3.0000   -999.2500   1470.0000     -2.5862     28.5158
     3.2500   -999.2500   1470.0000     -2.5802     27.8391
     3.5000   -999.2500   1470.0000     -2.5661     30.3198
     3.7500   -999.2500   1470.0000     -2.5432     34.7705
     4.0000   -999.2500   1470.0000     -2.5169     39.0425
     4.2500   -999.2500   1470.0000     -2.4957     41.9226
     4.5000   -999.2500   1470.0000     -2.4867     43.9615
     4.7500   -999.2500   1470.0000     -2.4921     46.4909
     5.0000      0.0000   1470.0000     -2.5095     50.1581
     5.2500      0.0000   1470.0000     -2.5316     54.3322
     5.5000      0.0000   1470.0000     -2.5482     57.6570
     5.7500      0.0000   1470.0000     -2.5502     59.1458
     6.0000      0.0000   1470.0000     -2.5362     58.8016
     6.2500      0.0000   1470.0000     -2.5128     57.4056
     6.5000      0.0000   1470.0000     -2.4890     56.0657
     6.7500      0.0000   1470.0000     -2.4597     55.8057
     7.0000      0.0000   1470.0000     -2.3791     56.7465
     7.2500      0.0000   1470.0000     -2.1300     57.4650
     7.5000      0.0000   1470.0000     -1.5280     56.0925
     7.7500      0.0000   1470.0000     -0.4197     52.4134
     8.0000      0.0000   1470.0000      1.1403     48.0015
     8.2500      0.0000   1470.0000      2.8023     44.2585
     8.5000      0.0000   1470.0000      4.0913     41.5975
     8.7500      0.0000   1470.0000      4.7169     40.5230
     9.0000      0.0000   1470.0000      4.7239     41.9198
     9.2500      0.0000   1470.0000      4.3840     45.7346
     9.5000      0.0000   1470.0000      4.0021     50.2634
     9.7500      0.0000   1470.0000      3.7889     53.3256
    10.0000      0.0000   1470.0000      3.8168     54.0484
    10.2500      0.0000   1470.0000      4.0372     53.5011
    10.5000      0.0000   1470.0000      4.3494     53.6392
    10.7500      0.0000   1470.0000      4.6752     55.5341
    11.0000      0.0000   1470.0000      4.9864     58.6513
    11.2500      0.0000   1470.0000      5.2819     61.6744
    11.5000      0.0000   1470.0000      5.5599     63.5120
    11.7500      0.0000   1470.0000      5.8111     63.5603
    12.0000      0.0000   1470.0000      6.0273     61.8012
    12.2500      0.0000   1470.0000      6.2030     59.0426
    12.5000      0.0000   1470.0000      6.3312     56.6656
    12.7500      0.0000   1470.0000      6.4080     55.7671
    13.0000      0.0000   1470.0000      6.4404     56.6121
    13.2500      0.0000   1470.0000      6.4464     58.9346
    13.5000      0.0000   1470.0000      6.4488     62.5033
    13.7500      0.0000   1470.0000      6.4726     67.4292
    14.0000      0.0000   1470.0000      6.5405     74.1768
    14.2500      0.0000   1470.0000      6.6650     82.8934
    14.5000      0.0000   1470.0000      6.8500     92.0455
    14.7500      0.0000   1470.0000      7.0962     98.1728
    15.0000      0.0000   1470.0000      7.3909     98.3946
    15.2500      0.0000   1470.0000      7.6890     93.3360
    15.5000      0.0000   1470.0000      7.9086     86.5117
    15.7500      0.0000   1470.0000      7.9382     80.9283
    16.0000      0.0000   1470.0000      7.6699     77.2426
    16.2500      0.0000   1470.0000      7.0909     74.7059
    16.5000      0.0000   1470.0000      6.3605     72.4581
    16.7500      0.0000   1470.0000      5.7312     69.8315
    17.0000      0.0000   1470.0000      5.3609     66.4780
    17.2500      0.0000   1470.0000      5.2270     62.8671
    17.5000      5.0000   1470.0000      5.2099     60.5056
    17.7500     -5.0000   1470.0000      5.2295     61.1698
    18.0000      0.0000   1470.0000      5.3347     65.5219
    18.2500      0.0000   1470.0000      5.7033     72.5494
    18.5000      0.0000   1470.0000      6.5034     80.3425
    18.7500      0.0000   1470.0000      7.6790     87.1585
    19.0000      0.0000   1470.0000      8.8913     91.8865
    19.2500      0.0000   1470.0000      9.7394     94.0966
    19.5000      0.0000   1470.0000     10.0511     94.0268
    19.7500      0.0000   1470.0000      9.9541     92.4873
    20.0000      0.0000   1470.0000      9.7155     90.4439
    20.2500      0.0000   1470.0000      9.5463     88.3999
    20.5000      0.0000   1470.0000      9.5094     86.1882
    20.7500      0.0000   1470.0000      9.5385     83.5379
    21.0000      0.0000   1470.0000      9.5217     80.7117
    21.2500      0.0000   1470.0000      9.3897     78.4288
    21.5000      0.0000   1470.0000      9.1595     77.1876
    21.7500      0.0000   1470.0000      8.9052     76.7285
    22.0000      0.0000   1470.0000      8.6909     76.1671
    22.2500      0.0000   1470.0000      8.5260     74.7348
    22.5000      0.0000   1470.0000      8.3788     72.4286
    22.7500      0.0000   1470.0000      8.2191     69.7691
    23.0000      0.0000   1470.0000      8.0414     66.9183
    23.2500      0.0000   1470.0000      7.8554     63.5840
    23.5000      0.0000   1470.0000      7.6706     60.1095
    23.7500      0.0000   1470.0000      7.4960     58.1070
    24.0000      0.0000   1470.0000      7.3431     59.3898
    24.2500      0.0000   1470.0000      7.2142     64.3947
    24.5000      0.0000   1470.0000      7.0800     71.9009
    24.7500      0.0000   1470.0000      6.8839     79.9665
    25.0000      0.0000   1470.0000      6.5867     86.7446
    25.2500      0.0000   1470.0000      6.2139     90.6084
    25.5000      0.0000   1470.0000      5.8483     90.2773
    25.7500      0.0000   1470.0000      5.5750     85.6871
    26.0000      0.0000   1470.0000      5.4229     78.8203
    26.2500      0.0000   1470.0000      5.3468     72.9312
    26.5000      0.0000   1470.0000      5.2585     70.3479
    26.7500      0.0000   1470.0000      5.0893     71.0005
    27.0000      0.0000   1470.0000      4.8379     72.8991
    27.2500      0.0000   1470.0000      4.5667     73.7051
    27.5000      0.0000   1470.0000      4.3561     72.1293
    27.7500      0.0000   1470.0000      4.2656     68.4392
    28.0000      0.0000   1470.0000      4.3292     63.8615
