~Version Information
VERS.                      2.0: CWLS Log ASCII Standard - VERSION 2.0
WRAP.                       NO: One line per depth step
~Well Information Block
STRT.FT               185.2500: 
STOP.FT              2109.7500: 
STEP.FT                 0.2500: 
NULL.                -999.2500: 
COMP.    Petrogulf Corporation: COMPANY
WELL.             State 16-44V: WELL
FLD.          Purgatorie River: FIELD
LOC.       320' FSL & 320' FEL: LOCATION
PROV.                 Colorado: PROVINCE
CNTY.               Las Animas: COUNTRY
SRVC.                Patterson: SERVICE COMPANY
DATE. Thu Aug 11 12:58:04 2005: LOG DATE
UWI.               071-08263  : UNIQUE WELL ID
~Curve Information Block
DEPT.FT            0 000 00 00: Depth
GR.GAPI                       : Gamma Ray
CCL.                          : Casing Collar Locator
TT3.usec                      : CBL 3' Travel Time
AMP3.mV                       : CBL 3' Amplitude
~Parameter Information Block
~A  Depth        GR         CCL         TT3         AMP3    
# ...
  1927.2500     86.3781      0.0000    651.7858      3.7512
  1927.5000     84.6025      0.0000    650.7780      3.9099
  1927.7500     84.0690      0.0000    647.6982      4.0410
  1928.0000     85.3067      0.0000    640.5105      4.1333
  1928.2500     86.9336      0.0000    627.9893      4.2107
  1928.5000     86.9839      0.0000    612.3691      4.3048
  1928.7500     84.8770      0.0000    602.0733      4.4319
  1929.0000     81.7840      0.0000    604.1500      4.5817
  1929.2500     79.2195      0.0000    609.4391      4.7354
  1929.5000     77.6453      0.0000    599.8922      4.9038
  1929.7500     76.5119      0.0000    572.9299      5.1184
  1930.0000     75.3236      0.0000    545.0042      5.3836
  1930.2500     74.3076      0.0000    534.7379      5.6726
  1930.5000     74.0501      0.0000    547.0558      5.9630
  1930.7500     74.7553      0.0000    571.2889      6.2496
  1931.0000     76.0361      0.0000    593.7144      6.5160
  1931.2500     77.3875      0.0000    610.0022      6.7006
  1931.5000     78.6801      0.0000    623.1370      6.7155
  1931.7500     80.0224      0.0000    631.7755      6.5303
  1932.0000     81.1921      0.0000    626.7472      6.2300
  1932.2500     81.4842      0.0000    601.9502      5.9522
  1932.5000     80.3706      0.0000    565.7620      5.7643
  1932.7500     78.2770      0.0000    534.5384      5.6357
  1933.0000     76.4849      0.0000    515.6921      5.5118
  1933.2500     76.1500      0.0000    506.7581      5.3725
  1933.5000     77.3935      0.0000    507.9485      5.2378
  1933.7500     79.2342      0.0000    524.9583      5.1486
  1934.0000     80.4017      0.0000    558.9911      5.1280
  1934.2500     80.3285      0.0000    598.6127      5.1561
  1934.5000     79.4346      0.0000    626.6144      5.1942
  1934.7500     78.5238      0.0000    636.3919      5.2271
  1935.0000     78.0826      0.0000    634.4924      5.2590
  1935.2500     78.2166      0.0000    627.1284      5.2730
  1935.5000     79.0470      0.0000    614.6014      5.2170
  1935.7500     80.9867      0.0000    599.5681      5.0350
  1936.0000     84.5421      0.0000    589.1324      4.7089
  1936.2500     89.7874      0.0000    586.5211      4.2685
  1936.5000     96.0040      0.0000    587.8729      3.7794
  1936.7500    101.7071      0.0000    588.3472      3.3231
  1937.0000    105.0162      0.0000    587.7568      2.9434
  1937.2500    104.3962      0.0000    588.5050      2.6191
  1937.5000     99.5102      0.0000    591.1470      2.3147
  1937.7500     91.4773      0.0000    594.4610      2.0226
  1938.0000     82.2750      0.0000    597.4135      1.7501
  1938.2500     73.8936      0.0000    600.3870      1.5141
  1938.5000     67.8412      0.0000    604.9069      1.3383
  1938.7500     64.8093      0.0000    611.6940      1.2295
  1939.0000     64.3517      0.0000    619.2705      1.1766
  1939.2500     65.0788      0.0000    624.7099      1.1668
  1939.5000     65.5714      0.0000    628.2905      1.2083
  1939.7500     65.2395      0.0000    634.4355      1.3369
  1940.0000     64.3874      0.0000    643.0905      1.5640
  1940.2500     63.7544      0.0000    648.5076      1.8707
  1940.5000     64.0851      0.0000    648.9312      2.2633
  1940.7500     65.7969      0.0000    646.4242      2.7616
  1941.0000     68.7593      0.0000    640.6360      3.3416
  1941.2500     72.4069      0.0000    632.2466      3.9693
  1941.5000     76.1492      0.0000    625.1354      4.7118
  1941.7500     79.7389      0.0000    620.4141      5.6136
  1942.0000     83.4072      0.0000    616.7590      6.4239
  1942.2500     87.6402      0.0000    615.6973      6.8194
  1942.5000     92.4962      0.0000    617.5604      6.8058
  1942.7500     96.9650      0.0000    617.8007      6.5492
  1943.0000     99.3839      0.0000    613.8461      6.1115
  1943.2500     98.9087      0.0000    608.7899      5.5371
  1943.5000     96.3831      0.0000    607.4088      4.9337
  1943.7500     93.3612      0.0000    614.5643      4.3924
  1944.0000     90.4907      0.0000    633.2194      3.9274
  1944.2500     87.3116      0.0000    656.8749      3.5220
  1944.5000     83.4279      0.0000    671.9009      3.1913
  1944.7500     79.3709      0.0000    675.5282      2.9764
  1945.0000     76.3091      0.0000    678.5938      2.9039
  1945.2500     75.1239      0.0000    684.4120      2.9797
  1945.5000     75.8831      0.0000    681.9836      3.2102
  1945.7500     78.2672      0.0000    664.7866      3.6099
  1946.0000     82.3396      0.0000    640.9484      4.1765
  1946.2500     88.3919      0.0000    621.5228      4.8827
  1946.5000     95.7903      0.0000    610.7691      5.7373
  1946.7500    102.3371      0.0000    607.1758      6.7924
  1947.0000    105.3286      0.0000    606.6265      8.0254
  1947.2500    103.5387      0.0000    604.2192      9.3223
  1947.5000     98.2415      0.0000    594.5258     10.5934
  1947.7500     92.4167      0.0000    574.4396     11.7866
  1948.0000     88.9421      0.0000    549.5027     12.8339
  1948.2500     88.9873      0.0000    532.9589     13.6744
  1948.5000     91.4145      0.0000    533.4795     14.2854
  1948.7500     93.6937      0.0000    546.4593     14.6516
  1949.0000     93.8481      0.0000    560.0520     14.7570
  1949.2500     91.7638      0.0000    563.8078     14.6294
  1949.5000     88.7199      0.0000    553.3083     14.3263
  1949.7500     86.0088      0.0000    539.4385     13.8309
  1950.0000     84.1982      0.0000    542.2343     13.0652
  1950.2500     83.2818      0.0000    564.5153     12.0838
  1950.5000     82.9864      0.0000    589.1008     11.1113
  1950.7500     82.9286      0.0000    603.4446     10.3261
  1951.0000     82.7778      0.0000    610.6628      9.7288
  1951.2500     82.4128      0.0000    618.6327      9.2200
  1951.5000     81.9510      0.0000    626.5623      8.7262
  1951.7500     81.6432      0.0000    627.1848      8.2406
  1952.0000     81.6598      0.0000    622.8288      7.7817
  1952.2500     81.9355      0.0000    625.7083      7.3645
  1952.5000     82.3109      0.0000    639.1171      7.0032
  1952.7500     82.8487      0.0000    653.6009      6.7056
  1953.0000     83.9258      0.0000    661.6928      6.4590
  1953.2500     85.9305      0.0000    664.0585      6.2288
  1953.5000     88.7605      0.0000    663.3618      5.9592
  1953.7500     91.6269      0.0000    659.8026      5.5774
  1954.0000     93.5422      0.0000    651.6468      5.0453
  1954.2500     94.0515      0.0000    638.0558      4.4121
  1954.5000     93.1748      0.0000    622.0519      3.7650
  1954.7500     90.6972      0.0000    609.1331      3.1631
  1955.0000     86.2585      0.0000    602.2825      2.6521
  1955.2500     80.3844      0.0000    600.1017      2.2567
  1955.5000     74.7205      0.0000    599.2029      1.9556
  1955.7500     70.8268      0.0000    598.0536      1.7174
  1956.0000     69.1053      0.0000    597.7659      1.5203
  1956.2500     69.0278      0.0000    598.0535      1.3486
  1956.5000     69.8829      0.0000    596.6628      1.2072
  1956.7500     70.9362      0.0000    594.3107      1.1122
  1957.0000     71.3096      0.0000    594.6136      1.0708
  1957.2500     70.3313      0.0000    598.3101      1.0743
  1957.5000     68.0014      0.0000    602.4459      1.0984
  1957.7500     64.8654      0.0000    604.8298      1.1218
  1958.0000     61.6588      0.0000    605.4955      1.1572
  1958.2500     59.3675      0.0000    605.0175      1.2448
  1958.5000     59.1847      0.0000    604.3984      1.4071
  1958.7500     61.7618      0.0000    605.7803      1.6361
  1959.0000     66.5689      0.0000    610.7844      1.9362
  1959.2500     72.3385      0.0000    619.5766      2.3398
  1959.5000     78.1169      0.0000    633.3688      2.8753
  1959.7500     83.6881      0.0000    652.8942      3.5532
  1960.0000     89.0795      0.0000    672.5706      4.3673
  1960.2500     93.9055      0.0000    683.8456      5.2693
  1960.5000     97.4428      0.0000    684.5226      6.1416
