~Version Information
 VERS.                                  2.0 : CWLS LAS VERSION
 WRAP.                                   NO : WRAPING MODE
 SWARE .                 MController 2.5.0I : SOFTWARE VERSION
~Well Information
 WELL.                      Anderson 18-43v : WELL
 COMP.                       Petrogulf Corp : COMPANY
 FLD.                      Purgatorie River : FIELD
 LOC.                NE/SE Sec 18 T33S R67W : LOCATION
 DATE.                              9/01/04 : DATE(S) LOGGED
 SRVC.       Blanco geological services LLC : SERVICE COMPANY
 STAT.                                   CO : STATE
 CNTY.                           Las Animas : COUNTY
 CTRY.                                  USA : COUNTRY
 API.                       05-071-08156-00 : API NUMBER
 STRT.FT                             158.00 : START DEPTH
 STOP.FT                            2300.00 : STOP DEPTH
 STEP.FT                               1.00 : DEPTH INCREMENT
 NULL.                                -9999 : NULL VALUE
~Curve information
 DEPTH.FT                                   :
 ROP.MIN/FT                                 :
 GAS.UNITS                                  :
~ASCII Log data
       158.0      -9999.0          2.3 
       159.0          0.1          2.2 
       160.0          0.1          2.3 
       161.0          0.1          2.2 
       162.0          0.1          2.1 
       163.0          0.1          1.8 
       164.0          0.1          1.8 
       165.0          0.1          2.0 
       166.0          0.1          2.1 
       167.0          0.1          2.4 
       168.0          0.1          2.4 
       169.0          0.1          2.3 
       170.0          0.1          2.3 
       171.0          0.1          2.0 
       172.0          0.1          2.1 
       173.0          0.1          2.3 
       174.0          0.1          2.1 
       175.0          0.1          2.4 
       176.0          0.1          2.2 
       177.0          0.1          2.3 
       178.0          0.1          2.5 
       179.0          1.4          2.6 
       180.0          0.2          2.3 
       181.0          0.2          2.3 
       182.0          0.1          2.4 
       183.0          0.1          2.2 
       184.0          0.1          2.2 
       185.0          0.1          2.5 
       186.0          0.1          2.3 
       187.0          0.1          2.4 
       188.0          0.1          2.4 
       189.0          0.1          2.4 
       190.0          0.1          2.2 
       191.0          0.1          2.4 
       192.0          0.1          2.4 
       193.0          0.1          2.1 
       194.0          0.1          2.3 
       195.0          0.1          2.4 
       196.0          0.1          2.2 
       197.0          0.1          2.2 
       198.0          0.1          2.4 
       199.0          0.1          2.3 
       200.0          0.1          2.1 
       201.0          0.1          1.9 
       202.0          0.1          2.3 
       203.0          0.1          2.2 
       204.0          0.1          2.4 
       205.0          0.1          2.2 
       206.0          0.1          2.2 
       207.0          0.1          2.2 
       208.0          0.1          2.2 
       209.0          0.5          2.5 
       210.0          0.1          2.5 
       211.0          0.4          2.5 
       212.0          0.2          2.5 
       213.0          0.4          2.6 
       214.0          0.2          2.3 
       215.0          0.1          2.2 
       216.0          0.1          2.3 
       217.0          0.1          1.8 
       218.0          0.1          1.9 
       219.0          0.1          1.7 
       220.0          0.1          1.2 
       221.0          0.1          1.2 
       222.0          0.1          1.3 
       223.0          0.1          1.5 
       224.0          0.1          1.7 
       225.0          0.1          1.6 
       226.0          0.1          1.9 
       227.0          0.1          1.9 
       228.0          0.1          1.9 
       229.0          0.1          1.7 
       230.0          0.1          1.8 
       231.0          0.1          1.8 
       232.0          0.1          1.8 
       233.0          0.1          1.7 
       234.0          0.1          2.2 
       235.0          0.1          2.0 
       236.0          0.1          2.2 
       237.0          0.2          2.1 
       238.0          0.1          2.0 
       239.0          0.1          2.1 
       240.0          0.1          1.8 
       241.0          0.1          2.1 
       242.0          0.1          2.5 
       243.0          0.3          2.4 
       244.0          0.5          2.4 
       245.0          0.2          2.5 
       246.0          0.1          2.4 
       247.0          0.2          2.6 
       248.0          0.1          2.3 
       249.0          0.2          2.1 
       250.0          0.1          2.1 
       251.0          0.1          3.2 
       252.0          0.1          3.5 
       253.0          0.1          3.5 
       254.0          0.1          3.3 
       255.0          0.1          3.1 
       256.0          0.1          3.4 
       257.0          0.2          3.3 
       258.0          0.1          3.2 
       259.0          0.1          3.2 
       260.0          0.1          3.2 
       261.0          0.1          3.3 
       262.0          0.1          3.3 
       263.0          0.1          3.3 
       264.0          0.1          3.2 
       265.0          0.1          3.2 
       266.0          0.1          3.6 
       267.0          0.1          3.5 
       268.0          0.1          3.6 
       269.0          0.1          3.5 
       270.0          0.1          3.3 
       271.0          0.1          3.1 
       272.0          0.1          3.2 
       273.0          0.1          3.2 
       274.0          0.1          3.1 
       275.0          0.1          3.4 
       276.0          0.1          3.4 
       277.0          1.1          4.0 
       278.0          0.3          4.1 
       279.0          0.4          3.9 
       280.0          0.1          3.9 
       281.0          0.2          3.8 
       282.0          0.2          3.7 
       283.0          0.1          3.6 
       284.0          0.2          3.6 
       285.0          0.1          3.6 
       286.0          0.1          3.7 
       287.0          0.1          3.6 
       288.0          0.1          3.7 
       289.0          0.1          3.6 
       290.0          0.2          3.5 
       291.0          0.1          3.8 
       292.0          0.1          3.7 
       293.0          0.1          3.6 
       294.0          0.1          3.5 
       295.0          0.1          3.7 
       296.0          0.1          3.3 
       297.0          0.2          3.6 
       298.0          0.1          3.5 
       299.0          0.1          3.8 
       300.0          0.1          3.7 
       301.0          0.1          3.9 
       302.0          0.1          3.5 
       303.0          0.1          3.7 
       304.0          0.1          3.5 
       305.0          0.1          3.7 
       306.0          0.1          3.7 
       307.0          0.1          4.0 
       308.0          0.1          3.9 
       309.0          0.1          3.9 
       310.0          0.1          3.7 
       311.0          0.2          4.0 
       312.0          0.4          4.4 
       313.0          0.4          4.4 
       314.0          0.4          4.3 
       315.0          0.2          4.4 
       316.0          0.5          4.4 
       317.0          0.2          4.1 
       318.0          0.1          4.0 
       319.0          0.1          4.2 
       320.0          0.1          4.2 
       321.0          0.1          4.2 
       322.0          0.1          4.1 
       323.0          0.1          3.8 
       324.0          0.1          3.9 
       325.0          0.1          4.0 
       326.0          0.2          4.0 
       327.0          0.1          4.0 
       328.0          0.2          4.1 
       329.0          0.1          4.3 
       330.0          0.1          4.0 
       331.0          0.1          4.2 
       332.0          0.1          4.0 
       333.0          0.1          4.0 
       334.0          0.1          3.9 
       335.0          0.1          3.9 
       336.0          0.1          4.1 
       337.0          0.1          4.0 
       338.0          0.1          4.0 
       339.0          0.2          4.1 
       340.0          0.1          3.9 
       341.0          0.1          3.8 
       342.0          0.1          4.0 
       343.0          0.1          3.9 
       344.0          0.1          4.1 
       345.0          0.1          4.1 
       346.0          0.2          4.2 
       347.0          0.6          4.6 
       348.0          0.3          4.7 
       349.0          0.1          4.4 
       350.0          0.2          4.3 
       351.0          0.2          4.4 
       352.0          0.2          4.3 
       353.0          0.1          4.5 
       354.0          0.2          4.3 
       355.0          0.1          4.4 
       356.0          0.1          4.2 
       357.0          0.2          4.1 
