~Version Information
VERS.                      2.0: CWLS Log ASCII Standard - VERSION 2.0
WRAP.                       NO: One line per depth step
~Well Information Block
STRT.FT               430.0000: 
STOP.FT              1910.2500: 
STEP.FT                 0.2500: 
NULL.                -999.2500: 
COMP.          Pioneer Natural Resources: COMPANY
WELL.          Formula 23-11 Tr: WELL
FLD.           Purgatoire River: FIELD
LOC.           1976' FSL & 1935' FWL--: LOCATION
PROV.                 Colorado: PROVINCE
CNTY.               Las Animas: COUNTRY
SRVC.                Patterson: SERVICE COMPANY
DATE.          Fri Jun 10 22:41:39 2005: LOG DATE
UWI.           05 071 08399 00: UNIQUE WELL ID
~Curve Information Block
DEPT.FT            0 000 00 00: Depth
SN.Ohm-m                      : IEL Short Normal
SP.mV                         : IEL Spontaneous Potential
DIR.Ohm-m                     : IEL Induction Resistivity
GR.GAPI                       : Gamma Ray
~Parameter Information Block
~A  Depth        SN          SP         DIR          GR     
# ...
  1100.0000     17.7240   -122.0979     19.5544    121.8333
  1100.2500     17.9042   -121.9957     19.4907    126.6340
  1100.5000     18.0531   -121.8849     19.3037    129.2273
  1100.7500     18.0843   -121.7675     19.0159    128.3627
  1101.0000     17.9663   -121.6454     18.6699    126.2791
  1101.2500     17.7353   -121.5208     18.3143    125.9805
  1101.5000     17.4637   -121.3965     17.9860    127.4489
  1101.7500     17.2069   -121.2764     17.6966    128.4228
  1102.0000     16.9710   -121.1656     17.4308    127.1327
  1102.2500     16.7236   -121.0716     17.1592    123.8224
  1102.5000     16.4319   -121.0034     16.8568    116.8837
  1102.7500     16.0953   -120.9722     16.5173    112.8969
  1103.0000     15.7462   -120.9900     16.1511    110.4791
  1103.2500     15.4224   -121.0668     15.7718    111.5554
  1103.5000     15.1333   -121.2067     15.3839    116.0523
  1103.7500     14.8470   -121.4024     14.9829    119.9548
  1104.0000     14.5096   -121.6305     14.5621    125.6298
  1104.2500     14.0826   -121.8502     14.1205    128.6864
  1104.5000     13.5751   -122.0084     13.6665    131.8297
  1104.7500     13.0474   -122.0506     13.2166    133.2193
  1105.0000     12.5826   -121.9366     12.7921    135.3179
  1105.2500     12.2464   -121.6568     12.4134    137.4317
  1105.5000     12.0606   -121.2405     12.0950    142.1635
  1105.7500     12.0022   -120.7543     11.8432    145.7813
  1106.0000     12.0218   -120.2876     11.6554    149.6878
  1106.2500     12.0647   -119.9294     11.5222    150.1935
  1106.5000     12.0877   -119.7453     11.4320    147.9959
  1106.7500     12.0697   -119.7612     11.3753    145.8007
  1107.0000     12.0138   -119.9595     11.3477    143.6465
  1107.2500     11.9369   -120.2885     11.3493    143.4121
  1107.5000     11.8536   -120.6801     11.3819    144.0548
  1107.7500     11.7679   -121.0681     11.4482    144.3661
  1108.0000     11.6803   -121.4026     11.5518    143.7065
  1108.2500     11.5997   -121.6565     11.6980    142.2470
  1108.5000     11.5488   -121.8247     11.8943    138.3783
  1108.7500     11.5622   -121.9175     12.1482    134.8139
  1109.0000     11.6894   -121.9534     12.4661    128.7654
  1109.2500     12.0032   -121.9521     12.8527    124.9305
  1109.5000     12.5941   -121.9307     13.3121    120.3036
  1109.7500     13.5345   -121.9018     13.8507    117.9684
  1110.0000     14.8200   -121.8742     14.4775    114.8910
  1110.2500     16.3318   -121.8539     15.1986    112.7397
  1110.5000     17.8616   -121.8447     16.0062    109.4045
  1110.7500     19.1973   -121.8489     16.8670    107.4583
  1111.0000     20.2054   -121.8669     17.7197    105.3823
  1111.2500     20.8561   -121.8970     18.4871    104.4618
  1111.5000     21.1926   -121.9355     19.0986    103.1689
  1111.7500     21.2927   -121.9770     19.5141    101.9430
  1112.0000     21.2527   -122.0156     19.7351     99.0746
  1112.2500     21.1828   -122.0467     19.8000     96.5679
  1112.5000     21.1882   -122.0674     19.7682     93.0133
  1112.7500     21.3286   -122.0770     19.6985     91.7977
  1113.0000     21.5787   -122.0773     19.6312     93.0965
  1113.2500     21.8253   -122.0717     19.5775     96.0278
  1113.5000     21.9156   -122.0640     19.5219    101.6415
  1113.7500     21.7348   -122.0578     19.4336    104.5174
  1114.0000     21.2696   -122.0559     19.2851    105.5483
  1114.2500     20.6207   -122.0601     19.0668    104.1865
  1114.5000     19.9588   -122.0708     18.7941    101.3694
  1114.7500     19.4453   -122.0879     18.5008    100.6616
  1115.0000     19.1561   -122.1105     18.2231    103.0146
  1115.2500     19.0521   -122.1371     17.9827    106.6660
  1115.5000     19.0150   -122.1658     17.7779    113.4894
  1115.7500     18.9226   -122.1939     17.5873    117.7530
  1116.0000     18.7083   -122.2178     17.3817    122.5125
  1116.2500     18.3712   -122.2323     17.1387    124.4827
  1116.5000     17.9508   -122.2317     16.8484    126.0096
  1116.7500     17.4948   -122.2098     16.5133    126.3030
  1117.0000     17.0402   -122.1612     16.1431    125.6081
  1117.2500     16.6093   -122.0824     15.7510    124.0904
  1117.5000     16.2216   -121.9728     15.3529    120.0308
  1117.7500     15.9069   -121.8354     14.9669    116.6429
  1118.0000     15.7054   -121.6774     14.6144    112.1393
  1118.2500     15.6508   -121.5106     14.3187    110.2762
  1118.5000     15.7529   -121.3511     14.1020    109.6328
  1118.7500     15.9970   -121.2193     13.9828    110.5151
  1119.0000     16.3590   -121.1384     13.9737    113.1922
  1119.2500     16.8190   -121.1314     14.0828    115.2747
  1119.5000     17.3650   -121.2175     14.3139    117.4270
  1119.7500     17.9879   -121.4075     14.6680    117.2765
  1120.0000     18.6746   -121.7004     15.1418    113.0614
  1120.2500     19.4033   -122.0816     15.7254    106.9051
  1120.5000     20.1417   -122.5239     16.3966     92.9488
  1120.7500     20.8610   -122.9918     17.1162     81.9154
  1121.0000     21.5645   -123.4467     17.8246     66.4375
  1121.2500     22.2989   -123.8530     18.4463     58.7095
  1121.5000     23.1054   -124.1830     18.9011     52.8181
  1121.7500     23.9203   -124.4210     19.1213     53.0826
  1122.0000     24.5270   -124.5639     19.0685     59.8306
  1122.2500     24.6398   -124.6217     18.7461     68.2649
  1122.5000     24.0743   -124.6141     18.1986     85.3025
  1122.7500     22.8613   -124.5665     17.4956     98.0148
  1123.0000     21.2270   -124.5050     16.7085    116.1389
  1123.2500     19.4771   -124.4508     15.8979    126.3751
  1123.5000     17.8760   -124.4167     15.1120    137.9798
  1123.7500     16.5850   -124.4053     14.3910    142.9707
  1124.0000     15.6611   -124.4102     13.7674    146.5331
  1124.2500     15.0833   -124.4186     13.2614    147.1183
  1124.5000     14.7798   -124.4163     12.8773    147.4982
  1124.7500     14.6556   -124.3920     12.6054    148.2596
  1125.0000     14.6236   -124.3401     12.4272    149.8061
  1125.2500     14.6275   -124.2630     12.3225    150.2215
  1125.5000     14.6443   -124.1695     12.2745    148.9954
  1125.7500     14.6722   -124.0719     12.2722    147.3148
  1126.0000     14.7186   -123.9833     12.3098    145.0490
  1126.2500     14.7949   -123.9134     12.3860    144.3169
  1126.5000     14.9149   -123.8668     12.5023    144.0174
  1126.7500     15.0923   -123.8430     12.6625    143.5210
  1127.0000     15.3389   -123.8376     12.8728    140.9494
  1127.2500     15.6630   -123.8446     13.1404    137.7049
  1127.5000     16.0716   -123.8579     13.4729    131.0267
  1127.7500     16.5755   -123.8730     13.8779    126.0522
  1128.0000     17.1916   -123.8870     14.3639    119.2069
  1128.2500     17.9375   -123.8994     14.9413    115.7205
  1128.5000     18.8226   -123.9115     15.6218    112.4705
  1128.7500     19.8419   -123.9267     16.4149    111.2513
  1129.0000     20.9755   -123.9505     17.3210    109.6902
  1129.2500     22.1928   -123.9891     18.3261    108.4190
  1129.5000     23.4653   -124.0488     19.4021    106.3861
  1129.7500     24.7879   -124.1353     20.5167    105.2833
  1130.0000     26.1881   -124.2530     21.6476    104.0188
  1130.2500     27.7014   -124.4060     22.7938    102.9673
  1130.5000     29.3308   -124.5992     23.9732     99.9306
  1130.7500     31.0385   -124.8400     25.2081     96.4750
  1131.0000     32.7785   -125.1401     26.5075     89.3295
  1131.2500     34.5325   -125.5160     27.8617     83.9939
  1131.5000     36.3103   -125.9878     29.2522     76.9210
  1131.7500     38.1275   -126.5774     30.6687     73.6704
  1132.0000     39.9883   -127.3042     32.1125     71.3809
  1132.2500     41.8752   -128.1775     33.5785     71.1885
  1132.5000     43.7366   -129.1847     35.0314     71.8582
  1132.7500     45.4855   -130.2797     36.3997     72.5655
  1133.0000     47.0303   -131.3731     37.6031     74.0855
  1133.2500     48.3163   -132.3317     38.5953     75.6287
