~Version Information
VERS.                      2.0: CWLS Log ASCII Standard - VERSION 2.0
WRAP.                       NO: One line per depth step
~Well Information Block
STRT.FT               528.0000: 
STOP.FT              2250.0000: 
STEP.FT                 0.1000: 
NULL.                -999.2500: 
COMP.          Pioneer Natural Resources: COMPANY
WELL.           Parklane 43-34: WELL
FLD.           Purgatorie River: FIELD
LOC.           1704' FSL & 1119' FEL: LOCATION
PROV.                 Colorado: PROVINCE
CNTY.               Las Animas: COUNTRY
SRVC.                         : SERVICE COMPANY
DATE.          Thu Oct 07 08:21:17 2004: LOG DATE
UWI.           05 071 08162 00: UNIQUE WELL ID
~Curve Information Block
DEPT.FT            0 000 00 00: Depth
LTEN.lb                       : Surface Line Tension
DCAL.in                       : CDL Caliper
RHOB.g/cc                     : CDL Bulk Density
RHOC.g/cc                     : CDL Density Correction
DPOR.pu                       : CDL Density Porosity
GR.GAPI                       : Gamma Ray
NPOR.pu                       : Neutron Porosity
~Parameter Information Block
~A  Depth       LTEN        DCAL        RHOB        RHOC        DPOR         GR         NPOR    
# ...
   981.6000    898.1643      8.0519      2.4836      0.0206     10.0832    146.9229     28.8266
   981.7000    898.1643      8.0519      2.4770      0.0405     10.4833    151.3199     28.0771
   981.8000    898.6480      8.0516      2.4809      0.0243     10.2503    148.2110     27.5727
   981.9000    898.6480      8.0516      2.4939      0.0331      9.4583    144.2919     27.4344
   982.0000    919.4313      8.0504      2.5103      0.0503      8.4695    139.9001     27.4553
   982.1000    919.4313      8.0504      2.5268      0.0674      7.4677    134.5382     27.6444
   982.2000    919.4313      8.0504      2.5415      0.1163      6.5729    137.4539     27.9796
   982.3000    859.5764      8.0487      2.5465      0.0860      6.2699    146.8785     28.3191
   982.4000    859.5764      8.0487      2.5348      0.1150      6.9807    152.4092     28.4423
   982.5000    961.4671      8.0474      2.5093      0.0733      8.5301    153.4304     28.1172
   982.6000    961.4671      8.0474      2.4881      0.0175      9.8151    152.7495     27.5820
   982.7000    961.4671      8.0474      2.4839      0.0313     10.0672    149.5358     27.3337
   982.8000    938.7360      8.0476      2.4839      0.0157     10.0641    146.9581     27.5507
   982.9000    938.7360      8.0476      2.4792      0.0055     10.3487    146.3170     28.2789
   983.0000    930.8300      8.0482      2.4799     -0.0008     10.3071    141.5450     29.3296
   983.1000    930.8300      8.0482      2.4863      0.0128      9.9228    132.9290     29.8987
   983.2000    930.8300      8.0482      2.4871      0.0133      9.8752    128.8395     29.7274
   983.3000    926.7672      8.0476      2.4848      0.0001     10.0129    133.0405     29.6986
   983.4000    926.7672      8.0476      2.4961      0.0050      9.3260    139.1409     30.0445
   983.5000    925.7238      8.0475      2.5288      0.0497      7.3472    138.5304     30.1330
   983.6000    925.7238      8.0475      2.5690      0.0587      4.9065    132.1382     30.0189
   983.7000    925.7238      8.0475      2.5931      0.0959      3.4485    124.1809     29.8501
   983.8000    941.0212      8.0485      2.5900      0.0483      3.6367    113.6789     29.2306
   983.9000    941.0212      8.0485      2.5754      0.0087      4.5227    103.9578     28.3259
   984.0000    962.7241      8.0489      2.5696     -0.0260      4.8750    101.1052     27.6065
   984.1000    962.7241      8.0489      2.5713      0.0397      4.7695    101.5536     27.0105
   984.2000    962.7241      8.0489      2.5708     -0.0074      4.7996     98.8026     26.5474
   984.3000    948.3400      8.0488      2.5754     -0.0000      4.5216     92.2401     26.1470
   984.4000    948.3400      8.0488      2.5882      0.0014      3.7451     84.1602     25.2542
   984.5000    942.3696      8.0484      2.5917      0.0409      3.5330     80.0030     23.6847
   984.6000    942.3696      8.0484      2.5733      0.0280      4.6497     84.4492     21.9413
   984.7000    942.3696      8.0484      2.5398      0.0224      6.6818     93.8438     20.4246
   984.8000    927.8283      8.0486      2.4935      0.0191      9.4869    100.1245     18.8957
   984.9000    927.8283      8.0486      2.4184      0.0087     14.0381    101.6122     17.1963
   985.0000    928.7538      8.0497      2.3068     -0.0514     20.8003    101.6848     15.7001
   985.1000    928.7538      8.0497      2.1795     -0.0879     28.5126     98.9198     14.8950
   985.2000    928.7538      8.0497      2.0596     -0.0921     35.7843     92.1126     14.8997
   985.3000    948.5394      8.0529      1.9451     -0.1342     42.7221     88.5532     15.2574
   985.4000    948.5394      8.0529      1.8327     -0.1780     49.5305     93.6734     15.5344
   985.5000    943.3525      8.0607      1.7405     -0.1486     55.1198     99.1933     15.6146
   985.6000    943.3525      8.0607      1.6952     -0.1421     57.8684     95.0395     15.7499
   985.7000    943.3525      8.0607      1.7111     -0.0602     56.9011     86.9189     16.5245
   985.8000    960.0358      8.0711      1.7762      0.0671     52.9579     82.5515     17.9819
   985.9000    960.0358      8.0711      1.8631      0.1379     47.6898     80.9624     19.3870
   986.0000    972.6865      8.0770      1.9553      0.1689     42.1049     81.4344     20.0666
   986.1000    972.6865      8.0770      2.0435      0.1976     36.7590     87.1048     19.9444
   986.2000    972.6865      8.0770      2.1079      0.1872     32.8556     97.2704     19.6600
   986.3000    969.3389      8.0771      2.1278      0.1346     31.6502    108.4666     20.0463
   986.4000    969.3389      8.0771      2.1074      0.0638     32.8869    118.3071     21.3218
   986.5000    960.1266      8.0751      2.0777      0.0281     34.6859    123.3840     23.0323
   986.6000    960.1266      8.0751      2.0693     -0.0325     35.1958    125.1132     24.3089
   986.7000    960.1266      8.0751      2.0871      0.0052     34.1139    125.2081     24.6603
   986.8000    971.3276      8.0740      2.1174      0.0480     32.2767    120.6924     24.6361
   986.9000    971.3276      8.0740      2.1528      0.0648     30.1351    114.7461     24.7500
   987.0000    975.9493      8.0741      2.1898      0.1176     27.8904    111.4659     24.6681
   987.1000    975.9493      8.0741      2.2240      0.0915     25.8161    112.6488     24.3448
   987.2000    975.9493      8.0741      2.2591      0.1437     23.6938    120.6312     24.3749
   987.3000    932.4064      8.0744      2.2901      0.1572     21.8116    130.4403     24.8012
   987.4000    932.4064      8.0744      2.2948      0.1738     21.5276    136.1431     25.1593
   987.5000    911.9628      8.0749      2.2674      0.0696     23.1879    138.7492     25.1762
   987.6000    911.9628      8.0749      2.2433      0.0066     24.6511    140.9588     24.7507
   987.7000    911.9628      8.0749      2.2474      0.0453     24.3988    141.1662     24.4051
   987.8000   1011.8307      8.0745      2.2637      0.0478     23.4118    137.7789     24.5764
   987.9000   1011.8307      8.0745      2.2888      0.0247     21.8904    136.6705     24.7708
   988.0000    951.3301      8.0730      2.3372      0.1832     18.9578    142.0031     24.6180
   988.1000    951.3301      8.0730      2.4026      0.2289     14.9957    149.2255     24.4553
   988.2000    951.3301      8.0730      2.4733      0.2785     10.7085    152.2371     24.4249
   988.3000    920.3620      8.0715      2.5395      0.3792      6.6947    150.1421     24.3038
   988.4000    920.3620      8.0715      2.5860      0.4185      3.8774    146.1331     24.3048
   988.5000    904.9903      8.0717      2.6042      0.3904      2.7751    144.6201     24.8462
   988.6000    904.9903      8.0717      2.6001      0.3093      3.0229    147.5661     25.6850
   988.7000    904.9903      8.0717      2.5945      0.2072      3.3663    151.7746     26.1428
   988.8000    900.0670      8.0722      2.5945      0.2907      3.3655    154.3875     26.1446
   988.9000    900.0670      8.0722      2.5837      0.2627      4.0203    154.7610     26.2887
   989.0000    914.1041      8.0708      2.5617      0.1860      5.3487    154.5452     26.6051
   989.1000    914.1041      8.0708      2.5439      0.1468      6.4331    155.5511     26.5407
   989.2000    914.1041      8.0708      2.5299      0.1484      7.2765    156.2545     26.2275
   989.3000    920.7585      8.0693      2.5170      0.1044      8.0623    155.7188     26.1343
   989.4000    920.7585      8.0693      2.5158      0.0876      8.1340    156.1951     26.1929
   989.5000    898.0720      8.0688      2.5291      0.1182      7.3294    158.7932     26.3012
   989.6000    898.0720      8.0688      2.5436      0.1225      6.4482    159.4919     26.5492
   989.7000    898.0720      8.0688      2.5551      0.1113      5.7495    154.4888     26.8645
   989.8000    873.7787      8.0683      2.5644      0.1667      5.1885    147.5752     26.9944
   989.9000    873.7787      8.0683      2.5632      0.1136      5.2609    144.8702     26.7574
