~Version Information
VERS.                      2.0: CWLS Log ASCII Standard - VERSION 2.0
WRAP.                       NO: One line per depth step
~Well Information Block
STRT.FT               679.2000: 
STOP.FT              2289.5000: 
STEP.FT                 0.1000: 
NULL.                -999.2500: 
COMP.          Petrogulf Corporation: COMPANY
WELL.          Anderson 18-43V: WELL
FLD.           Purgatorie River: FIELD
LOC.           1782' FSL & 887' FEL: LOCATION
CNTY.               Las Animas: COUNTY
SRVC.                         : SERVICE COMPANY
DATE.          Thu Sep 02 08:33:50 2004: LOG DATE
UWI.           05 071 08156 00: UNIQUE WELL ID
STAT.                 Colorado: STATE
~Curve Information Block
DEPT.FT            0 000 00 00: Depth
GR.GAPI                       : Gamma Ray
DCAL.in                       : CDL Caliper
DPOR.pu                       : CDL Density Porosity
NPOR.pu                       : Neutron Porosity
RHOB.g/cc                     : CDL Bulk Density
RHOC.g/cc                     : CDL Density Correction
~Parameter Information Block
~A  Depth        GR         DCAL        DPOR        NPOR        RHOB        RHOC    
# ...
   909.6000    142.7040      8.3485      8.4911     18.8111      2.5099      0.1019
   909.7000    139.6758      8.3485     12.8851     18.1510      2.4374      0.0584
   909.8000    136.4983      8.3659     19.7842     17.5594      2.3236     -0.0072
   909.9000    133.2791      8.3659     28.7212     17.1363      2.1761     -0.0760
   910.0000    130.1502      8.3492     38.8927     17.0531      2.0083     -0.1272
   910.1000    127.2564      8.3492     48.2845     17.1935      1.8533     -0.1957
   910.2000    124.7399      8.3492     55.4351     17.4154      1.7353     -0.1487
   910.3000    122.7239      8.3630     60.7865     17.9446      1.6470     -0.1612
   910.4000    121.2946      8.3630     64.0619     18.9223      1.5930     -0.1807
   910.5000    120.4955      8.4202     63.1243     20.1014      1.6084     -0.1364
   910.6000    120.3148      8.4202     57.0886     21.3775      1.7080      0.0697
   910.7000    120.6924      8.4202     47.8638     22.6801      1.8602      0.2334
   910.8000    121.5223      8.5183     38.0905     23.6867      2.0215      0.3326
   910.9000    122.6685      8.5183     29.4196     24.3622      2.1646      0.3634
   911.0000    123.9849      8.5554     22.1204     25.2372      2.2850      0.3541
   911.1000    125.3277      8.5554     15.9408     26.5752      2.3870      0.3296
   911.2000    126.5738      8.5554     11.3942     27.8501      2.4620      0.3568
   911.3000    127.6358      8.4666      8.8089     28.5474      2.5047      0.2677
   911.4000    128.4638      8.4666      6.9558     28.6590      2.5352      0.1459
   911.5000    129.0514      8.4140      4.9620     28.4231      2.5681      0.1518
   911.6000    129.4262      8.4140      3.8836     27.8916      2.5859      0.1716
   911.7000    129.6429      8.4140      4.8434     27.1108      2.5701      0.1457
   911.8000    129.7677      8.3962      6.9859     26.5974      2.5347      0.0630
   911.9000    129.8646      8.3962      8.5046     26.7152      2.5097      0.0649
   912.0000    129.9908      8.3849      9.0943     27.1915      2.4999      0.0693
   912.1000    130.1822      8.3849      9.3281     27.4513      2.4961      0.0264
   912.2000    130.4577      8.3849      8.7940     27.1662      2.5049      0.0036
   912.3000    130.8172      8.3844      7.5429     26.7018      2.5255      0.1203
   912.4000    131.2447      8.3844      6.9437     26.7437      2.5354      0.1006
   912.5000    131.7146      8.3830      7.2261     27.3970      2.5308      0.0912
   912.6000    132.1953      8.3830      7.1300     27.9792      2.5324      0.0877
   912.7000    132.6528      8.3830      6.2676     28.1427      2.5466      0.1420
   912.8000    133.0558      8.3826      5.9240     28.3234      2.5523      0.1084
   912.9000    133.3755      8.3826      6.6570     28.6785      2.5402      0.0657
   913.0000    133.5889      8.3857      7.3809     29.0320      2.5282      0.1039
   913.1000    133.6780      8.3857      7.2339     29.2175      2.5306      0.1250
   913.2000    133.6311      8.3857      5.8315     29.1418      2.5538      0.1130
   913.3000    133.4442      8.3802      2.7081     28.8990      2.6053      0.1130
   913.4000    133.1164      8.3802     -2.0981     28.5762      2.6846      0.1201
   913.5000    132.6549      8.3603     -7.1970     28.5486      2.7688      0.1954
   913.6000    132.0741      8.3603    -10.8662     29.0694      2.8293      0.2079
   913.7000    131.3970      8.3603    -12.9525     29.7128      2.8637      0.2006
   913.8000    130.6581      8.3584    -13.8915     29.9192      2.8792      0.2433
   913.9000    129.9068      8.3584    -13.3654     29.6193      2.8705      0.1988
   914.0000    129.2035      8.3577    -11.1921     29.0599      2.8347      0.1560
   914.1000    128.6188      8.3577     -7.7774     28.4866      2.7783      0.0810
   914.2000    128.2226      8.3577     -4.2184     28.2478      2.7196     -0.0160
   914.3000    128.0762      8.3552     -1.8903     28.6427      2.6812     -0.0594
   914.4000    128.2170      8.3552     -0.8251     29.2247      2.6636      0.0029
   914.5000    128.6485      8.3559     -0.0553     29.3476      2.6509      0.0018
   914.6000    129.3331      8.3559      0.4313     29.1300      2.6429     -0.0226
   914.7000    130.1888      8.3559      0.7951     28.8602      2.6369      0.0438
   914.8000    131.0984      8.3557      2.1626     28.6235      2.6143      0.0609
   914.9000    131.9223      8.3557      4.1751     28.3776      2.5811     -0.0383
   915.0000    132.5179      8.3571      4.9737     28.1664      2.5679     -0.0156
   915.1000    132.7582      8.3571      4.4970     28.2055      2.5758      0.0210
   915.2000    132.5534      8.3571      4.5992     28.4762      2.5741      0.0681
   915.3000    131.8617      8.3512      5.7041     28.8364      2.5559     -0.0198
   915.4000    130.6943      8.3512      6.1410     29.0005      2.5487     -0.0116
   915.5000    129.1087      8.3561      5.1753     28.7882      2.5646      0.0255
   915.6000    127.1973      8.3561      4.1083     28.5199      2.5822      0.0512
   915.7000    125.0687      8.3561      4.1361     28.4201      2.5818      0.0265
   915.8000    122.8281      8.3511      4.4551     28.1831      2.5765     -0.0116
   915.9000    120.5621      8.3511      3.3164     27.5372      2.5953     -0.0167
   916.0000    118.3302      8.4038      1.2017     26.8466      2.6302      0.0723
   916.1000    116.1589      8.4038      0.7619     26.6379      2.6374      0.0897
   916.2000    114.0510      8.4038      2.5216     26.8708      2.6084      0.0141
   916.3000    111.9892      8.4028      4.1357     27.1917      2.5818      0.0049
   916.4000    109.9484      8.4028      4.3899     27.3999      2.5776      0.0223
   916.5000    107.9046      8.4188      4.1278     27.4020      2.5819      0.0155
   916.6000    105.8374      8.4188      4.1179     27.0609      2.5821      0.0172
   916.7000    103.7333      8.4188      4.4487     26.3746      2.5766      0.0257
   916.8000    101.5826      8.4246      5.0571     25.5643      2.5666      0.0241
   916.9000     99.3732      8.4246      5.6516     24.9331      2.5567     -0.0121
   917.0000     97.0898      8.4826      6.1079     24.5510      2.5492      0.0146
   917.1000     94.7102      8.4826      6.9928     24.2607      2.5346      0.0138
   917.2000     92.2080      8.4826      8.0986     23.8761      2.5164     -0.0635
   917.3000     89.5564      8.4979      8.7547     23.1726      2.5055     -0.0130
   917.4000     86.7359      8.4979      9.3339     22.3865      2.4960     -0.0195
   917.5000     83.7435      8.4771      9.8725     21.8723      2.4871     -0.0458
   917.6000     80.5967      8.4771     10.1358     21.6185      2.4828     -0.0223
   917.7000     77.3387      8.4771     10.7635     21.6711      2.4724     -0.0029
   917.8000     74.0343      8.3023     11.7602     21.9045      2.4560     -0.0313
   917.9000     70.7685      8.3023     11.8456     21.9433      2.4545     -0.0106
   918.0000     67.6327      8.2553     10.6329     21.5174      2.4746      0.0690
   918.1000     64.7180      8.2553      9.1944     20.7916      2.4983      0.0894
   918.2000     62.1033      8.2553      7.8535     20.1675      2.5204      0.0675
   918.3000     59.8468      8.2406      5.7240     19.8482      2.5556      0.1027
   918.4000     57.9801      8.2406      2.9273     19.7686      2.6017      0.1950
   918.5000     56.5082      8.2403      0.5413     19.2521      2.6411      0.2153
   918.6000     55.4136      8.2403     -1.1272     17.8423      2.6686      0.2151
   918.7000     54.6620      8.2403     -2.1096     16.6176      2.6848      0.1994
   918.8000     54.2142      8.2383     -2.0101     16.5108      2.6832      0.1985
   918.9000     54.0343      8.2383     -0.3910     16.9277      2.6565      0.1452
   919.0000     54.0952      8.2357      2.0385     17.1717      2.6164      0.0600
   919.1000     54.3878      8.2357      3.8228     17.1075      2.5869      0.0619
