~Version Information
VERS.                      2.0: CWLS Log ASCII Standard - VERSION 2.0
WRAP.                       NO: One line per depth step
~Well Information Block
STRT.FT                 6.5000: 
STOP.FT              1054.0000: 
STEP.FT                 0.2500: 
NULL.                -999.2500: 
COMP.          Pioneer Natural Resources: COMPANY
WELL.            Galileo 21-11: WELL
FLD.           Purgatoire River: FIELD
LOC.           407' FNL & 2394' FWL: LOCATION
PROV.                 Colorado: PROVINCE
CNTY.               Las Animas: COUNTRY
SRVC.                Patterson: SERVICE COMPANY
DATE.          Sat Apr 16 10:31:00 2005: LOG DATE
UWI.           05 071 08353 00: UNIQUE WELL ID
~Curve Information Block
DEPT.FT            0 000 00 00: Depth
GR.GAPI                       : Gamma Ray
CCL.                          : Casing Collar Locator
TT3.usec                      : CBL 3' Travel Time
AMP3.mV                       : CBL 3' Amplitude
~Parameter Information Block
~A  Depth        GR         CCL         TT3         AMP3    
# ...
   944.5000    110.4241      0.0000   1082.9624      6.6960
   944.7500    109.4461      0.0000   1083.9630      6.6255
   945.0000    109.3799      0.0000   1092.4789      6.5567
   945.2500    108.9365      0.0000   1107.4283      6.4984
   945.5000    107.4378      0.0000   1121.8740      6.4462
   945.7500    105.2810      0.0000   1130.7922      6.3894
   946.0000    103.4592      0.0000   1133.7828      6.3256
   946.2500    102.9613      0.0000   1133.2589      6.2681
   946.5000    104.3905      0.0000   1132.6251      6.2363
   946.7500    107.6129      0.0000   1135.5461      6.2408
   947.0000    111.6259      0.0000   1144.4868      6.2771
   947.2500    115.0050      0.0000   1158.1829      6.3322
   947.5000    116.7054      0.0000   1170.6102      6.3934
   947.7500    116.6585      0.0000   1174.2357      6.4518
   948.0000    115.8215      0.0000   1165.9177      6.5015
   948.2500    115.5116      0.0000   1148.8093      6.5384
   948.5000    116.3779      0.0000   1127.8943      6.5607
   948.7500    117.8622      0.0000   1106.8239      6.5695
   949.0000    118.6076      0.0000   1091.4032      6.5686
   949.2500    117.4579      0.0000   1092.1632      6.5641
   949.5000    114.3708      0.0000   1117.6356      6.5639
   949.7500    110.5417      0.0000   1165.0793      6.5779
   950.0000    107.4933      0.0000   1221.1914      6.6115
   950.2500    105.9526      0.0000   1271.6155      6.6603
   950.5000    105.5931      0.0000   1307.8317      6.7115
   950.7500    105.7398      0.0000   1326.7863      6.7542
   951.0000    106.0885      0.0000   1326.6470      6.7858
   951.2500    106.7356      0.0000   1303.4352      6.8110
   951.5000    107.6544      0.0000   1252.7594      6.8370
   951.7500    108.3307      0.0000   1177.0957      6.8672
   952.0000    108.1480      0.0000   1090.8370      6.8994
   952.2500    107.0574      0.0000   1014.4268      6.9286
   952.5000    105.4900      0.0000    961.5509      6.9505
   952.7500    103.5163      0.0000    932.6599      6.9636
   953.0000    100.4724      0.0000    919.4131      6.9662
   953.2500     95.7002      0.0000    912.5784      6.9552
   953.5000     89.5518      0.0000    906.2348      6.9279
   953.7500     83.4458      0.0000    898.2355      6.8839
   954.0000     78.8896      0.0000    889.2471      6.8245
   954.2500     76.5358      0.0000    881.1802      6.7507
   954.5000     76.1355      0.0000    875.4644      6.6654
   954.7500     77.2207      0.0000    872.2777      6.5766
   955.0000     79.7027      0.0000    870.9575      6.4968
   955.2500     83.8066      0.0000    870.9708      6.4385
   955.5000     89.3897      0.0000    872.5553      6.4112
   955.7500     95.3731      0.0000    876.8744      6.4176
   956.0000    100.0315      0.0000    885.2572      6.4502
   956.2500    101.9522      0.0000    897.3740      6.4927
   956.5000    100.8224      0.0000    910.2692      6.5305
   956.7500     97.6309      0.0000    920.3346      6.5587
   957.0000     94.4183      0.0000    926.4581      6.5830
   957.2500     93.5669      0.0000    930.8789      6.6144
   957.5000     96.5240      0.0000    938.4449      6.6643
   957.7500    102.6346      0.0000    955.1542      6.7401
   958.0000    109.3815      0.0000    983.7119      6.8420
   958.2500    114.0696      0.0000   1019.1664      6.9628
   958.5000    115.4235      0.0000   1051.6451      7.0864
   958.7500    113.9938      0.0000   1073.7483      7.1917
   959.0000    111.3758      0.0000   1083.5410      7.2648
   959.2500    108.9722      0.0000   1081.0774      7.3105
   959.5000    107.4810      0.0000   1064.1434      7.3509
   959.7500    107.2581      0.0000   1028.8495      7.4115
   960.0000    108.2975      0.0000    975.2952      7.5093
   960.2500    109.6709      0.0000    912.5803      7.6473
   960.5000    109.7417      0.0000    856.0605      7.8163
   960.7500    107.3717      0.0000    817.7340      7.9991
   961.0000    102.8711      0.0000    799.3555      8.1737
   961.2500     97.7851      0.0000    794.4405      8.3174
   961.5000     93.7543      0.0000    795.1481      8.4128
   961.7500     91.4425      0.0000    796.7939      8.4561
   962.0000     90.4680      0.0000    797.9806      8.4591
   962.2500     90.2588      0.0000    798.8904      8.4445
   962.5000     90.8636      0.0000    800.0790      8.4327
   962.7500     92.9012      0.0000    802.0311      8.4327
   963.0000     96.7431      0.0000    804.9041      8.4418
   963.2500    101.7800      0.0000    808.3793      8.4544
   963.5000    106.5854      0.0000    812.0920      8.4708
   963.7500    109.8177      0.0000    816.5022      8.4959
   964.0000    110.9162      0.0000    823.1979      8.5307
   964.2500    110.1263      0.0000    834.5018      8.5677
   964.5000    108.1668      0.0000    853.0157      8.5973
   964.7500    105.7785      0.0000    880.2407      8.6192
   965.0000    103.2503      0.0000    913.0400      8.6405
   965.2500    100.4487      0.0000    941.1490      8.6646
   965.5000     97.4866      0.0000    951.3358      8.6844
   965.7500     95.0476      0.0000    937.0106      8.6908
   966.0000     93.7388      0.0000    903.8853      8.6860
   966.2500     93.3861      0.0000    865.5119      8.6884
   966.5000     93.2723      0.0000    833.6882      8.7243
   966.7500     92.8736      0.0000    812.8694      8.8141
   967.0000     92.2120      0.0000    801.2897      8.9613
   967.2500     91.8406      0.0000    794.9890      9.1503
   967.5000     92.6024      0.0000    790.9249      9.3550
   967.7500     94.8535      0.0000    788.1042      9.5494
   968.0000     97.7022      0.0000    786.9612      9.7124
   968.2500     99.5443      0.0000    787.8464      9.8269
   968.5000     99.5613      0.0000    790.0726      9.8847
   968.7500     98.2717      0.0000    792.3766      9.8976
   969.0000     96.6188      0.0000    793.9125      9.8959
   969.2500     95.1234      0.0000    794.6005      9.9109
   969.5000     93.9453      0.0000    794.7697      9.9545
   969.7500     93.0931      0.0000    794.7427     10.0180
   970.0000     92.3248      0.0000    794.6922     10.0847
   970.2500     91.2063      0.0000    794.6937     10.1368
   970.5000     89.5003      0.0000    794.8010     10.1552
   970.7500     87.4176      0.0000    795.0566     10.1232
   971.0000     85.5090      0.0000    795.4473     10.0392
   971.2500     84.4937      0.0000    795.8547      9.9245
   971.5000     85.0941      0.0000    796.0182      9.8144
   971.7500     87.6143      0.0000    795.5242      9.7373
   972.0000     91.5398      0.0000    793.9670      9.6964
   972.2500     95.8436      0.0000    791.4089      9.6723
   972.5000     99.8046      0.0000    788.7904      9.6431
   972.7500    103.3325      0.0000    787.5165      9.6048
   973.0000    106.5484      0.0000    788.2510      9.5712
   973.2500    109.3344      0.0000    790.2280      9.5492
   973.5000    111.1203      0.0000    792.1224      9.5046
   973.7500    111.0054      0.0000    793.6462      9.3517
   974.0000    108.6588      0.0000    796.2365      8.9853
   974.2500    105.2240      0.0000    802.3322      8.3516
   974.5000    102.6296      0.0000    814.3661      7.5149
   974.7500    101.7911      0.0000    834.6410      6.6431
   975.0000    101.9768      0.0000    865.2164      5.8939
   975.2500    101.8881      0.0000    905.8770      5.3186
   975.5000    100.7547      0.0000    951.3680      4.8993
   975.7500     98.4735      0.0000    992.5007      4.6362
   976.0000     95.4180      0.0000   1022.0890      4.5439
   976.2500     92.2682      3.0000   1039.8737      4.5951
   976.5000     89.6365      0.0000   1051.8717      4.7250
   976.7500     87.7050      0.0000   1066.1897      4.8822
   977.0000     86.3915      0.0000   1086.9684      5.0671
   977.2500     85.8626      0.0000   1106.9012      5.3400
   977.5000     86.6075      0.0000   1106.8274      5.7818
   977.7500     88.9296      0.0000   1070.1370      6.4114
