~Version Information
 VERS.                                  2.0 : CWLS LAS VERSION
 WRAP.                                   NO : WRAPING MODE
 SWARE .                 MController 2.5.0N : SOFTWARE VERSION
~Well Information
 WELL.                         Vector 33-23 : WELL
 COMP.    Pioneer Natural Resources USA Inc : COMPANY
 FLD.                      Purgatoire River : FIELD
 LOC.                NW/SE Sec 23 T32S R66W : LOCATION
 DATE.                              3/25/05 : DATE(S) LOGGED
 SRVC.       Blanco Geological Services LLC : SERVICE COMPANY
 STAT.                                   CO : STATE
 CNTY.                           Las Animas : COUNTY
 CTRY.                                  USA : COUNTRY
 API.                       05-071-08336-00 : API NUMBER
 STRT.FT                             770.00 : START DEPTH
 STOP.FT                            2300.00 : STOP DEPTH
 STEP.FT                               1.00 : DEPTH INCREMENT
 NULL.                                -9999 : NULL VALUE
~Curve information
 DEPTH.FT                                   :
 ROP.MIN/FT                                 :
 GAS.UNITS                                  :
~ASCII Log data
# ...
      1370.0         0.20         72.3 
      1371.0         0.30         66.7 
      1372.0         0.28         72.5 
      1373.0         0.20         97.8 
      1374.0         0.17        126.5 
      1375.0         0.17        166.4 
      1376.0         1.57        246.3 
      1377.0         0.33        164.0 
      1378.0         0.30        129.5 
      1379.0         0.27        108.4 
      1380.0         0.27         96.5 
      1381.0         0.25         89.2 
      1382.0         0.40         65.6 
      1383.0         0.40         69.7 
      1384.0         0.20         71.7 
      1385.0         0.23         76.8 
      1386.0         0.20         80.8 
      1387.0         0.20         87.1 
      1388.0         0.17         95.1 
      1389.0         0.20        102.7 
      1390.0         0.20        105.4 
      1391.0         0.33        105.5 
      1392.0         0.30         98.1 
      1393.0         0.23         88.2 
      1394.0         0.27         82.0 
      1395.0         0.28         77.9 
      1396.0         0.23         73.4 
      1397.0         0.23         68.8 
      1398.0         0.23         65.3 
      1399.0         0.30         63.6 
      1400.0         0.27         61.0 
      1401.0         0.20         58.7 
      1402.0         0.23         55.1 
      1403.0         0.23         47.7 
      1404.0         0.23         38.8 
      1405.0         0.20         36.5 
      1406.0         2.82        190.9 
      1407.0         0.33         94.4 
      1408.0         0.30         77.9 
      1409.0         0.30         67.5 
      1410.0         0.27         65.2 
      1411.0         0.28         62.7 
      1412.0         0.30         56.5 
      1413.0         0.23         53.1 
      1414.0         0.23         56.2 
      1415.0         0.23         58.3 
      1416.0         0.20         58.7 
      1417.0         0.17         57.8 
      1418.0         0.13         56.6 
      1419.0         0.10         54.7 
      1420.0         0.10         53.8 
      1421.0         0.20         52.7 
      1422.0         0.20         50.1 
      1423.0         0.17         47.5 
      1424.0         0.13         45.8 
      1425.0         0.13         44.9 
      1426.0         0.20         44.2 
      1427.0         0.17         44.1 
      1428.0         0.22         43.6 
      1429.0         0.30         42.3 
      1430.0         0.20         38.4 
      1431.0         0.17         32.2 
      1432.0         0.17         28.4 
      1433.0         0.17         26.1 
      1434.0         0.13         26.9 
      1435.0         0.20         36.0 
      1436.0         2.98        237.6 
      1437.0         0.37         78.7 
      1438.0         0.27         61.2 
      1439.0         0.30         54.2 
      1440.0         0.23         54.4 
      1441.0         0.27         57.7 
      1442.0         0.27         59.5 
      1443.0         0.30         59.5 
      1444.0         0.17         57.2 
      1445.0         0.12         55.0 
      1446.0         0.17         53.1 
      1447.0         0.27         51.8 
      1448.0         0.27         49.1 
      1449.0         0.23         46.4 
      1450.0         0.23         44.5 
      1451.0         0.27         43.0 
      1452.0         0.27         41.9 
      1453.0         0.27         40.7 
      1454.0         0.23         39.9 
      1455.0         0.27         39.6 
      1456.0         0.27         39.8 
      1457.0         0.30         40.2 
      1458.0         0.32         40.1 
      1459.0         0.23         40.0 
      1460.0         0.23         40.0 
      1461.0         0.23         42.5 
      1462.0         0.23         47.8 
      1463.0         0.27         51.8 
      1464.0         0.23         50.2 
      1465.0         0.30         43.0 
      1466.0         2.88         95.8 
      1467.0         0.43         59.7 
      1468.0         0.30         50.4 
      1469.0         0.27         46.6 
      1470.0         0.23         46.7 
      1471.0         0.30         47.4 
      1472.0         0.27         46.6 
      1473.0         0.28         44.0 
      1474.0         0.33         40.6 
      1475.0         0.27         36.6 
      1476.0         0.27         32.7 
      1477.0         0.27         31.1 
      1478.0         0.23         30.9 
      1479.0         0.23         31.7 
      1480.0         0.23         31.7 
      1481.0         0.23         32.1 
      1482.0         0.27         32.7 
      1483.0         0.27         33.1 
      1484.0         0.17         32.9 
      1485.0         0.23         33.1 
      1486.0         0.23         33.8 
      1487.0         0.25         32.6 
      1488.0         0.17         33.1 
      1489.0         0.13         32.4 
      1490.0         0.17         31.0 
      1491.0         0.20         29.1 
      1492.0         0.17         28.0 
      1493.0         0.13         28.8 
      1494.0         0.20         36.1 
      1495.0         0.27         52.8 
      1496.0         2.08         95.9 
      1497.0         0.43         58.8 
      1498.0         0.33         46.8 
      1499.0         0.33         39.9 
      1500.0         0.27         37.8 
      1501.0         0.27         38.2 
      1502.0         0.30         39.8 
      1503.0         0.33         39.9 
      1504.0         0.33         39.5 
      1505.0         0.30         37.9 
      1506.0         0.32         35.3 
      1507.0         0.37         33.9 
      1508.0         0.23         35.9 
      1509.0         0.20         41.0 
      1510.0         0.17         44.6 
      1511.0         0.20         46.6 
      1512.0         0.13         47.2 
      1513.0         0.17         46.9 
      1514.0         0.13         46.5 
      1515.0         0.17         45.6 
      1516.0         0.23         42.9 
      1517.0         0.30         40.7 
      1518.0         0.27         38.5 
      1519.0         0.27         37.0 
      1520.0         0.17         36.3 
      1521.0         0.25         35.2 
      1522.0         0.27         31.1 
      1523.0         0.30         25.3 
      1524.0         0.23         24.9 
      1525.0         0.27         31.8 
      1526.0         2.25        101.8 
      1527.0         0.37         76.1 
      1528.0         0.63         61.9 
      1529.0         0.27         44.7 
      1530.0         0.27         41.5 
      1531.0         0.43         42.7 
      1532.0         0.50         57.3 
      1533.0         0.33         61.5 
      1534.0         0.17         60.9 
      1535.0         0.20         59.3 
      1536.0         0.18         54.8 
      1537.0         0.30         50.2 
      1538.0         0.23         44.6 
      1539.0         0.30         40.2 
      1540.0         0.27         36.7 
      1541.0         0.27         34.7 
      1542.0         0.27         34.4 
      1543.0         0.17         33.9 
      1544.0         0.20         33.3 
      1545.0         0.23         32.9 
      1546.0         0.23         32.4 
      1547.0         0.37         29.5 
      1548.0         0.48         27.2 
      1549.0         0.20         27.7 
      1550.0         0.20         27.6 
      1551.0         0.23         28.1 
      1552.0         0.27         27.9 
      1553.0         0.20         25.4 
      1554.0         0.27         20.9 
      1555.0         0.23         14.9 
      1556.0         2.82        135.2 
      1557.0         0.40         67.7 
      1558.0         0.30         54.2 
      1559.0         0.23         50.2 
      1560.0         0.30         46.6 
      1561.0         0.33         45.5 
      1562.0         0.40         47.3 
      1563.0         0.38         46.9 
      1564.0         0.33         44.7 
      1565.0         0.37         42.4 
      1566.0         0.37         39.5 
      1567.0         0.37         36.6 
      1568.0         0.37         36.5 
      1569.0         0.33         36.5 
