~Version Information
VERS.                      2.0: CWLS Log ASCII Standard - VERSION 2.0
WRAP.                       NO: One line per depth step
~Well Information Block
STRT.FT               720.0000: 
STOP.FT              2265.7000: 
STEP.FT                 0.1000: 
NULL.                -999.2500: 
COMP.          Pioneer Natural Resources: COMPANY
WELL.          Casablanca 11-28 Tr: WELL
FLD.           Purgatoire River: FIELD
LOC.           422' FNL & 215' FWL----: LOCATION
PROV.                 Colorado: PROVINCE
CNTY.               Las Animas: COUNTRY
SRVC.                Patterson: SERVICE COMPANY
DATE.          Mon Mar 07 07:16:34 2005: LOG DATE
UWI.           05 071 08314 00: UNIQUE WELL ID
~Curve Information Block
DEPT.FT            0 000 00 00: Depth
DCAL.in                       : CDL Caliper
RHOB.g/cc                     : CDL Bulk Density
RHOC.g/cc                     : CDL Density Correction
DPOR.pu                       : CDL Density Porosity
NPOR.pu                       : Neutron Porosity
GR.GAPI                       : Gamma Ray
~Parameter Information Block
~A  Depth       DCAL        RHOB        RHOC        DPOR        NPOR         GR     
# ...
  2236.8000      7.7784      2.5173      0.0724      8.0451     23.1398   -999.2500
  2236.9000      7.7784      2.5181      0.0700      7.9914     23.4341   -999.2500
  2237.0000      7.7769      2.5195      0.0234      7.9075     23.6720   -999.2500
  2237.1000      7.7769      2.5278      0.1093      7.4039     23.8332   -999.2500
  2237.2000      7.7769      2.5354      0.0701      6.9474     23.8422   -999.2500
  2237.3000      7.7931      2.5404      0.0823      6.6416     23.5737   -999.2500
  2237.4000      7.7931      2.5488      0.0706      6.1338     23.0655   -999.2500
  2237.5000      7.8177      2.5655      0.0425      5.1198     22.7079   -999.2500
  2237.6000      7.8177      2.5902      0.0624      3.6257     22.9319   -999.2500
  2237.7000      7.8177      2.6170      0.0649      2.0005     23.4905   -999.2500
  2237.8000      7.8357      2.6370      0.1054      0.7909     23.7979   -999.2500
  2237.9000      7.8357      2.6363      0.1266      0.8306     23.8540   -999.2500
  2238.0000      7.8406      2.6185      0.0407      1.9117     23.8151   -999.2500
  2238.1000      7.8406      2.6098      0.0611      2.4378     23.7344   -999.2500
  2238.2000      7.8406      2.6150      0.1136      2.1214     23.6534   -999.2500
  2238.3000      7.8387      2.6060      0.1230      2.6667     23.3930   -999.2500
  2238.4000      7.8387      2.5758     -0.0081      4.4941     22.9887   -999.2500
  2238.5000      7.8376      2.5521      0.0359      5.9316     22.6846   -999.2500
  2238.6000      7.8376      2.5462      0.0612      6.2922     22.6142   -999.2500
  2238.7000      7.8376      2.5520      0.0348      5.9377     22.8444   -999.2500
  2238.8000      7.8361      2.5609      0.0698      5.4019     23.6331   -999.2500
  2238.9000      7.8361      2.5594      0.0453      5.4883     26.5576   -999.2500
  2239.0000      7.8288      2.5541     -0.0039      5.8126     35.0736   -999.2500
  2239.1000      7.8288      2.5559      0.0529      5.7036     48.2696   -999.2500
  2239.2000      7.8288      2.5589      0.0395      5.5229     57.6922   -999.2500
  2239.3000      7.8178      2.5589      0.0503      5.5217     61.0372   -999.2500
  2239.4000      7.8178      2.5569      0.0611      5.6434     61.6864   -999.2500
  2239.5000      7.8099      2.5567      0.0619      5.6524     61.7549   -999.2500
  2239.6000      7.8099      2.5607      0.0889      5.4124     61.7587   -999.2500
  2239.7000      7.8099      2.5630      0.0691      5.2721   -999.2500   -999.2500
  2239.8000      7.8059      2.5618      0.0769      5.3482   -999.2500   -999.2500
  2239.9000      7.8059      2.5634      0.0459      5.2494   -999.2500   -999.2500
  2240.0000      7.8068      2.5727      0.0842      4.6830   -999.2500   -999.2500
  2240.1000      7.8068      2.5838      0.1233      4.0112   -999.2500   -999.2500
  2240.2000      7.8068      2.5839      0.1066      4.0068   -999.2500   -999.2500
  2240.3000      7.8113      2.5722      0.0508      4.7149   -999.2500   -999.2500
  2240.4000      7.8113      2.5635      0.0581      5.2447   -999.2500   -999.2500
  2240.5000      7.8179      2.5666      0.0539      5.0538   -999.2500   -999.2500
  2240.6000      7.8179      2.5732      0.0733      4.6537   -999.2500   -999.2500
  2240.7000      7.8179      2.5712      0.0253      4.7771   -999.2500   -999.2500
  2240.8000      7.8279      2.5607      0.0489      5.4092   -999.2500   -999.2500
  2240.9000      7.8279      2.5521      0.0224      5.9345   -999.2500   -999.2500
  2241.0000      7.8387      2.5594     -0.0006      5.4922   -999.2500   -999.2500
  2241.1000      7.8387      2.5799      0.0811      4.2505   -999.2500   -999.2500
  2241.2000      7.8387      2.5919      0.0398      3.5228   -999.2500   -999.2500
  2241.3000      7.8415      2.5848      0.0554      3.9544   -999.2500   -999.2500
  2241.4000      7.8415      2.5656      0.0095      5.1122   -999.2500   -999.2500
  2241.5000      7.8323      2.5484      0.0400      6.1589   -999.2500   -999.2500
  2241.6000      7.8323      2.5321      0.0492      7.1449   -999.2500   -999.2500
  2241.7000      7.8323      2.5101      0.0032      8.4782   -999.2500   -999.2500
  2241.8000      7.8161      2.4981     -0.0021      9.2077   -999.2500   -999.2500
  2241.9000      7.8161      2.5135      0.0362      8.2700   -999.2500   -999.2500
  2242.0000      7.7983      2.5396      0.0476      6.6899   -999.2500   -999.2500
  2242.1000      7.7983      2.5407      0.1105      6.6220   -999.2500   -999.2500
  2242.2000      7.7983      2.5160      0.0152      8.1218   -999.2500   -999.2500
  2242.3000      7.7757      2.5011      0.0467      9.0227   -999.2500   -999.2500
  2242.4000      7.7757      2.5095      0.0378      8.5129   -999.2500   -999.2500
  2242.5000      7.7470      2.5156      0.0913      8.1466   -999.2500   -999.2500
  2242.6000      7.7470      2.5021      0.0152      8.9621   -999.2500   -999.2500
  2242.7000      7.7470      2.4865     -0.0108      9.9090   -999.2500   -999.2500
  2242.8000      7.7142      2.4878      0.0450      9.8333   -999.2500   -999.2500
  2242.9000      7.7142      2.5064      0.0590      8.7060   -999.2500   -999.2500
  2243.0000      7.6874      2.5298      0.0893      7.2857   -999.2500   -999.2500
  2243.1000      7.6874      2.5478      0.0682      6.1916   -999.2500   -999.2500
  2243.2000      7.6874      2.5658      0.0855      5.1046   -999.2500   -999.2500
  2243.3000      7.6762      2.5835      0.1287      4.0315   -999.2500   -999.2500
  2243.4000      7.6762      2.5893      0.0952      3.6773   -999.2500   -999.2500
  2243.5000      7.6739      2.5785      0.0735      4.3327   -999.2500   -999.2500
  2243.6000      7.6739      2.5548      0.0470      5.7682   -999.2500   -999.2500
  2243.7000      7.6739      2.5301      0.0602      7.2688   -999.2500   -999.2500
  2243.8000      7.6685      2.5171      0.0613      8.0536   -999.2500   -999.2500
  2243.9000      7.6685      2.5175      0.0525      8.0294   -999.2500   -999.2500
  2244.0000      7.6574      2.5259      0.0493      7.5232   -999.2500   -999.2500
  2244.1000      7.6574      2.5360      0.0549      6.9068   -999.2500   -999.2500
  2244.2000      7.6574      2.5378      0.0902      6.7981   -999.2500   -999.2500
  2244.3000      7.6433      2.5226      0.0755      7.7191   -999.2500   -999.2500
  2244.4000      7.6433      2.5017      0.0365      8.9896   -999.2500   -999.2500
  2244.5000      7.6335      2.4989      0.0328      9.1554   -999.2500   -999.2500
  2244.6000      7.6335      2.5192      0.0704      7.9303   -999.2500   -999.2500
  2244.7000      7.6335      2.5413      0.1006      6.5894   -999.2500   -999.2500
  2244.8000      7.6337      2.5469      0.0892      6.2472   -999.2500   -999.2500
  2244.9000      7.6337      2.5391      0.0736      6.7216   -999.2500   -999.2500
  2245.0000      7.6374      2.5301      0.0618      7.2659   -999.2500   -999.2500
  2245.1000      7.6374      2.5253      0.0541      7.5604   -999.2500   -999.2500
  2245.2000      7.6374      2.5183      0.1017      7.9811   -999.2500   -999.2500
  2245.3000      7.6311      2.5027      0.0707      8.9247   -999.2500   -999.2500
  2245.4000      7.6311      2.4878      0.0499      9.8325   -999.2500   -999.2500
  2245.5000      7.6109      2.4843      0.0833     10.0436   -999.2500   -999.2500
  2245.6000      7.6109      2.4894      0.0828      9.7330   -999.2500   -999.2500
  2245.7000      7.6109      2.4988      0.0521      9.1607   -999.2500   -999.2500
  2245.8000      7.5808      2.5082      0.1089      8.5950   -999.2500   -999.2500
  2245.9000      7.5808      2.5090      0.0511      8.5450   -999.2500   -999.2500
  2246.0000      7.5399      2.4960      0.0808      9.3306   -999.2500   -999.2500
  2246.1000      7.5399      2.4625      0.0652     11.3663   -999.2500   -999.2500
  2246.2000      7.5399      2.4089      0.0176     14.6125   -999.2500   -999.2500
  2246.3000      7.4924      2.3555      0.0221     17.8507   -999.2500   -999.2500
