~Version Information
VERS.                      2.0: CWLS Log ASCII Standard - VERSION 2.0
WRAP.                       NO: One line per depth step
~Well Information Block
STRT.FT               582.2500: 
STOP.FT              2642.5000: 
STEP.FT                 0.2500: 
NULL.                -999.2500: 
COMP.          Petrogulf Corporation: COMPANY
WELL.           Montoya 12-41V: WELL
FLD.           Purgatorie River: FIELD
LOC.           1081' FNL & 605' FEL: LOCATION
CNTY.               Las Animas: COUNTY
SRVC.                         : SERVICE COMPANY
DATE.          Tue Aug 10 10:59:28 2004: LOG DATE
UWI.           05 071 08094 00: UNIQUE WELL ID
STAT.                 Colorado: STATE
~Curve Information Block
DEPT.FT            0 000 00 00: Depth
SP.mV                         : DIL Spontaneous Potential
RILD.Ohm-m                    : DIL Deep Resistivity
RILM.Ohm-m                    : DIL Medium Resistivity
RLL3.Ohm-m                    : DIL Shallow Resistivity
GR.GAPI                       : Gamma Ray
~Parameter Information Block
~A  Depth        SP         RILD        RILM        RLL3         GR     
# ...
   750.2500   2000.0000     21.4731     21.7057   1998.0000    115.2904
   750.5000   2000.0000     21.3120     20.9992   1998.0000    118.6024
   750.7500   2000.0000     21.1328     20.3460   1998.0000    121.1549
   751.0000   2000.0000     20.8748     19.7869   1998.0000    124.6585
   751.2500   2000.0000     20.5015     19.3440   1998.0000    126.3020
   751.5000   2000.0000     20.0195     19.0243   1998.0000    127.1294
   751.7500   2000.0000     19.4824     18.8250   1998.0000    126.6130
   752.0000   2000.0000     18.9736     18.7399   1998.0000    125.2827
   752.2500   2000.0000     18.5753     18.7646   1998.0000    124.7419
   752.5000   2000.0000     18.3394     18.8996   1998.0000    124.4085
   752.7500   2000.0000     18.2727     19.1526   1998.0000    123.7802
   753.0000   2000.0000     18.3402     19.5385   1998.0000    121.3232
   753.2500   2000.0000     18.4829     20.0779   1998.0000    118.7649
   753.5000   2000.0000     18.6482     20.7977   1998.0000    114.1168
   753.7500   2000.0000     18.8175     21.7312   1998.0000    110.7037
   754.0000   2000.0000     19.0179     22.9215   1998.0000    105.4895
   754.2500   2000.0000     19.3123     24.4251   1998.0000    102.3146
   754.5000   2000.0000     19.7782     26.3170   1998.0000     98.5152
   754.7500   2000.0000     20.4859     28.6945   1998.0000     96.4922
   755.0000   2000.0000     21.4795     31.6753   1998.0000     93.2350
   755.2500   2000.0000     22.7582     35.3872   1998.0000     90.3167
   755.5000   2000.0000     24.2578     39.9421   1998.0000     84.5942
   755.7500   2000.0000     25.8429     45.3793   1998.0000     80.3658
   756.0000   2000.0000     27.3222     51.5755   1998.0000     74.8798
   756.2500   2000.0000     28.4922     58.1334   1998.0000     72.5162
   756.5000   2000.0000     29.1902     64.3098   1998.0000     71.0281
   756.7500   2000.0000     29.3328     69.0980   1998.0000     70.7945
   757.0000   2000.0000     28.9332     71.5337   1998.0000     70.1825
   757.2500   2000.0000     28.1028     71.1088   1998.0000     69.1007
   757.5000   2000.0000     27.0265     67.9996   1998.0000     66.6934
   757.7500   2000.0000     25.9045     62.9513   1998.0000     65.3173
   758.0000   2000.0000     24.8891     56.9134   1998.0000     65.3567
   758.2500   2000.0000     24.0525     50.7259   1998.0000     67.6374
   758.5000   2000.0000     23.3908     44.9637   1998.0000     75.1274
   758.7500   2000.0000     22.8599     39.9336   1998.0000     82.7494
   759.0000   2000.0000     22.4140     35.7413   1998.0000     97.0974
   759.2500   2000.0000     22.0353     32.3698   1998.0000    107.4955
   759.5000   2000.0000     21.7406     29.7421   1998.0000    122.0101
   759.7500   2000.0000     21.5658     27.7602   1998.0000    129.6869
   760.0000   2000.0000     21.5426     26.3259   1998.0000    136.5835
   760.2500   2000.0000     21.6797     25.3510   1998.0000    137.7459
   760.5000   2000.0000     21.9551     24.7610   1998.0000    135.2248
   760.7500   2000.0000     22.3214     24.4961   1998.0000    131.9563
   761.0000   2000.0000     22.7206     24.5114   1998.0000    126.7919
   761.2500   2000.0000     23.1021     24.7771   1998.0000    123.7057
   761.5000   2000.0000     23.4332     25.2769   1998.0000    119.1947
   761.7500   2000.0000     23.7060     26.0068   1998.0000    115.7178
   762.0000   2000.0000     23.9364     26.9692   1998.0000    109.2000
   762.2500   2000.0000     24.1641     28.1645   1998.0000    103.9541
   762.5000   2000.0000     24.4431     29.5796   1998.0000     94.9967
   762.7500   2000.0000     24.8270     31.1706   1998.0000     88.5702
   763.0000   2000.0000     25.3511     32.8437   1998.0000     79.0483
   763.2500   2000.0000     26.0163     34.4441   1998.0000     73.4519
   763.5000   2000.0000     26.7819     35.7583   1998.0000     67.4510
   763.7500   2000.0000     27.5617     36.5569   1998.0000     65.6813
   764.0000   2000.0000     28.2309     36.6650   1998.0000     66.8897
   764.2500   2000.0000     28.6466     36.0356   1998.0000     70.0194
   764.5000   2000.0000     28.6927     34.7707   1998.0000     77.1457
   764.7500   2000.0000     28.3368     33.0764   1998.0000     83.1391
   765.0000   2000.0000     27.6553     31.1828   1998.0000     94.1629
   765.2500   2000.0000     26.7999     29.2781   1998.0000    102.8582
   765.5000   2000.0000     25.9237     27.4838   1998.0000    116.7002
   765.7500   2000.0000     25.1236     25.8569   1998.0000    125.3774
   766.0000   2000.0000     24.4243     24.4113   1998.0000    136.4027
   766.2500   2000.0000     23.7968     23.1375   1998.0000    142.3286
   766.5000   2000.0000     23.1948     22.0178   1998.0000    149.2415
   766.7500   2000.0000     22.5859     21.0357   1998.0000    152.5284
   767.0000   2000.0000     21.9664     20.1788   1998.0000    155.3989
   767.2500   2000.0000     21.3581     19.4392   1998.0000    156.1254
   767.5000   2000.0000     20.7935     18.8112   1998.0000    156.5706
   767.7500   2000.0000     20.3007     18.2900   1998.0000    157.4419
   768.0000   2000.0000     19.8887     17.8701   1998.0000    160.7524
   768.2500   2000.0000     19.5453     17.5447   1998.0000    163.9692
   768.5000   2000.0000     19.2416     17.3065   1998.0000    168.1359
   768.7500   2000.0000     18.9485     17.1487   1998.0000    169.1125
   769.0000   2000.0000     18.6534     17.0657   1998.0000    167.1081
   769.2500   2000.0000     18.3675     17.0547   1998.0000    164.1031
   769.5000   2000.0000     18.1189     17.1158   1998.0000    158.9752
   769.7500   2000.0000     17.9333     17.2510   1998.0000    156.0210
   770.0000   2000.0000     17.8201     17.4618   1998.0000    152.8206
   770.2500   2000.0000     17.7684     17.7469   1998.0000    151.2218
   770.5000   2000.0000     17.7567     18.0985   1998.0000    148.3719
   770.7500   2000.0000     17.7692     18.4997   1998.0000    145.3710
   771.0000   2000.0000     17.8075     18.9237   1998.0000    138.8495
   771.2500   2000.0000     17.8888     19.3373   1998.0000    133.9569
   771.5000   2000.0000     18.0338     19.7059   1998.0000    128.2796
   771.7500   2000.0000     18.2513     20.0019   1998.0000    126.6256
   772.0000   2000.0000     18.5282     20.2101   1998.0000    126.8740
   772.2500   2000.0000     18.8299     20.3294   1998.0000    127.6047
   772.5000   2000.0000     19.1069     20.3686   1998.0000    127.7298
   772.7500   2000.0000     19.3100     20.3407   1998.0000    127.0549
   773.0000   2000.0000     19.4041     20.2562   1998.0000    126.0637
   773.2500   2000.0000     19.3744     20.1219   1998.0000    126.2992
   773.5000   2000.0000     19.2194     19.9420   1998.0000    128.9927
   773.7500   2000.0000     18.9376     19.7205   1998.0000    132.3340
   774.0000   2000.0000     18.5222     19.4647   1998.0000    138.5713
   774.2500   2000.0000     17.9733     19.1839   1998.0000    142.6629
   774.5000   2000.0000     17.3152     18.8887   1998.0000    147.7487
   774.7500   2000.0000     16.6046     18.5897   1998.0000    150.3875
   775.0000   2000.0000     15.9171     18.2953   1998.0000    153.5144
   775.2500   2000.0000     15.3235     18.0137   1998.0000    155.1125
   775.5000   2000.0000     14.8720     17.7537   1998.0000    156.6456
   775.7500   2000.0000     14.5821     17.5253   1998.0000    157.0568
   776.0000   2000.0000     14.4464     17.3395   1998.0000    156.8936
   776.2500   2000.0000     14.4354     17.2062   1998.0000    156.3146
   776.5000   2000.0000     14.5021     17.1313   1998.0000    154.7624
   776.7500   2000.0000     14.5900     17.1151   1998.0000    153.4687
   777.0000   2000.0000     14.6471     17.1509   1998.0000    151.8907
   777.2500   2000.0000     14.6424     17.2260   1998.0000    151.5080
   777.5000   2000.0000     14.5762     17.3229   1998.0000    152.2462
   777.7500   2000.0000     14.4753     17.4220   1998.0000    153.5589
   778.0000   2000.0000     14.3771     17.5054   1998.0000    156.4549
