~Version Information
VERS.                      2.0: CWLS Log ASCII Standard - VERSION 2.0
WRAP.                       NO: One line per depth step
~Well Information Block
STRT.FT               742.0000: 
STOP.FT              2582.0000: 
STEP.FT                 0.2500: 
NULL.                -999.2500: 
COMP.          Petrogulf Corporation: COMPANY
WELL.            Montoya 7-12V: WELL
FLD.           Purgatorie River: FIELD
LOC.           728' FWL & 1764' FNL: LOCATION
CNTY.               Las Animas: COUNTY
SRVC.                         : SERVICE COMPANY
DATE.          Thu Feb 19 20:58:32 2004: LOG DATE
UWI.           05-071-07887-00: UNIQUE WELL ID
STAT.                 Colorado: STATE
~Curve Information Block
DEPT.FT            0 000 00 00: Depth
SP.mV                         : DIL Spontaneous Potential
RILD.Ohm-m                    : DIL Deep Resistivity
RILM.Ohm-m                    : DIL Medium Resistivity
RLL3.Ohm-m                    : DIL Shallow Resistivity
GR.GAPI                       : Gamma Ray
~Parameter Information Block
~A  Depth        SP         RILD        RILM        RLL3         GR     
# ...
  2562.0000    -10.0161      8.9503      9.6884     12.8814   -999.2500
  2562.2500     -9.8798      8.7839      9.2397     10.1719   -999.2500
  2562.5000     -9.7863      8.6333      8.8913      7.6958   -999.2500
  2562.7500     -9.7272      8.4849      8.6615      6.0817   -999.2500
  2563.0000     -9.6812      8.3231      8.5459      5.5516   -999.2500
  2563.2500     -9.6263      8.1385      8.5173      6.0887   -999.2500
  2563.5000     -9.5491      7.9338      8.5300      7.5952   -999.2500
  2563.7500     -9.4482      7.7254      8.5289      9.8113   -999.2500
  2564.0000     -9.3335      7.5373      8.4678     12.1026   -999.2500
  2564.2500     -9.2222      7.3957      8.3297     13.5133   -999.2500
  2564.5000     -9.1349      7.3173      8.1345     13.3071   -999.2500
  2564.7500     -9.0917      7.3105      7.9282     11.5697   -999.2500
  2565.0000     -9.1093      7.3783      7.7604      9.1955   -999.2500
  2565.2500     -9.1999      7.5123      7.6679      7.2387   -999.2500
  2565.5000     -9.3702      7.6960      7.6672      6.2955   -999.2500
  2565.7500     -9.6212      7.9083      7.7567      6.3794   -999.2500
  2566.0000     -9.9458      8.1285      7.9216      7.1366   -999.2500
  2566.2500    -10.3280      8.3409      8.1424      8.0819   -999.2500
  2566.5000    -10.7460      8.5400      8.4034      8.7963   -999.2500
  2566.7500    -11.1802      8.7358      8.6998      9.1422   -999.2500
  2567.0000    -11.6142      8.9640      9.0374      9.3827   -999.2500
  2567.2500    -12.0026      9.2992      9.4266     10.0107   -999.2500
  2567.5000    -12.1952      9.8722      9.8716     11.3442   -999.2500
  2567.7500    -11.8819     10.8951     10.3607     13.2434   -999.2500
  2568.0000    -10.7042     12.7061     10.8606     15.1985   -999.2500
  2568.2500     -8.5683     15.9049     11.3202     16.6606   -999.2500
  2568.5000     -5.8819     21.5471     11.6842     17.3008   -999.2500
  2568.7500     -3.3682     31.5359     11.9132     17.0533   -999.2500
  2569.0000     -1.5771     48.9121     11.9988     16.0271   -999.2500
  2569.2500     -0.5954     76.8007     11.9679     14.4254   -999.2500
  2569.5000     -0.1794    113.7227     11.8727     12.5207   -999.2500
  2569.7500     -0.0428    149.5849     11.7757     10.6489   -999.2500
  2570.0000     -0.0080    175.0458     11.7346      9.1789   -999.2500
  2570.2500     -0.0011    192.1403     11.7945      8.4522   -999.2500
  2570.5000   -999.2500    209.3331     11.9884      8.6885   -999.2500
  2570.7500   -999.2500    235.9913     12.3491      9.8739   -999.2500
  2571.0000   -999.2500    244.3886     12.9353     11.7100   -999.2500
  2571.2500   -999.2500    310.6425     13.8736     13.7092   -999.2500
  2571.5000   -999.2500    434.7505     15.4114     15.3984   -999.2500
  2571.7500   -999.2500    680.9293     17.9930     16.4806   -999.2500
  2572.0000   -999.2500   1213.6383     22.3887     16.8778   -999.2500
  2572.2500   -999.2500   2521.2712     30.0428     16.6919   -999.2500
  2572.5000   -999.2500   6470.5059     43.3904     16.1261   -999.2500
  2572.7500   -999.2500  26700.4863     66.2914     15.3718   -999.2500
  2573.0000   -999.2500 100000.0000    102.3779     14.5203   -999.2500
  2573.2500   -999.2500 100000.0000    148.7796     13.6032   -999.2500
  2573.5000   -999.2500 100000.0000    191.4289     12.7393   -999.2500
  2573.7500   -999.2500 100000.0000    217.7092     12.1951   -999.2500
  2574.0000   -999.2500 100000.0000    228.8541     12.2220   -999.2500
  2574.2500   -999.2500 100000.0000    232.0580     12.8234   -999.2500
  2574.5000   -999.2500 100000.0000    232.2811     13.7250   -999.2500
  2574.7500   -999.2500 100000.0000    601.9296     14.5799   -999.2500
  2575.0000   -999.2500 100000.0000    600.0165     15.1730   -999.2500
  2575.2500   -999.2500 100000.0000    603.1886     15.4497   -999.2500
  2575.5000   -999.2500 100000.0000    613.1727     15.4190   -999.2500
  2575.7500   -999.2500 100000.0000    631.6993     15.0648   -999.2500
  2576.0000   -999.2500 100000.0000    661.8983     14.3231   -999.2500
  2576.2500   -999.2500 100000.0000    710.4860     13.1132   -999.2500
  2576.5000   -999.2500 100000.0000    790.6708     11.3741   -999.2500
  2576.7500   -999.2500 100000.0000    926.5537      9.0680   -999.2500
  2577.0000   -999.2500 100000.0000   1161.9021      6.2047   -999.2500
  2577.2500   -999.2500 100000.0000   1579.0936      2.9593   -999.2500
  2577.5000   -999.2500   -999.2500   2336.8140     -0.2365   -999.2500
  2577.7500   -999.2500   -999.2500   3726.6030     -2.8498   -999.2500
  2578.0000   -999.2500   -999.2500   6169.8223     -4.5726   -999.2500
  2578.2500   -999.2500   -999.2500   9841.3818     -5.4735   -999.2500
  2578.5000   -999.2500   -999.2500  13842.2871     -5.8440   -999.2500
  2578.7500   -999.2500   -999.2500  16645.7930     -5.9633   -999.2500
  2579.0000   -999.2500   -999.2500  17928.2305     -5.9932   -999.2500
  2579.2500   -999.2500   -999.2500  18353.9648     -5.9991   -999.2500
  2579.5000   -999.2500   -999.2500  18466.3750   -999.2500   -999.2500
  2579.7500   -999.2500   -999.2500 100000.0000   -999.2500   -999.2500
  2580.0000   -999.2500   -999.2500 100000.0000   -999.2500   -999.2500
  2580.2500   -999.2500   -999.2500 100000.0000   -999.2500   -999.2500
  2580.5000   -999.2500   -999.2500 100000.0000   -999.2500   -999.2500
  2580.7500   -999.2500   -999.2500 100000.0000   -999.2500   -999.2500
  2581.0000   -999.2500   -999.2500 100000.0000   -999.2500   -999.2500
  2581.2500   -999.2500   -999.2500 100000.0000   -999.2500   -999.2500
  2581.5000   -999.2500   -999.2500 100000.0000   -999.2500   -999.2500
  2581.7500   -999.2500   -999.2500 100000.0000   -999.2500   -999.2500
  2582.0000   -999.2500   -999.2500 100000.0000   -999.2500   -999.2500
