~Version Information
VERS.                      2.0: CWLS Log ASCII Standard - VERSION 2.0
WRAP.                       NO: One line per depth step
~Well Information Block
STRT.FT                -3.7500: 
STOP.FT               930.7500: 
STEP.FT                 0.2500: 
NULL.                -999.2500: 
COMP.          Pioneer Natural Resources: COMPANY
WELL.                Pug 33-19: WELL
FLD.           Purgatorie River: FIELD
LOC.           1381' FSL & 2140' FEL--: LOCATION
PROV.                       CO: PROVINCE
CNTY.               Las Animas: COUNTRY
SRVC.                         : SERVICE COMPANY
DATE.          Mon Dec 20 15:44:45 2004: LOG DATE
UWI.                          : UNIQUE WELL ID
~Curve Information Block
DEPT.FT            0 000 00 00: Depth
GR.GAPI                       : Gamma Ray
CCL.                          : Casing Collar Locator
TT3.usec                      : CBL 3' Travel Time
AMP3.mV                       : CBL 3' Amplitude
~Parameter Information Block
~A  Depth        GR         CCL         TT3         AMP3    
# ...
   431.7500     69.3946      0.0000    853.4910      5.2857
   432.0000     65.3490      0.0000    872.2853      5.2521
   432.2500     61.8123      0.0000    882.3085      5.1013
   432.5000     59.1386      0.0000    880.7430      4.8716
   432.7500     56.9991      0.0000    870.8148      4.6503
   433.0000     55.0497      0.0000    861.8524      4.4921
   433.2500     53.3652     -2.0000    862.6689      4.4002
   433.5000     52.4077     -2.0000    874.0659      4.3686
   433.7500     52.7825      0.0000    888.5982      4.4228
   434.0000     54.8554      0.0000    897.6324      4.6120
   434.2500     58.2210      0.0000    898.1768      4.9466
   434.5000     61.5479      0.0000    894.0906      5.3359
   434.7500     63.2531      0.0000    891.9724      5.6221
   435.0000     62.5757      0.0000    895.4598      5.7181
   435.2500     60.2096      0.0000    902.6212      5.6862
   435.5000     57.8386      0.0000    908.2510      5.6513
   435.7500     56.6863      0.0000    907.8300      5.6693
   436.0000     56.5603      0.0000    899.5809      5.7113
   436.2500     56.5934      0.0000    884.7979      5.7348
   436.5000     56.6304      0.0000    867.4019      5.7306
   436.7500     57.3720      0.0000    852.1520      5.7186
   437.0000     59.4368      0.0000    842.0421      5.7253
   437.2500     62.7775      0.0000    837.1412      5.7643
   437.5000     66.8307      0.0000    835.6711      5.8313
   437.7500     70.7524      0.0000    835.5940      5.9140
   438.0000     73.5083      0.0000    835.2112      6.0037
   438.2500     74.1720      0.0000    832.9207      6.0946
   438.5000     72.4305      0.0000    827.1660      6.1795
   438.7500     68.7885      0.0000    817.1814      6.2550
   439.0000     64.2685      0.0000    803.9530      6.3280
   439.2500     59.9763      0.0000    790.0729      6.4087
   439.5000     56.8146      0.0000    778.0891      6.4990
   439.7500     55.2650      0.0000    768.8746      6.5946
   440.0000     55.2383      0.0000    761.6544      6.6971
   440.2500     56.2065      0.0000    755.3849      6.8176
   440.5000     57.6313      0.0000    749.8587      6.9655
   440.7500     59.2578      0.0000    745.6958      7.1378
   441.0000     60.9625      0.0000    743.6134      7.3162
   441.2500     62.4945      0.0000    743.5832      7.4701
   441.5000     63.6905      0.0000    744.5549      7.5675
   441.7500     64.8841      0.0000    745.3596      7.5924
   442.0000     66.9065      0.0000    745.8336      7.5528
   442.2500     70.5086      0.0000    746.3732      7.4703
   442.5000     75.3963      0.0000    746.5884      7.3688
   442.7500     79.6971      0.0000    745.6448      7.2717
   443.0000     80.9108      0.0000    744.1724      7.2020
   443.2500     78.0619      0.0000    744.6869      7.1772
   443.5000     72.9273      0.0000    749.4979      7.2071
   443.7500     68.7093      0.0000    758.7130      7.2955
   444.0000     67.3326      0.0000    770.3528      7.4418
   444.2500     68.0796      0.0000    781.5914      7.6375
   444.5000     68.7293      0.0000    789.7823      7.8603
   444.7500     67.7647      0.0000    793.6015      8.0731
   445.0000     65.3905      0.0000    794.1266      8.2372
   445.2500     62.7048      0.0000    794.1337      8.3374
   445.5000     60.4021      0.0000    795.6201      8.3935
   445.7500     58.4547      0.0000    798.3232      8.4418
   446.0000     56.7262      0.0000    800.6651      8.5062
   446.2500     55.4613      0.0000    801.4599      8.5831
   446.5000     55.1909      0.0000    800.6739      8.6502
   446.7500     56.3577      0.0000    799.2538      8.6841
   447.0000     59.0417      0.0000    798.3783      8.6756
   447.2500     63.1051      0.0000    798.3777      8.6308
   447.5000     68.6697      0.0000    798.2183      8.5594
   447.7500     76.2113      0.0000    796.4049      8.4689
   448.0000     85.9014      0.0000    792.4941      8.3713
   448.2500     96.9577      0.0000    787.4308      8.2866
   448.5000    107.7534      0.0000    782.2219      8.2306
   448.7500    116.3381      0.0000    776.6846      8.1962
   449.0000    120.7606      0.0000    769.9960      8.1532
   449.2500    119.4335      0.0000    762.2125      8.0720
   449.5000    111.9958      0.0000    754.6498      7.9470
   449.7500    100.1991      0.0000    748.8859      7.8005
   450.0000     87.5836      0.0000    745.7412      7.6668
   450.2500     77.5961      0.0000    744.8756      7.5758
   450.5000     71.6636      0.0000    744.9702      7.5434
   450.7500     69.1046      0.0000    744.7305      7.5725
   451.0000     68.6431      0.0000    743.7134      7.6552
   451.2500     69.6334      0.0000    741.1613      7.7741
   451.5000     71.9634      0.0000    733.3278      7.9055
   451.7500     75.3822      0.0000    712.7905      8.0269
   452.0000     79.2842      0.0000    672.3235      8.1276
   452.2500     83.0559      0.0000    611.5727      8.2123
   452.5000     86.4675      0.0000    540.5154      8.2971
   452.7500     89.7209      0.0000    474.7981      8.3994
   453.0000     93.1500      0.0000    426.1644      8.5279
   453.2500     96.8458      0.0000    396.9742      8.6776
   453.5000    100.5602      0.0000    382.5353      8.8295
   453.7500    103.9886      0.0000    376.5740      8.9556
   454.0000    107.0097      0.0000    374.5569      9.0305
   454.2500    109.4519      0.0000    374.1068      9.0506
   454.5000    110.8461      0.0000    374.2607      9.0420
   454.7500    110.9332      0.0000    374.8215      9.0413
   455.0000    110.3662      0.0000    376.0215      9.0661
   455.2500    110.3685      0.0000    378.2899      9.1066
   455.5000    111.6216      0.0000    381.8773      9.1433
   455.7500    113.7611      0.0000    386.6465      9.1660
   456.0000    115.7191      0.0000    392.6020      9.1787
   456.2500    116.2535      0.0000    401.1916      9.1927
   456.5000    114.4790      0.0000    415.9721      9.2206
   456.7500    110.3521      0.0000    440.7546      9.2679
   457.0000    104.6917      0.0000    475.6720      9.3223
   457.2500     98.5580      0.0000    515.0062      9.3521
   457.5000     92.7026      0.0000    549.9799      9.3267
   457.7500     87.9082      0.0000    574.2084      9.2388
   458.0000     85.5730      0.0000    586.7127      9.1060
   458.2500     87.0010      0.0000    591.1364      8.9533
   458.5000     91.6724      0.0000    593.6134      8.7971
   458.7500     96.8388      0.0000    600.8701      8.6429
   459.0000     99.6343      0.0000    618.0652      8.4937
   459.2500     99.6505      0.0000    646.0452      8.3604
   459.5000     99.1433      0.0000    679.8672      8.2616
   459.7500    100.8181      0.0000    711.0211      8.2130
   460.0000    105.6810      0.0000    732.4109      8.2148
   460.2500    112.7683      0.0000    741.8978      8.2486
   460.5000    120.3977      0.0000    742.0063      8.2834
   460.7500    127.5032      0.0000    737.3351      8.2905
   461.0000    134.0920      0.0000    732.0359      8.2608
   461.2500    140.6132      0.0000    728.3818      8.2109
   461.5000    146.7462      0.0000    726.6599      8.1703
   461.7500    150.8255      0.0000    726.0665      8.1578
   462.0000    150.8359      0.0000    725.7601      8.1700
   462.2500    146.2455      0.0000    725.3741      8.1889
   462.5000    138.7275      0.0000    724.9960      8.1964
   462.7500    130.7157      0.0000    724.9771      8.1821
   463.0000    123.1089      0.0000    725.8282      8.1424
   463.2500    114.7922      0.0000    728.1019      8.0799
   463.5000    104.7094      0.0000    731.8857      8.0031
   463.7500     93.9597      0.0000    735.9190      7.9217
   464.0000     85.2674      0.0000    737.3301      7.8403
   464.2500     80.4622      0.0000    733.1428      7.7593
   464.5000     79.0685      0.0000    723.1608      7.6824
   464.7500     79.3606      0.0000    711.8005      7.6190
   465.0000     80.1508      0.0000    706.2511      7.5752
