~Version Information
VERS.                      2.0: CWLS Log ASCII Standard - VERSION 2.0
WRAP.                       NO: One line per depth step
~Well Information Block
STRT.FT               275.0000: 
STOP.FT               811.2000: 
STEP.FT                 0.1000: 
NULL.                -999.2500: 
COMP.          Pioneer Natural Resources: COMPANY
WELL.          Barrelman 41-27: WELL
FLD.           Purgatoire River: FIELD
LOC.           371' FNL & 493' FEL--: LOCATION
PROV.                 Colorado: PROVINCE
CNTY.               Las Animas: COUNTRY
SRVC.                Patterson: SERVICE COMPANY
DATE.          Fri May 20 11:50:01 2005: LOG DATE
UWI.           05 071 08334 00: UNIQUE WELL ID
~Curve Information Block
DEPT.FT            0 000 00 00: Depth
DCAL.in                       : CDL Caliper
RHOB.g/cc                     : CDL Bulk Density
RHOC.g/cc                     : CDL Density Correction
DPOR.pu                       : CDL Density Porosity
NPOR.pu                       : Neutron Porosity
GR.GAPI                       : Gamma Ray
~Parameter Information Block
~A  Depth       DCAL        RHOB        RHOC        DPOR        NPOR         GR     
# ...
   447.8000      8.0215      2.5392      0.0370      6.7139     18.5046    117.1146
   447.9000      8.0215      2.5385      0.0635      6.7546     18.2394    113.2042
   448.0000      8.0248      2.5506      0.0829      6.0238     18.2633    111.7764
   448.1000      8.0248      2.5624      0.1114      5.3107     18.5278    117.3838
   448.2000      8.0248      2.5658      0.1112      5.1019     19.1350    125.3721
   448.3000      8.0291      2.5549      0.0781      5.7652     19.9280    126.2946
   448.4000      8.0291      2.5309      0.0181      7.2174     20.5899    118.6121
   448.5000      8.0301      2.5098      0.0230      8.4987     21.2320    109.8523
   448.6000      8.0301      2.5044      0.0436      8.8215     22.0128    106.2401
   448.7000      8.0301      2.5084      0.0768      8.5825     22.3386    106.5124
   448.8000      8.0280      2.5067      0.0491      8.6848     21.6263    110.7644
   448.9000      8.0280      2.4972      0.0344      9.2586     20.5048    121.2286
   449.0000      8.0269      2.4911     -0.0057      9.6284     20.0747    130.6650
   449.1000      8.0269      2.4961      0.0697      9.3268     20.3296    132.9051
   449.2000      8.0269      2.5066      0.0680      8.6889     20.4656    133.2063
   449.3000      8.0270      2.5119      0.0882      8.3697     20.2293    134.3459
   449.4000      8.0270      2.5120      0.0414      8.3629     20.1375    133.6918
   449.5000      8.0272      2.5200      0.0828      7.8794     20.6817    130.9718
   449.6000      8.0272      2.5371      0.1323      6.8407     21.4881    129.5858
   449.7000      8.0272      2.5508      0.1228      6.0092     21.7375    131.5492
   449.8000      8.0288      2.5572      0.0944      5.6214     21.2743    132.8271
   449.9000      8.0288      2.5565      0.1072      5.6643     20.5619    128.1117
   450.0000      8.0300      2.5470      0.0587      6.2419     20.1441    118.8173
   450.1000      8.0300      2.5367      0.0321      6.8666     20.2542    111.2223
   450.2000      8.0300      2.5323      0.0460      7.1352     20.3421    108.8948
   450.3000      8.0312      2.5244      0.0622      7.6098     19.7943    109.8638
   450.4000      8.0312      2.5077      0.0384      8.6267     18.8010    109.9982
   450.5000      8.0320      2.4959      0.0300      9.3364     17.7662    106.7095
   450.6000      8.0320      2.5036      0.0453      8.8703     16.8383    101.1071
   450.7000      8.0320      2.5234      0.0666      7.6752     16.2359     97.9580
   450.8000      8.0321      2.5338      0.0774      7.0425     16.0416     96.4417
   450.9000      8.0321      2.5266      0.0679      7.4798     15.9764     92.6880
   451.0000      8.0313      2.5112      0.0420      8.4119     15.9240     90.5587
   451.1000      8.0313      2.4998      0.0769      9.1035     16.2084     91.9883
   451.2000      8.0313      2.4985      0.0583      9.1799     16.9131     93.3907
   451.3000      8.0303      2.5089      0.0798      8.5486     17.4093     94.2398
   451.4000      8.0303      2.5276      0.1035      7.4201     17.2289     94.6281
   451.5000      8.0305      2.5469      0.1419      6.2461     16.6871     94.6378
   451.6000      8.0305      2.5606      0.1290      5.4170     16.2326     93.3037
   451.7000      8.0305      2.5673      0.1052      5.0133     16.0448     87.3457
   451.8000      8.0315      2.5710      0.0909      4.7897     16.0869     80.1441
   451.9000      8.0315      2.5738      0.1006      4.6201     16.2134     76.8931
   452.0000      8.0319      2.5714      0.1140      4.7626     16.3457     76.5251
   452.1000      8.0319      2.5651      0.0676      5.1480     16.4742     79.4588
   452.2000      8.0319      2.5624      0.0505      5.3078     16.3273     87.2657
   452.3000      8.0330      2.5601      0.0648      5.4465     15.8309     95.9898
   452.4000      8.0330      2.5484      0.0518      6.1546     15.4733    101.2542
   452.5000      8.0333      2.5294      0.0407      7.3090     15.5536    100.2155
   452.6000      8.0333      2.5143      0.0052      8.2268     15.7717     95.1437
   452.7000      8.0333      2.5088      0.0396      8.5556     15.7567     94.9596
   452.8000      8.0326      2.5104      0.0417      8.4624     15.5656     99.1942
   452.9000      8.0326      2.5123      0.0474      8.3447     15.4732     99.3066
   453.0000      8.0324      2.5018      0.0493      8.9789     15.4557     94.2715
   453.1000      8.0324      2.4772      0.0150     10.4754     15.1794     86.4086
   453.2000      8.0324      2.4597      0.0165     11.5351     14.6338     77.6937
   453.3000      8.0325      2.4657      0.0147     11.1706     14.2704     72.5463
   453.4000      8.0325      2.4860      0.0668      9.9381     14.3474     72.1392
   453.5000      8.0316      2.5020      0.0454      8.9695     14.5793     73.4585
   453.6000      8.0316      2.5062      0.0677      8.7165     14.6661     74.2575
   453.7000      8.0316      2.5030      0.0190      8.9066     14.6978     76.1426
   453.8000      8.0311      2.4994      0.0270      9.1302     14.6872     79.6918
   453.9000      8.0311      2.4963      0.0155      9.3167     14.4315     79.9730
   454.0000      8.0317      2.4934      0.0473      9.4889     14.0801     76.6128
   454.1000      8.0317      2.4898      0.0606      9.7095     13.9496     73.4101
   454.2000      8.0317      2.4890      0.0084      9.7560     14.0124     69.9771
   454.3000      8.0317      2.4965      0.0396      9.3040     14.2710     65.3785
   454.4000      8.0317      2.5040      0.0669      8.8479     14.7110     61.7532
   454.5000      8.0307      2.5084      0.0395      8.5807     14.9667     62.2063
   454.6000      8.0307      2.5199      0.0868      7.8843     14.8591     65.7974
   454.7000      8.0307      2.5277      0.1156      7.4129     14.5812     69.9321
   454.8000      8.0308      2.5074      0.0871      8.6444     14.1952     74.0131
   454.9000      8.0308      2.4678      0.0264     11.0433     13.8525     74.2703
   455.0000      8.0327      2.4427      0.0163     12.5631     13.8110     68.3321
   455.1000      8.0327      2.4432      0.0468     12.5319     14.1583     61.7113
   455.2000      8.0327      2.4509      0.0448     12.0669     14.8770     60.5285
   455.3000      8.0349      2.4544     -0.0029     11.8556     15.8098     64.2345
   455.4000      8.0349      2.4643      0.0352     11.2541     16.5580     68.0158
   455.5000      8.0365      2.4861      0.0490      9.9322     16.8772     69.4875
   455.6000      8.0365      2.5084      0.0826      8.5821     16.9436     70.9783
   455.7000      8.0365      2.5124      0.0874      8.3403     17.0109     74.3787
   455.8000      8.0374      2.4908      0.0508      9.6457     17.1519     78.9955
   455.9000      8.0374      2.4595      0.0221     11.5432     17.3780     82.0105
   456.0000      8.0371      2.4281      0.0709     13.4511     17.6617     78.8487
   456.1000      8.0371      2.3804      0.0921     16.3366     17.9149     71.6521
   456.2000      8.0371      2.3112      0.0280     20.5346     17.9330     69.2463
   456.3000      8.0354      2.2428     -0.0053     24.6761     17.7064     74.4384
   456.4000      8.0354      2.1939     -0.0250     27.6437     17.4998     80.7523
   456.5000      8.0345      2.1652     -0.0273     29.3847     17.5506     84.7230
   456.6000      8.0345      2.1582     -0.0307     29.8077     17.7678     89.9773
   456.7000      8.0345      2.1748      0.0412     28.7983     17.7154     97.9645
   456.8000      8.0328      2.2016      0.0774     27.1759     16.9169    105.9324
   456.9000      8.0328      2.2225      0.1146     25.9082     15.6143    112.7307
   457.0000      8.0290      2.2464      0.1053     24.4613     14.7253    117.9717
   457.1000      8.0290      2.2973      0.1977     21.3734     14.5374    123.2389
   457.2000      8.0290      2.3733      0.2371     16.7680     14.6031    130.4891
   457.3000      8.0227      2.4400      0.2516     12.7279     14.4733    136.4315
