~Version Information
VERS.                      2.0: CWLS Log ASCII Standard - VERSION 2.0
WRAP.                       NO: One line per depth step
~Well Information Block
STRT.FT               318.1000: 
STOP.FT              2688.0000: 
STEP.FT                 0.1000: 
NULL.                -999.2500: 
COMP.          Petrogulf Corporation: COMPANY
WELL.            Montoya 1-24V: WELL
FLD.           Purgatorie River: FIELD
LOC.           605' FSL & 2557' FWL: LOCATION
CNTY.               Las Animas: COUNTY
SRVC.                         : SERVICE COMPANY
DATE.          Wed Oct 20 14:56:37 2004: LOG DATE
UWI.           05 071 08194 00: UNIQUE WELL ID
STAT.                 Colorado: STATE
~Curve Information Block
DEPT.FT            0 000 00 00: Depth
DCAL.in                       : CDL Caliper
RHOB.g/cc                     : CDL Bulk Density
RHOC.g/cc                     : CDL Density Correction
DPOR.pu                       : CDL Density Porosity
GR.GAPI                       : Gamma Ray
NPOR.pu                       : Neutron Porosity
~Parameter Information Block
~A  Depth       DCAL        RHOB        RHOC        DPOR         GR         NPOR    
# ...
  1431.7000      7.8727      2.5670      0.0754      5.0328     84.8155     19.8928
  1431.8000      7.8600      2.5820      0.1272      4.1213     92.6365     20.4387
  1431.9000      7.8600      2.5799      0.1277      4.2457    103.2054     20.8708
  1432.0000      7.8762      2.5636      0.0681      5.2338    112.1525     21.5387
  1432.1000      7.8762      2.5444      0.1056      6.4013    117.4979     22.5138
  1432.2000      7.8762      2.5276      0.1087      7.4193    118.6255     23.2201
  1432.3000      7.8898      2.5237      0.0799      7.6540    116.3333     23.3639
  1432.4000      7.8898      2.5386      0.1351      6.7539    113.2339     23.2906
  1432.5000      7.8557      2.5623      0.1344      5.3141    112.0255     23.3765
  1432.6000      7.8557      2.5797      0.1403      4.2588    114.8700     23.7953
  1432.7000      7.8557      2.5838      0.1887      4.0112    120.3281     24.3816
  1432.8000      7.8475      2.5959      0.1191      3.2786    123.6627     24.6963
  1432.9000      7.8475      2.6449      0.1969      0.3078    122.2502     24.6349
  1433.0000      7.8192      2.7129      0.2216     -3.8151    118.4562     24.5136
  1433.1000      7.8192      2.7533      0.2833     -6.2609    115.3452     24.3824
  1433.2000      7.8192      2.7440      0.2205     -5.6986    110.8170     23.9573
  1433.3000      7.8369      2.7006      0.2117     -3.0666    103.7333     23.3887
  1433.4000      7.8369      2.6527      0.1667     -0.1626     98.5538     23.0061
  1433.5000      7.8503      2.6210      0.1447      1.7556     99.6509     22.6230
  1433.6000      7.8503      2.6071      0.0872      2.5999    105.8635     22.0948
  1433.7000      7.8503      2.6066      0.0205      2.6295    110.3788     21.3478
  1433.8000      7.8582      2.6181      0.0756      1.9333    107.9174     20.4652
  1433.9000      7.8582      2.6276      0.1036      1.3594    101.3200     20.1237
  1434.0000      7.8582      2.6198      0.0809      1.8291     99.1099     20.5091
  1434.1000      7.8582      2.5978      0.1019      3.1615    103.6313     20.8693
  1434.2000      7.8582      2.5855      0.0233      3.9104    109.2270     20.8862
  1434.3000      7.8815      2.6061      0.1222      2.6621    110.0297     21.0762
  1434.4000      7.8815      2.6453      0.1711      0.2845    104.8557     21.4834
  1434.5000      7.8737      2.6686      0.2013     -1.1287     98.3351     21.6550
  1434.6000      7.8737      2.6673      0.1514     -1.0504     94.2879     21.4311
  1434.7000      7.8737      2.6532      0.1786     -0.1919     93.1777     21.1136
  1434.8000      7.8484      2.6384      0.1164      0.7034     94.5809     21.0276
  1434.9000      7.8484      2.6356      0.0758      0.8719     97.5830     21.1780
  1435.0000      7.8594      2.6376      0.0894      0.7485    101.6325     21.4533
  1435.1000      7.8594      2.6288      0.0338      1.2848    105.4484     21.7892
  1435.2000      7.8594      2.6125      0.0393      2.2733    105.8636     22.0010
  1435.3000      7.8756      2.5970      0.0267      3.2144    101.3746     21.7407
  1435.4000      7.8756      2.5843      0.0564      3.9792     94.7200     21.1415
  1435.5000      7.8517      2.5746      0.0197      4.5689     88.5778     20.7186
  1435.6000      7.8517      2.5661      0.0339      5.0860     85.2789     20.4826
  1435.7000      7.8517      2.5504      0.1137      6.0390     88.8658     20.1431
  1435.8000      7.8771      2.5293      0.0624      7.3157     97.3275     19.8911
  1435.9000      7.8771      2.5269      0.0494      7.4631    102.3057     20.1410
  1436.0000      7.8684      2.5519      0.1129      5.9476    100.5508     20.6140
  1436.1000      7.8684      2.5845      0.1217      3.9691     96.6123     20.7803
  1436.2000      7.8684      2.6083      0.1697      2.5302     94.8818     20.8005
  1436.3000      7.8858      2.6212      0.1716      1.7484     96.1930     21.0211
  1436.4000      7.8858      2.6304      0.1540      1.1868     97.2242     21.2204
  1436.5000      7.8738      2.6475      0.1347      0.1503     95.8510     21.1365
  1436.6000      7.8738      2.6721      0.1682     -1.3411     94.6012     21.0689
  1436.7000      7.8738      2.6859      0.1595     -2.1769     92.9492     21.3876
  1436.8000      7.8513      2.6771      0.1672     -1.6421     88.0696     21.6201
  1436.9000      7.8513      2.6574      0.1175     -0.4490     83.3638     21.0991
  1437.0000      7.8517      2.6472      0.1145      0.1704     84.1332     20.0270
  1437.1000      7.8517      2.6564      0.1132     -0.3877     87.2499     19.2306
  1437.2000      7.8517      2.6745      0.1655     -1.4851     89.2036     19.2907
  1437.3000      7.8834      2.6776      0.2126     -1.6753     89.7014     19.8722
  1437.4000      7.8834      2.6591      0.1087     -0.5502     87.2003     20.0995
  1437.5000      7.8457      2.6338      0.1111      0.9826     84.9982     19.6755
  1437.6000      7.8457      2.6091      0.0801      2.4797     87.1284     18.9463
  1437.7000      7.8457      2.5974      0.0425      3.1862     90.8860     18.2692
  1437.8000      7.8288      2.6238      0.0779      1.5879     92.9800     17.9440
  1437.9000      7.8288      2.6740      0.1848     -1.4573     91.7361     18.1333
  1438.0000      7.8733      2.6996      0.1528     -3.0075     87.3752     18.4911
  1438.1000      7.8733      2.6817      0.1655     -1.9185     81.8837     18.6293
  1438.2000      7.8733      2.6428      0.1401      0.4378     78.6844     18.6519
  1438.3000      7.8539      2.6176      0.1566      1.9639     83.5531     18.6209
  1438.4000      7.8539      2.6149      0.1168      2.1287     93.8932     18.4963
  1438.5000      7.8400      2.6106      0.1182      2.3884     96.8590     18.5509
  1438.6000      7.8400      2.5872      0.1205      3.8034     89.7416     18.8428
  1438.7000      7.8400      2.5705     -0.0041      4.8202     82.2770     19.1407
  1438.8000      7.8329      2.5938      0.0722      3.4070     82.4833     19.2803
  1438.9000      7.8329      2.6382      0.1312      0.7142     90.3056     19.2783
  1439.0000      7.8408      2.6624      0.1790     -0.7525     98.1272     19.4540
  1439.1000      7.8408      2.6583      0.0974     -0.5044    100.8845     19.8925
  1439.2000      7.8408      2.6449      0.1176      0.3061     99.4071     20.0075
  1439.3000      7.8589      2.6395      0.0970      0.6353     95.2941     19.5690
  1439.4000      7.8589      2.6468      0.1311      0.1946     90.4747     19.3006
  1439.5000      7.8747      2.6557      0.1221     -0.3484     84.4197     19.3944
  1439.6000      7.8747      2.6536      0.1037     -0.2202     78.4467     19.5128
  1439.7000      7.8747      2.6393      0.1214      0.6511     77.2727     19.4881
  1439.8000      7.8735      2.6201      0.0922      1.8105     82.3731     19.1722
  1439.9000      7.8735      2.6059      0.0972      2.6749     91.2636     18.9153
  1440.0000      7.8570      2.6081      0.0628      2.5404     99.8716     19.2653
  1440.1000      7.8570      2.6221      0.1523      1.6926    100.5834     20.0860
  1440.2000      7.8570      2.6269      0.1435      1.4025     92.5909     20.6590
  1440.3000      7.8256      2.6204      0.0872      1.7960     88.1494     20.7746
  1440.4000      7.8256      2.6161      0.0208      2.0533     91.6324     21.0945
  1440.5000      7.8171      2.6201      0.0659      1.8135     95.5449     21.8866
  1440.6000      7.8171      2.6234      0.0558      1.6108     96.8592     22.3641
  1440.7000      7.8171      2.6175      0.0511      1.9672     95.1241     21.9250
  1440.8000      7.8901      2.6099      0.0192      2.4279     89.7081     21.2197
  1440.9000      7.8901      2.6129      0.0454      2.2482     83.8984     21.0583
  1441.0000      7.9245      2.6270      0.0411      1.3923     79.5782     21.2339
  1441.1000      7.9245      2.6480      0.0866      0.1210     73.9521     21.1335
  1441.2000      7.9245      2.6709      0.1033     -1.2683     67.5422     20.7764
