~Version Information
VERS.                      2.0: CWLS Log ASCII Standard - VERSION 2.0
WRAP.                       NO: One line per depth step
~Well Information Block
STRT.FT                 0.0000: 
STOP.FT              1916.0000: 
STEP.FT                 0.1000: 
NULL.                -999.2500: 
COMP.          Pioneer Natural Resources: COMPANY
WELL.          Blackjack 32-11 Tr: WELL
FLD.           Purgatorie River: FIELD
LOC.           2066' FNL & 1453' FEL: LOCATION
PROV.                 Colorado: PROVINCE
CNTY.               Las Animas: COUNTRY
SRVC.                Patterson: SERVICE COMPANY
DATE.          Tue Aug 16 12:08:23 2005: LOG DATE
UWI.                          : UNIQUE WELL ID
~Curve Information Block
DEPT.FT            0 000 00 00: Depth
DCAL.in                       : CDL Caliper
RHOB.g/cc                     : CDL Bulk Density
RHOC.g/cc                     : CDL Density Correction
DPOR.pu                       : CDL Density Porosity
GR.GAPI                       : Gamma Ray
NPOR.pu                       : Neutron Porosity
~Parameter Information Block
~A  Depth       DCAL        RHOB        RHOC        DPOR         GR         NPOR    
# ...
   124.8000     16.2869      0.3459      1.5547     -0.0461    145.0674     18.3272
   124.9000     16.2869      0.3536      1.5774     -0.0460    140.2559     18.6864
   125.0000     16.2926      0.3674      1.6082     -0.0457    134.9152     19.4838
   125.1000     16.2926      0.3776      1.6132     -0.0455    135.5686     20.0924
   125.2000     16.2926      0.3800      1.6026     -0.0454    140.2278     20.3032
   125.3000     16.2875      0.3704      1.6399     -0.0456    141.6547     20.2728
   125.4000     16.2875      0.3494      1.5604     -0.0460    137.3421     20.3484
   125.5000     16.2818      0.3350      1.5260     -0.0463    130.5881     20.5876
   125.6000     16.2818      0.3370      1.5840     -0.0463    127.6305     20.7649
   125.7000     16.2818      0.3433      1.5711     -0.0462    133.1295     20.5775
   125.8000     16.2840      0.3451      1.5869     -0.0461    141.8551     19.8159
   125.9000     16.2840      0.3443      1.5783     -0.0461    146.0305     19.0629
   126.0000     16.2952      0.3448      1.5765     -0.0461    145.5206     19.0309
   126.1000     16.2952      0.3488      1.5702     -0.0460    144.9761     19.3209
   126.2000     16.2952      0.3522      1.6106     -0.0460    145.5779     19.6964
   126.3000     16.2914      0.3499      1.5714     -0.0460    143.9846     20.5540
   126.4000     16.2914      0.3470      1.5645     -0.0461    142.9283     21.6126
   126.5000     16.2894      0.3525      1.5608     -0.0460    146.8918     22.1966
   126.6000     16.2894      0.3642      1.6151     -0.0457    152.8962     22.2258
   126.7000     16.2894      0.3700      1.6002     -0.0456    156.3061     21.7620
   126.8000     16.2883      0.3650      1.5963     -0.0457    155.1883     20.9186
   126.9000     16.2883      0.3551      1.5885     -0.0459    151.2057     20.2011
   127.0000     16.2827      0.3517      1.5475     -0.0460    148.3938     20.0592
   127.1000     16.2827      0.3596      1.6201     -0.0458    147.6129     20.5610
   127.2000     16.2827      0.3712      1.5896     -0.0456    148.6390     21.3875
   127.3000     16.2887      0.3797      1.6028     -0.0454    152.1341     22.0444
   127.4000     16.2887      0.3743      1.6204     -0.0455    153.7898     22.4735
   127.5000     16.2925      0.3530      1.5519     -0.0460    149.2060     22.9386
   127.6000     16.2925      0.3404      1.5359     -0.0462    143.0453     23.6375
   127.7000     16.2925      0.3536      1.5777     -0.0460    141.2440     24.7764
   127.8000     16.2959      0.3801      1.6131     -0.0454    141.6307     26.0701
   127.9000     16.2959      0.4002      1.6430     -0.0450    140.9431     27.1055
   128.0000     16.2981      0.4045      1.6582     -0.0449    140.4177     28.0432
   128.1000     16.2981      0.4032      1.5805     -0.0450    139.0167     29.0598
   128.2000     16.2981      0.4151      1.5886     -0.0447    132.6997     30.0172
   128.3000     16.2933      0.4334      1.6945     -0.0444    122.0107     30.7758
   128.4000     16.2933      0.4388      1.6113     -0.0442    117.0189     31.0257
   128.5000     16.2925      0.4345      1.6216     -0.0443    123.6990     30.3073
   128.6000     16.2925      0.4273      1.6211     -0.0445    132.2757     28.8131
   128.7000     16.2925      0.4113      1.6111     -0.0448    134.3748     27.2379
   128.8000     16.2931      0.3853      1.5879     -0.0453    135.2175     26.0037
   128.9000     16.2931      0.3604      1.5541     -0.0458    137.0884     24.9801
   129.0000     16.2965      0.3461      1.5459     -0.0461    137.4737     24.0307
   129.1000     16.2965      0.3363      1.5854     -0.0463    139.8365     23.1021
   129.2000     16.2965      0.3255      1.5358     -0.0465    144.2673     22.1452
   129.3000     16.2924      0.3260      1.5207     -0.0465    148.5085     21.2608
   129.4000     16.2924      0.3565      1.5808     -0.0459    153.9499     20.4445
   129.5000     16.2873      0.4449      1.5583     -0.0441    159.5748     19.5371
   129.6000     16.2873      0.6194      1.6202     -0.0406    160.2962     18.7820
   129.7000     16.2873      0.8409      1.7296     -0.0362    154.7686     18.5541
   129.8000     16.2913      0.9977      1.7810     -0.0331    149.9720     18.8236
   129.9000     16.2913      1.0198      1.7406     -0.0326    149.5930     19.3147
   130.0000     16.2888      0.9504      1.7344     -0.0340    148.9941     19.4966
   130.1000     16.2888      0.9004      1.6449     -0.0350    148.4362     19.2769
   130.2000     16.2888      0.9294      1.8482     -0.0344    150.1636     19.1494
   130.3000     16.2933      0.9690      2.1119     -0.0336    150.5376     19.0459
   130.4000     16.2933      0.9708      1.8865     -0.0336    147.7420     18.6175
   130.5000     16.2933      1.0373      1.8974     -0.0323    143.9867     18.0765
   130.6000     16.2933      1.2298      1.7685     -0.0284    142.9201     17.8988
   130.7000     16.2933      1.4114      2.0856     -0.0248    144.4526     18.2021
   130.8000     16.2965      1.5242      1.7336     -0.0225    145.9858     18.6777
   130.9000     16.2965      1.6845      2.0689     -0.0193    147.6461     19.0708
   131.0000     16.2927      1.8358      2.0820     -0.0163    148.9881     19.4071
   131.1000     16.2927      1.8537      2.2480     -0.0159    147.1752     19.6332
   131.2000     16.2927      1.8236      2.3367     -0.0165    142.7347     19.5771
   131.3000     16.2899      1.8471      2.3060     -0.0161    139.7328     19.1703
   131.4000     16.2899      1.8475      2.4147     -0.0161    137.9608     18.6510
   131.5000     16.2927      1.7623      2.2794     -0.0178    135.2696     18.5452
   131.6000     16.2927      1.6491      2.3135     -0.0200    133.9559     19.1279
   131.7000     16.2927      1.5676      1.9438     -0.0217    135.3078     19.9645
   131.8000     16.2961      1.5415      2.1283     -0.0222    136.2867     20.3851
   131.9000     16.2961      1.5619      2.0044     -0.0218    136.0891     20.1069
   132.0000     16.2905      1.6154      2.1713     -0.0207    136.9810     19.5163
   132.1000     16.2905      1.6828      2.2685     -0.0194    138.6799     19.3030
   132.2000     16.2905      1.7296      2.2001     -0.0184    139.3609     19.4547
   132.3000     16.2913      1.8019      2.1628     -0.0170    139.9317     19.6139
   132.4000     16.2913      1.9536      2.1272     -0.0139    139.7248     19.6197
   132.5000     16.2851      2.0310      2.3714     -0.0124    137.8780     19.3819
   132.6000     16.2851      1.9483      1.9047     -0.0140    138.0457     19.3197
   132.7000     16.2851      1.8898      2.4171     -0.0152    143.3824     19.7790
   132.8000     16.2856      1.9305      2.2349     -0.0144    149.7605     20.4588
   132.9000     16.2856      1.9564      2.4200     -0.0139    151.1459     20.9763
   133.0000     16.2945      1.8422      2.5603     -0.0162    148.2315     20.9313
   133.1000     16.2945      1.6144      1.9217     -0.0207    146.9866     20.3547
   133.2000     16.2945      1.5196      1.8862     -0.0226    147.4288     19.9224
   133.3000     16.2850      1.6968      2.1632     -0.0191    142.8335     20.1304
   133.4000     16.2850      1.9562      2.2644     -0.0139    135.1173     20.7969
   133.5000     16.2893      2.0288      2.3926     -0.0124    132.1698     21.1748
   133.6000     16.2893      1.9244      1.9431     -0.0145    135.9875     20.9037
   133.7000     16.2893      1.8936      1.8413     -0.0151    142.7671     20.3263
   133.8000     16.2856      2.0301      2.1931     -0.0124    146.7353     19.8182
   133.9000     16.2856      2.1776      2.4841     -0.0095    144.2879     19.7212
   134.0000     16.2902      2.2057      2.5077     -0.0089    137.5309     20.0089
   134.1000     16.2902      2.0896      2.5501     -0.0112    131.4002     20.1738
   134.2000     16.2902      1.8827      2.1610     -0.0154    129.8197     20.0447
   134.3000     16.2914      1.7355      2.1660     -0.0183    134.0279     19.8411
