~Version Information
VERS.                      2.0: CWLS Log ASCII Standard - VERSION 2.0
WRAP.                       NO: One line per depth step
~Well Information Block
STRT.FT               500.0000: 
STOP.FT              2732.5000: 
STEP.FT                 0.1000: 
NULL.                -999.2500: 
COMP.          Pioneer Natural Resources: COMPANY
WELL.          Dude Canyon 22-32: WELL
FLD.           Purgatoire River: FIELD
LOC.           1662' FNL & 2446' FWL----: LOCATION
PROV.                 Colorado: PROVINCE
CNTY.               Las Animas: COUNTRY
SRVC.                Patterson: SERVICE COMPANY
DATE.          Thu Mar 10 07:06:34 2005: LOG DATE
UWI.           05 071 08257 00: UNIQUE WELL ID
~Curve Information Block
DEPT.FT            0 000 00 00: Depth
GR.GAPI                       : Gamma Ray
DCAL.in                       : CDL Caliper
DPOR.pu                       : CDL Density Porosity
NPOR.pu                       : Neutron Porosity
RHOB.g/cc                     : CDL Bulk Density
RHOC.g/cc                     : CDL Density Correction
~Parameter Information Block
~A  Depth        GR         DCAL        DPOR        NPOR        RHOB        RHOC    
# ...
   644.0000    144.0337      8.0833      4.3848     27.1518      2.5777     -0.0071
   644.1000    149.3453      8.0833      3.0913     27.6092      2.5990      0.0440
   644.2000    145.3152      8.0833      1.8637     28.0250      2.6192      0.0297
   644.3000    139.7875      8.0822      1.1955     28.2730      2.6303      0.0308
   644.4000    138.9286      8.0822      2.2908     28.3301      2.6122      0.0628
   644.5000    141.6233      8.0791      5.0518     27.9945      2.5666     -0.0259
   644.6000    144.1520      8.0791      6.8949     26.9710      2.5362     -0.0514
   644.7000    142.9438      8.0791      6.8443     25.8468      2.5371      0.0089
   644.8000    140.8851      8.0763      6.6605     25.4051      2.5401      0.0002
   644.9000    143.0246      8.0763      7.3252     25.5616      2.5291     -0.0208
   645.0000    145.7114      8.0732      8.0646     25.7782      2.5169     -0.0337
   645.1000    143.6508      8.0732      8.0337     25.8481      2.5174      0.0097
   645.2000    138.8976      8.0732      7.3304     25.8939      2.5290      0.0331
   645.3000    134.3406      8.0705      6.6337     25.8066      2.5405      0.0262
   645.4000    131.1962      8.0705      6.5344     25.4506      2.5422      0.0392
   645.5000    130.2554      8.0682      6.9808     25.0075      2.5348      0.0343
   645.6000    131.7451      8.0682      7.2488     24.6338      2.5304      0.0273
   645.7000    132.4378      8.0682      7.1635     24.2540      2.5318      0.0385
   645.8000    127.4511      8.0674      7.2332     23.7555      2.5307      0.0333
   645.9000    120.6379      8.0674      7.4786     23.2743      2.5266      0.0545
   646.0000    121.3323      8.0679      7.3095     23.1040      2.5294      0.0508
   646.1000    127.4681      8.0679      6.6413     23.2081      2.5404      0.0500
   646.2000    128.2213      8.0679      6.1887     23.2606      2.5479      0.0382
   646.3000    121.4131      8.0693      6.1532     23.0586      2.5485      0.0532
   646.4000    114.6209      8.0693      6.1302     22.9367      2.5489      0.0779
   646.5000    113.4454      8.0724      5.8827     23.3651      2.5529      0.0729
   646.6000    115.1824      8.0724      5.3493     24.0828      2.5617      0.0278
   646.7000    115.8061      8.0724      4.9725     24.5378      2.5680      0.0737
   646.8000    116.2514      8.0738      5.5950     24.9387      2.5577      0.0336
   646.9000    117.2652      8.0738      6.5143     25.5298      2.5425     -0.0178
   647.0000    116.4605      8.0728      6.4775     25.9950      2.5431      0.0265
   647.1000    114.0590      8.0728      6.3071     26.4621      2.5459      0.0277
   647.2000    112.5439      8.0728      7.0558     27.0358      2.5336      0.0259
   647.3000    114.2351      8.0722      7.9711     27.4285      2.5185     -0.0274
   647.4000    119.8542      8.0722      8.0988     27.5513      2.5164      0.0019
   647.5000    125.7755      8.0746      7.5642     27.6798      2.5252      0.0263
   647.6000    127.8558      8.0746      7.0995     28.3971      2.5329      0.0346
   647.7000    126.9617      8.0746      7.6172     29.5856      2.5243      0.0683
   647.8000    124.2807      8.0805      8.9339     30.2813      2.5026      0.0026
   647.9000    123.5274      8.0805      9.8996     29.9573      2.4867      0.0188
   648.0000    129.5710      8.0877     10.6457     29.1547      2.4743      0.0476
   648.1000    136.5297      8.0877     11.8929     28.5585      2.4538      0.0059
   648.2000    136.5447      8.0877     13.2322     28.2743      2.4317     -0.0231
   648.3000    134.4524      8.0932     13.9490     27.9138      2.4198      0.0254
   648.4000    139.5978      8.0932     13.6416     27.0886      2.4249      0.0353
   648.5000    149.4225      8.0966     12.1956     26.0425      2.4488      0.0565
   648.6000    154.6414      8.0966     10.5094     25.3290      2.4766      0.1184
   648.7000    156.0103      8.0966      9.6158     24.9271      2.4913      0.0946
   648.8000    161.0948      8.0982      9.0730     24.6622      2.5003      0.0740
   648.9000    169.6190      8.0982      7.8010     24.6831      2.5213      0.0307
   649.0000    174.9234      8.0987      5.9687     25.1910      2.5515      0.0794
   649.1000    174.5249      8.0987      4.8168     25.9920      2.5705      0.0580
   649.2000    172.5679      8.0987      4.9845     26.3739      2.5678      0.0496
   649.3000    171.3868      8.0971      6.2152     26.0115      2.5474      0.0406
   649.4000    169.2003      8.0971      7.6678     25.4691      2.5235      0.0313
   649.5000    167.8281      8.0973      8.3937     25.1746      2.5115      0.0001
   649.6000    167.6201      8.0973      8.0104     24.9994      2.5178     -0.0080
   649.7000    164.9993      8.0973      7.1227     24.8925      2.5325      0.0297
   649.8000    160.6037      8.1001      6.7393     25.0145      2.5388      0.0376
   649.9000    158.4789      8.1001      7.1736     25.1155      2.5316      0.0373
   650.0000    161.5917      8.1019      7.9721     25.0148      2.5185     -0.0031
   650.1000    165.3331      8.1019      8.2912     25.1154      2.5132     -0.0105
   650.2000    164.7645      8.1019      7.4162     25.6773      2.5276     -0.0020
   650.3000    165.2220      8.1021      5.5883     26.3879      2.5578      0.0437
   650.4000    168.7333      8.1021      3.8291     27.0277      2.5868      0.0528
   650.5000    168.0885      8.1019      2.7241     27.9326      2.6051      0.0521
   650.6000    161.9359      8.1019      2.1038     29.1527      2.6153      0.0188
   650.7000    158.3680      8.1019      1.4559     30.2692      2.6260      0.0328
   650.8000    159.2340      8.1010      0.5992     31.1226      2.6401      0.0583
   650.9000    158.4099      8.1010      0.0865     31.7395      2.6486      0.0695
   651.0000    156.5815      8.0985     -0.0152     32.1263      2.6503      0.0122
   651.1000    157.7295      8.0985     -0.2010     32.5409      2.6533      0.0967
   651.2000    161.1094      8.0985     -0.3638     33.0937      2.6560      0.0531
   651.3000    162.6124      8.0971     -0.0223     33.1861      2.6504      0.0664
   651.4000    159.1813      8.0971      1.6626     32.2852      2.6226      0.0614
   651.5000    155.2836      8.0980      4.9522     30.6972      2.5683      0.0187
   651.6000    157.2061      8.0980      9.3102     28.9075      2.4964      0.0231
   651.7000    163.7067      8.0980     14.5035     27.2455      2.4107     -0.0444
   651.8000    168.7971      8.0991     20.3796     25.8198      2.3137     -0.0818
   651.9000    169.7995      8.0991     26.7478     24.3537      2.2087     -0.0886
   652.0000    169.2472      8.1023     33.9683     22.7326      2.0895     -0.0690
   652.1000    171.3965      8.1023     42.4360     21.2186      1.9498     -0.1299
   652.2000    175.9031      8.1023     51.2264     19.9415      1.8048     -0.1274
   652.3000    177.3195      8.1226     57.8058     18.8465      1.6962     -0.2083
   652.4000    176.5226      8.1226     59.2927     18.1009      1.6717     -0.1288
   652.5000    176.8109      8.1867     54.8770     18.1014      1.7445      0.0208
   652.6000    173.2185      8.1867     45.9004     18.9164      1.8926      0.1295
   652.7000    164.1918      8.1867     34.4639     20.3038      2.0813      0.3482
   652.8000    156.2649      8.2609     23.4854     21.7682      2.2625      0.5244
   652.9000    153.2075      8.2609     15.0440     22.6842      2.4018      0.5742
   653.0000    154.4191      8.2494      8.7807     23.3254      2.5051      0.5578
   653.1000    155.9246      8.2494      3.9730     24.1449      2.5844      0.5540
   653.2000    155.3624      8.2494      1.0892     24.9453      2.6320      0.4920
   653.3000    156.1225      8.1730      0.4314     25.6757      2.6429      0.3843
   653.4000    159.3236      8.1730      1.3154     26.3714      2.6283      0.2480
   653.5000    159.7636      8.1284      2.7013     26.8456      2.6054      0.1746
