~Version Information
VERS.                      2.0: CWLS Log ASCII Standard - VERSION 2.0
WRAP.                       NO: One line per depth step
~Well Information Block
STRT.FT               481.5000: 
STOP.FT              2033.5000: 
STEP.FT                 0.2500: 
NULL.                -999.2500: 
COMP.          Petrogulf Corporation: COMPANY
WELL.            Montoya 7-12R: WELL
FLD.           Purgatorie River: FIELD
LOC.           1769' FNL & 658' FWL: LOCATION
CNTY.               Las Animas: COUNTY
SRVC.                         : SERVICE COMPANY
DATE.          Sat Nov 20 02:31:05 2004: LOG DATE
UWI.           05 071 08240 00: UNIQUE WELL ID
STAT.                 Colorado: STATE
~Curve Information Block
DEPT.FT            0 000 00 00: Depth
SP.mV                         : DIL Spontaneous Potential
RILD.Ohm-m                    : DIL Deep Resistivity
RILM.Ohm-m                    : DIL Medium Resistivity
RLL3.Ohm-m                    : DIL Shallow Resistivity
GR.GAPI                       : Gamma Ray
~Parameter Information Block
~A  Depth        SP         RILD        RILM        RLL3         GR     
# ...
   901.5000   -185.2949     12.8543     13.3006     14.5518    123.3300
   901.7500   -185.2448     12.9260     13.3403     14.6368    124.5817
   902.0000   -185.5789     13.0187     13.4306     14.9831    127.1697
   902.2500   -186.3950     13.1319     13.5691     15.5984    128.8052
   902.5000   -187.7019     13.2659     13.7512     16.4606    130.3401
   902.7500   -189.4071     13.4208     13.9706     17.5164    130.7266
   903.0000   -191.3362     13.5965     14.2197     18.6845    130.5781
   903.2500   -193.2601     13.7922     14.4897     19.8644    129.9379
   903.5000   -194.9445     14.0064     14.7715     20.9477    127.8015
   903.7500   -196.1899     14.2373     15.0552     21.8301    125.5523
   904.0000   -196.8763     14.4828     15.3315     22.4240    121.7405
   904.2500   -196.9844     14.7412     15.5921     22.6723    119.8377
   904.5000   -196.5963     15.0102     15.8306     22.5619    119.3133
   904.7500   -195.8701     15.2874     16.0447     22.1352    120.6205
   905.0000   -194.9977     15.5688     16.2362     21.4918    124.1342
   905.2500   -194.1600     15.8487     16.4117     20.7770    126.7851
   905.5000   -193.4816     16.1199     16.5819     20.1553    130.0572
   905.7500   -193.0171     16.3744     16.7594     19.7756    131.1151
   906.0000   -192.7535     16.6047     16.9567     19.7378    130.2873
   906.2500   -192.6338     16.8059     17.1833     20.0714    128.2036
   906.5000   -192.5950     16.9771     17.4443     20.7341    123.6752
   906.7500   -192.5965     17.1212     17.7389     21.6296    120.3853
   907.0000   -192.6272     17.2448     18.0604     22.6373    116.0071
   907.2500   -192.7106     17.3564     18.3976     23.6408    113.8051
   907.5000   -192.8858     17.4646     18.7367     24.5489    111.6840
   907.7500   -193.1849     17.5763     19.0639     25.2993    110.8350
   908.0000   -193.6180     17.6960     19.3679     25.8524    109.6765
   908.2500   -194.1635     17.8248     19.6414     26.1812    108.5696
   908.5000   -194.7710     17.9607     19.8811     26.2672    106.4398
   908.7500   -195.3709     18.0993     20.0868     26.1071    105.3958
   909.0000   -195.8921     18.2341     20.2593     25.7251    106.1050
   909.2500   -196.2801     18.3575     20.3990     25.1838    108.6097
   909.5000   -196.5085     18.4621     20.5050     24.5845    114.4299
   909.7500   -196.5911     18.5410     20.5746     24.0523    118.2759
   910.0000   -196.5751     18.5895     20.6045     23.7079    121.8308
   910.2500   -196.5334     18.6061     20.5920     23.6342    122.3854
   910.5000   -196.5464     18.5930     20.5364     23.8493    121.4437
   910.7500   -196.6771     18.5567     20.4402     24.2946    120.4672
   911.0000   -196.9567     18.5080     20.3111     24.8464    119.4677
   911.2500   -197.3692     18.4608     20.1624     25.3499    119.3441
   911.5000   -197.8557     18.4311     20.0125     25.6669    119.9694
   911.7500   -198.3256     18.4349     19.8842     25.7246    120.7405
   912.0000   -198.6901     18.4863     19.8031     25.5490    121.8946
   912.2500   -198.8869     18.5960     19.7957     25.2778    122.4190
   912.5000   -198.9159     18.7695     19.8870     25.1507    122.9646
   912.7500   -198.8416     19.0071     20.1000     25.4849    123.5364
   913.0000   -198.7853     19.3036     20.4536     26.6434    125.1864
   913.2500   -198.8880     19.6499     20.9636     28.9981    126.5706
   913.5000   -199.2658     20.0349     21.6411     32.8761    127.5910
   913.7500   -199.9674     20.4493     22.4920     38.4823    126.5233
   914.0000   -200.9516     20.8882     23.5162     45.8138    121.4978
   914.2500   -202.0946     21.3547     24.7044     54.5959    116.2479
   914.5000   -203.2290     21.8616     26.0371     64.2942    106.7561
   914.7500   -204.1872     22.4293     27.4825     74.2235     99.7958
   915.0000   -204.8499     23.0835     28.9974     83.7233     88.9284
   915.2500   -205.1728     23.8508     30.5312     92.3200     82.1032
   915.5000   -205.1830     24.7516     32.0337     99.7785     74.2221
   915.7500   -204.9543     25.7959     33.4651    106.0084     71.0802
   916.0000   -204.5759     26.9780     34.8042    110.8878     68.8714
   916.2500   -204.1239     28.2743     36.0506    114.1317     68.1974
   916.5000   -203.6499     29.6444     37.2242    115.3157     67.4656
   916.7500   -203.1877     31.0357     38.3558    114.0729     67.2828
   917.0000   -202.7642     32.3927     39.4790    110.3592     68.2510
   917.2500   -202.4123     33.6660     40.6203    104.6333     70.0434
   917.5000   -202.1725     34.8213     41.7950     97.8312     74.3327
   917.7500   -202.0837     35.8406     43.0042     91.1402     77.8700
   918.0000   -202.1692     36.7215     44.2332     85.6760     83.3017
   918.2500   -202.4241     37.4703     45.4540     82.2038     86.4995
   918.5000   -202.8107     38.0971     46.6252     81.0100     89.9041
   918.7500   -203.2677     38.6097     47.6968     81.9351     90.9078
   919.0000   -203.7239     39.0096     48.6172     84.5150     90.3665
   919.2500   -204.1140     39.2888     49.3404     88.1468     88.9378
   919.5000   -204.3915     39.4296     49.8365     92.2229     86.0642
   919.7500   -204.5315     39.4063     50.0942     96.2115     84.0240
   920.0000   -204.5274     39.1923     50.1212     99.6929     80.9514
   920.2500   -204.3853     38.7689     49.9316    102.3629     79.0130
   920.5000   -204.1195     38.1348     49.5344    104.0098     76.8703
   920.7500   -203.7459     37.3094     48.9245    104.4713     76.2322
   921.0000   -203.2886     36.3313     48.0780    103.5878     76.0056
   921.2500   -202.7802     35.2493     46.9586    101.1824     75.6761
   921.5000   -202.2584     34.1117     45.5412     97.0967     74.4599
   921.7500   -201.7564     32.9596     43.8259     91.2766     73.7239
   922.0000   -201.2914     31.8222     41.8520     83.8680     74.3174
   922.2500   -200.8529     30.7178     39.6985     75.2664     76.4622
   922.5000   -200.4059     29.6578     37.4663     66.0785     82.3845
   922.7500   -199.8982     28.6500     35.2596     57.0048     87.7032
   923.0000   -199.2872     27.7034     33.1676     48.6901     96.4825
   923.2500   -198.5574     26.8283     31.2537     41.6009    102.0968
   923.5000   -197.7316     26.0363     29.5571     35.9689    109.2575
   923.7500   -196.8650     25.3383     28.0949     31.8076    112.9377
   924.0000   -196.0248     24.7427     26.8710     28.9744    116.7422
   924.2500   -195.2594     24.2547     25.8811     27.2445    118.3675
   924.5000   -194.5794     23.8746     25.1176     26.3784    120.1895
   924.7500   -193.9584     23.5998     24.5721     26.1700    121.2887
   925.0000   -193.3458     23.4246     24.2376     26.4721    122.6884
   925.2500   -192.7028     23.3419     24.1065     27.2049    123.3027
   925.5000   -192.0248     23.3438     24.1708     28.3492    123.6774
   925.7500   -191.3561     23.4210     24.4190     29.9220    123.5890
   926.0000   -190.7801     23.5628     24.8332     31.9402    122.9750
   926.2500   -190.3891     23.7554     25.3853     34.3753    122.1862
   926.5000   -190.2545     23.9804     26.0334     37.1130    119.9205
   926.7500   -190.4041     24.2150     26.7190     39.9313    117.1355
   927.0000   -190.8179     24.4320     27.3683     42.5180    110.3594
   927.2500   -191.4451     24.6033     27.8989     44.5269    104.3852
   927.5000   -192.2278     24.7032     28.2345     45.6618     95.1466
   927.7500   -193.1262     24.7134     28.3206     45.7567     90.2673
   928.0000   -194.1200     24.6245     28.1402     44.8170     86.3912
   928.2500   -195.2010     24.4376     27.7168     43.0065     85.9184
   928.5000   -196.3523     24.1602     27.1065     40.5872     86.8638
   928.7500   -197.5349     23.8027     26.3798     37.8428     87.8479
   929.0000   -198.6760     23.3757     25.6052     35.0183     89.7108
   929.2500   -199.6798     22.8877     24.8353     32.2930     91.5649
