~Version Information
VERS.                      2.0: CWLS Log ASCII Standard - VERSION 2.0
WRAP.                       NO: One line per depth step
~Well Information Block
STRT.FT                -6.2500: 
STOP.FT              2316.0000: 
STEP.FT                 0.2500: 
NULL.                -999.2500: 
COMP.          Pioneer Natural Resources: COMPANY
WELL.             Trimax 44-23: WELL
FLD.           Purgatorie River: FIELD
LOC.           527' FSL & 1064' FEL------: LOCATION
PROV.                       CO: PROVINCE
CNTY.               Las Animas: COUNTRY
SRVC.          Patterson Wireline: SERVICE COMPANY
DATE.          Sat Mar 19 11:18:53 2005: LOG DATE
UWI.           05 071 08326 00: UNIQUE WELL ID
~Curve Information Block
DEPT.FT            0 000 00 00: Depth
CCL.                          : Casing Collar Locator
TT3.usec                      : CBL 3' Travel Time
AMP3.mV                       : CBL 3' Amplitude
GR.GAPI                       : Gamma Ray
~Parameter Information Block
~A  Depth       CCL         TT3         AMP3         GR     
# ...
   898.2500      0.0000    812.9917      7.0411     96.6039
   898.5000      0.0000    792.9155      6.9965     93.7047
   898.7500      0.0000    768.2402      6.9696     89.6561
   899.0000      0.0000    745.7092      6.9673     86.0269
   899.2500      0.0000    730.4266      6.9869     84.2024
   899.5000      0.0000    723.0872      7.0127     84.6522
   899.7500      0.0000    720.7599      7.0206     86.5921
   900.0000      0.0000    719.7673      6.9919     88.5697
   900.2500      0.0000    717.9723      6.9119     89.7403
   900.5000      0.0000    715.3531      6.7556     90.4712
   900.7500      0.0000    713.1891      6.5007     91.3707
   901.0000      0.0000    713.2237      6.1726     91.9788
   901.2500      0.0000    717.7579      5.8686     91.0842
   901.5000      0.0000    729.3845      5.6955     88.2459
   901.7500      0.0000    748.8117      5.6652     84.2162
   902.0000      0.0000    772.6783      5.6728     79.8570
   902.2500      0.0000    794.5486      5.5869     75.4959
   902.5000      0.0000    808.5656      5.3526     71.4754
   902.7500      0.0000    812.1648      5.0258     68.4999
   903.0000     -1.0000    806.1775      4.7424     66.9423
   903.2500      0.0000    792.8463      4.6412     66.1922
   903.5000      0.0000    773.4587      4.7864     65.1910
   903.7500      0.0000    749.0182      5.1455     63.6425
   904.0000      0.0000    724.8189      5.6239     62.3389
   904.2500      0.0000    711.4749      6.1073     62.1436
   904.5000      0.0000    716.5131      6.5070     62.9991
   904.7500      0.0000    735.5999      6.8050     64.2080
   905.0000      0.0000    756.0645      7.0406     65.3760
   905.2500      0.0000    768.5654      7.2390     66.7027
   905.5000      0.0000    772.6441      7.3823     68.4921
   905.7500      0.0000    772.6342      7.4547     70.6501
   906.0000      0.0000    772.0169      7.4778     72.6632
   906.2500      0.0000    771.9333      7.4869     74.0361
   906.5000      0.0000    772.4868      7.4919     74.7895
   906.7500      0.0000    774.0099      7.4744     75.3962
   907.0000      0.0000    777.5068      7.4215     76.1945
   907.2500      0.0000    784.2834      7.3558     77.0850
   907.5000      0.0000    795.0187      7.3237     77.7322
   907.7500      0.0000    808.9861      7.3494     77.6561
   908.0000      0.0000    824.2209      7.4044     76.3634
   908.2500      0.0000    838.3497      7.4335     73.9937
   908.5000      0.0000    849.3069      7.4119     71.6885
   908.7500      0.0000    855.8699      7.3621     70.7175
   909.0000      0.0000    858.1018      7.3164     71.2485
   909.2500      0.0000    857.2062      7.2819     72.3064
   909.5000      0.0000    854.6223      7.2433     72.7935
   909.7500      0.0000    850.9816      7.1853     72.2381
   910.0000      0.0000    845.4515      7.1012     70.7662
   910.2500      0.0000    835.7677      6.9864     68.7569
   910.5000      0.0000    819.8057      6.8360     66.5442
   910.7500      0.0000    798.3894      6.6548     64.2978
   911.0000      0.0000    776.0885      6.4639     62.2201
   911.2500      0.0000    757.8368      6.2855     60.8071
   911.5000      0.0000    745.3906      6.1253     60.6343
   911.7500      0.0000    738.3376      5.9759     61.6622
   912.0000      0.0000    736.6939      5.8309     62.9443
   912.2500      0.0000    739.8560      5.6897     63.2948
   912.5000      0.0000    744.3580      5.5523     62.2965
   912.7500      0.0000    745.7788      5.4151     60.6732
   913.0000      0.0000    742.6805      5.2734     59.7907
   913.2500      0.0000    736.6686      5.1326     60.7822
   913.5000      0.0000    729.2811      5.0151     63.8450
   913.7500      0.0000    721.0107      4.9453     67.9383
   914.0000      0.0000    712.9242      4.9306     71.1484
   914.2500      0.0000    707.1248      4.9653     71.8580
   914.5000      0.0000    705.4921      5.0423     69.9471
   914.7500      0.0000    708.6618      5.1401     66.8272
   915.0000      0.0000    715.4812      5.2135     64.3420
   915.2500      0.0000    722.5551      5.2228     63.7518
   915.5000      0.0000    725.4455      5.1742     65.3869
   915.7500      0.0000    721.9612      5.1103     68.6654
   916.0000      0.0000    714.0911      5.0620     72.3429
   916.2500      0.0000    705.9310      5.0247     75.0694
   916.5000      0.0000    700.2338      4.9870     76.0494
   916.7500      0.0000    697.4089      4.9612     75.4896
   917.0000      0.0000    696.8682      4.9681     74.5387
   917.2500      0.0000    698.4373      5.0018     74.4991
   917.5000      0.0000    702.6209      5.0292     75.7695
   917.7500      0.0000    709.9387      5.0247     77.7205
   918.0000      0.0000    719.9407      5.0001     79.6709
   918.2500      0.0000    730.8212      5.0034     81.5282
   918.5000      0.0000    740.3067      5.0855     83.4007
   918.7500      0.0000    747.3710      5.2620     85.2633
   919.0000      0.0000    753.3802      5.4951     87.3195
   919.2500      0.0000    761.2371      5.7169     90.0409
   919.5000      0.0000    772.7831      5.8811     93.3176
   919.7500      0.0000    786.8586      5.9957     95.9191
   920.0000      0.0000    800.0664      6.0916     96.1385
   920.2500      0.0000    809.1321      6.1645     92.9740
   920.5000      0.0000    812.2678      6.1714     86.8713
   920.7500      0.0000    809.2957      6.0881     79.5208
   921.0000      0.0000    802.2123      5.9523     72.7813
   921.2500      0.0000    795.6748      5.8352     67.5531
   921.5000      0.0000    794.5523      5.7780     63.5619
   921.7500      0.0000    799.2473      5.7699     60.1089
   922.0000      0.0000    804.1370      5.7805     56.9738
   922.2500      0.0000    802.0505      5.7891     54.6267
   922.5000      0.0000    790.3348      5.7839     53.6081
   922.7500      0.0000    772.5376      5.7521     53.7776
   923.0000      0.0000    755.2172      5.6838     54.1586
   923.2500      0.0000    744.0331      5.5816     53.3808
   923.5000      0.0000    741.9879      5.4621     50.4370
   923.7500      0.0000    749.2437      5.3507     45.4902
   924.0000      0.0000    763.2839      5.2774     40.1014
   924.2500      0.0000    779.9026      5.2660     36.4091
   924.5000      0.0000    795.3735      5.3144     35.8248
   924.7500      0.0000    807.7540      5.3887     38.3619
   925.0000      0.0000    815.4926      5.4468     42.9829
   925.2500      0.0000    815.1901      5.4703     48.4998
   925.5000      0.0000    802.1102      5.4726     54.3078
   925.7500      0.0000    774.2668      5.4855     60.4097
   926.0000      0.0000    736.2640      5.5425     66.8094
   926.2500      0.0000    697.8880      5.6612     73.0522
   926.5000      0.0000    667.6924      5.8278     78.3994
   926.7500      0.0000    647.8534      5.9984     82.1894
   927.0000      0.0000    635.0129      6.1245     84.0349
   927.2500      0.0000    625.0199      6.1843     84.1618
   927.5000      0.0000    616.3657      6.1887     83.7393
   927.7500      0.0000    610.2308      6.1636     84.3296
   928.0000      0.0000    608.5256      6.1293     86.5064
   928.2500      0.0000    611.7877      6.0976     89.1892
   928.5000      0.0000    618.4282      6.0765     90.6822
   928.7500      0.0000    626.4163      6.0692     90.3603
   929.0000      0.0000    636.0882      6.0687     89.2114
   929.2500      0.0000    650.5012      6.0604     88.9248
   929.5000      0.0000    672.0913      6.0315     90.6636
   929.7500      0.0000    699.5674      5.9782     94.4716
   930.0000      0.0000    728.7621      5.9100     99.3888
   930.2500      0.0000    755.7095      5.8489    104.1235
   930.5000      0.0000    778.1849      5.8247    107.8849
   930.7500      0.0000    795.2731      5.8612    110.6502
   931.0000      0.0000    806.7914      5.9569    112.7107
   931.2500      0.0000    813.5098      6.0724    114.3397
   931.5000      0.0000    817.1959      6.1495    116.1244
