~Version Information
VERS.                      2.0: CWLS Log ASCII Standard - VERSION 2.0
WRAP.                       NO: One line per depth step
~Well Information Block
STRT.FT               230.0000: 
STOP.FT              1527.0000: 
STEP.FT                 0.1000: 
NULL.                -999.2500: 
COMP.          Pioneer Natural Resources: COMPANY
WELL.              Border 21-3: WELL
FLD.           Purgatorie River: FIELD
LOC.           865' FNL & 1415' FWL: LOCATION
PROV.                 Colorado: PROVINCE
CNTY.               Las Animas: COUNTRY
SRVC.                         : SERVICE COMPANY
DATE.          Thu Dec 09 16:57:34 2004: LOG DATE
UWI.           05 071 08169 00: UNIQUE WELL ID
~Curve Information Block
DEPT.FT            0 000 00 00: Depth
LTEN.lb                       : Surface Line Tension
DCAL.in                       : CDL Caliper
RHOB.g/cc                     : CDL Bulk Density
RHOC.g/cc                     : CDL Density Correction
DPOR.pu                       : CDL Density Porosity
GR.GAPI                       : Gamma Ray
NPOR.pu                       : Neutron Porosity
~Parameter Information Block
~A  Depth       LTEN        DCAL        RHOB        RHOC        DPOR         GR         NPOR    
# ...
  1347.2000    950.8453      7.6881      2.5132      0.0883      8.2894     89.4142     19.4425
  1347.3000    977.4254      7.6925      2.5242      0.0705      7.6222     85.8823     19.2783
  1347.4000    977.4254      7.6925      2.5522      0.0777      5.9279     85.2336     19.7370
  1347.5000    981.4717      7.6928      2.5860      0.1302      3.8774     84.2942     19.1843
  1347.6000    981.4717      7.6928      2.6083      0.1259      2.5292     78.0486     17.3201
  1347.7000    981.4717      7.6928      2.6206      0.0926      1.7806     68.8295     15.6083
  1347.8000    957.2405      7.6910      2.6310      0.1084      1.1522     63.6656     14.8120
  1347.9000    957.2405      7.6910      2.6331      0.1343      1.0235     61.0512     14.2330
  1348.0000   1002.1829      7.6934      2.6273      0.0901      1.3748     56.6626     13.3085
  1348.1000   1002.1829      7.6934      2.6315      0.0715      1.1217     52.6278     12.5339
  1348.2000   1002.1829      7.6934      2.6517      0.0524     -0.1031     50.4504     12.6008
  1348.3000    977.0814      7.6950      2.6718      0.0801     -1.3238     50.3557     13.1002
  1348.4000    977.0814      7.6950      2.6814      0.0584     -1.9027     54.0875     13.2990
  1348.5000   1004.9153      7.6921      2.6854      0.1185     -2.1430     59.4522     13.3078
  1348.6000   1004.9153      7.6921      2.6809      0.1360     -1.8735     62.8164     13.3016
  1348.7000   1004.9153      7.6921      2.6612      0.1206     -0.6794     66.1239     13.3191
  1348.8000    968.4011      7.6938      2.6267      0.0996      1.4114     72.3878     13.8364
  1348.9000    968.4011      7.6938      2.5808      0.0585      4.1915     78.9504     14.6227
  1349.0000   1008.5552      7.6925      2.5378      0.0398      6.7998     83.0004     14.9106
  1349.1000   1008.5552      7.6925      2.5161      0.0212      8.1155     82.9852     14.9736
  1349.2000   1008.5552      7.6925      2.5187      0.0571      7.9585     79.3182     15.4686
  1349.3000    986.2319      7.6939      2.5336      0.0751      7.0547     78.9746     16.2861
  1349.4000    986.2319      7.6939      2.5549      0.0881      5.7640     83.8899     17.2836
  1349.5000    976.3628      7.6976      2.5833      0.1126      4.0441     86.7984     18.0335
  1349.6000    976.3628      7.6976      2.6081      0.1363      2.5368     84.3356     17.9810
  1349.7000    976.3628      7.6976      2.6160      0.1355      2.0585     79.2696     17.4838
  1349.8000   1040.4550      7.6971      2.6092      0.1145      2.4721     74.9458     16.9804
  1349.9000   1040.4550      7.6971      2.6012      0.1052      2.9604     72.7036     16.7029
  1350.0000    984.3504      7.7010      2.6012      0.0781      2.9550     70.5823     16.9553
  1350.1000    984.3504      7.7010      2.6051      0.1068      2.7195     69.1295     18.0286
  1350.2000    984.3504      7.7010      2.6043      0.0834      2.7681     70.7791     19.6826
  1350.3000   1048.6166      7.6937      2.5995      0.0882      3.0583     73.1782     20.9168
  1350.4000   1048.6166      7.6937      2.5908      0.1208      3.5851     73.7425     20.9690
  1350.5000   1048.9332      7.6928      2.5807      0.0520      4.2006     73.8965     20.0902
  1350.6000   1048.9332      7.6928      2.5782      0.0771      4.3504     74.6049     19.2469
  1350.7000   1048.9332      7.6928      2.5754      0.0833      4.5182     74.9905     19.0105
  1350.8000   1028.4817      7.6940      2.5608      0.0606      5.4071     74.5288     18.9332
  1350.9000   1028.4817      7.6940      2.5442      0.0769      6.4096     73.8265     18.5596
  1351.0000   1041.1907      7.6932      2.5399      0.0639      6.6732     75.4068     18.0571
  1351.1000   1041.1907      7.6932      2.5534      0.0857      5.8526     77.7463     17.6446
  1351.2000   1041.1907      7.6932      2.5811      0.1022      4.1750     77.5117     17.2726
  1351.3000   1010.3884      7.6931      2.6089      0.0891      2.4910     74.0187     17.1750
  1351.4000   1010.3884      7.6931      2.6209      0.1111      1.7624     69.4881     17.5046
  1351.5000   1023.5302      7.6938      2.6109      0.0988      2.3726     68.3995     17.8337
  1351.6000   1023.5302      7.6938      2.5902      0.1008      3.6262     70.9044     17.7732
  1351.7000   1023.5302      7.6938      2.5763      0.1043      4.4646     73.4039     17.2295
  1351.8000   1026.9447      7.6935      2.5713      0.1158      4.7692     77.0880     16.5611
  1351.9000   1026.9447      7.6935      2.5646      0.0877      5.1780     84.7271     16.6212
  1352.0000   1044.1030      7.6936      2.5509      0.0942      6.0080     91.5786     17.6952
  1352.1000   1044.1030      7.6936      2.5364      0.0456      6.8840     91.4528     18.6833
  1352.2000   1044.1030      7.6936      2.5327      0.0479      7.1094     88.7742     18.4895
  1352.3000   1000.9570      7.6942      2.5417      0.0616      6.5625     91.6450     17.4417
  1352.4000   1000.9570      7.6942      2.5558      0.0835      5.7106     98.9553     16.8850
  1352.5000   1014.7667      7.6934      2.5656      0.1409      5.1142    103.4453     17.7953
  1352.6000   1014.7667      7.6934      2.5653      0.1431      5.1328    103.6128     19.3678
  1352.7000   1014.7667      7.6934      2.5600      0.1128      5.4560    103.9720     20.1464
  1352.8000   1041.2488      7.6923      2.5584      0.1107      5.5541    106.4831     20.1783
  1352.9000   1041.2488      7.6923      2.5583      0.1255      5.5569    110.1949     19.8322
  1353.0000   1016.8535      7.6927      2.5536      0.1097      5.8451    111.4738     19.5766
  1353.1000   1016.8535      7.6927      2.5444      0.1364      6.4005    108.0943     20.0746
  1353.2000   1016.8535      7.6927      2.5318      0.1142      7.1608    104.1332     21.0897
  1353.3000   1014.4769      7.6943      2.5230      0.0858      7.6944    103.5051     22.2738
  1353.4000   1014.4769      7.6943      2.5303      0.0958      7.2576    103.8284     23.4547
  1353.5000   1032.5046      7.6948      2.5539      0.0915      5.8242    101.8824     23.5794
  1353.6000   1032.5046      7.6948      2.5843      0.1112      3.9817    100.1285     22.1528
  1353.7000   1032.5046      7.6948      2.6085      0.1388      2.5132     99.7126     21.0651
  1353.8000   1029.8342      7.6927      2.6162      0.1275      2.0474     96.1077     21.2164
  1353.9000   1029.8342      7.6927      2.6111      0.1136      2.3569     88.3673     20.9328
  1354.0000   1029.6544      7.6937      2.6120      0.1024      2.3039     81.2587     19.4648
  1354.1000   1029.6544      7.6937      2.6275      0.1335      1.3654     75.2590     17.9851
  1354.2000   1029.6544      7.6937      2.6410      0.1243      0.5447     68.4848     16.8285
  1354.3000   1037.1189      7.6935      2.6408      0.0752      0.5562     64.3530     15.9544
  1354.4000   1037.1189      7.6935      2.6352      0.0788      0.8963     65.5910     15.8947
  1354.5000   1032.6824      7.6936      2.6317      0.0766      1.1071     69.2319     16.2472
  1354.6000   1032.6824      7.6936      2.6251      0.0924      1.5070     71.2709     16.1064
  1354.7000   1032.6824      7.6936      2.6093      0.0767      2.4667     69.9245     15.6008
  1354.8000   1018.8530      7.6948      2.5946      0.0595      3.3561     65.5303     15.2657
  1354.9000   1018.8530      7.6948      2.5906      0.0818      3.6021     61.3083     14.8022
  1355.0000   1030.6696      7.6955      2.5868      0.0912      3.8319     60.6332     14.3566
  1355.1000   1030.6696      7.6955      2.5754      0.0657      4.5208     63.7061     14.3932
  1355.2000   1030.6696      7.6955      2.5628      0.0394      5.2820     65.6316     14.4436
  1355.3000   1022.7681      7.6945      2.5569      0.0412      5.6449     62.5841     14.1816
  1355.4000   1022.7681      7.6945      2.5596      0.0479      5.4766     58.2694     13.8461
  1355.5000   1027.4677      7.6938      2.5715      0.0654      4.7560     56.0493     13.4440
