~Version Information
VERS.                      2.0: CWLS Log ASCII Standard - VERSION 2.0
WRAP.                       NO: One line per depth step
~Well Information Block
STRT.FT               360.0000: 
STOP.FT              1622.7000: 
STEP.FT                 0.1000: 
NULL.                -999.2500: 
COMP.          Pioneer Natural Resources: COMPANY
WELL.                Eric 42-9: WELL
FLD.           Purgatoire River: FIELD
LOC.           2050' FNL & 850' FEL: LOCATION
PROV.                 Colorado: PROVINCE
CNTY.               Las Animas: COUNTRY
SRVC.                Patterson: SERVICE COMPANY
DATE.          Mon Nov 01 08:19:51 2004: LOG DATE
UWI.           05 071 07999 00: UNIQUE WELL ID
~Curve Information Block
DEPT.FT            0 000 00 00: Depth
DCAL.in                       : CDL Caliper
RHOB.g/cc                     : CDL Bulk Density
RHOC.g/cc                     : CDL Density Correction
DPOR.pu                       : CDL Density Porosity
NPOR.pu                       : Neutron Porosity
GR.GAPI                       : Gamma Ray
~Parameter Information Block
~A  Depth       DCAL        RHOB        RHOC        DPOR        NPOR         GR     
# ...
  1099.2000      8.1168      2.5739      0.0517      4.6147     18.1846     84.4478
  1099.3000      8.1149      2.5667      0.0582      5.0487     17.7438     87.8362
  1099.4000      8.1149      2.5538      0.0191      5.8295     17.7546     94.8394
  1099.5000      8.1150      2.5548      0.0092      5.7676     18.0047     98.1488
  1099.6000      8.1150      2.5709      0.0360      4.7929     17.8514     97.8991
  1099.7000      8.1150      2.5827      0.0626      4.0795     17.3197     95.9434
  1099.8000      8.1150      2.5789      0.0523      4.3083     16.8354     92.9078
  1099.9000      8.1150      2.5633      0.0477      5.2551     16.2958     92.2260
  1100.0000      8.1104      2.5395      0.0466      6.6991     15.9350     94.7838
  1100.1000      8.1104      2.5201     -0.0010      7.8727     16.4567     94.4618
  1100.2000      8.1104      2.5210      0.0069      7.8206     17.4468     87.6747
  1100.3000      8.0992      2.5321      0.0076      7.1477     17.8166     80.7469
  1100.4000      8.0992      2.5368      0.0012      6.8584     17.4332     81.1732
  1100.5000      8.0875      2.5414     -0.0036      6.5830     16.9517     87.3069
  1100.6000      8.0875      2.5550      0.0397      5.7603     16.8719     90.3318
  1100.7000      8.0875      2.5691      0.1101      4.9013     16.9753     84.9286
  1100.8000      8.0800      2.5687      0.0912      4.9248     16.8752     76.5091
  1100.9000      8.0800      2.5569      0.0418      5.6437     16.6274     70.9938
  1101.0000      8.0741      2.5501      0.0454      6.0533     16.6992     68.7674
  1101.1000      8.0741      2.5536      0.0573      5.8395     17.3014     71.3138
  1101.2000      8.0741      2.5621      0.0352      5.3281     18.1950     76.8634
  1101.3000      8.0676      2.5652      0.0808      5.1393     18.9397     82.0345
  1101.4000      8.0676      2.5557      0.0286      5.7162     18.9494     87.5541
  1101.5000      8.0592      2.5468      0.0435      6.2571     18.4387     94.2106
  1101.6000      8.0592      2.5506      0.0499      6.0224     18.1942     98.3001
  1101.7000      8.0592      2.5576      0.0774      5.5978     17.9896     96.7063
  1101.8000      8.0563      2.5561      0.0833      5.6891     17.3940     93.6291
  1101.9000      8.0563      2.5478      0.0648      6.1924     16.9651     92.6164
  1102.0000      8.0625      2.5426      0.0397      6.5078     17.0804     93.7667
  1102.1000      8.0625      2.5461      0.0639      6.2984     17.3738     94.9940
  1102.2000      8.0625      2.5518      0.0884      5.9542     17.5975     92.8082
  1102.3000      8.0669      2.5515      0.0509      5.9689     17.8707     86.9198
  1102.4000      8.0669      2.5470      0.0231      6.2394     18.5949     81.3192
  1102.5000      8.0674      2.5422      0.0406      6.5323     19.9277     79.7704
  1102.6000      8.0674      2.5377      0.0343      6.8049     20.7820     79.6279
  1102.7000      8.0674      2.5354      0.0287      6.9433     20.5976     77.1412
  1102.8000      8.0662      2.5357      0.0342      6.9301     20.4637     76.4393
  1102.9000      8.0662      2.5358      0.0383      6.9238     20.9812     81.1363
  1103.0000      8.0646      2.5319      0.0531      7.1556     21.7807     87.1686
  1103.1000      8.0646      2.5266      0.0132      7.4775     22.3533     90.7859
  1103.2000      8.0646      2.5303      0.0321      7.2561     22.3146     92.1234
  1103.3000      8.0650      2.5406      0.0541      6.6283     21.6524     90.1341
  1103.4000      8.0650      2.5453      0.0592      6.3467     20.9693     86.2189
  1103.5000      8.0664      2.5400      0.0718      6.6671     20.4858     83.8095
  1103.6000      8.0664      2.5275      0.0445      7.4258     19.9765     82.5357
  1103.7000      8.0664      2.5119      0.0773      8.3694     19.7400     81.9052
  1103.8000      8.0664      2.5000      0.0317      9.0912     20.1264     82.5287
  1103.9000      8.0664      2.4950      0.0771      9.3968     20.8108     83.7032
  1104.0000      8.0646      2.4827      0.0865     10.1373     21.0551     82.9755
  1104.1000      8.0646      2.4531      0.0354     11.9323     20.3607     76.9154
  1104.2000      8.0646      2.4211      0.0159     13.8742     18.9342     67.8827
  1104.3000      8.0600      2.4025      0.0497     14.9988     17.6967     61.9794
  1104.4000      8.0600      2.3994      0.0259     15.1872     17.1958     59.9074
  1104.5000      8.0563      2.4097      0.0094     14.5628     17.3599     57.9756
  1104.6000      8.0563      2.4242      0.0327     13.6829     18.0463     54.8270
  1104.7000      8.0563      2.4344      0.0086     13.0666     18.7190     52.3061
  1104.8000      8.0646      2.4454      0.0472     12.4029     18.6960     50.4823
  1104.9000      8.0646      2.4615      0.0524     11.4230     18.0902     48.9437
  1105.0000      8.0859      2.4801      0.0657     10.2948     17.4045     46.9645
  1105.1000      8.0859      2.4963      0.0501      9.3166     16.9370     43.9751
  1105.2000      8.0859      2.5013      0.0940      9.0147     16.7552     41.3496
  1105.3000      8.1055      2.4875      0.0512      9.8511     16.7875     39.5851
  1105.4000      8.1055      2.4633      0.0394     11.3157     17.1616     38.5769
  1105.5000      8.1181      2.4457      0.0401     12.3848     17.7994     39.1351
  1105.6000      8.1181      2.4396      0.0587     12.7508     17.9545     43.8262
  1105.7000      8.1181      2.4399      0.0455     12.7306     17.6580     52.4402
  1105.8000      8.1326      2.4452      0.0572     12.4151     17.7524     57.8881
  1105.9000      8.1326      2.4527      0.0635     11.9554     17.9547     54.8706
  1106.0000      8.1469      2.4574      0.0632     11.6754     17.7388     46.8405
  1106.1000      8.1469      2.4629      0.0411     11.3391     17.6631     39.3362
  1106.2000      8.1469      2.4753      0.0903     10.5875     18.0740     35.2247
  1106.3000      8.1620      2.4895      0.0750      9.7270     18.7904     36.9465
  1106.4000      8.1620      2.5011      0.0743      9.0253     19.4084     43.2147
  1106.5000      8.1778      2.5088      0.0644      8.5562     19.2830     47.3204
  1106.6000      8.1778      2.5151      0.0753      8.1730     18.5283     47.3559
  1106.7000      8.1778      2.5253      0.0872      7.5590     17.8567     46.5798
  1106.8000      8.1841      2.5330      0.1006      7.0899     17.5219     45.1987
  1106.9000      8.1841      2.5275      0.0816      7.4215     17.4424     41.8945
  1107.0000      8.1839      2.5100      0.0810      8.4819     17.3228     38.8526
  1107.1000      8.1839      2.4934      0.0172      9.4890     16.6750     39.5062
  1107.2000      8.1839      2.4848      0.0593     10.0138     15.6229     42.7572
  1107.3000      8.1832      2.4716      0.0429     10.8146     14.8523     44.9450
  1107.4000      8.1832      2.4517     -0.0067     12.0206     15.0295     44.8388
  1107.5000      8.1842      2.4452      0.0059     12.4117     16.2755     43.8427
  1107.6000      8.1842      2.4554      0.0341     11.7934     17.6869     44.8035
  1107.7000      8.1842      2.4663      0.0041     11.1343     18.2333     49.2660
  1107.8000      8.1912      2.4784      0.0176     10.3978     17.9898     55.0846
  1107.9000      8.1912      2.4986      0.0299      9.1749     17.2456     56.8888
  1108.0000      8.2007      2.5164      0.0689      8.0940     16.0228     51.6067
  1108.1000      8.2007      2.5271      0.0236      7.4465     14.9201     43.9227
  1108.2000      8.2007      2.5420      0.0218      6.5474     14.4451     40.3695
  1108.3000      8.2031      2.5592      0.0706      5.5014     14.3452     42.6318
  1108.4000      8.2031      2.5610      0.0714      5.3946     14.3900     46.6555
  1108.5000      8.2011      2.5438      0.0488      6.4375     14.4502     47.9598
  1108.6000      8.2011      2.5253      0.0302      7.5581     14.3577     47.3618
  1108.7000      8.2011      2.5225      0.0043      7.7296     14.4746     47.4796
