~Version Information
VERS.                      2.0: CWLS Log ASCII Standard - VERSION 2.0
WRAP.                       NO: One line per depth step
~Well Information Block
STRT.FT                -7.7500: 
STOP.FT              2394.2500: 
STEP.FT                 0.2500: 
NULL.                -999.2500: 
COMP.      PIONEER NATURAL RESOURCES  : COMPANY
WELL.         NOMAD 32-10  : WELL
FLD.                          : FIELD
LOC.      SWNE 10 32S 66W 6PM : LOCATION
PROV.                         : PROVINCE
CNTY.                         : COUNTRY
SRVC.                         : SERVICE COMPANY
DATE.          Thu Aug 26 13:45:47 2004: LOG DATE
UWI.      005 071 08127  : UNIQUE WELL ID
~Curve Information Block
DEPT.FT            0 000 00 00: Depth
CCL.                          : Casing Collar Locator
TT3.usec                      : CBL 3' Travel Time
AMP3.mV                       : CBL 3' Amplitude
GR.GAPI                       : Gamma Ray
~Parameter Information Block
~A  Depth       CCL         TT3         AMP3         GR     
# ...
  2203.2500      0.0000    716.2305      2.9197     87.3605
  2203.5000      0.0000    722.6859      2.8884     90.3143
  2203.7500      0.0000    729.9479      2.9015     95.4974
  2204.0000      0.0000    736.9705      2.9786    101.5091
  2204.2500      0.0000    740.4573      3.1249    106.4363
  2204.5000      0.0000    736.6844      3.3017    108.6940
  2204.7500      0.0000    724.0048      3.4346    108.0653
  2205.0000      0.0000    705.2544      3.4649    105.8990
  2205.2500      0.0000    688.3937      3.3838    103.9473
  2205.5000      0.0000    682.2934      3.2187    102.9005
  2205.7500      0.0000    689.2547      3.0075    102.1643
  2206.0000      0.0000    702.4905      2.7960    100.8726
  2206.2500      0.0000    712.4044      2.6344     98.7529
  2206.5000      0.0000    714.3980      2.5460     96.1223
  2206.7500      0.0000    710.6123      2.4941     93.6743
  2207.0000      0.0000    706.4391      2.4088     92.4924
  2207.2500      0.0000    705.8616      2.2622     93.7842
  2207.5000      0.0000    708.3525      2.1017     98.0844
  2207.7500      0.0000    709.5566      1.9965    104.5776
  2208.0000      0.0000    705.7739      1.9752    111.2248
  2208.2500      0.0000    697.7826      2.0246    115.7465
  2208.5000      0.0000    689.8141      2.1219    117.0734
  2208.7500      0.0000    685.5477      2.2469    116.1783
  2209.0000      0.0000    685.6252      2.3678    115.1885
  2209.2500      0.0000    688.1440      2.4405    115.3271
  2209.5000      0.0000    690.6740      2.4493    115.8539
  2209.7500      0.0000    692.1318      2.4398    115.1928
  2210.0000      0.0000    693.2707      2.4830    113.0057
  2210.2500      0.0000    695.5906      2.6014    110.6953
  2210.5000      0.0000    700.1348      2.7523    109.5701
  2210.7500      0.0000    707.2233      2.8771    109.0112
  2211.0000      0.0000    716.2113      2.9424    107.0768
  2211.2500      0.0000    724.9193      2.9537    102.6223
  2211.5000      0.0000    730.3691      2.9715     96.2745
  2211.7500      0.0000    731.2082      3.0943     89.5865
  2212.0000      0.0000    729.1638      3.3768     83.9213
  2212.2500      0.0000    727.4876      3.7597     80.1435
  2212.5000      0.0000    728.0328      4.1105     78.8303
  2212.7500      0.0000    729.8840      4.3329     80.3043
  2213.0000      0.0000    730.5781      4.4287     84.1620
  2213.2500      0.0000    728.5848      4.4638     88.6830
  2213.5000      0.0000    724.6082      4.5003     91.2502
  2213.7500      0.0000    720.5380      4.5536     90.1393
  2214.0000      0.0000    717.6168      4.5948     86.0705
  2214.2500      0.0000    715.8213      4.5849     81.5712
  2214.5000      0.0000    714.4513      4.5066     78.8168
  2214.7500      0.0000    712.6671      4.3666     78.5269
  2215.0000      0.0000    709.5388      4.1742     80.5531
  2215.2500      0.0000    704.1795      3.9292     84.4231
  2215.5000      0.0000    696.3467      3.6369     89.2597
  2215.7500      0.0000    686.9777      3.3322     93.9745
  2216.0000      0.0000    677.9402      3.0837     97.5339
  2216.2500      0.0000    671.0883      2.9640     98.7168
  2216.5000      0.0000    667.0931      3.0086     96.4234
  2216.7500      0.0000    664.3062      3.1994     91.0452
  2217.0000      0.0000    658.0711      3.4721     84.9661
  2217.2500      0.0000    641.6750      3.7352     80.8558
  2217.5000      0.0000    610.2881      3.9096     79.5738
  2217.7500      0.0000    567.0292      3.9802     79.9682
  2218.0000      0.0000    525.7922      3.9962     80.2921
  2218.2500      0.0000    505.0213      4.0041     79.4772
  2218.5000      0.0000    515.3589      3.9987     77.3717
  2218.7500      0.0000    552.2431      3.9498     74.3717
  2219.0000      0.0000    599.9285      3.8628     71.1366
  2219.2500      0.0000    642.0328      3.7962     68.4942
  2219.5000      0.0000    669.6180      3.8072     67.3501
  2219.7500      0.0000    682.8926      3.8785     68.5193
  2220.0000      0.0000    688.1268      3.9187     72.4831
  2220.2500      0.0000    692.6750      3.8589     79.1002
  2220.5000      0.0000    700.5449      3.7359     87.4134
  2220.7500      0.0000    710.8413      3.6642     95.7878
  2221.0000      0.0000    719.8193      3.7317    102.5684
  2221.2500      0.0000    724.5262      3.9215    106.8561
  2221.5000      0.0000    724.8829      4.1117    108.7695
  2221.7500      0.0000    722.8486      4.1554    109.3100
  2222.0000      0.0000    720.0532      3.9935    110.1652
  2222.2500      0.0000    716.4590      3.7047    112.9788
  2222.5000      0.0000    711.2496      3.4305    117.8162
  2222.7500      0.0000    704.5015      3.2385    122.1794
  2223.0000      0.0000    697.3746      3.0735    122.2417
  2223.2500      0.0000    690.9223      2.8607    115.8141
  2223.5000      0.0000    685.4344      2.6348    104.4203
  2223.7500      0.0000    680.7417      2.5218     92.3834
  2224.0000      0.0000    675.9919      2.5922     83.8574
  2224.2500      0.0000    668.9526      2.7758     80.5934
  2224.5000      0.0000    656.6080      2.9387     81.9612
  2224.7500      0.0000    638.0295      3.0035     86.3331
  2225.0000      0.0000    617.2341      2.9680     92.1418
  2225.2500      0.0000    602.1310      2.8553     97.8656
  2225.5000      0.0000    598.6408      2.7002    101.7403
  2225.7500      0.0000    604.8632      2.5704    102.3848
  2226.0000      0.0000    611.0549      2.5505     99.9308
  2226.2500      0.0000    605.4787      2.6852     95.9970
  2226.5000      0.0000    581.3815      2.9375     92.3484
  2226.7500      0.0000    541.6403      3.2038     89.8554
  2227.0000      0.0000    499.0682      3.3813     88.4650
  2227.2500      0.0000    470.6569      3.4300     87.5394
  2227.5000      0.0000    468.1532      3.3851     86.1968
  2227.7500      0.0000    492.0223      3.3185     83.8111
  2228.0000      0.0000    532.6456      3.2871     80.6225
  2228.2500      0.0000    576.2701      3.3159     77.8937
  2228.5000      0.0000    611.8246      3.4206     77.1126
  2228.7500      0.0000    635.5692      3.6181     78.6985
  2229.0000      0.0000    650.7169      3.8997     81.5885
  2229.2500      0.0000    662.8896      4.2216     84.3492
  2229.5000      0.0000    675.7922      4.5538     86.5697
  2229.7500      0.0000    689.8272      4.9152     88.8677
  2230.0000      0.0000    703.0593      5.3241     91.6003
  2230.2500      0.0000    713.2970      5.7197     93.9289
  2230.5000      0.0000    719.8347      5.9768     94.2993
  2230.7500     -2.0000    723.5278      6.0263     91.7745
  2231.0000      0.0000    725.5050      5.9441     86.9528
  2231.2500      0.0000    726.4007      5.8915     81.7249
  2231.5000      0.0000    726.3689      5.9571     78.0257
  2231.7500      0.0000    724.9796      6.0748     76.5605
  2232.0000      0.0000    721.2394      6.1003     76.6651
  2232.2500      0.0000    714.3101      5.9466     77.3185
  2232.5000      0.0000    704.4357      5.6402     78.0168
  2232.7500      0.0000    692.8761      5.2842     78.5969
  2233.0000      0.0000    681.0245      5.0012     78.7677
  2233.2500      0.0000    670.3341      4.8949     78.3344
  2233.5000      0.0000    663.0552      5.0154     77.5275
  2233.7500      0.0000    661.3959      5.3252     76.4604
  2234.0000      0.0000    665.0161      5.7028     74.4495
  2234.2500      0.0000    670.2363      6.0045     70.6215
  2234.5000      0.0000    672.5304      6.1496     65.2705
  2234.7500      0.0000    669.2510      6.1574     60.0354
  2235.0000      0.0000    659.8406      6.0945     56.5941
  2235.2500      0.0000    644.9385      5.9935     55.6321
  2235.5000      0.0000    626.8640      5.8369     57.0424
  2235.7500      0.0000    610.2813      5.6145     60.4299
  2236.0000      0.0000    599.8621      5.3697     64.9519
  2236.2500      0.0000    596.1356      5.1808     68.9714
  2236.5000      0.0000    595.0765      5.1052     70.5185
