~Version Information
VERS.                      2.0: CWLS Log ASCII Standard - VERSION 2.0
WRAP.                       NO: One line per depth step
~Well Information Block
STRT.FT               350.0000: 
STOP.FT              1390.0000: 
STEP.FT                 0.1000: 
NULL.                -999.2500: 
COMP.          Petrogulf Corporation: COMPANY
WELL.             Leier 17-42R: WELL
FLD.           Purgatorie River: FIELD
LOC.           2398' FNL & 1109' FEL: LOCATION
PROV.                 Colorado: PROVINCE
CNTY.               Las Animas: COUNTRY
SRVC.                Patterson: SERVICE COMPANY
DATE.          Tue Oct 18 07:06:44 2005: LOG DATE
UWI.                          : UNIQUE WELL ID
~Curve Information Block
DEPT.FT            0 000 00 00: Depth
DCAL.in                       : CDL Caliper
RHOB.g/cc                     : CDL Bulk Density
RHOC.g/cc                     : CDL Density Correction
DPOR.pu                       : CDL Density Porosity
GR.GAPI                       : Gamma Ray
NPOR.pu                       : Neutron Porosity
~Parameter Information Block
~A  Depth       DCAL        RHOB        RHOC        DPOR         GR         NPOR    
   350.0000      8.1558      2.5029     -0.1877      8.9181     90.0586     38.7238
   350.1000      8.1558      2.4559     -0.4244     11.7629     86.0311     38.5345
   350.2000      8.1558      2.3965     -0.5010     15.3643     79.8194     38.5135
   350.3000      8.1599      2.3703     -0.5148     16.9529     75.8076     38.6465
   350.4000      8.1599      2.3654     -0.4725     17.2496     76.8893     38.6552
   350.5000      8.1635      2.3482     -0.4813     18.2912     80.9230     38.4026
   350.6000      8.1635      2.3264     -0.5414     19.6116     83.1960     38.1659
   350.7000      8.1635      2.3422     -0.5631     18.6540     82.4377     38.2390
   350.8000      8.1626      2.4142     -0.4559     14.2919     80.8716     38.5319
   350.9000      8.1626      2.5245     -0.4231      7.6042     78.1926     38.8969
   351.0000      8.1606      2.6474     -0.3349      0.1553     73.6243     39.2173
   351.1000      8.1606      2.7663     -0.3919     -7.0494     69.1034     39.3317
   351.2000      8.1606      2.8725     -0.3534    -13.4845     65.6761     39.2511
   351.3000      8.1610      2.9628     -0.3621    -18.9585     64.1805     39.0951
   351.4000      8.1610      3.0418     -0.3111    -23.7478     65.6261     39.0010
   351.5000      8.1519      3.0961     -0.3114    -27.0337     68.6714     39.0049
   351.6000      8.1519      3.0985     -0.3785    -27.1815     70.7822     38.9789
   351.7000      8.1519      3.0539     -0.5071    -24.4781     72.3299     38.8630
   351.8000      8.1572      2.9895     -0.4954    -20.5740     74.6779     38.7402
   351.9000      8.1572      2.9122     -0.5139    -15.8898     77.0450     38.6208
   352.0000      8.1535      2.8230     -0.5965    -10.4843     78.8468     38.4212
   352.1000      8.1535      2.7205     -0.5663     -4.2734     80.7525     38.1198
   352.2000      8.1535      2.5978     -0.6451      3.1620     83.3303     37.7744
   352.3000      8.1495      2.4753     -0.6212     10.5907     87.2189     37.5531
   352.4000      8.1495      2.3805     -0.6213     16.3335     91.2471     37.4701
   352.5000      8.1533      2.3136     -0.6087     20.3894     92.6206     37.3576
   352.6000      8.1533      2.2565     -0.5969     23.8512     91.6763     37.2876
   352.7000      8.1533      2.2078     -0.6585     26.7974     90.9809     37.3503
   352.8000      8.1472      2.1854     -0.6144     28.1550     91.5712     37.4000
   352.9000      8.1472      2.1847     -0.5800     28.1980     93.3073     37.4376
   353.0000      8.1438      2.1851     -0.6156     28.1786     95.2616     37.6531
   353.1000      8.1438      2.1859     -0.5815     28.1264     96.2203     37.9659
   353.2000      8.1438      2.1996     -0.6297     27.2947     96.2487     38.1206
   353.3000      8.1533      2.2279     -0.5574     25.5799     96.4128     38.1500
   353.4000      8.1533      2.2585     -0.5828     23.7259     95.9551     38.2502
   353.5000      8.1461      2.2912     -0.5735     21.7436     95.1055     38.4896
   353.6000      8.1461      2.3360     -0.5550     19.0311     95.0202     38.8404
   353.7000      8.1461      2.3782     -0.4937     16.4752     94.5263     39.1274
   353.8000      8.1491      2.4015     -0.5501     15.0610     93.3060     39.1029
   353.9000      8.1491      2.4268     -0.5400     13.5263     92.8023     38.8151
   354.0000      8.1503      2.4739     -0.5291     10.6728     93.0168     38.6345
   354.1000      8.1503      2.5152     -0.4889      8.1717     93.9510     38.7470
   354.2000      8.1503      2.5175     -0.5027      8.0278     96.3693     38.8773
   354.3000      8.1479      2.4893     -0.5352      9.7376     99.3517     38.9073
   354.4000      8.1479      2.4433     -0.5108     12.5288    101.7142     39.0939
   354.5000      8.1514      2.3845     -0.6098     16.0939    103.3016     39.3779
   354.6000      8.1514      2.3370     -0.6161     18.9716    102.4991     39.3697
   354.7000      8.1514      2.3244     -0.6426     19.7309     99.0050     38.9984
   354.8000      8.1498      2.3472     -0.5924     18.3485     96.5917     38.5836
   354.9000      8.1498      2.3721     -0.4796     16.8432     97.1952     38.3060
   355.0000      8.1500      2.3576     -0.5746     17.7196    100.1010     38.1257
   355.1000      8.1500      2.3079     -0.4989     20.7318    104.6658     38.0982
   355.2000      8.1500      2.2634     -0.6603     23.4304    108.9951     38.2635
   355.3000      8.1539      2.2518     -0.5735     24.1342    111.3096     38.4599
   355.4000      8.1539      2.2593     -0.6087     23.6808    112.0541     38.5727
   355.5000      8.1600      2.2635     -0.6077     23.4244    113.1857     38.6534
   355.6000      8.1600      2.2593     -0.5544     23.6803    114.8222     38.6615
   355.7000      8.1600      2.2509     -0.6218     24.1870    113.4190     38.6749
   355.8000      8.1563      2.2453     -0.5595     24.5261    106.6776     38.8217
   355.9000      8.1563      2.2367     -0.5095     25.0494     97.8159     39.0203
   356.0000      8.1518      2.2004     -0.5146     27.2512     90.8834     39.2073
   356.1000      8.1518      2.1192     -0.5719     32.1711     86.3244     39.2300
   356.2000      8.1518      2.0051     -0.6537     39.0853     82.7184     38.9277
   356.3000      8.1458      1.8861     -0.6336     46.2944     78.4228     38.5105
   356.4000      8.1458      1.7771     -0.6952     52.9034     72.1711     38.2145
   356.5000      8.1498      1.6592     -0.6172     60.0465     65.0117     37.9743
   356.6000      8.1498      1.5086     -0.6931     69.1762     58.3971     37.7919
   356.7000      8.1498      1.3535     -0.8841     78.5738     52.9451     37.8238
   356.8000      8.1475      1.2443     -0.8037     85.1946     49.7148     38.1241
   356.9000      8.1475      1.1880     -0.8170     88.6041     47.8117     38.4968
   357.0000      8.1477      1.1642     -0.7950     90.0496     45.1856     38.7552
   357.1000      8.1477      1.1541     -0.8075     90.6584     42.7310     38.9782
   357.2000      8.1477      1.1445     -0.8185     91.2446     42.6772     39.1405
   357.3000      8.1442      1.1371     -0.8890     91.6899     44.6749     39.1315
   357.4000      8.1442      1.1461     -0.8794     91.1474     47.8574     39.0895
   357.5000      8.1392      1.1660     -0.7618     89.9383     51.7529     39.1294
   357.6000      8.1392      1.1830     -0.8747     88.9088     54.6053     39.1981
   357.7000      8.1392      1.1994     -0.7879     87.9171     55.5769     39.3785
   357.8000      8.1361      1.2269     -0.8791     86.2486     55.9723     39.8079
   357.9000      8.1361      1.2927     -0.9358     82.2589     56.8328     40.1828
   358.0000      8.1398      1.3969     -0.7415     75.9427     57.4702     40.1237
   358.1000      8.1398      1.4894     -0.7281     70.3366     57.4515     39.7808
   358.2000      8.1398      1.5441     -0.7752     67.0267     56.8255     39.5398
   358.3000      8.1412      1.5715     -0.6813     65.3653     55.0093     39.4973
   358.4000      8.1412      1.5819     -0.7344     64.7309     51.4859     39.4843
   358.5000      8.1471      1.5857     -0.7132     64.5045     47.4819     39.5594
   358.6000      8.1471      1.5720     -0.5918     65.3344     45.6135     39.8650
   358.7000      8.1471      1.5231     -0.7640     68.2948     46.6319     40.1642
   358.8000      8.1441      1.4541     -0.7222     72.4769     49.6672     40.0907
   358.9000      8.1441      1.3910     -0.7874     76.3058     55.3533     39.7448
   359.0000      8.1315      1.3458     -0.7469     79.0394     63.3762     39.4800
   359.1000      8.1315      1.3139     -0.7582     80.9755     70.4649     39.3416
   359.2000      8.1315      1.2878     -0.7317     82.5570     74.1838     39.2532
   359.3000      8.1376      1.2742     -0.7989     83.3808     75.6667     39.2967
   359.4000      8.1376      1.2867     -0.8009     82.6269     76.6716     39.4127
   359.5000      8.1371      1.3293     -0.7886     80.0438     76.6360     39.4648
