~Version Information
VERS.                      2.0: CWLS Log ASCII Standard - VERSION 2.0
WRAP.                       NO: One line per depth step
~Well Information Block
STRT.FT               460.0000: 
STOP.FT               961.2500: 
STEP.FT                 0.2500: 
NULL.                -999.2500: 
COMP.          Pioneer Natural Resources: COMPANY
WELL.                Pug 33-19: WELL
FLD.           Purgatoire River: FIELD
LOC.           1381' FSL & 2140' FEL: LOCATION
PROV.                 Colorado: PROVINCE
CNTY.               Las Animas: COUNTRY
SRVC.                Patterson: SERVICE COMPANY
DATE.          Tue Dec 14 08:25:14 2004: LOG DATE
UWI.           05 071 08193 00: UNIQUE WELL ID
~Curve Information Block
DEPT.FT            0 000 00 00: Depth
SN.Ohm-m                      : IEL Short Normal
SP.mV                         : IEL Spontaneous Potential
DIR.Ohm-m                     : IEL Induction Resistivity
GR.GAPI                       : Gamma Ray
~Parameter Information Block
~A  Depth        SN          SP         DIR          GR     
# ...
   795.0000     28.6095     31.2370     25.7932     57.7695
   795.2500     28.5702     31.0282     25.6968     57.3390
   795.5000     28.5368     30.8183     25.5628     56.3039
   795.7500     28.5228     30.6080     25.4178     55.4539
   796.0000     28.5344     30.3952     25.2927     54.4119
   796.2500     28.5737     30.1735     25.2177     54.2056
   796.5000     28.6406     29.9338     25.2175     54.8773
   796.7500     28.7297     29.6672     25.3058     55.8612
   797.0000     28.8296     29.3691     25.4846     57.5476
   797.2500     28.9261     29.0415     25.7424     58.2943
   797.5000     29.0087     28.6933     26.0510     58.0763
   797.7500     29.0726     28.3398     26.3660     56.9433
   798.0000     29.1167     27.9997     26.6373     54.3129
   798.2500     29.1407     27.6926     26.8286     52.4991
   798.5000     29.1434     27.4363     26.9323     50.6020
   798.7500     29.1186     27.2452     26.9690     50.0990
   799.0000     29.0489     27.1283     26.9675     50.0408
   799.2500     28.9046     27.0897     26.9397     50.0298
   799.5000     28.6575     27.1284     26.8671     49.9410
   799.7500     28.3010     27.2393     26.7076     50.2362
   800.0000     27.8567     27.4146     26.4182     51.9900
   800.2500     27.3605     27.6439     25.9785     54.1961
   800.5000     26.8451     27.9155     25.4033     58.7911
   800.7500     26.3327     28.2163     24.7390     62.3233
   801.0000     25.8390     28.5330     24.0512     67.4802
   801.2500     25.3779     28.8522     23.4055     70.5022
   801.5000     24.9635     29.1610     22.8476     74.5474
   801.7500     24.6094     29.4464     22.3948     77.2073
   802.0000     24.3266     29.6952     22.0412     81.0649
   802.2500     24.1220     29.8932     21.7735     82.9111
   802.5000     23.9975     30.0257     21.5858     83.2177
   802.7500     23.9519     30.0798     21.4828     81.4999
   803.0000     23.9835     30.0481     21.4727     76.8267
   803.2500     24.0936     29.9317     21.5582     73.1036
   803.5000     24.2828     29.7419     21.7323     67.6973
   803.7500     24.5442     29.4987     21.9808     64.6340
   804.0000     24.8609     29.2261     22.2856     61.4571
   804.2500     25.2092     28.9465     22.6258     60.5372
   804.5000     25.5661     28.6765     22.9747     60.8739
   804.7500     25.9143     28.4248     23.2970     61.9508
   805.0000     26.2454     28.1938     23.5539     64.4532
   805.2500     26.5599     27.9827     23.7209     66.5624
   805.5000     26.8633     27.7904     23.8074     69.7238
   805.7500     27.1594     27.6178     23.8542     71.2044
   806.0000     27.4456     27.4668     23.9072     71.7808
   806.2500     27.7134     27.3380     23.9869     71.1022
   806.5000     27.9540     27.2287     24.0814     68.9446
   806.7500     28.1635     27.1317     24.1674     67.1381
   807.0000     28.3429     27.0365     24.2388     64.9330
   807.2500     28.4950     26.9329     24.3177     64.3638
   807.5000     28.6221     26.8150     24.4377     64.6445
   807.7500     28.7274     26.6841     24.6178     64.7693
   808.0000     28.8170     26.5490     24.8450     63.7685
   808.2500     28.9014     26.4227     25.0799     62.5431
   808.5000     28.9918     26.3182     25.2797     61.3076
   808.7500     29.0921     26.2441     25.4202     61.4580
   809.0000     29.1967     26.2015     25.4979     62.5989
   809.2500     29.2961     26.1851     25.5138     63.1033
   809.5000     29.3806     26.1851     25.4630     62.7089
   809.7500     29.4368     26.1902     25.3438     62.0435
   810.0000     29.4467     26.1901     25.1711     61.4626
   810.2500     29.3959     26.1761     24.9751     61.5279
   810.5000     29.2856     26.1421     24.7860     62.0163
   810.7500     29.1338     26.0863     24.6224     62.6061
   811.0000     28.9602     26.0138     24.4921     64.5571
   811.2500     28.7683     25.9396     24.3952     67.0316
   811.5000     28.5404     25.8883     24.3231     72.4502
   811.7500     28.2496     25.8899     24.2553     76.4481
   812.0000     27.8752     25.9721     24.1611     81.3490
   812.2500     27.4166     26.1517     24.0104     83.4584
   812.5000     26.9007     26.4298     23.7868     85.4695
   812.7500     26.3803     26.7928     23.4974     86.5648
   813.0000     25.9157     27.2191     23.1719     88.1648
   813.2500     25.5461     27.6878     22.8490     89.2778
   813.5000     25.2663     28.1848     22.5568     91.5061
   813.7500     25.0281     28.7045     22.2985     93.5079
   814.0000     24.7718     29.2461     22.0545     96.3739
   814.2500     24.4717     29.8086     21.7996     97.2633
   814.5000     24.1627     30.3858     21.5252     96.3586
   814.7500     23.9298     30.9654     21.2517     94.7505
   815.0000     23.8671     31.5305     21.0230     92.3186
   815.2500     24.0325     32.0620     20.8900     91.2832
   815.5000     24.4204     32.5418     20.8921     90.9482
   815.7500     24.9653     32.9568     21.0437     91.4774
   816.0000     25.5718     33.3018     21.3277     92.7363
   816.2500     26.1559     33.5817     21.6999     93.1608
   816.5000     26.6769     33.8112     22.1061     92.1551
   816.7500     27.1425     34.0105     22.5046     90.3437
   817.0000     27.5863     34.1998     22.8796     86.5302
   817.2500     28.0355     34.3945     23.2353     83.5586
   817.5000     28.4929     34.6025     23.5786     78.5567
   817.7500     28.9435     34.8249     23.9083     74.9367
   818.0000     29.3728     35.0591     24.2177     69.8468
   818.2500     29.7743     35.3007     24.5036     67.4279
   818.5000     30.1428     35.5461     24.7707     66.1154
   818.7500     30.4651     35.7926     25.0297     66.6013
   819.0000     30.7198     36.0390     25.2907     68.1808
   819.2500     30.8883     36.2852     25.5539     69.1531
   819.5000     30.9671     36.5321     25.7979     69.9898
   819.7500     30.9739     36.7815     25.9785     70.0484
   820.0000     30.9395     37.0350     26.0485     69.4483
   820.2500     30.8933     37.2941     25.9935     68.8791
   820.5000     30.8523     37.5591     25.8519     68.5056
   820.7500     30.8184     37.8290     25.6971     68.6846
   821.0000     30.7811     38.1015     25.5945     68.8378
   821.2500     30.7244     38.3728     25.5644     68.2552
   821.5000     30.6346     38.6372     25.5754     66.1380
   821.7500     30.5059     38.8881     25.5682     64.5045
   822.0000     30.3410     39.1190     25.4966     63.2526
   822.2500     30.1490     39.3252     25.3587     63.6436
   822.5000     29.9432     39.5048     25.1962     65.3818
   822.7500     29.7380     39.6595     25.0633     66.5768
   823.0000     29.5461     39.7921     24.9869     67.9579
   823.2500     29.3752     39.9051     24.9487     68.8676
   823.5000     29.2277     39.9976     24.9015     70.4841
   823.7500     29.1011     40.0653     24.8078     71.4020
   824.0000     28.9891     40.1021     24.6695     71.7570
   824.2500     28.8832     40.1035     24.5199     71.2275
   824.5000     28.7759     40.0703     24.3912     69.7671
   824.7500     28.6669     40.0110     24.2917     68.5989
   825.0000     28.5652     39.9412     24.2129     66.5954
   825.2500     28.4822     39.8806     24.1538     65.2085
   825.5000     28.4236     39.8487     24.1312     63.9973
   825.7500     28.3848     39.8614     24.1652     64.4215
   826.0000     28.3510     39.9289     24.2563     66.8368
   826.2500     28.3021     40.0563     24.3786     68.7156
   826.5000     28.2196     40.2449     24.4930     70.0852
   826.7500     28.0957     40.4939     24.5684     69.5244
   827.0000     27.9370     40.8020     24.5907     66.8784
   827.2500     27.7573     41.1670     24.5550     64.6587
   827.5000     27.5651     41.5851     24.4560     62.3392
   827.7500     27.3547     42.0509     24.2877     62.3915
   828.0000     27.1114     42.5565     24.0536     65.5521
   828.2500     26.8248     43.0942     23.7724     69.2850
