~Version Information
VERS.                      2.0: CWLS Log ASCII Standard - VERSION 2.0
WRAP.                       NO: One line per depth step
~Well Information Block
STRT.FT               550.0000: 
STOP.FT              2042.5000: 
STEP.FT                 0.1000: 
NULL.                -999.2500: 
COMP.          Petrogulf Corporation: COMPANY
WELL.          Robinson 15-12V: WELL
FLD.           Purgatorie River: FIELD
LOC.           1788' FNL & 466' FWL: LOCATION
PROV.                 Colorado: PROVINCE
CNTY.               Las Animas: COUNTRY
SRVC.                Patterson: SERVICE COMPANY
DATE.          Mon Sep 12 10:04:59 2005: LOG DATE
UWI.                          : UNIQUE WELL ID
~Curve Information Block
DEPT.FT            0 000 00 00: Depth
DCAL.in                       : CDL Caliper
RHOB.g/cc                     : CDL Bulk Density
RHOC.g/cc                     : CDL Density Correction
DPOR.pu                       : CDL Density Porosity
GR.GAPI                       : Gamma Ray
NPOR.pu                       : Neutron Porosity
~Parameter Information Block
~A  Depth       DCAL        RHOB        RHOC        DPOR         GR         NPOR    
# ...
  1913.2000      7.8231      2.5731     -0.0007      4.6607     99.7879     18.1732
  1913.3000      7.8325      2.5643     -0.0241      5.1947     94.7223     17.6448
  1913.4000      7.8325      2.5774      0.0254      4.3991     91.2880     17.1842
  1913.5000      7.8723      2.5996      0.0444      3.0530     89.0857     17.4355
  1913.6000      7.8723      2.6130      0.0445      2.2433     87.3966     18.2634
  1913.7000      7.8723      2.6124      0.0645      2.2792     84.1518     18.8003
  1913.8000      7.8963      2.6062      0.0160      2.6518     80.0980     18.5672
  1913.9000      7.8963      2.5969      0.0797      3.2179     76.9901     17.9228
  1914.0000      7.9029      2.5747      0.0323      4.5633     75.9742     17.3738
  1914.1000      7.9029      2.5500      0.0121      6.0619     77.2490     17.1800
  1914.2000      7.9029      2.5448      0.0149      6.3776     80.2737     17.1648
  1914.3000      7.9110      2.5599      0.0413      5.4616     81.7696     17.1580
  1914.4000      7.9110      2.5733      0.0792      4.6501     79.0271     17.1951
  1914.5000      7.9131      2.5667      0.0389      5.0482     75.4080     17.0790
  1914.6000      7.9131      2.5490      0.0308      6.1200     73.6966     16.7663
  1914.7000      7.9131      2.5385      0.0191      6.7596     72.7985     16.5115
  1914.8000      7.8987      2.5386      0.0431      6.7512     71.7840     16.6602
  1914.9000      7.8987      2.5385      0.0435      6.7572     71.7159     17.1175
  1915.0000      7.8960      2.5313      0.0449      7.1964     72.0052     17.1071
  1915.1000      7.8960      2.5204      0.0220      7.8558     69.2149     16.5272
  1915.2000      7.8960      2.5074      0.0637      8.6410     64.4857     16.2893
  1915.3000      7.9049      2.4936      0.0069      9.4799     63.4357     16.6989
  1915.4000      7.9049      2.4884      0.0398      9.7947     67.0480     17.0759
  1915.5000      7.9042      2.4936      0.0406      9.4818     70.2520     16.8841
  1915.6000      7.9042      2.5012      0.0394      9.0172     70.5176     16.4154
  1915.7000      7.9042      2.5053      0.0248      8.7690     71.9670     16.2575
  1915.8000      7.8979      2.5040      0.0313      8.8509     76.3349     16.5981
  1915.9000      7.8979      2.5019      0.0253      8.9774     79.0957     17.0587
  1916.0000      7.8978      2.5015      0.0505      9.0016     77.3997     17.2242
  1916.1000      7.8978      2.4987      0.0214      9.1690     73.9317     17.1933
  1916.2000      7.8978      2.4968      0.0397      9.2859     70.7304     17.2531
  1916.3000      7.9031      2.5016      0.0324      8.9937     68.6293     17.5087
  1916.4000      7.9031      2.5098      0.0514      8.4970     69.4214     17.7047
  1916.5000      7.9052      2.5134      0.0495      8.2761     71.6193     17.3131
  1916.6000      7.9052      2.5070      0.0756      8.6669     72.9114     16.5176
  1916.7000      7.9052      2.4919      0.0661      9.5792     72.1727     16.2242
  1916.8000      7.9078      2.4817      0.0174     10.1981     69.8201     16.9228
  1916.9000      7.9078      2.4858      0.0561      9.9530     69.9500     18.2933
  1917.0000      7.9033      2.4974      0.0264      9.2459     73.3369     19.4078
  1917.1000      7.9033      2.5105      0.0370      8.4536     76.0810     19.4692
  1917.2000      7.9033      2.5224      0.0400      7.7327     77.2972     18.8228
  1917.3000      7.9048      2.5281      0.0530      7.3869     78.4013     18.3754
  1917.4000      7.9048      2.5267      0.0226      7.4728     80.9001     18.2186
  1917.5000      7.9064      2.5180      0.0766      8.0008     84.8097     18.1224
  1917.6000      7.9064      2.5017      0.0201      8.9878     88.2492     18.1962
  1917.7000      7.9064      2.4897      0.0281      9.7175     89.3511     18.4361
  1917.8000      7.9086      2.4892      0.0242      9.7426     87.3904     18.5200
  1917.9000      7.9086      2.4904      0.0396      9.6730     84.3596     18.5107
  1918.0000      7.9088      2.4795      0.0402     10.3348     82.0637     18.8124
  1918.1000      7.9088      2.4617      0.0108     11.4127     80.3491     19.1953
  1918.2000      7.9088      2.4587      0.0006     11.5962     79.7147     19.3287
  1918.3000      7.9069      2.4752      0.0143     10.5919     79.9459     19.4026
  1918.4000      7.9069      2.4927      0.0456      9.5330     79.0235     19.6978
  1918.5000      7.9007      2.4990      0.0452      9.1541     77.0703     20.1280
  1918.6000      7.9007      2.5012      0.0447      9.0153     76.1126     20.2052
  1918.7000      7.9007      2.5111      0.0459      8.4207     75.6873     19.6301
  1918.8000      7.9020      2.5225      0.1129      7.7303     74.1967     19.0223
  1918.9000      7.9020      2.5173      0.0674      8.0416     72.7208     19.0902
  1919.0000      7.9091      2.4925      0.0345      9.5466     72.4690     19.4740
  1919.1000      7.9091      2.4594      0.0119     11.5523     73.3821     19.5067
  1919.2000      7.9091      2.4332     -0.0101     13.1371     75.1140     19.2911
  1919.3000      7.9004      2.4228      0.0248     13.7673     75.6570     19.3989
  1919.4000      7.9004      2.4247     -0.0273     13.6565     74.1109     19.9328
  1919.5000      7.8958      2.4351      0.0216     13.0269     73.2667     20.2705
  1919.6000      7.8958      2.4447      0.0384     12.4405     75.5528     20.1058
  1919.7000      7.8958      2.4433      0.0265     12.5258     79.6281     19.7555
  1919.8000      7.9011      2.4376      0.0213     12.8725     82.2420     19.2437
  1919.9000      7.9011      2.4349      0.0540     13.0373     81.7593     18.5776
  1920.0000      7.8989      2.4338      0.0144     13.1042     78.7259     18.2347
  1920.1000      7.8989      2.4339      0.0686     13.0966     75.0459     18.1638
  1920.2000      7.8989      2.4328      0.0359     13.1646     71.0350     17.4976
  1920.3000      7.8976      2.4305      0.0411     13.3027     65.7771     16.1449
  1920.4000      7.8976      2.4296      0.0473     13.3573     60.9086     15.2413
  1920.5000      7.8816      2.4365      0.0236     12.9419     59.9576     15.3951
  1920.6000      7.8816      2.4502      0.1315     12.1088     64.4955     16.0637
  1920.7000      7.8816      2.4544      0.0559     11.8569     71.4583     16.4183
  1920.8000      7.8671      2.4469      0.0569     12.3075     74.7191     16.3524
  1920.9000      7.8671      2.4445      0.0400     12.4551     72.8747     16.4105
  1921.0000      7.8659      2.4555      0.0652     11.7902     70.5908     16.7283
  1921.1000      7.8659      2.4776      0.0815     10.4497     69.8911     17.1201
  1921.2000      7.8659      2.5052      0.1065      8.7746     69.9027     17.6043
  1921.3000      7.8758      2.5261      0.1218      7.5069     70.8720     18.0600
  1921.4000      7.8758      2.5320      0.0896      7.1510     72.5917     18.2858
  1921.5000      7.8688      2.5213      0.1066      7.8008     74.3891     18.4223
  1921.6000      7.8688      2.4943      0.0592      9.4354     76.7741     18.5280
  1921.7000      7.8688      2.4645      0.0193     11.2427     78.9956     18.6098
  1921.8000      7.8745      2.4534     -0.0249     11.9145     79.0553     18.9096
  1921.9000      7.8745      2.4681      0.0037     11.0236     77.6003     19.2079
  1922.0000      7.8895      2.4892      0.0307      9.7481     75.5505     19.0567
  1922.1000      7.8895      2.4908      0.0296      9.6483     73.3336     18.7775
  1922.2000      7.8895      2.4701      0.0440     10.9043     71.0647     18.7163
  1922.3000      7.8985      2.4461      0.0046     12.3601     67.9055     18.7298
  1922.4000      7.8985      2.4333      0.0294     13.1307     65.4110     18.8728
  1922.5000      7.9063      2.4282      0.0076     13.4399     65.6377     19.3082
  1922.6000      7.9063      2.4288     -0.0030     13.4062     67.2158     19.8199
  1922.7000      7.9063      2.4397      0.0307     12.7438     68.1719     19.9520
