~Version Information
VERS.                      2.0: CWLS Log ASCII Standard - VERSION 2.0
WRAP.                       NO: One line per depth step
~Well Information Block
STRT.FT                -9.2500: 
STOP.FT              2353.7500: 
STEP.FT                 0.2500: 
NULL.                -999.2500: 
COMP.          Petrogulf Corporation: COMPANY
WELL.             Kraft 17-23V: WELL
FLD.           Purgatorie River: FIELD
LOC.           1500' FSL & 1773' FWL--: LOCATION
PROV.                       CO: PROVINCE
CNTY.               Las Animas: COUNTRY
SRVC.          Patterson Wireline: SERVICE COMPANY
DATE.          Wed Dec 10 19:09:59 2003: LOG DATE
UWI.                          : UNIQUE WELL ID
~Curve Information Block
DEPT.FT            0 000 00 00: Depth
CCL.                          : Casing Collar Locator
TT3.usec                      : CBL 3' Travel Time
AMP3.mV                       : CBL 3' Amplitude
GR.GAPI                       : Gamma Ray
~Parameter Information Block
~A  Depth       CCL         TT3         AMP3         GR     
# ...
  1230.2500      0.0000    748.5894      2.5442    162.2535
  1230.5000      0.0000    733.0922      2.5443    167.7887
  1230.7500      0.0000    722.6774      2.5883    174.6521
  1231.0000      0.0000    717.4203      2.6618    181.6836
  1231.2500      0.0000    715.6242      2.7165    187.9805
  1231.5000      0.0000    715.4206      2.7233    193.3404
  1231.7500      0.0000    715.6627      2.6905    197.5656
  1232.0000      0.0000    715.9081      2.6315    199.5959
  1232.2500      0.0000    716.0801      2.5493    197.7851
  1232.5000      0.0000    716.1950      2.4623    191.3675
  1232.7500      0.0000    716.2208      2.4069    181.4803
  1233.0000      0.0000    716.0779      2.3917    170.5365
  1233.2500      0.0000    715.7072      2.3720    160.7997
  1233.5000      0.0000    715.1280      2.2971    153.2421
  1233.7500      0.0000    714.4327      2.1699    147.1323
  1234.0000      0.0000    713.7444      2.0399    140.8464
  1234.2500      0.0000    713.1703      1.9415    133.7231
  1234.5000      0.0000    712.7667      1.8657    126.9834
  1234.7500      0.0000    712.5493      1.7993    122.1721
  1235.0000      0.0000    712.5306      1.7660    118.9407
  1235.2500      0.0000    712.7167      1.7962    115.3013
  1235.5000      0.0000    713.0615      1.8761    110.1018
  1235.7500      0.0000    713.5264      1.9653    104.3903
  1236.0000      0.0000    714.2985      2.0624    100.0660
  1236.2500      0.0000    716.0617      2.2074     97.8234
  1236.5000      0.0000    720.0069      2.4118     96.7877
  1236.7500      0.0000    727.2803      2.6199     95.7846
  1237.0000      0.0000    737.7745      2.7632     94.5640
  1237.2500      0.0000    748.9699      2.8336     93.9490
  1237.5000      0.0000    756.3611      2.8792     95.0553
  1237.7500      0.0000    756.2546      2.9323     98.1612
  1238.0000      0.0000    748.9501      2.9768    101.9736
  1238.2500      0.0000    738.9080      2.9929    104.1679
  1238.5000      0.0000    731.3658      2.9993    103.0665
  1238.7500      0.0000    728.7959      3.0249     98.9491
  1239.0000      0.0000    730.1481      3.0592     93.7445
  1239.2500      0.0000    732.4790      3.0558     89.5282
  1239.5000      0.0000    733.0552      2.9818     87.3349
  1239.7500      0.0000    730.7144      2.8547     87.1132
  1240.0000      0.0000    726.1354      2.7238     88.3156
  1240.2500      0.0000    721.1038      2.6191     90.4507
  1240.5000      0.0000    717.2396      2.5212     93.3583
  1240.7500      0.0000    715.1109      2.3914     97.0922
  1241.0000      0.0000    714.2971      2.2295    101.5950
  1241.2500      0.0000    714.0646      2.0931    106.3452
  1241.5000      0.0000    713.9127      2.0435    110.0686
  1241.7500      0.0000    713.6926      2.0691    111.1240
  1242.0000      0.0000    713.4536      2.0855    108.9056
  1242.2500      0.0000    713.2681      2.0307    104.8934
  1242.5000      0.0000    713.1396      1.9464    101.8503
  1242.7500      0.0000    713.0106      1.9360    101.8323
  1243.0000      0.0000    712.8036      2.0468    104.9803
  1243.2500      0.0000    712.4620      2.2138    109.8913
  1243.5000      0.0000    711.9807      2.3232    114.7586
  1243.7500      0.0000    711.4163      2.3149    118.2226
  1244.0000      0.0000    710.8643      2.2226    119.4978
  1244.2500      0.0000    710.4066      2.1320    118.1288
  1244.5000      0.0000    710.0775      2.1026    114.0997
  1244.7500      0.0000    709.8685      2.1204    108.4230
  1245.0000      0.0000    709.7510      2.1194    103.1105
  1245.2500      0.0000    709.6940      2.0554     99.9900
  1245.5000      0.0000    709.6740      1.9574     99.6052
  1245.7500      0.0000    709.6725      1.9048    101.3075
  1246.0000      0.0000    709.6652      1.9554    103.9374
  1246.2500      0.0000    709.6215      2.0925    106.2623
  1246.5000      0.0000    709.5174      2.2347    107.4382
  1246.7500      0.0000    709.2595      2.3076    107.3989
  1247.0000      0.0000    708.5002      2.3097    106.4654
  1247.2500      0.0000    706.4734      2.3001    104.6142
  1247.5000      0.0000    702.3010      2.3206    101.6826
  1247.7500      0.0000    696.0936      2.3477     98.2279
  1248.0000      0.0000    690.0083      2.3283     95.5124
  1248.2500      0.0000    687.3941      2.2505     94.4615
  1248.5000      0.0000    689.9614      2.1679     94.9246
  1248.7500      0.0000    696.1146      2.1501     96.0271
  1249.0000      0.0000    702.6479      2.2147     97.1428
  1249.2500      0.0000    707.6227      2.3099     98.4967
  1249.5000      0.0000    711.1821      2.3585    100.7319
  1249.7500      0.0000    714.1757      2.3257    103.8407
  1250.0000      0.0000    716.6618      2.2530    106.6971
  1250.2500      0.0000    717.8236      2.2263    107.9292
  1250.5000      0.0000    717.1199      2.2972    107.3044
  1250.7500      0.0000    715.1301      2.4361    105.9690
  1251.0000      0.0000    713.0782      2.5668    105.2655
  1251.2500      0.0000    711.7867      2.6371    105.5868
  1251.5000      0.0000    711.3351      2.6514    106.3145
  1251.7500      0.0000    711.4156      2.6507    106.3988
  1252.0000      0.0000    711.6888      2.6769    104.9894
  1252.2500      0.0000    711.8773      2.7424    102.1116
  1252.5000      0.0000    711.7855      2.8131     99.0401
  1252.7500      0.0000    711.3663      2.8247     97.6583
  1253.0000      0.0000    710.7411      2.7325     99.0065
  1253.2500      0.0000    710.1143      2.5584    102.3727
  1253.5000      0.0000    709.6213      2.3861    105.8814
  1253.7500      0.0000    709.2811      2.2962    107.9657
  1254.0000      0.0000    709.1235      2.2985    108.2895
  1254.2500      0.0000    709.3781      2.3281    107.4294
  1254.5000      0.0000    710.4234      2.3032    106.0366
  1254.7500      0.0000    712.3613      2.1897    104.5939
  1255.0000      0.0000    714.6106      2.0230    103.7471
  1255.2500      0.0000    716.2731      1.8748    104.1991
  1255.5000      0.0000    717.0853      1.7928    105.9950
  1255.7500      0.0000    717.5555      1.7695    108.2615
  1256.0000      0.0000    717.7866      1.7625    109.9838
  1256.2500      0.0000    716.7849      1.7370    110.8664
  1256.5000      0.0000    713.7606      1.6910    111.0628
  1256.7500      0.0000    709.8474      1.6523    110.2420
  1257.0000      0.0000    707.5875      1.6590    107.5249
  1257.2500      0.0000    708.5560      1.7274    102.5582
  1257.5000      0.0000    712.2183      1.8312     96.3900
  1257.7500      0.0000    717.4487      1.9166     91.0813
  1258.0000      0.0000    724.1808      1.9458     88.3142
  1258.2500      1.5323    732.5891      1.9270     88.1957
  1258.5000      0.0000    740.9945      1.9068     89.4168
  1258.7500      0.0000    745.7274      1.9317     90.5762
  1259.0000      0.0000    743.7764      2.0098     91.1749
  1259.2500      0.0000    735.5199      2.1036     91.4361
  1259.5000      0.0000    724.4988      2.1578     91.8003
  1259.7500      0.0000    714.5997      2.1365     92.8800
  1260.0000      0.0000    707.5543      2.0387     95.3075
  1260.2500      0.0000    702.7260      1.8895     99.0019
  1260.5000      0.0000    698.6475      1.7271    102.7755
  1260.7500      0.0000    694.6023      1.5910    105.1210
  1261.0000      0.0000    691.0696      1.5034    105.3194
  1261.2500      0.0000    689.0347      1.4539    103.6023
  1261.5000      0.0000    688.9504      1.4086    100.7062
  1261.7500      0.0000    690.2222      1.3479     97.8303
  1262.0000      0.0000    691.5477      1.2945     96.6465
  1262.2500      0.0000    691.8297      1.2898     98.5401
  1262.5000      0.0000    690.8685      1.3415    103.5455
  1262.7500      0.0000    689.3359      1.4119    110.0692
  1263.0000      0.0000    688.3391      1.4593    115.6964
  1263.2500      0.0000    689.0720      1.4762    118.5862
  1263.5000      0.0000    692.5256      1.4848    118.6396
