~Version Information
VERS.                      2.0: CWLS Log ASCII Standard - VERSION 2.0
WRAP.                       NO: One line per depth step
~Well Information Block
STRT.FT               870.0000: 
STOP.FT              2517.5000: 
STEP.FT                 0.1000: 
NULL.                -999.2500: 
COMP.          Pioneer Natural Resources: COMPANY
WELL.              Tiaga 23-14: WELL
FLD.           Purgatoire River: FIELD
LOC.           2168' FSL & 2030' FWL: LOCATION
PROV.                 Colorado: PROVINCE
CNTY.               Las Animas: COUNTRY
SRVC.                         : SERVICE COMPANY
DATE.          Sat May 07 09:09:05 2005: LOG DATE
UWI.           05 071 08329 00: UNIQUE WELL ID
~Curve Information Block
DEPT.FT            0 000 00 00: Depth
LTEN.lb                       : Surface Line Tension
DCAL.in                       : CDL Caliper
RHOC.g/cc                     : CDL Density Correction
DPOR.pu                       : CDL Density Porosity
GR.GAPI                       : Gamma Ray
NPOR.pu                       : Neutron Porosity
~Parameter Information Block
~A  Depth       LTEN        DCAL        RHOC        DPOR         GR         NPOR    
# ...
  1849.2000    978.4688      8.0403      0.0927     16.6764    130.6039     30.9379
  1849.3000   1087.8726      8.0520      0.0218     17.1940    128.5228     31.2193
  1849.4000   1087.8726      8.0520      0.0382     17.2475    131.1726     30.9321
  1849.5000    997.1214      8.1060      0.0411     17.1959    137.7793     30.3577
  1849.6000    997.1214      8.1060      0.1051     16.7753    143.1698     30.1420
  1849.7000    997.1214      8.1060      0.1174     15.3872    143.4772     29.8132
  1849.8000   1073.6809      8.1535      0.1987     12.8227    139.2253     29.4073
  1849.9000   1073.6809      8.1535      0.2845     10.0739    131.8246     29.6283
  1850.0000    994.6021      8.1437      0.2836      8.3680    124.7027     30.2818
  1850.1000    994.6021      8.1437      0.3245      7.7799    121.1201     30.6185
  1850.2000    994.6021      8.1437      0.2205      7.6943    121.1512     30.4058
  1850.3000   1061.3396      8.1434      0.2889      7.4699    123.4253     29.8715
  1850.4000   1061.3396      8.1434      0.2715      7.0631    124.3909     29.2377
  1850.5000   1010.0432      8.0057      0.2339      6.3268    122.4130     29.1165
  1850.6000   1010.0432      8.0057      0.1818      4.8146    123.2459     29.6054
  1850.7000   1010.0432      8.0057      0.2121      3.1497    129.6046     29.6189
  1850.8000   1073.3220      8.0590      0.1483      2.7083    133.1303     28.7334
  1850.9000   1073.3220      8.0590      0.1957      3.9538    129.6617     27.7288
  1851.0000   1029.3893      8.1286      0.0974      6.3274    126.8871     27.0331
  1851.1000   1029.3893      8.1286      0.0520      8.3395    128.9315     26.5662
  1851.2000   1029.3893      8.1286      0.0650      9.0176    130.2649     26.3932
  1851.3000   1058.6459      8.1518      0.0518      8.6668    126.4791     26.5022
  1851.4000   1058.6459      8.1518      0.0476      7.8285    118.0525     26.9390
  1851.5000   1068.3060      8.1295      0.0542      7.4032    108.9115     27.6089
  1851.6000   1068.3060      8.1295      0.0524      8.1141    103.0382     28.0542
  1851.7000   1068.3060      8.1295     -0.0351      8.9938    102.0069     27.8897
  1851.8000   1032.5178      8.1312      0.0415      8.6614    106.5528     26.9508
  1851.9000   1032.5178      8.1312      0.0314      7.0931    113.4738     25.8155
  1852.0000   1071.9298      8.1198      0.0499      5.0302    117.2532     25.3446
  1852.1000   1071.9298      8.1198      0.0919      3.7116    116.7601     25.6026
  1852.2000   1071.9298      8.1198      0.1063      4.0562    115.7609     26.0028
  1852.3000   1030.4282      8.1217      0.0662      5.4344    117.1556     26.1269
  1852.4000   1030.4282      8.1217      0.0706      6.1811    120.9439     26.2824
  1852.5000   1067.8545      8.1082      0.1208      5.5676    125.9886     27.1939
  1852.6000   1067.8545      8.1082      0.0403      3.9656    131.5674     28.5125
  1852.7000   1067.8545      8.1082      0.0922      1.6215    135.4637     29.0829
  1852.8000   1024.4728      8.1041      0.1071     -0.7093    135.4198     28.8361
  1852.9000   1024.4728      8.1041      0.0841     -2.6335    133.1220     28.4577
  1853.0000   1072.3735      8.1019      0.1525     -4.2980    131.1235     27.9829
  1853.1000   1072.3735      8.1019      0.1193     -4.8900    129.1308     27.5030
  1853.2000   1072.3735      8.1019      0.1120     -4.0315    124.1666     27.5695
  1853.3000   1031.7281      8.1016      0.0566     -2.6518    116.2373     28.3216
  1853.4000   1031.7281      8.1016      0.0282     -1.6439    109.7176     29.1442
  1853.5000   1108.9310      8.0791      0.0438     -0.3743    106.7887     29.0829
  1853.6000   1108.9310      8.0791     -0.0401      2.0265    107.3575     27.9504
  1853.7000   1108.9310      8.0791     -0.0479      4.7185    110.5504     26.9592
  1853.8000   1036.3837      8.0861     -0.0595      6.5406    111.7811     27.1087
  1853.9000   1036.3837      8.0861      0.0743      7.8514    109.8915     27.9526
  1854.0000   1084.9612      8.0824     -0.0015      9.6973    108.2991     28.4025
  1854.1000   1084.9612      8.0824     -0.0134     11.2018    105.1411     27.7532
  1854.2000   1084.9612      8.0824      0.0054     11.1097    100.5108     26.6470
  1854.3000   1051.9227      8.0992      0.0459      9.9751     99.7299     26.3029
  1854.4000   1051.9227      8.0992      0.0299      8.6107    101.3576     26.9707
  1854.5000   1101.6278      8.1078      0.0877      7.1699     98.0474     27.9058
  1854.6000   1101.6278      8.1078      0.0840      5.8138     88.5324     28.3031
  1854.7000   1101.6278      8.1078      0.0888      4.6024     78.2519     28.2120
  1854.8000   1043.4530      8.1026      0.0849      3.5047     70.7669     28.0538
  1854.9000   1043.4530      8.1026      0.0857      2.7434     67.0748     27.6246
  1855.0000   1079.4539      8.0666      0.0438      2.5082     66.8437     26.9341
  1855.1000   1079.4539      8.0666      0.0828      2.7559     66.6522     26.4975
  1855.2000   1079.4539      8.0666      0.0643      3.3982     65.9033     26.1362
  1855.3000   1060.1544      8.0433      0.0843      4.4765     67.5463     25.2659
  1855.4000   1060.1544      8.0433      0.0318      5.6997     69.9180     24.0026
  1855.5000   1106.8660      7.9656      0.0232      6.2882     69.7739     22.6899
  1855.6000   1106.8660      7.9656      0.0026      6.3399     69.2875     21.1809
  1855.7000   1106.8660      7.9656      0.0750      7.0136     70.6995     19.8476
  1855.8000   1036.0411      7.9675     -0.0478      7.9529     72.0374     19.2097
  1855.9000   1036.0411      7.9675     -0.0168      7.4264     71.2576     18.7625
  1856.0000   1104.1102      7.9633      0.0006      5.8061     68.8262     18.3712
  1856.1000   1104.1102      7.9633      0.0720      4.9334     67.0675     18.5427
  1856.2000   1104.1102      7.9633      0.0835      5.7372     66.6532     19.1954
  1856.3000   1048.4395      7.9537     -0.0006      7.4083     67.5152     20.0245
  1856.4000   1048.4395      7.9537      0.0247      8.5307     69.8588     20.5341
  1856.5000   1085.0630      7.9544      0.0665      9.2235     70.7947     20.5921
  1856.6000   1085.0630      7.9544      0.0117      9.7686     67.7820     20.4327
  1856.7000   1085.0630      7.9544      0.0236      9.2952     63.3537     19.8930
  1856.8000   1071.6799      7.9455      0.0346      7.9174     61.4481     19.3430
  1856.9000   1071.6799      7.9455      0.0749      7.0455     62.6294     19.5172
  1857.0000   1077.6329      7.9508      0.0637      7.2931     65.1916     20.3009
  1857.1000   1077.6329      7.9508     -0.0063      7.7109     67.0763     20.8889
  1857.2000   1077.6329      7.9508      0.0406      7.3430     66.9679     21.0198
  1857.3000   1088.2681      7.9458      0.0709      6.6423     66.2631     20.9704
  1857.4000   1088.2681      7.9458      0.0344      6.3747     67.5176     20.6964
  1857.5000   1088.3285      7.9454      0.0779      6.5134     71.3811     20.3552
  1857.6000   1088.3285      7.9454      0.0269      6.5268     76.0482     20.5063
  1857.7000   1088.3285      7.9454      0.1117      6.4163     79.6569     21.2666
  1857.8000   1107.4124      7.9485      0.0431      7.0564     80.9246     21.9567
  1857.9000   1107.4124      7.9485      0.0423      8.6152     77.2439     22.0098
  1858.0000   1087.7810      7.9709     -0.0071     10.0689     70.3238     21.8131
  1858.1000   1087.7810      7.9709      0.0223     10.3675     67.2437     21.5721
  1858.2000   1087.7810      7.9709      0.0307      9.4842     69.1923     21.0543
  1858.3000   1135.4989      7.9735      0.0086      8.3892     70.1531     20.5250
  1858.4000   1135.4989      7.9735      0.0398      8.1370     67.9033     20.2978
  1858.5000   1075.6503      7.9756      0.0507      8.6736     65.6941     20.7222
  1858.6000   1075.6503      7.9756      0.0483      9.0444     64.1024     21.6078
  1858.7000   1075.6503      7.9756      0.0339      8.8560     61.3644     21.8436
