~Version Information
VERS.                      2.0: CWLS Log ASCII Standard - VERSION 2.0
WRAP.                       NO: One line per depth step
~Well Information Block
STRT.FT                10.0000: 
STOP.FT               859.0000: 
STEP.FT                 0.2500: 
NULL.                -999.2500: 
COMP.          Pioneer Natural Resources: COMPANY
WELL.          Prospector 12-19: WELL
FLD.           Purgatoire River: FIELD
LOC.           2262' FNL & 634' FWL: LOCATION
PROV.                 Colorado: PROVINCE
CNTY.               Las Animas: COUNTRY
SRVC.                Patterson: SERVICE COMPANY
DATE.          Tue May 10 11:52:48 2005: LOG DATE
UWI.           05 071 08191 00: UNIQUE WELL ID
~Curve Information Block
DEPT.FT            0 000 00 00: Depth
CCL.                          : Casing Collar Locator
TT3.usec                      : CBL 3' Travel Time
AMP3.mV                       : CBL 3' Amplitude
GR.GAPI                       : Gamma Ray
~Parameter Information Block
~A  Depth       CCL         TT3         AMP3         GR     
# ...
   345.0000      0.0000    928.8817      6.4791     68.8553
   345.2500      0.0000    929.4514      6.4765     69.0421
   345.5000      0.0000    932.2354      6.4926     70.7207
   345.7500      0.0000    933.5394      6.5255     73.4865
   346.0000      0.0000    931.2967      6.5628     76.4892
   346.2500      0.0000    926.4592      6.5899     78.8453
   346.5000      0.0000    921.4651      6.6030     80.0407
   346.7500      0.0000    917.8419      6.6076     80.2692
   347.0000      0.0000    915.4161      6.6056     80.1265
   347.2500      0.0000    913.2175      6.5922     79.6392
   347.5000      0.0000    910.7336      6.5693     77.8661
   347.7500      0.0000    908.5454      6.5531     73.7953
   348.0000      0.0000    907.8436      6.5587     67.5187
   348.2500      0.0000    909.1731      6.5858     60.3681
   348.5000      0.0000    911.7527      6.6243     54.1746
   348.7500      0.0000    914.1860      6.6674     50.5523
   349.0000      0.0000    915.4474      6.7143     50.4334
   349.2500      0.0000    914.9148      6.7637     53.6401
   349.5000      0.0000    911.7047      6.8106     58.7452
   349.7500      0.0000    904.7526      6.8455     63.6680
   350.0000      0.0000    894.4594      6.8576     66.8662
   350.2500      0.0000    884.4072      6.8402     68.2123
   350.5000      0.0000    879.9945      6.7946     68.7445
   350.7500      0.0000    883.8997      6.7314     69.5999
   351.0000      0.0000    893.4241      6.6641     71.1515
   351.2500      0.0000    903.2210      6.6010     72.8070
   351.5000      0.0000    909.8442      6.5406     73.3421
   351.7500      0.0000    913.1033      6.4792     71.7716
   352.0000      0.0000    914.3714      6.4186     68.3689
   352.2500      0.0000    914.8504      6.3655     64.7568
   352.5000      0.0000    915.0935      6.3232     62.6982
   352.7500      0.0000    915.2329      6.2891     62.7118
   353.0000      0.0000    915.2535      6.2603     63.8708
   353.2500      0.0000    915.1600      6.2408     64.8472
   353.5000      0.0000    915.0016      6.2424     65.1349
   353.7500      0.0000    914.8406      6.2776     65.3289
   354.0000      0.0000    914.7126      6.3457     66.2762
   354.2500      0.0000    914.6292      6.4232     68.1109
   354.5000      0.0000    914.6010      6.4731     70.2114
   354.7500      0.0000    914.6473      6.4684     71.8311
   355.0000      0.0000    914.7761      6.4126     72.4836
   355.2500      0.0000    914.9521      6.3397     72.0060
   355.5000      0.0000    915.0952      6.2900     70.6330
   355.7500      0.0000    915.1285      6.2813     68.9495
   356.0000      0.0000    915.0266      6.3020     67.5319
   356.2500      0.0000    914.8185      6.3337     66.6171
   356.5000      0.0000    914.5317      6.3712     66.1081
   356.7500      0.0000    914.1083      6.4177     65.7143
   357.0000      0.0000    913.3287      6.4713     65.0257
   357.2500      0.0000    911.8637      6.5229     63.8440
   357.5000      0.0000    909.5911      6.5638     62.7108
   357.7500      0.0000    906.6910      6.5934     62.7961
   358.0000      0.0000    902.5599      6.6195     64.8808
   358.2500      0.0000    893.7310      6.6535     68.5701
   358.5000      0.0000    873.7078      6.7014     72.7259
   358.7500      0.0000    838.3241      6.7578     76.5033
   359.0000      0.0000    794.0045      6.8063     79.8585
   359.2500      0.0000    757.9393      6.8275     83.4143
   359.5000      0.0000    743.4503      6.8100     88.0854
   359.7500      0.0000    743.6783      6.7567     94.4286
   360.0000      0.0000    735.1586      6.6802    101.8281
   360.2500      0.0000    700.4489      6.5928    108.4528
   360.5000      0.0000    644.5233      6.5000    112.6372
   360.7500      0.0000    588.3919      6.3994    114.5000
   361.0000      0.0000    551.8201      6.2870    115.7103
   361.2500      0.0000    545.7982      6.1583    117.3082
   361.5000      0.0000    576.8513      5.9957    118.1532
   361.7500      0.0000    648.5256      5.7674    116.0276
   362.0000      0.0000    754.3589      5.4677    110.1219
   362.2500      0.0000    873.9052      5.1640    102.1207
   362.5000      0.0000    980.1758      4.9702     94.9463
   362.7500      0.0000   1050.2484      4.9490     90.6974
   363.0000      0.0000   1070.5471      5.0550     89.7559
   363.2500      0.0000   1039.8696      5.1811     91.3492
   363.5000      0.0000    973.3684      5.2460     94.3773
   363.7500      2.0000    902.0462      5.2328     97.7636
   364.0000      0.0000    860.0084      5.1819    100.6012
   364.2500      0.0000    860.8537      5.1763    102.2394
   364.5000      0.0000    882.8761      5.3096    102.1941
   364.7500      0.0000    884.0742      5.6156    100.2950
   365.0000      0.0000    835.6593      6.0276     97.2710
   365.2500      0.0000    740.7896      6.4342     94.6971
   365.5000      0.0000    626.6244      6.7697     93.7507
   365.7500      0.0000    524.1631      7.0266     94.2086
   366.0000      0.0000    452.0302      7.2074     94.9486
   366.2500      0.0000    411.7299      7.3036     95.0791
   366.5000      0.0000    393.9190      7.3126     94.3543
   366.7500      0.0000    387.9387      7.2498     92.7943
   367.0000      0.0000    387.4399      7.1425     90.4008
   367.2500      0.0000    391.5226      7.0219     87.5296
   367.5000      0.0000    404.7571      6.9179     85.3053
   367.7500      0.0000    436.2694      6.8523     85.1395
   368.0000      0.0000    494.8349      6.8289     87.6640
   368.2500      0.0000    579.7974      6.8304     92.3400
   368.5000      0.0000    675.9415      6.8293     98.0069
   368.7500      0.0000    760.9224      6.8076    103.3130
   369.0000      0.0000    819.9798      6.7685    106.6550
   369.2500      0.0000    852.9774      6.7299    106.6423
   369.5000      0.0000    868.6965      6.7055    103.3516
   369.7500      0.0000    875.5456      6.6954     98.7476
   370.0000      0.0000    877.7435      6.6911     95.1839
   370.2500      0.0000    876.9531      6.6838     93.4353
   370.5000      0.0000    874.6215      6.6687     92.4873
   370.7500      0.0000    872.3198      6.6502     91.1219
   371.0000      0.0000    870.9502      6.6445     89.3894
   371.2500      0.0000    870.4534      6.6703     88.5019
   371.5000      0.0000    870.3438      6.7338     89.5191
   371.7500      0.0000    870.2724      6.8201     92.3761
   372.0000      0.0000    870.1721      6.9001     96.0873
   372.2500      0.0000    870.1158      6.9469     99.4356
   372.5000      0.0000    870.1654      6.9521    101.2817
   372.7500      0.0000    870.3117      6.9301    100.7569
   373.0000      0.0000    870.4883      6.9083     97.7718
   373.2500      0.0000    870.6158      6.9107     93.2194
   373.5000      0.0000    870.6530      6.9449     88.3575
   373.7500      0.0000    870.6116      6.9974     84.0934
   374.0000      0.0000    870.5283      7.0397     80.9308
   374.2500      0.0000    870.4349      7.0438     79.1843
   374.5000      0.0000    870.3597      6.9985     78.8020
   374.7500      0.0000    870.3315      6.9184     79.1706
   375.0000      0.0000    870.3603      6.8331     79.6593
   375.2500      0.0000    870.4166      6.7618     80.3773
   375.5000      0.0000    870.4431      6.7033     81.9612
   375.7500      0.0000    870.3922      6.6534     84.5036
   376.0000      0.0000    870.2599      6.6234     86.9492
   376.2500      0.0000    870.0895      6.6281     87.6521
   376.5000      0.0000    869.9465      6.6615     85.5052
   376.7500      0.0000    869.8939      6.6994     80.8438
   377.0000      0.0000    870.0140      6.7276     75.6272
   377.2500      0.0000    870.5045      6.7551     72.5088
   377.5000      0.0000    871.8271      6.7923     73.0816
   377.7500      0.0000    874.7355      6.8278     76.7779
   378.0000      0.0000    879.9043      6.8396     81.6132
   378.2500      0.0000    887.2081      6.8253     85.8932
