~Version Information
VERS.                      2.0: CWLS Log ASCII Standard - VERSION 2.0
WRAP.                       NO: One line per depth step
~Well Information Block
STRT.FT               430.0000: 
STOP.FT              2827.0000: 
STEP.FT                 0.1000: 
NULL.                -999.2500: 
COMP.          Pioneer Natural Resources: COMPANY
WELL.           Ei-ei-oh 31-24: WELL
FLD.           Purgatoire River: FIELD
LOC.           235' FNL & 2001' FEL--: LOCATION
PROV.                 Colorado: PROVINCE
CNTY.               Las Animas: COUNTRY
SRVC.                Patterson: SERVICE COMPANY
DATE.          Thu Jun 16 07:14:41 2005: LOG DATE
UWI.           05 071 08403 00: UNIQUE WELL ID
~Curve Information Block
DEPT.FT            0 000 00 00: Depth
DCAL.in                       : CDL Caliper
DPOR.pu                       : CDL Density Porosity
NPOR.pu                       : Neutron Porosity
RHOB.g/cc                     : CDL Bulk Density
RHOC.g/cc                     : CDL Density Correction
GR.GAPI                       : Gamma Ray
~Parameter Information Block
~A  Depth       DCAL        DPOR        NPOR        RHOB        RHOC         GR     
# ...
  2657.2000      8.0800     10.5990     29.4143      2.4751      0.0887    106.0635
  2657.3000      7.9898      9.4155     28.6893      2.4946      0.1254    113.1422
  2657.4000      7.9898      8.8601     27.9269      2.5038      0.1301    119.6998
  2657.5000      7.9668      8.9727     26.8756      2.5020      0.1536    115.7786
  2657.6000      7.9668      9.4865     26.2834      2.4935      0.1424    104.4022
  2657.7000      7.9668      9.8502     26.4741      2.4875      0.1245     96.6979
  2657.8000      7.9615      9.9767     26.5985      2.4854      0.1159     86.6616
  2657.9000      7.9615     10.1638     26.3696      2.4823      0.1141     74.1320
  2658.0000      7.9603     10.1032     26.5037      2.4833      0.0826     77.8980
  2658.1000      7.9603      9.1125     26.8740      2.4996      0.1010    100.7373
  2658.2000      7.9603      7.5256     26.5479      2.5258      0.0844    119.9270
  2658.3000      7.9612      6.7999     25.6992      2.5378      0.1400    121.1208
  2658.4000      7.9612      7.5820     25.4698      2.5249      0.0861    112.8501
  2658.5000      7.9616      8.8193     25.8127      2.5045      0.0665    108.5519
  2658.6000      7.9616      9.3006     25.5514      2.4965      0.0410    113.0333
  2658.7000      7.9616      8.8172     24.5601      2.5045      0.0699    123.6393
  2658.8000      7.9616      8.1670     23.9046      2.5152      0.0743    126.7802
  2658.9000      7.9616      8.0504     24.1348      2.5172      0.0610    113.7048
  2659.0000      7.9630      8.1581     25.0115      2.5154      0.0566     95.1630
  2659.1000      7.9630      8.2252     25.7793      2.5143      0.0741     84.5561
  2659.2000      7.9630      8.6244     25.5887      2.5077      0.0737     85.1342
  2659.3000      7.9631      9.2806     24.4118      2.4969      0.0363     93.2962
  2659.4000      7.9631      9.6876     23.0906      2.4902      0.0534    102.5874
  2659.5000      7.9602      9.3821     22.5647      2.4952      0.0381    109.1928
  2659.6000      7.9602      8.0317     22.8322      2.5175      0.0564    112.2746
  2659.7000      7.9602      6.1452     23.0174      2.5486      0.0598    115.4586
  2659.8000      7.9579      4.7417     22.8609      2.5718      0.0800    123.6047
  2659.9000      7.9579      4.4058     22.9181      2.5773      0.0732    131.6010
  2660.0000      7.9603      5.0858     23.0485      2.5661      0.0761    136.2710
  2660.1000      7.9603      6.1417     22.6225      2.5487      0.0268    135.0416
  2660.2000      7.9603      6.9429     22.1080      2.5354      0.0312    120.8401
  2660.3000      7.9636      7.7084     22.5447      2.5228      0.0542     99.6451
  2660.4000      7.9636      8.7550     23.8701      2.5055      0.0308     88.6881
  2660.5000      7.9645      9.7049     25.0348      2.4899      0.0230     94.2769
  2660.6000      7.9645      9.9851     25.3505      2.4852     -0.0083    101.3766
  2660.7000      7.9645      9.2290     24.8802      2.4977     -0.0027    103.7160
  2660.8000      7.9627      7.5999     24.1974      2.5246      0.0252    105.6276
  2660.9000      7.9627      6.1597     23.7957      2.5484      0.0994    104.0759
  2661.0000      7.9606      6.0432     23.6331      2.5503      0.0769    103.1034
  2661.1000      7.9606      6.8547     23.2344      2.5369      0.0530    107.1688
  2661.2000      7.9606      7.2802     22.6447      2.5299      0.0627    111.3304
  2661.3000      7.9612      6.8868     22.2694      2.5364      0.0595    113.6803
  2661.4000      7.9612      6.2614     21.9054      2.5467      0.0855    113.4008
  2661.5000      7.9621      6.0889     21.2425      2.5495      0.0628    109.7732
  2661.6000      7.9621      6.0961     20.4336      2.5494      0.0405    107.9853
  2661.7000      7.9621      5.8766     19.5528      2.5530      0.0722    108.1477
  2661.8000      7.9605      5.8992     18.6803      2.5527      0.0558     98.4463
  2661.9000      7.9605      6.2254     18.2308      2.5473      0.0451     77.8784
  2662.0000      7.9594      6.2247     18.3467      2.5473      0.0562     64.2319
  2662.1000      7.9594      5.6215     18.5644      2.5572      0.0452     60.4792
  2662.2000      7.9594      5.0857     18.6029      2.5661      0.0993     55.6733
  2662.3000      7.9589      5.2122     18.3807      2.5640      0.0326     52.6250
  2662.4000      7.9589      5.3282     17.9000      2.5621      0.0439     56.0066
  2662.5000      7.9554      4.9818     17.4670      2.5678      0.0508     62.5209
  2662.6000      7.9554      4.3650     17.1557      2.5780      0.0338     68.7990
  2662.7000      7.9554      3.8874     16.9394      2.5859      0.0916     69.6886
  2662.8000      7.9515      4.5235     16.7833      2.5754      0.0652     60.8786
  2662.9000      7.9515      6.0993     16.3647      2.5494      0.0310     53.2869
  2663.0000      7.9503      7.1192     16.0247      2.5325      0.0284     60.3728
  2663.1000      7.9503      6.9972     16.8069      2.5345      0.0669     74.1257
  2663.2000      7.9503      6.2967     18.4920      2.5461      0.0475     79.3953
  2663.3000      7.9511      5.7280     19.7247      2.5555      0.0756     71.6621
  2663.4000      7.9511      5.9676     19.8726      2.5515      0.0868     56.0877
  2663.5000      7.9539      7.0988     19.2195      2.5329      0.0579     41.1580
  2663.6000      7.9539      8.3055     18.5061      2.5130      0.0757     35.7423
  2663.7000      7.9539      8.9092     18.4931      2.5030      0.0787     42.7584
  2663.8000      7.9583      8.6626     19.3978      2.5071      0.0399     53.1088
  2663.9000      7.9583      7.2280     20.4323      2.5307      0.0504     63.6893
  2664.0000      7.9567      5.0214     20.5553      2.5671      0.0817     75.9856
  2664.1000      7.9567      3.5324     19.8199      2.5917      0.1311     77.8990
  2664.2000      7.9567      3.8443     19.1782      2.5866      0.1211     64.4505
  2664.3000      7.9484      5.3462     19.1861      2.5618      0.0560     49.3648
  2664.4000      7.9484      6.6007     19.5260      2.5411      0.0640     46.0823
  2664.5000      7.9423      7.1582     19.4997      2.5319      0.0776     55.9431
  2664.6000      7.9423      7.6281     18.8240      2.5241      0.1270     71.9285
  2664.7000      7.9423      8.3283     18.0775      2.5126      0.0515     82.9505
  2664.8000      7.9373      8.8312     17.8374      2.5043      0.0452     79.6238
  2664.9000      7.9373      8.7872     18.0997      2.5050      0.0129     65.9617
  2665.0000      7.9274      8.1585     18.6156      2.5154      0.0627     56.3076
  2665.1000      7.9274      7.1531     18.9955      2.5320      0.0348     57.9125
  2665.2000      7.9274      6.1120     18.9849      2.5492      0.0785     62.4698
  2665.3000      7.9166      5.5747     18.8292      2.5580      0.0782     59.8662
  2665.4000      7.9166      5.6656     19.0349      2.5565      0.0680     52.5800
  2665.5000      7.9128      5.7049     19.3368      2.5559      0.0393     49.9254
  2665.6000      7.9128      5.3055     19.1435      2.5625      0.0822     54.7883
  2665.7000      7.9128      4.9916     18.6121      2.5676      0.0876     62.2890
  2665.8000      7.9121      5.3244     18.3690      2.5621      0.0864     67.8258
  2665.9000      7.9121      6.2306     18.4518      2.5472      0.0335     69.6197
  2666.0000      7.9104      7.4199     18.2911      2.5276      0.0513     68.4535
  2666.1000      7.9104      8.5033     18.1287      2.5097      0.0297     66.4377
  2666.2000      7.9104      8.4438     18.7224      2.5107     -0.0009     62.7737
  2666.3000      7.9097      7.3832     19.8235      2.5282      0.0895     55.1338
  2666.4000      7.9097      7.1665     20.4688      2.5318      0.1377     47.8916
  2666.5000      7.9086      8.1642     20.4172      2.5153      0.1001     44.0457
  2666.6000      7.9086      8.9762     20.1452      2.5019      0.0790     43.7454
  2666.7000      7.9086      8.5435     19.9785      2.5090      0.0653     52.2690
