~Version Information
VERS.                      2.0: CWLS Log ASCII Standard - VERSION 2.0
WRAP.                       NO: One line per depth step
~Well Information Block
STRT.FT               -10.0000: 
STOP.FT              2184.0000: 
STEP.FT                 0.2500: 
NULL.                -999.2500: 
COMP.          Petrogulf Corporation: COMPANY
WELL.              Silva 1-43R: WELL
FLD.           Purgatorie River: FIELD
LOC.           1971' FSL & 526' FEL--: LOCATION
CNTY.               Las Animas: COUNTY
SRVC.          Patterson Wireline: SERVICE COMPANY
DATE.          Thu Jul 13 13:08:17 2006: LOG DATE
UWI.           05 072 08372 00: UNIQUE WELL ID
STAT.                       CO: STATE
~Curve Information Block
DEPT.FT            0 000 00 00: Depth
CCL.                          : Casing Collar Locator
TT3.usec                      : CBL 3' Travel Time
AMP3.mV                       : CBL 3' Amplitude
GR.GAPI                       : Gamma Ray
~Parameter Information Block
~A  Depth       CCL         TT3         AMP3         GR     
# ...
  1296.5000      0.0000    303.2841     25.9466    136.0418
  1296.7500      0.0000    306.4318     25.0033    136.2798
  1297.0000      0.0000    311.3484     23.9659    140.2218
  1297.2500      0.0000    317.8385     22.9043    147.0155
  1297.5000      0.0000    324.8218     21.8492    154.1261
  1297.7500      0.0000    330.8245     20.8079    158.8043
  1298.0000      0.0000    334.9113     19.7833    159.9118
  1298.2500      0.0000    337.1233     18.7856    159.0107
  1298.5000      0.0000    338.1062     17.8368    159.2727
  1298.7500      0.0000    338.5123     16.9679    162.4112
  1299.0000      0.0000    338.7285     16.2067    166.6920
  1299.2500      0.0000    338.9219     15.5652    168.5197
  1299.5000      0.0000    339.1531     15.0364    165.7849
  1299.7500      0.0000    339.4309     14.6029    159.3266
  1300.0000      0.0000    339.7300     14.2485    151.8051
  1300.2500      0.0000    340.0151     13.9656    145.7594
  1300.5000      0.0000    340.2709     13.7559    142.1637
  1300.7500      0.0000    340.5008     13.6278    140.2160
  1301.0000      0.0000    340.6996     13.5880    138.6714
  1301.2500      0.0000    340.8423     13.6272    137.2735
  1301.5000      0.0000    340.9044     13.7091    136.6358
  1301.7500      0.0000    340.8851     13.7787    137.2325
  1302.0000      0.0000    340.8033     13.7896    139.0531
  1302.2500      0.0000    340.6837     13.7297    141.6413
  1302.5000      0.0000    340.5638     13.6233    143.9034
  1302.7500      0.0000    340.6230     13.5066    144.6190
  1303.0000      0.0000    341.4049     13.3977    143.7920
  1303.2500      0.0000    344.0101     13.2855    142.8920
  1303.5000      0.0000    349.7941     13.1391    143.1438
  1303.7500      0.0000    359.1817     12.9308    143.8603
  1304.0000      0.0000    370.6282     12.6562    142.7919
  1304.2500      0.0000    381.9892     12.3374    138.2324
  1304.5000      0.0000    394.1773     12.0036    130.9522
  1304.7500      0.0000    412.7547     11.6670    123.9521
  1305.0000      0.0000    443.5662     11.3203    120.1035
  1305.2500      0.0000    485.7490     10.9590    120.1557
  1305.5000      0.0000    530.6861     10.5968    122.9983
  1305.7500      0.0000    569.7374     10.2474    127.0845
  1306.0000      0.0000    601.5406      9.8986    131.1300
  1306.2500      0.0000    629.5216      9.5220    134.0445
  1306.5000      0.0000    654.8203      9.1088    135.0681
  1306.7500      0.0000    675.1694      8.6840    134.1932
  1307.0000      0.0000    688.7112      8.2838    132.3714
  1307.2500      0.0000    695.6019      7.9269    131.2654
  1307.5000      0.0000    696.7832      7.6073    132.4220
  1307.7500      0.0000    693.4418      7.3100    136.1933
  1308.0000      0.0000    687.4743      7.0301    141.3978
  1308.2500      0.0000    680.9813      6.7771    146.3351
  1308.5000      0.0000    675.0427      6.5665    150.1570
  1308.7500      0.0000    669.9991      6.4080    153.0215
  1309.0000      0.0000    666.8847      6.3033    155.0410
  1309.2500      0.0000    667.0455      6.2537    155.6819
  1309.5000      0.0000    669.9269      6.2634    154.6055
  1309.7500      0.0000    672.6530      6.3323    152.5399
  1310.0000      0.0000    672.0678      6.4444    150.5799
  1310.2500      0.0000    666.5098      6.5688    148.8687
  1310.5000      0.0000    656.3566      6.6750    146.7000
  1310.7500      0.0000    643.8315      6.7499    143.9264
  1311.0000      0.0000    631.2913      6.7993    141.5999
  1311.2500      0.0000    618.9349      6.8297    140.9052
  1311.5000      0.0000    605.8411      6.8304    141.8944
  1311.7500      0.0000    594.2748      6.7781    143.4782
  1312.0000      0.0000    590.7000      6.6605    144.2720
  1312.2500      0.0000    599.8841      6.4898    143.4836
  1312.5000      0.0000    618.4561      6.2897    141.5322
  1312.7500      0.0000    636.2047      6.0787    139.8372
  1313.0000      0.0000    643.9795      5.8716    139.4730
  1313.2500      0.0000    639.8811      5.6885    140.0059
  1313.5000      0.0000    629.0455      5.5482    140.1594
  1313.7500      0.0000    618.9703      5.4496    139.3882
  1314.0000      0.0000    614.6154      5.3710    138.1500
  1314.2500      0.0000    616.4717      5.2923    136.8431
  1314.5000      0.0000    622.1106      5.2131    135.1741
  1314.7500      0.0000    628.7023      5.1454    132.5557
  1315.0000      0.0000    633.2337      5.0942    128.7118
  1315.2500      0.0000    631.0485      5.0509    123.9326
  1315.5000      0.0000    617.0719      5.0011    119.0247
  1315.7500      0.0000    591.0305      4.9394    114.9806
  1316.0000      0.0000    561.2885      4.8755    112.6169
  1316.2500      0.0000    541.5549      4.8285    112.5950
  1316.5000      0.0000    542.2290      4.8136    115.4362
  1316.7500      0.0000    563.8372      4.8365    120.9137
  1317.0000      0.0000    597.2977      4.9000    127.6240
  1317.2500      0.0000    629.9178      5.0074    133.8960
  1317.5000      0.0000    652.7708      5.1544    139.2561
  1317.7500      0.0000    664.5106      5.3232    144.5587
  1318.0000      0.0000    669.0427      5.4992    150.5498
  1318.2500      0.0000    670.0428      5.6973    156.6662
  1318.5000      0.0000    668.4565      5.9603    161.3490
  1318.7500      0.0000    664.4716      6.3154    163.1798
  1319.0000      0.0000    658.9568      6.7454    161.7007
  1319.2500      0.0000    651.3367      7.2208    157.7969
  1319.5000      0.0000    638.4744      7.7450    153.3462
  1319.7500      0.0000    618.7447      8.3416    149.9233
  1320.0000      0.0000    596.3524      9.0092    147.8392
  1320.2500      2.0000    577.9699      9.7102    146.7326
  1320.5000     -2.0000    564.7101     10.3834    146.4975
  1320.7500      0.0000    550.9109     10.9556    146.8621
  1321.0000      0.0000    532.8525     11.3640    146.7099
  1321.2500      0.0000    516.8705     11.5918    145.0935
  1321.5000      0.0000    515.3732     11.6754    142.8040
  1321.7500      0.0000    534.0660     11.6785    141.8908
  1322.0000      0.0000    566.0450     11.6705    143.4441
  1322.2500      0.0000    599.6105     11.7062    146.5846
  1322.5000      0.0000    627.6845     11.7988    149.7501
  1322.7500      0.0000    646.8171     11.9301    152.2692
  1323.0000      0.0000    651.3367     12.0988    154.2615
  1323.2500      0.0000    633.9704     12.3312    155.5893
  1323.5000      0.0000    592.5639     12.6451    155.7465
  1323.7500      0.0000    534.0715     13.0326    154.8175
  1324.0000      0.0000    471.5685     13.4872    153.6627
  1324.2500      0.0000    417.4535     14.0311    152.6619
  1324.5000      0.0000    378.2196     14.7011    150.8045
  1324.7500      0.0000    353.4061     15.5152    146.5558
  1325.0000      0.0000    338.2358     16.4567    139.4926
  1325.2500      0.0000    327.6827     17.4813    131.0285
  1325.5000      0.0000    319.1426     18.5211    123.8245
  1325.7500      0.0000    312.3882     19.4937    120.2841
  1326.0000      0.0000    307.8372     20.3456    120.8501
  1326.2500      0.0000    305.2715     21.1016    123.5117
  1326.5000      0.0000    303.9014     21.8403    125.4095
  1326.7500      0.0000    303.0173     22.6054    125.1903
  1327.0000      0.0000    302.3229     23.3582    123.6573
  1327.2500      0.0000    301.7870     24.0183    122.5520
  1327.5000      0.0000    301.4148     24.5213    123.4445
  1327.7500      0.0000    301.1733     24.8284    127.3926
  1328.0000      0.0000    301.0172     24.9153    134.3509
  1328.2500      0.0000    300.9184     24.7698    142.5587
  1328.5000      0.0000    300.8803     24.3881    149.5410
  1328.7500      0.0000    300.9817     23.7621    154.2239
  1329.0000      0.0000    301.4653     22.8811    157.1888
  1329.2500      0.0000    302.8876     21.7508    158.3117
  1329.5000      0.0000    306.2348     20.4005    155.4387
  1329.7500      0.0000    312.8288     18.8659    146.8915
