~Version Information
 VERS.                                  2.0 : CWLS LAS VERSION
 WRAP.                                   NO : WRAPING MODE
 SWARE .                 MController 2.5.0J : SOFTWARE VERSION
~Well Information
 WELL.                          Silva 1-43R : WELL
 COMP.                Petrogulf Corporation : COMPANY
 FLD.                       Purgatory River : FIELD
 LOC.                  NE/SE sec1 T33S R68W : LOCATION
 DATE.                    6/16/06 - 6/17/06 : DATE(S) LOGGED
 SRVC.      Blanco Geological Services, LLC : SERVICE COMPANY
 STAT.                             Colorado : STATE
 CNTY.                           Las Animas : COUNTY
 CTRY.                                  USA : COUNTRY
 API.                       05-071-08372-00 : API NUMBER
 STRT.FT                              12.00 : START DEPTH
 STOP.FT                            2210.00 : STOP DEPTH
 STEP.FT                               1.00 : DEPTH INCREMENT
 NULL.                                -9999 : NULL VALUE
~Curve information
 DEPTH.FT                                   :
 ROP.MIN/FT                                 :
 GAS.UNITS                                  :
~ASCII Log data
# ...
      1212.0         0.30         40.1 
      1213.0         0.23         35.3 
      1214.0         0.32         27.8 
      1215.0         0.27         29.0 
      1216.0         0.27         31.6 
      1217.0         0.27         29.4 
      1218.0         0.27         25.4 
      1219.0         0.23         24.5 
      1220.0         0.27         23.8 
      1221.0         0.30         24.0 
      1222.0         0.30         22.6 
      1223.0         0.30         22.3 
      1224.0         0.30         23.8 
      1225.0         0.43         28.9 
      1226.0         1.58         10.5 
      1227.0         0.20         17.2 
      1228.0         0.37         41.9 
      1229.0         0.33        146.1 
      1230.0         0.33        260.2 
      1231.0         0.33        262.0 
      1232.0         0.32        228.5 
      1233.0         0.27        178.7 
      1234.0         0.27        136.1 
      1235.0         0.27        105.7 
      1236.0         0.27         85.1 
      1237.0         0.23         68.8 
      1238.0         0.27         49.9 
      1239.0         0.27         36.9 
      1240.0         0.23         29.5 
      1241.0         0.23         25.2 
      1242.0         0.23         22.5 
      1243.0         0.20         21.5 
      1244.0         0.27         21.8 
      1245.0         0.27         20.2 
      1246.0         0.28         19.4 
      1247.0         0.23         16.0 
      1248.0         0.23         14.6 
      1249.0         0.17         14.1 
      1250.0         0.23         12.0 
      1251.0         0.27         10.1 
      1252.0         0.30         11.4 
      1253.0         0.17         10.8 
      1254.0         0.30          9.5 
      1255.0         0.43          9.2 
      1256.0         1.42          9.4 
      1257.0         0.40         14.4 
      1258.0         0.43         48.6 
      1259.0         0.27        100.7 
      1260.0         0.30        120.9 
      1261.0         0.33        130.2 
      1262.0         0.30        141.7 
      1263.0         0.30        128.7 
      1264.0         0.33         98.6 
      1265.0         0.35         73.0 
      1266.0         0.33         56.3 
      1267.0         0.33         45.4 
      1268.0         0.40         41.0 
      1269.0         0.43         39.3 
      1270.0         0.33         38.5 
      1271.0         0.27         38.4 
      1272.0         0.27         39.6 
      1273.0         0.30         41.4 
      1274.0         0.30         43.2 
      1275.0         0.32         41.8 
      1276.0         0.30         38.3 
      1277.0         0.30         35.6 
      1278.0         0.30         34.3 
      1279.0         0.33         34.3 
      1280.0         0.23         34.8 
      1281.0         0.17         33.8 
      1282.0         0.23         31.1 
      1283.0         0.20         30.3 
      1284.0         0.40         31.1 
      1285.0         0.33         22.8 
      1286.0         1.38          9.7 
      1287.0         0.37         14.4 
      1288.0         0.37         37.4 
      1289.0         0.33        121.0 
      1290.0         0.27        158.2 
      1291.0         0.27        158.9 
      1292.0         0.27        161.7 
      1293.0         0.27        160.0 
      1294.0         0.25        147.4 
      1295.0         0.37        105.4 
      1296.0         0.33         66.2 
      1297.0         0.27         46.9 
      1298.0         0.23         34.7 
      1299.0         0.27         29.0 
      1300.0         0.20         28.7 
      1301.0         0.23         30.2 
      1302.0         0.20         28.2 
      1303.0         0.20         26.8 
      1304.0         0.23         25.0 
      1305.0         0.23         22.2 
      1306.0         0.23         20.9 
      1307.0         0.25         17.2 
      1308.0         0.20         14.4 
      1309.0         0.20         13.9 
      1310.0         0.20         14.2 
      1311.0         0.20         14.3 
      1312.0         0.23         14.9 
      1313.0         0.20         15.4 
      1314.0         0.20         14.9 
      1315.0         0.23         13.0 
      1316.0         3.02         16.6 
      1317.0         0.50         34.3 
      1318.0         0.30         80.2 
      1319.0         0.27        217.5 
      1320.0         0.30        259.8 
      1321.0         0.30        231.0 
      1322.0         0.30        186.8 
      1323.0         0.32        134.0 
      1324.0         0.27        101.1 
      1325.0         0.27         64.0 
      1326.0         0.23         47.1 
      1327.0         0.23         39.9 
      1328.0         0.27         35.4 
      1329.0         0.23         33.8 
      1330.0         0.27         31.2 
      1331.0         0.27         29.4 
      1332.0         0.23         27.5 
      1333.0         0.27         26.2 
      1334.0         0.30         24.5 
      1335.0         0.32         22.6 
      1336.0         0.20         22.2 
      1337.0         0.30         22.1 
      1338.0         0.23         22.2 
      1339.0         0.30         22.8 
      1340.0         0.27         23.1 
      1341.0         0.27         22.7 
      1342.0         0.27         22.4 
      1343.0         0.23         21.1 
      1344.0         0.30         21.4 
      1345.0         0.27         22.0 
      1346.0         4.50        132.3 
      1347.0         0.37        105.9 
      1348.0         0.57         67.6 
      1349.0         0.50         64.7 
      1350.0         0.43         76.3 
      1351.0         0.43         76.7 
      1352.0         0.20         73.9 
      1353.0         0.35         69.0 
      1354.0         0.33         65.0 
      1355.0         0.23         63.0 
      1356.0         0.20         59.9 
      1357.0         0.20         54.7 
      1358.0         0.23         47.9 
      1359.0         0.23         39.9 
      1360.0         0.27         33.6 
      1361.0         0.27         29.4 
      1362.0         0.27         23.7 
      1363.0         0.27         18.4 
      1364.0         0.23         16.0 
      1365.0         0.23         14.6 
      1366.0         0.23         13.8 
      1367.0         0.25         14.4 
      1368.0         0.23         14.9 
      1369.0         0.27         17.0 
      1370.0         0.27         18.0 
      1371.0         0.23         18.7 
      1372.0         0.17         18.6 
      1373.0         0.13         18.9 
      1374.0         0.17         19.0 
      1375.0         0.40         19.8 
      1376.0         3.62         19.1 
      1377.0         0.27         21.5 
      1378.0         0.30         27.0 
      1379.0         0.30         40.4 
      1380.0         0.35         58.4 
      1381.0         0.27         70.2 
      1382.0         0.40         79.3 
      1383.0         0.40         80.3 
      1384.0         0.33         78.9 
      1385.0         0.33         75.1 
      1386.0         0.47         66.9 
      1387.0         0.20         62.8 
      1388.0         0.20         57.9 
      1389.0         0.23         51.9 
      1390.0         0.20         47.7 
      1391.0         0.28         41.8 
      1392.0         0.23         37.9 
      1393.0         0.23         35.7 
      1394.0         0.30         33.2 
      1395.0         0.27         30.5 
      1396.0         0.27         28.8 
      1397.0         0.30         26.7 
      1398.0         0.33         24.7 
      1399.0         0.37         23.4 
      1400.0         0.43         22.3 
      1401.0         0.40         21.5 
      1402.0         0.32         21.2 
      1403.0         0.27         21.7 
      1404.0         0.30         21.3 
      1405.0         0.40         22.0 
      1406.0         3.55         14.2 
      1407.0         0.33         22.6 
      1408.0         0.30         35.2 
      1409.0         0.27         46.8 
      1410.0         0.30         57.8 
      1411.0         0.33         65.3 
