~Version Information
VERS.                      2.0: CWLS Log ASCII Standard - VERSION 2.0
WRAP.                       NO: One line per depth step
~Well Information Block
STRT.FT                15.0000: 
STOP.FT              2409.7500: 
STEP.FT                 0.2500: 
NULL.                -999.2500: 
COMP.          Pioneer Natural Resources: COMPANY
WELL.          Oink Oink 14-36: WELL
FLD.           Purgatoire River: FIELD
LOC.           216' FSL & 263' FWL: LOCATION
PROV.                 Colorado: PROVINCE
CNTY.               Las Animas: COUNTRY
SRVC.                Patterson: SERVICE COMPANY
DATE.          Wed Jun 22 11:05:26 2005: LOG DATE
UWI.           05 071 08394 00: UNIQUE WELL ID
~Curve Information Block
DEPT.FT            0 000 00 00: Depth
GR.GAPI                       : Gamma Ray
CCL.                          : Casing Collar Locator
TT3.usec                      : CBL 3' Travel Time
AMP3.mV                       : CBL 3' Amplitude
~Parameter Information Block
~A  Depth        GR         CCL         TT3         AMP3    
# ...
  1589.5000    144.5657      0.0000    642.3087      4.7186
  1589.7500    142.5278      0.0000    643.6435      4.6990
  1590.0000    140.6806      0.0000    642.3821      4.6678
  1590.2500    138.6632      0.0000    638.3734      4.6107
  1590.5000    136.3973      0.0000    633.5688      4.5195
  1590.7500    134.5849      0.0000    630.4504      4.3947
  1591.0000    134.1423      0.0000    630.2566      4.2428
  1591.2500    135.1641      0.0000    632.5573      4.0736
  1591.5000    136.6729      0.0000    636.0402      3.8975
  1591.7500    137.4633      0.0000    639.5157      3.7242
  1592.0000    137.0696      0.0000    642.3074      3.5614
  1592.2500    135.8860      0.0000    644.0814      3.4140
  1592.5000    134.4283      0.0000    644.7691      3.2872
  1592.7500    132.5613      0.0000    644.7472      3.1884
  1593.0000    129.5868      0.0000    644.8448      3.1244
  1593.2500    125.2842      0.0000    645.9162      3.0962
  1593.5000    120.9413      0.0000    648.1782      3.0997
  1593.7500    119.0595      0.0000    650.8151      3.1330
  1594.0000    121.5503      0.0000    652.4004      3.1996
  1594.2500    127.9902      0.0000    651.9093      3.3017
  1594.5000    135.7755      0.0000    649.2642      3.4318
  1594.7500    141.9470      0.0000    645.0350      3.5697
  1595.0000    144.8575      0.0000    640.2455      3.6895
  1595.2500    144.6306      0.0000    636.5814      3.7724
  1595.5000    142.8179      0.0000    635.9089      3.8105
  1595.7500    141.7219      0.0000    638.8262      3.8016
  1596.0000    143.2785      0.0000    643.8269      3.7438
  1596.2500    147.7331      0.0000    648.3025      3.6399
  1596.5000    153.0985      0.0000    650.4311      3.5030
  1596.7500    156.0677      0.0000    650.1246      3.3521
  1597.0000    153.7350      0.0000    648.5895      3.2034
  1597.2500    145.0106      0.0000    647.4220      3.0684
  1597.5000    131.2571      0.0000    648.0561      2.9580
  1597.7500    115.9812      0.0000    651.3082      2.8845
  1598.0000    103.5219      0.0000    656.5300      2.8550
  1598.2500     97.1913      0.0000    661.1450      2.8671
  1598.5000     97.7129      0.0000    662.0894      2.9122
  1598.7500    102.8824      0.0000    658.4976      2.9848
  1599.0000    109.1128      0.0000    652.5832      3.0899
  1599.2500    113.9840      0.0000    647.5148      3.2368
  1599.5000    117.5295      0.0000    644.8717      3.4241
  1599.7500    121.1981      0.0000    644.1585      3.6320
  1600.0000    125.9703      0.0000    643.9167      3.8367
  1600.2500    131.6463      0.0000    642.9536      4.0283
  1600.5000    137.5052      0.0000    641.0403      4.2092
  1600.7500    143.2121      0.0000    638.7921      4.3764
  1601.0000    148.8937      0.0000    636.7845      4.5165
  1601.2500    154.3728      0.0000    634.9983      4.6182
  1601.5000    158.8069      0.0000    633.5040      4.6825
  1601.7500    161.6682      0.0000    633.2454      4.7200
  1602.0000    163.7436      0.0000    635.2740      4.7444
  1602.2500    166.1998      0.0000    639.0942      4.7668
  1602.5000    168.6671      0.0000    642.4627      4.7915
  1602.7500    169.2624      0.0000    643.4496      4.8155
  1603.0000    166.7955      0.0000    642.6186      4.8343
  1603.2500    162.1918      0.0000    642.6022      4.8448
  1603.5000    157.3448      0.0000    645.3448      4.8428
  1603.7500    153.1357      0.0000    650.1124      4.8225
  1604.0000    149.1063      0.0000    654.3550      4.7817
  1604.2500    144.7904      0.0000    656.2166      4.7259
  1604.5000    140.6903      0.0000    656.0212      4.6669
  1604.7500    137.7738      0.0000    655.5663      4.6173
  1605.0000    136.1218      0.0000    656.3478      4.5869
  1605.2500    134.3011      0.0000    658.6731      4.5788
  1605.5000    130.5419      0.0000    662.2604      4.5862
  1605.7500    124.7662      0.0000    666.8267      4.5979
  1606.0000    118.9962      0.0000    671.2490      4.6040
  1606.2500    115.5721      0.0000    671.9425      4.5950
  1606.5000    115.4156      0.0000    662.7878      4.5586
  1606.7500    118.0998      0.0000    638.2781      4.4872
  1607.0000    122.8329      0.0000    598.6155      4.3907
  1607.2500    128.6292      0.0000    552.2708      4.2948
  1607.5000    133.5872      0.0000    512.7025      4.2204
  1607.7500    134.9200      0.0000    491.6468      4.1646
  1608.0000    130.5346      0.0000    493.8966      4.1032
  1608.2500    120.7475      0.0000    515.1648      4.0162
  1608.5000    108.4261      0.0000    542.8640      3.9129
  1608.7500     97.3783      0.0000    561.0208      3.8276
  1609.0000     90.1301      0.0000    558.3394      3.7825
  1609.2500     86.7109      0.0000    534.3149      3.7623
  1609.5000     85.4047      0.0000    498.7731      3.7395
  1609.7500     84.5828      0.0000    465.4502      3.7115
  1610.0000     83.8065      0.0000    444.8212      3.6942
  1610.2500     83.6656      0.0000    440.9734      3.6924
  1610.5000     85.0427      2.6093    452.9948      3.6979
  1610.7500     88.2096      3.0000    477.8367      3.7112
  1611.0000     92.2151      0.0000    511.6418      3.7521
  1611.2500     95.5329      0.0000    548.5616      3.8495
  1611.5000     97.7378      0.0000    580.1228      4.0172
  1611.7500    100.2656      0.0000    598.2637      4.2291
  1612.0000    105.1596      0.0000    599.2817      4.4234
  1612.2500    113.0875      0.0000    584.0684      4.5472
  1612.5000    122.6189      0.0000    556.1122      4.5955
  1612.7500    131.2456      0.0000    521.2375      4.6009
  1613.0000    136.9429      0.0000    487.4727      4.5982
  1613.2500    138.9187      0.0000    461.8494      4.6050
  1613.5000    137.4365      0.0000    446.6815      4.6238
  1613.7500    133.3374      0.0000    439.8000      4.6485
  1614.0000    127.5851      0.0000    438.0492      4.6725
  1614.2500    120.9297      0.0000    440.2442      4.6935
  1614.5000    113.9160      0.0000    447.7990      4.7123
  1614.7500    107.1563      0.0000    463.3486      4.7282
  1615.0000    101.3931      0.0000    488.0720      4.7407
  1615.2500     97.2383      0.0000    518.7476      4.7538
  1615.5000     94.9495      0.0000    547.2468      4.7728
  1615.7500     94.4251      0.0000    564.7135      4.7969
  1616.0000     95.3742      0.0000    568.2986      4.8163
  1616.2500     97.5674      0.0000    564.0558      4.8184
  1616.5000    100.8666      0.0000    562.3228      4.7973
  1616.7500    104.8517      0.0000    569.5850      4.7586
  1617.0000    108.5195      0.0000    584.4382      4.7179
  1617.2500    110.6462      0.0000    600.4755      4.6929
  1617.5000    110.4586      0.0000    611.8905      4.6955
  1617.7500    107.9062      0.0000    616.0292      4.7254
  1618.0000    103.5080      0.0000    612.2520      4.7674
  1618.2500     98.0660      0.0000    600.7044      4.7948
  1618.5000     92.2506      0.0000    582.6544      4.7821
  1618.7500     86.3597      0.0000    559.9913      4.7235
  1619.0000     80.6520      0.0000    533.5203      4.6396
  1619.2500     75.8476      0.0000    504.1292      4.5637
  1619.5000     73.0367      0.0000    477.2579      4.5160
  1619.7500     73.1019      0.0000    463.6742      4.4886
  1620.0000     76.2635      0.0000    472.7073      4.4553
  1620.2500     81.9975      0.0000    503.9792      4.3968
  1620.5000     89.1609      0.0000    546.0469      4.3155
  1620.7500     96.1604      0.0000    583.6469      4.2282
  1621.0000    101.2547      0.0000    606.9763      4.1506
  1621.2500    103.2815      0.0000    615.3293      4.0890
  1621.5000    102.4322      0.0000    614.3920      4.0417
  1621.7500    100.1904      0.0000    611.6010      4.0008
  1622.0000     98.3549      0.0000    612.2797      3.9532
  1622.2500     98.0708      0.0000    617.2603      3.8872
  1622.5000     99.4553      0.0000    623.5763      3.8020
  1622.7500    101.7486      0.0000    627.9235      3.7123
