~Version Information
VERS.                      2.0: CWLS Log ASCII Standard - VERSION 2.0
WRAP.                       NO: One line per depth step
~Well Information Block
STRT.FT                10.0000: 
STOP.FT               859.0000: 
STEP.FT                 0.2500: 
NULL.                -999.2500: 
COMP.          Pioneer Natural Resources: COMPANY
WELL.          Prospector 12-19: WELL
FLD.           Purgatoire River: FIELD
LOC.           2262' FNL & 634' FWL: LOCATION
PROV.                 Colorado: PROVINCE
CNTY.               Las Animas: COUNTRY
SRVC.                Patterson: SERVICE COMPANY
DATE.          Tue May 10 11:52:48 2005: LOG DATE
UWI.           05 071 08191 00: UNIQUE WELL ID
~Curve Information Block
DEPT.FT            0 000 00 00: Depth
CCL.                          : Casing Collar Locator
TT3.usec                      : CBL 3' Travel Time
AMP3.mV                       : CBL 3' Amplitude
GR.GAPI                       : Gamma Ray
~Parameter Information Block
~A  Depth       CCL         TT3         AMP3         GR     
# ...
   378.5000      0.0000    895.3507      6.8101     89.1536
   378.7500      0.0000    902.4985      6.8221     92.0324
   379.0000      0.0000    907.4528      6.8645     95.6938
   379.2500      0.0000    910.1898      6.9104    100.8496
   379.5000      0.0000    911.4195      6.9228    106.7835
   379.7500      0.0000    911.8857      6.8867    111.5743
   380.0000      0.0000    912.0460      6.8254    113.6173
   380.2500      0.0000    912.1121      6.7823    112.8086
   380.5000      0.0000    912.1691      6.7822    110.1411
   380.7500      0.0000    912.2431      6.8113    106.3912
   381.0000      0.0000    912.3398      6.8338    101.6042
   381.2500      0.0000    912.4770      6.8233     95.8996
   381.5000      0.0000    912.6990      6.7804     90.2445
   381.7500      0.0000    913.0434      6.7281     86.1727
   382.0000      0.0000    913.4823      6.6895     84.9697
   382.2500      0.0000    913.9087      6.6649     86.9812
   382.5000      0.0000    914.1975      6.6316     91.2817
   382.7500      0.0000    914.2899      6.5737     96.2406
   383.0000      0.0000    914.2211      6.5110    100.8748
   383.2500      0.0000    914.0720      6.4925    105.3086
   383.5000      0.0000    913.9054      6.5551    109.5040
   383.7500      0.0000    913.7463      6.6892    112.1452
   384.0000      0.0000    913.6032      6.8430    111.6607
   384.2500      0.0000    913.4861      6.9587    108.1864
   384.5000      0.0000    913.4038      7.0088    103.7794
   384.7500      0.0000    913.3565      7.0097    100.7732
   385.0000      0.0000    913.3382      7.0019    100.4877
   385.2500      0.0000    913.3389      7.0098    103.2915
   385.5000      0.0000    913.3401      7.0242    108.9451
   385.7500      0.0000    913.3147      7.0263    116.3353
   386.0000      0.0000    913.2449      7.0219    123.3188
   386.2500      0.0000    913.1417      7.0391    127.6423
   386.5000      0.0000    913.0391      7.0932    128.4159
   386.7500      0.0000    912.9676      7.1667    126.5671
   387.0000      0.0000    912.9402      7.2274    123.8910
   387.2500      0.0000    912.9230      7.2609    121.8358
   387.5000      0.0000    912.7629      7.2810    120.7337
   387.7500      0.0000    912.1161      7.3142    119.4506
   388.0000      0.0000    910.5452      7.3769    116.0669
   388.2500      0.0000    907.8789      7.4647    109.8114
   388.5000      0.0000    904.5078      7.5512    102.3301
   388.7500      0.0000    901.0787      7.5977     96.4204
   389.0000      0.0000    897.8739      7.5729     93.5714
   389.2500      0.0000    894.9164      7.4758     93.2297
   389.5000      0.0000    892.5854      7.3403     94.1363
   389.7500      0.0000    891.2408      7.2093     95.6312
   390.0000      0.0000    890.1330      7.1040     97.6137
   390.2500      0.0000    887.7369      7.0208     99.9670
   390.5000      0.0000    883.5326      6.9473    102.7338
   390.7500      0.0000    878.7003      6.8683    106.6446
   391.0000      0.0000    874.8522      6.7656    112.5736
   391.2500      0.0000    872.6735      6.6296    120.0556
   391.5000      0.0000    871.9001      6.4781    126.7761
   391.7500      0.0000    872.0510      6.3567    130.0445
   392.0000      0.0000    872.9441      6.3113    128.7889
   392.2500      0.0000    874.6675      6.3533    123.9429
   392.5000      0.0000    877.0878      6.4500    117.1084
   392.7500      0.0000    879.3588      6.5517    109.4616
   393.0000      0.0000    880.2011      6.6276    102.0071
   393.2500      0.0000    878.9792      6.6742     95.8882
   393.5000      0.0000    876.3513      6.6967     91.6549
   393.7500      0.0000    873.6431      6.6990     88.7439
   394.0000      0.0000    871.7601      6.6907     86.3131
   394.2500      0.0000    870.8176      6.6875     84.2763
   394.5000      0.0000    870.4927      6.6936     83.0060
   394.7500      0.0000    870.4449      6.6898     82.3254
   395.0000      0.0000    870.4882      6.6558     81.3871
   395.2500      0.0000    870.5771      6.5988     79.6606
   395.5000      0.0000    870.7164      6.5478     77.7019
   395.7500      0.0000    870.8801      6.5178     76.7028
   396.0000      0.0000    871.0441      6.4947     77.5111
   396.2500      0.0000    871.3114      6.4630     80.4161
   396.5000      0.0000    872.0061      6.4286     85.5904
   396.7500      0.0000    873.5251      6.4053     93.1993
   397.0000      0.0000    875.8685      6.3910    103.0176
   397.2500      0.0000    878.2610      6.3731    114.1155
   397.5000      0.0000    879.6087      6.3456    124.6854
   397.7500      0.0000    879.7292      6.3109    132.1109
   398.0000      0.0000    879.9523      6.2794    134.0243
   398.2500      0.0000    881.9648      6.2739    130.1819
   398.5000      0.0000    885.9442      6.3192    123.1809
   398.7500      0.0000    890.0965      6.4150    116.9079
   399.0000      0.0000    892.1350      6.5229    114.3541
   399.2500      0.0000    891.0549      6.5935    116.8162
   399.5000      0.0000    887.5975      6.6078    124.2009
   399.7500      0.0000    883.6613      6.5885    134.9825
   400.0000      0.0000    881.5107      6.5743    145.9113
   400.2500      0.0000    882.7212      6.5908    153.1765
   400.5000      0.0000    886.8325      6.6490    155.1115
   400.7500      0.0000    890.7323      6.7527    153.3515
   401.0000      0.0000    889.6783      6.8857    150.6268
   401.2500      0.0000    879.5927      6.9810    148.1246
   401.5000      0.0000    859.5183      6.9361    145.4632
   401.7500      0.0000    833.7615      6.7063    142.0737
   402.0000      0.0000    812.4340      6.3802    137.7837
   402.2500      0.0000    807.3122      6.1088    132.6951
   402.5000      0.0000    823.1461      5.9544    127.0436
   402.7500      0.0000    852.3080      5.8591    120.9734
   403.0000      0.0000    880.4214      5.7538    114.4567
   403.2500      0.0000    898.0179      5.6314    107.7755
   403.5000      0.0000    905.9359      5.5088    102.0037
   403.7500      2.0000    910.7945      5.3759     98.5262
   404.0000      2.0000    917.4343      5.2057     97.7006
   404.2500     -2.0000    925.6340      5.0067     98.0258
   404.5000      0.0000    932.3004      4.8548     97.1428
   404.7500      0.0000    935.0703      4.8547     94.0606
   405.0000      0.0000    932.9733      5.0411     90.1753
   405.2500      0.0000    925.2396      5.3259     87.8637
   405.5000      0.0000    912.1408      5.5672     88.3180
   405.7500      0.0000    896.7830      5.6830     90.8385
   406.0000      0.0000    883.7010      5.6843     93.8110
   406.2500      0.0000    875.4498      5.6238     96.0236
   406.5000      0.0000    871.5488      5.5433     97.2095
   406.7500      0.0000    870.1597      5.4644     97.8759
   407.0000      0.0000    869.7932      5.4012     98.9300
   407.2500      0.0000    869.7234      5.3635    101.2763
   407.5000      0.0000    869.7150      5.3551    105.3952
   407.7500      0.0000    869.7351      5.3784    111.1297
   408.0000      0.0000    869.7864      5.4348    117.7951
   408.2500      0.0000    869.8693      5.5188    124.4367
   408.5000      0.0000    869.9728      5.6176    129.9984
   408.7500      0.0000    870.0837      5.7154    133.4571
   409.0000      0.0000    870.1835      5.7959    134.1860
   409.2500      0.0000    870.2448      5.8447    132.3455
   409.5000      0.0000    870.2479      5.8574    128.8165
   409.7500      0.0000    870.2047      5.8486    124.5942
   410.0000      0.0000    870.1600      5.8449    120.1926
   410.2500      0.0000    870.1732      5.8613    115.7197
   410.5000      0.0000    870.2877      5.8876    111.3731
   410.7500      0.0000    870.4999      5.9041    107.5382
   411.0000      0.0000    870.7486      5.9081    104.5075
   411.2500      0.0000    870.9470      5.9176    102.4865
   411.5000      0.0000    871.0370      5.9509    101.8743
   411.7500      0.0000    871.0093      6.0132    103.2482
