~Version Information
VERS.                      2.0: CWLS Log ASCII Standard - VERSION 2.0
WRAP.                       NO: One line per depth step
~Well Information Block
STRT.FT               554.0000: 
STOP.FT              1002.0000: 
STEP.FT                 0.1000: 
NULL.                -999.2500: 
COMP.          Pioneer Natural Resources: COMPANY
WELL.          Rising Star 22-11: WELL
FLD.           Purgatoire River: FIELD
LOC.           2152' FNL & 2105' FWL: LOCATION
PROV.                 Colorado: PROVINCE
CNTY.               Las Animas: COUNTRY
SRVC.                Patterson: SERVICE COMPANY
DATE.          Mon Apr 11 16:46:53 2005: LOG DATE
UWI.           05 071 08354 00: UNIQUE WELL ID
~Curve Information Block
DEPT.FT            0 000 00 00: Depth
DCAL.in                       : CDL Caliper
RHOB.g/cc                     : CDL Bulk Density
RHOC.g/cc                     : CDL Density Correction
DPOR.pu                       : CDL Density Porosity
GR.GAPI                       : Gamma Ray
NPOR.pu                       : Neutron Porosity
~Parameter Information Block
~A  Depth       DCAL        RHOB        RHOC        DPOR         GR         NPOR    
# ...
   899.6000      7.8983      2.4943      0.0384      9.4343     57.4376     24.1355
   899.7000      7.8983      2.4763     -0.0210     10.5291     59.2518     23.5635
   899.8000      7.8959      2.4686      0.0031     10.9970     61.5337     23.6262
   899.9000      7.8959      2.4762     -0.0410     10.5303     61.7973     23.6571
   900.0000      7.8855      2.4976      0.0204      9.2387     59.9085     23.4778
   900.1000      7.8855      2.5255     -0.0004      7.5442     56.3868     23.7742
   900.2000      7.8855      2.5594      0.0369      5.4933     54.0100     24.5579
   900.3000      7.8822      2.5902      0.0689      3.6249     55.6392     24.9282
   900.4000      7.8822      2.5992      0.0488      3.0770     59.4464     24.7984
   900.5000      7.8903      2.5833      0.0550      4.0401     63.0003     24.5162
   900.6000      7.8903      2.5518      0.0311      5.9524     64.2029     24.3577
   900.7000      7.8903      2.5238      0.0401      7.6505     62.4569     24.4957
   900.8000      7.8857      2.5213      0.0092      7.7992     61.2275     24.8082
   900.9000      7.8857      2.5365      0.0091      6.8765     62.1380     25.0558
   901.0000      7.8839      2.5315      0.0286      7.1835     63.6054     25.0436
   901.1000      7.8839      2.4932     -0.0060      9.5032     64.1953     24.9728
   901.2000      7.8839      2.4556     -0.0344     11.7808     63.2417     24.7825
   901.3000      7.8926      2.4542     -0.0355     11.8639     63.4348     24.1314
   901.4000      7.8926      2.4808     -0.0066     10.2521     65.9992     22.9091
   901.5000      7.8836      2.4992      0.0738      9.1424     66.9348     21.9729
   901.6000      7.8836      2.5022     -0.0329      8.9553     64.2389     22.2300
   901.7000      7.8836      2.5140      0.0254      8.2398     61.2947     23.1748
   901.8000      7.8815      2.5330      0.0743      7.0913     60.7255     24.3428
   901.9000      7.8815      2.5424      0.0175      6.5186     60.5372     25.5712
   902.0000      7.8779      2.5423      0.0731      6.5253     59.2999     25.9945
   902.1000      7.8779      2.5318      0.0563      7.1640     57.8926     25.3135
   902.2000      7.8779      2.5123      0.0227      8.3464     58.7506     24.6660
   902.3000      7.8916      2.4978      0.0158      9.2226     61.9322     24.8715
   902.4000      7.8916      2.4950      0.0265      9.3949     63.8247     25.4076
   902.5000      7.8905      2.4937      0.0170      9.4700     63.8515     25.8827
   902.6000      7.8905      2.4969      0.0081      9.2804     63.9704     26.4698
   902.7000      7.8905      2.5107      0.0198      8.4447     66.1818     26.7684
   902.8000      7.8928      2.5205      0.0364      7.8484     69.1779     26.5600
   902.9000      7.8928      2.5210      0.0316      7.8206     68.6703     26.4527
   903.0000      7.8828      2.5272      0.0244      7.4423     65.2525     26.6626
   903.1000      7.8828      2.5420      0.0563      6.5458     63.7064     26.9220
   903.2000      7.8828      2.5518     -0.0043      5.9540     65.0811     27.0002
   903.3000      7.8787      2.5494      0.0343      6.0984     68.6173     26.8135
   903.4000      7.8787      2.5402      0.0071      6.6569     71.7762     26.2918
   903.5000      7.8988      2.5336      0.0299      7.0557     71.7485     25.4135
   903.6000      7.8988      2.5321      0.0037      7.1449     70.9896     24.5800
   903.7000      7.8988      2.5409     -0.0203      6.6102     72.1529     24.2012
   903.8000      7.9002      2.5633     -0.0079      5.2570     73.7241     24.2812
   903.9000      7.9002      2.5866      0.0474      3.8407     74.3592     24.4077
   904.0000      7.9031      2.5964      0.0581      3.2502     74.9678     24.4298
   904.1000      7.9031      2.5952     -0.0088      3.3233     76.7824     24.4546
   904.2000      7.9031      2.5961     -0.0148      3.2660     79.0169     24.3234
   904.3000      7.9020      2.5955      0.0327      3.3005     78.4648     24.2726
   904.4000      7.9020      2.5867     -0.0017      3.8349     74.6284     25.0261
   904.5000      7.9002      2.5744     -0.0241      4.5811     71.9151     26.5611
   904.6000      7.9002      2.5515      0.0355      5.9725     74.2976     27.8362
   904.7000      7.9002      2.5141     -0.0300      8.2372     79.7141     27.8201
   904.8000      7.8955      2.4831     -0.0016     10.1127     82.6405     26.7732
   904.9000      7.8955      2.4660      0.0057     11.1511     81.3410     25.6799
   905.0000      7.8963      2.4508     -0.0884     12.0745     77.1194     24.8990
   905.1000      7.8963      2.4399     -0.1095     12.7346     73.3976     24.3461
   905.2000      7.8963      2.4333     -0.0191     13.1304     74.9718     23.7783
   905.3000      7.8983      2.4177     -0.0173     14.0793     80.6259     23.4740
   905.4000      7.8983      2.4026     -0.0707     14.9934     83.8241     23.7829
   905.5000      7.8916      2.4129     -0.0659     14.3705     81.8345     24.2265
   905.6000      7.8916      2.4414      0.0045     12.6437     78.5486     24.3708
   905.7000      7.8916      2.4624      0.0305     11.3670     78.5376     24.5123
   905.8000      7.9134      2.4740      0.0366     10.6664     80.6795     24.6067
   905.9000      7.9134      2.4874     -0.0227      9.8554     81.5606     24.5263
   906.0000      7.9102      2.5040      0.0425      8.8481     81.6325     24.6109
   906.1000      7.9102      2.5120      0.0522      8.3607     82.8355     25.0013
   906.2000      7.9102      2.5019      0.0618      8.9763     85.1353     25.4576
   906.3000      7.9021      2.4843      0.0283     10.0449     87.1608     25.5965
   906.4000      7.9021      2.4801      0.0022     10.2949     89.2080     25.8422
   906.5000      7.8928      2.4935      0.0343      9.4828     92.2162     26.6648
   906.6000      7.8928      2.5032      0.0544      8.8952     95.7912     27.6447
   906.7000      7.8928      2.4966      0.0051      9.2989     97.6498     28.1004
   906.8000      7.8950      2.4877     -0.0017      9.8361     95.6713     27.3938
   906.9000      7.8950      2.4838      0.0455     10.0739     93.8477     25.9762
   907.0000      7.9000      2.4805      0.0001     10.2737     95.5491     25.2521
   907.1000      7.9000      2.4829      0.0499     10.1265     96.5719     25.4425
   907.2000      7.9000      2.4911      0.0382      9.6328     93.1213     25.6284
   907.3000      7.9008      2.4982      0.0836      9.1987     87.4609     25.3255
   907.4000      7.9008      2.5086      0.0153      8.5676     83.1236     24.7889
   907.5000      7.9058      2.5264      0.0244      7.4897     80.1159     24.3822
   907.6000      7.9058      2.5365      0.0170      6.8787     77.4882     24.4314
   907.7000      7.9058      2.5335     -0.0009      7.0620     76.3053     25.1793
   907.8000      7.9094      2.5348     -0.0052      6.9797     76.5287     26.1312
   907.9000      7.9094      2.5494      0.0198      6.0974     74.2830     26.7548
   908.0000      7.9091      2.5674      0.0706      5.0081     68.0280     26.4347
   908.1000      7.9091      2.5760      0.0129      4.4835     61.3486     24.7329
   908.2000      7.9091      2.5755      0.0552      4.5162     57.8168     22.8477
   908.3000      7.8693      2.5697      0.0594      4.8654     58.8288     21.9743
   908.4000      7.8693      2.5618      0.0187      5.3477     63.0206     21.9820
   908.5000      7.8531      2.5548      0.0511      5.7686     65.8726     22.1805
   908.6000      7.8531      2.5433      0.0599      6.4644     64.8575     22.0334
   908.7000      7.8531      2.5269     -0.0084      7.4596     63.2608     22.0698
   908.8000      7.8555      2.5108      0.0395      8.4361     62.1975     22.8079
   908.9000      7.8555      2.4895      0.0444      9.7301     59.8871     23.5675
   909.0000      7.8674      2.4645     -0.0041     11.2424     58.0955     24.0337
   909.1000      7.8674      2.4544     -0.0542     11.8565     59.5220     24.2824
