~Version Information
VERS.                      2.0: CWLS Log ASCII Standard - VERSION 2.0
WRAP.                       NO: One line per depth step
~Well Information Block
STRT.FT                -6.5000: 
STOP.FT              2698.5000: 
STEP.FT                 0.2500: 
NULL.                -999.2500: 
COMP.          Pioneer Natural Resources: COMPANY
WELL.              Cluck 21-25: WELL
FLD.           Purgatorie River: FIELD
LOC.           91' FNL & 1834' FWL--: LOCATION
PROV.                       CO: PROVINCE
CNTY.               Las Animas: COUNTRY
SRVC.          Patterson Wireline: SERVICE COMPANY
DATE.          Mon Jun 13 14:54:35 2005: LOG DATE
UWI.           05 071 08397 00: UNIQUE WELL ID
~Curve Information Block
DEPT.FT            0 000 00 00: Depth
CCL.                          : Casing Collar Locator
TT3.usec                      : CBL 3' Travel Time
AMP3.mV                       : CBL 3' Amplitude
GR.GAPI                       : Gamma Ray
~Parameter Information Block
~A  Depth       CCL         TT3         AMP3         GR     
# ...
   697.0000      0.0000    727.6373      6.1997    128.2248
   697.2500      0.0000    725.0715      6.3198    132.0718
   697.5000      0.0000    726.0637      6.4215    133.0463
   697.7500      0.0000    730.9793      6.4852    132.4605
   698.0000      0.0000    738.7373      6.5088    132.0624
   698.2500      0.0000    748.4142      6.4921    131.9831
   698.5000      0.0000    759.6088      6.4365    131.2831
   698.7500      0.0000    770.7164      6.3569    129.8194
   699.0000      0.0000    777.9784      6.2761    128.6536
   699.2500      0.0000    777.8787      6.1989    128.9186
   699.5000      0.0000    770.6363      6.1048    130.9466
   699.7500      0.0000    760.2980      5.9840    134.1264
   700.0000      0.0000    751.2739      5.8713    136.8646
   700.2500      0.0000    745.4809      5.8242    137.1348
   700.5000      0.0000    742.4940      5.8688    134.0118
   700.7500      0.0000    741.1963      5.9754    128.6515
   701.0000      0.0000    740.8546      6.0835    123.2122
   701.2500      0.0000    741.2540      6.1414    118.9501
   701.5000      0.0000    742.4620      6.1269    116.0001
   701.7500      0.0000    744.5317      6.0495    114.5872
   702.0000      0.0000    747.1567      5.9516    115.1283
   702.2500      0.0000    749.4637      5.8911    117.0082
   702.5000      0.0000    750.4240      5.8959    118.5130
   702.7500      0.0000    749.9316      5.9374    118.5899
   703.0000      0.0000    749.6081      5.9673    118.0741
   703.2500      0.0000    752.4645      5.9722    118.5965
   703.5000      0.0000    761.5544      5.9794    120.4929
   703.7500      0.0000    778.0979      6.0192    122.3480
   704.0000      0.0000    799.9504      6.0955    122.6024
   704.2500      0.0000    822.1664      6.1827    121.0203
   704.5000      0.0000    840.1599      6.2391    118.4239
   704.7500      0.0000    852.5510      6.2343    115.7893
   705.0000      0.0000    860.6956      6.1698    113.9082
   705.2500      0.0000    866.2108      6.0733    113.0585
   705.5000      0.0000    869.7863      5.9731    112.6015
   705.7500      0.0000    871.7141      5.8868    111.7148
   706.0000      0.0000    872.3306      5.8296    110.9154
   706.2500      0.0000    871.5887      5.8106    112.2696
   706.5000      0.0000    868.3283      5.8151    117.7182
   706.7500      0.0000    860.1361      5.8031    127.2028
   707.0000      0.0000    844.6346      5.7380    138.1720
   707.2500      0.0000    822.0040      5.6266    146.8390
   707.5000      0.0000    796.4239      5.5312    150.5356
   707.7500      0.0000    774.1416      5.5218    149.4199
   708.0000      0.0000    759.6901      5.6112    145.8997
   708.2500      0.0000    754.0789      5.7470    142.3888
   708.5000      0.0000    755.8829      5.8706    139.7746
   708.7500      0.0000    762.5790      5.9700    137.7648
   709.0000      0.0000    770.5872      6.0678    135.9931
   709.2500      0.0000    775.1768      6.1709    134.4203
   709.5000      0.0000    771.3536      6.2526    133.0246
   709.7500      0.0000    754.8094      6.2904    131.6409
   710.0000      0.0000    722.1370      6.2989    130.1799
   710.2500      0.0000    671.8425      6.3104    128.7360
   710.5000      0.0000    607.4117      6.3439    127.3205
   710.7500      0.0000    539.4023      6.4043    125.6699
   711.0000      0.0000    482.1241      6.4926    123.5765
   711.2500      0.0000    446.3151      6.6041    121.3922
   711.5000      0.0000    434.2877      6.7301    119.9116
   711.7500      0.0000    440.9342      6.8599    119.5888
   712.0000      0.0000    458.4348      6.9734    120.1077
   712.2500      0.0000    481.5975      7.0436    120.7639
   712.5000      0.0000    511.0693      7.0516    120.8183
   712.7500      0.0000    551.2128      6.9928    119.4034
   713.0000      0.0000    603.1303      6.8804    115.7719
   713.2500      0.0000    659.6935      6.7521    110.0976
   713.5000      0.0000    708.9747      6.6600    103.6142
   713.7500      0.0000    742.8373      6.6320     97.6449
   714.0000      0.0000    761.6131      6.6512     92.9100
   714.2500      0.0000    771.4995      6.6824     89.8482
   714.5000      0.0000    779.2126      6.7023     88.8136
   714.7500      0.0000    788.7863      6.7011     89.6063
   715.0000      0.0000    801.2129      6.6752     91.2900
   715.2500      0.0000    815.1285      6.6326     92.7418
   715.5000      0.0000    827.6854      6.5887     93.2502
   715.7500      0.0000    836.0923      6.5518     92.6539
   716.0000      0.0000    839.4834      6.5220     91.2169
   716.2500      0.0000    839.3002      6.5056     89.4803
   716.5000      0.0000    837.3473      6.5145     88.1491
   716.7500      0.0000    833.6525      6.5486     88.0097
   717.0000      0.0000    826.4468      6.5882     89.6537
   717.2500      0.0000    813.9034      6.6081     92.9241
   717.5000      0.0000    795.9191      6.5960     96.7044
   717.7500      0.0000    774.3935      6.5602     99.7296
   718.0000      0.0000    751.2805      6.5217    101.7673
   718.2500      0.0000    725.5831      6.5025    103.8811
   718.5000      0.0000    692.3109      6.5203    107.4856
   718.7500      0.0000    645.7092      6.5807    112.9630
   719.0000      0.0000    585.5311      6.6634    118.8953
   719.2500      0.0000    520.6340      6.7292    122.8484
   719.5000      0.0000    464.6464      6.7496    123.4852
   719.7500      0.0000    426.9789      6.7215    121.9028
   720.0000      0.0000    408.6078      6.6544    120.4263
   720.2500      0.0000    405.9774      6.5673    120.2074
   720.5000      0.0000    416.7401      6.4923    120.5458
   720.7500      0.0000    440.5431      6.4563    120.3452
   721.0000      0.0000    475.1384      6.4508    119.5495
   721.2500      0.0000    513.7176      6.4363    119.1290
   721.5000      0.0000    547.5782      6.3851    119.9928
   721.7500      0.0000    571.1602      6.3117    121.9257
   722.0000      0.0000    584.0558      6.2539    123.5548
   722.2500      0.0000    589.4865      6.2276    123.5011
   722.5000      0.0000    591.9663      6.2119    121.5532
   722.7500      0.0000    594.7067      6.1650    118.7554
   723.0000      0.0000    596.7092      6.0453    116.6721
   723.2500      0.0000    592.2599      5.8380    116.5657
   723.5000      0.0000    575.5774      5.5787    118.6538
   723.7500      0.0000    548.5711      5.3389    121.5360
   724.0000      0.0000    524.0642      5.1724    122.6037
   724.2500      0.0000    518.6614      5.0831    119.8621
   724.5000      0.0000    540.0189      5.0435    113.6718
   724.7500     -2.0000    580.3787      5.0273    106.3183
   725.0000      0.0000    622.4673      5.0284     99.8451
   725.2500      0.0000    652.4156      5.0699     94.6986
   725.5000      0.0000    668.5657      5.1952     90.3859
   725.7500      0.0000    678.3113      5.4215     86.7839
   726.0000      0.0000    686.5442      5.6937     84.4393
   726.2500      0.0000    690.1403      5.9074     83.7560
   726.5000      0.0000    685.6875      5.9977     84.2735
   726.7500      0.0000    678.8576      5.9903     84.9515
   727.0000      0.0000    681.2466      5.9520     84.9888
   727.2500      0.0000    698.8106      5.9205     84.3382
   727.5000      0.0000    727.5226      5.8929     83.7693
   727.7500      0.0000    760.0410      5.8462     84.3273
   728.0000      0.0000    791.7745      5.7544     86.2085
   728.2500      0.0000    819.6190      5.6136     88.0946
   728.5000      0.0000    839.5249      5.4578     87.9632
   728.7500      0.0000    848.2332      5.3372     84.6542
   729.0000      0.0000    846.1785      5.2826     78.5136
   729.2500      0.0000    837.2292      5.2932     70.7579
   729.5000      0.0000    825.7647      5.3413     62.7507
   729.7500      0.0000    814.3174      5.3818     55.9838
   730.0000      0.0000    803.5669      5.3775     52.0730
   730.2500      0.0000    793.7673      5.3255     51.9076
