~Version Information
VERS.                      2.0: CWLS Log ASCII Standard - VERSION 2.0
WRAP.                       NO: One line per depth step
~Well Information Block
STRT.FT                -9.5000: 
STOP.FT              2893.0000: 
STEP.FT                 0.2500: 
NULL.                -999.2500: 
COMP.          Pioneer Natural Resources: COMPANY
WELL.          Old Yeller 31-32: WELL
FLD.           Purgatoire River: FIELD
LOC.           1832' FEL & 793' FNL----: LOCATION
STAT.                 Colorado: State
CNTY.               Las Animas: COUNTY
CTRY. USA : Country
SECT. 32 : Section
TOWN. 32S : Township
RANG. 67W : Range
SRVC.                         : SERVICE COMPANY
DATE.          Fri Sep 02 16:45:38 2005: LOG DATE
API. 05-071-08356                         : UNIQUE WELL ID
~Curve Information Block
DEPT.FT            0 000 00 00: Depth
CCL.                          : Casing Collar Locator
TT3.usec                      : CBL 3' Travel Time
AMP5.mV                       : CBL 5' Amplitude
GR.GAPI                       : Gamma Ray
~Parameter Information Block
~A  Depth       CCL         TT3         AMP5         GR     
# ...
   761.0000      0.0000    303.5291     11.7901    123.4424
   761.2500      0.0000    303.5130     12.6606    124.3412
   761.5000      0.0000    303.4673     12.2254    123.4875
   761.7500      0.0000    303.3992     12.3124    121.4432
   762.0000      0.0000    303.3239     11.4420    118.8695
   762.2500      0.0000    303.2560     11.6160    116.0079
   762.5000      0.0000    303.2034     11.0067    113.0974
   762.7500      0.0000    303.1670     10.9197    110.8123
   763.0000      0.0000    303.1420     11.0938    109.7899
   763.2500      0.0000    303.1500     10.6585    109.8085
   763.5000      0.0000    303.2846     10.7456    109.7775
   763.7500      0.0000    303.9958     10.8326    108.6805
   764.0000      0.0000    306.6191      7.5249    106.4835
   764.2500      0.0000    313.9039      6.3933    104.0942
   764.5000      0.0000    329.0549     10.6585    102.5060
   764.7500      0.0000    352.0565      4.9135    101.9589
   765.0000      0.0000    375.9822      6.5673    101.8160
   765.2500      0.0000    389.4794      7.0896    101.2298
   765.5000      0.0000    385.7405      7.0026     99.9590
   765.7500      0.0000    368.3291      7.2637     98.4482
   766.0000      0.0000    347.1224      7.5249     97.1966
   766.2500      0.0000    330.5861      7.4378     96.3960
   766.5000     -2.0000    322.9726      7.0896     96.2036
   766.7500      0.0000    326.5664      7.6990     96.9433
   767.0000      0.0000    343.0890      7.0896     98.8020
   767.2500      0.0000    370.2664      7.0026    101.4327
   767.5000      0.0000    397.1679      7.6990    103.9427
   767.7500      0.0000    407.7957      7.0896    105.2956
   768.0000      0.0000    394.1202      7.5249    104.9050
   768.2500      0.0000    364.2142      6.9155    102.9947
   768.5000      0.0000    334.2879      6.8285    100.4139
   768.7500      0.0000    314.7401      6.4803     98.1594
   769.0000      0.0000    305.8065      6.8285     97.1229
   769.2500      0.0000    302.9319     17.5352     98.0036
   769.5000      0.0000    302.3180      8.3083    100.9197
   769.7500      0.0000    302.2807     11.7031    104.8777
   770.0000      0.0000    302.3572     12.3995    108.0782
   770.2500      0.0000    302.4749     11.7031    109.3351
   770.5000      0.0000    302.5949     12.3124    109.1470
   770.7500      0.0000    302.6884     12.4865    108.8967
   771.0000      0.0000    302.7374     11.9642    109.0852
   771.2500      0.0000    302.7438     11.9642    108.8615
   771.5000      0.0000    302.7255     11.0938    107.1284
   771.7500      0.0000    302.7010     11.3549    103.4874
   772.0000      0.0000    302.6824     10.3974     98.1286
   772.2500      0.0000    302.6782     10.5715     91.3912
   772.5000      0.0000    302.6992     10.3974     83.7219
   772.7500      0.0000    302.7599     10.0492     75.8273
   773.0000      0.0000    302.8750     10.8326     68.5950
   773.2500      0.0000    303.0516     10.0492     62.8403
   773.5000      0.0000    303.2791     10.4844     59.0604
   773.7500      0.0000    303.5266     11.4420     57.3002
   774.0000      0.0000    303.7500     10.7456     57.3110
   774.2500      0.0000    303.9073     10.4844     59.0650
   774.5000      0.0000    303.9741     10.9197     63.2028
   774.7500      0.0000    303.9497     10.4844     70.7478
   775.0000      0.0000    303.8510     10.3103     82.0288
   775.2500      0.0000    303.6955     11.0938     95.7990
   775.5000      0.0000    303.4956     11.0067    109.6837
   775.7500      0.0000    303.2705     10.4844    121.7757
   776.0000      0.0000    303.0591      9.9622    131.7497
   776.2500      0.0000    302.9158     10.2233    140.2337
   776.5000      0.0000    302.8882     10.3974    147.2171
   776.7500      0.0000    302.9866     10.6585    151.4902
   777.0000      0.0000    303.1713     10.8326    151.8039
   777.2500      0.0000    303.3737     11.3549    148.4328
   777.5000      0.0000    303.5368     10.3974    143.4674
   777.7500      0.0000    303.6369     10.8326    139.5376
   778.0000      0.0000    303.6734     10.9197    138.1455
   778.2500      0.0000    303.6537     10.7456    139.0896
   778.5000      0.0000    303.5898     10.9197    141.2501
   778.7500      0.0000    303.4990     10.9197    143.6654
   779.0000      0.0000    303.3983     10.8326    145.9484
   779.2500      0.0000    303.2954     10.3974    148.1775
   779.5000      0.0000    303.1868     10.3974    150.6252
   779.7500      0.0000    303.0677     10.1363    153.3604
   780.0000      0.0000    302.9485     10.0492    155.9871
   780.2500      0.0000    302.8599     10.2233    157.8134
   780.5000      0.0000    302.8431     10.2233    158.1967
   780.7500      0.0000    302.9294      9.9622    156.6911
   781.0000      0.0000    303.1236      9.7881    153.0816
   781.2500      0.0000    303.3995      9.3528    147.5957
   781.5000      0.0000    303.7083      9.6140    141.2292
   781.7500      0.0000    303.9932     10.1363    135.6688
   782.0000      0.0000    304.2016      9.8751    132.5455
   782.2500      0.0000    304.2978     10.3103    132.6077
   782.5000      0.0000    304.2747     10.2233    135.4520
   782.7500      0.0000    304.1570     10.9197    139.7352
   783.0000      0.0000    303.9897     10.3103    143.7362
   783.2500      0.0000    303.8214     10.4844    146.3070
   783.5000      0.0000    303.6941     10.4844    147.5441
   783.7500      0.0000    303.6331     10.6585    148.3680
   784.0000      0.0000    303.6374     11.0067    149.3886
   784.2500      0.0000    303.6803     11.0938    150.2344
   784.5000      0.0000    303.7223     10.9197    149.8400
   784.7500      0.0000    303.7263     10.5715    147.2168
   785.0000      0.0000    303.6725     10.3974    142.2204
   785.2500      0.0000    303.5677     10.5715    135.8613
   785.5000      0.0000    303.4405     10.7456    129.7753
   785.7500      0.0000    303.3223     11.0067    125.2524
   786.0000      0.0000    303.2327     11.6160    122.6148
   786.2500      0.0000    303.1787     11.1808    121.1972
   786.5000      0.0000    303.1601     11.3549    119.8059
   786.7500      0.0000    303.1697     12.7476    117.4599
   787.0000      0.0000    303.1942     11.3549    114.0049
   787.2500      0.0000    303.2169     11.5290    110.1202
   787.5000      0.0000    303.2209     11.2679    106.7632
   787.7500      0.0000    303.1932     11.0067    104.6285
   788.0000      0.0000    303.1298     10.8326    104.1170
   788.2500      0.0000    303.0392     10.7456    105.6180
   788.5000      0.0000    302.9424     10.9197    109.4466
   788.7500      0.0000    302.8659     10.8326    115.3536
   789.0000      0.0000    302.8292     10.3103    122.3304
   789.2500      0.0000    302.8304     10.2233    129.0431
   789.5000      0.0000    302.8461     10.1363    134.4373
   789.7500      0.0000    302.8519     10.3974    138.0752
   790.0000      0.0000    302.8437     10.7456    140.0991
   790.2500      0.0000    302.8339     10.3974    140.8481
   790.5000      0.0000    302.8332     10.0492    140.4070
   790.7500      0.0000    302.8445     10.3974    138.5979
   791.0000      0.0000    302.8727      9.9622    135.5146
   791.2500      0.0000    302.9305     10.3103    132.0442
   791.5000      0.0000    303.0275     10.3974    129.7009
   791.7500      0.0000    303.1582      9.7881    129.6156
   792.0000      0.0000    303.2997      9.7010    131.5221
   792.2500      0.0000    303.4230      9.7881    133.8607
   792.5000      0.0000    303.5097      9.7010    135.0136
   792.7500      0.0000    303.5629      9.4399    134.3572
   793.0000      0.0000    303.6015      9.5269    132.2036
   793.2500      0.0000    303.6475      9.7010    129.3133
   793.5000      0.0000    303.7162      9.4399    126.7580
   793.7500      0.0000    303.8145      9.0917    125.5479
   794.0000      0.0000    303.9426      9.1787    125.8341
   794.2500      0.0000    304.0968      8.9176    126.8061
