~Version Information
VERS.                      2.0: CWLS Log ASCII Standard - VERSION 2.0
WRAP.                       NO: One line per depth step
~Well Information Block
STRT.FT                -7.7500: 
STOP.FT              1532.2500: 
STEP.FT                 0.2500: 
NULL.                -999.2500: 
COMP.          Pioneer Natural Resources: COMPANY
WELL.          Big Cat Federal 44-1: WELL
FLD.           Purgatorie River: FIELD
LOC.           197' FSL & 973' FEL--: LOCATION
CNTY.               Las Animas: COUNTY
SRVC.          Patterson Wireline: SERVICE COMPANY
DATE.          Fri Apr 28 12:21:06 2006: LOG DATE
UWI.           05 071 08042 00: UNIQUE WELL ID
STAT.                       CO: STATE
~Curve Information Block
DEPT.FT            0 000 00 00: Depth
CCL.                          : Casing Collar Locator
TT3.usec                      : CBL 3' Travel Time
AMP3.mV                       : CBL 3' Amplitude
GR.GAPI                       : Gamma Ray
~Parameter Information Block
~A  Depth       CCL         TT3         AMP3         GR     
    -7.7500   -999.2500   -999.2500   -999.2500    123.8928
    -7.5000   -999.2500   -999.2500   -999.2500    118.4797
    -7.2500   -999.2500   -999.2500   -999.2500    112.9893
    -7.0000   -999.2500   -999.2500   -999.2500    110.5149
    -6.7500   -999.2500   -999.2500   -999.2500    112.4755
    -6.5000   -999.2500   -999.2500   -999.2500    117.6333
    -6.2500   -999.2500   -999.2500   -999.2500    122.8360
    -6.0000   -999.2500   -999.2500   -999.2500    124.8759
    -5.7500   -999.2500   -999.2500   -999.2500    122.1061
    -5.5000   -999.2500   -999.2500   -999.2500    115.1804
    -5.2500   -999.2500   -999.2500   -999.2500    106.7712
    -5.0000   -999.2500   -999.2500   -999.2500    100.0096
    -4.7500   -999.2500   -999.2500   -999.2500     96.6028
    -4.5000   -999.2500   -999.2500   -999.2500     96.3561
    -4.2500   -999.2500   -999.2500   -999.2500     98.3075
    -4.0000   -999.2500   -999.2500   -999.2500    101.7793
    -3.7500   -999.2500   -999.2500   -999.2500    106.1403
    -3.5000   -999.2500   -999.2500   -999.2500    110.0695
    -3.2500   -999.2500   -999.2500   -999.2500    111.6610
    -3.0000   -999.2500   -999.2500   -999.2500    109.4857
    -2.7500   -999.2500   1161.0000      1.7009    103.7202
    -2.5000   -999.2500   1161.0000      1.7100     96.3513
    -2.2500   -999.2500   1161.0000      1.7113     90.1792
    -2.0000   -999.2500   1161.0000      1.7030     87.2992
    -1.7500   -999.2500   1161.0000      1.6881     88.1122
    -1.5000   -999.2500   1161.0000      1.6728     91.3071
    -1.2500   -999.2500   1161.0000      1.6631     94.6021
    -1.0000   -999.2500   1161.0000      1.6609     95.8673
    -0.7500   -999.2500   1161.0000      1.6638     94.1522
    -0.5000   -999.2500   1161.0000      1.6669     90.0238
    -0.2500   -999.2500   1161.0000      1.6657     85.0434
     0.0000   -999.2500   1161.0000      1.6585     80.7859
     0.2500   -999.2500   1161.0000      1.6483     78.0760
     0.5000   -999.2500   1161.0000      1.6405     77.1240
     0.7500   -999.2500   1161.0000      1.6381     78.2310
     1.0000   -999.2500   1161.0000      1.6454     86.8431
     1.2500   -999.2500   1161.0000      1.6542     91.7527
     1.5000   -999.2500   1161.0000      1.6658     94.8168
     1.7500   -999.2500   1161.0000      1.6763     96.1165
     2.0000   -999.2500   1161.0000      1.6812     97.1107
     2.2500   -999.2500   1161.0000      1.6801     98.9454
     2.5000   -999.2500   1161.0000      1.6775    101.1408
     2.7500      0.0000   1161.0000      1.6784    101.9152
     3.0000      0.0000   1161.0000      1.6837     99.7775
     3.2500      0.0000   1161.0000      1.6895     94.7254
     3.5000      0.0000   1161.0000      1.6904     88.0825
     3.7500      0.0000   1161.0000      1.6830     81.6144
     4.0000      0.0000   1161.0000      1.6685     76.7242
     4.2500      0.0000   1161.0000      1.6529     73.9825
     4.5000      0.0000   1161.0000      1.6445     73.0863
     4.7500      0.0000   1160.9867      1.6493     73.1590
     5.0000      0.0000   1160.8936      1.6667     73.1794
     5.2500      0.0000   1160.4056      1.6905     72.6027
     5.5000      0.0000   1158.4121      1.7144     71.9105
     5.7500      0.0000   1151.9728      1.7434     72.2709
     6.0000      0.0000   1135.4948      1.8134     74.3804
     6.2500      0.0000   1101.6261      2.0703     77.7516
     6.5000      0.0000   1044.5199      2.9609     81.2067
     6.7500      0.0000    962.7388      5.5165     83.9248
     7.0000      0.0000    858.6475     11.3899     86.0036
     7.2500      0.0000    736.7280     22.0717     88.0914
     7.5000      2.0000    605.7642     37.3472     90.6364
     7.7500      0.0000    481.7189     54.4583     93.6093
     8.0000      0.0000    382.8029     69.4342     96.6546
     8.2500      0.0000    318.6106     79.6565     99.2602
     8.5000      0.0000    285.3782     85.0996    101.0840
     8.7500      0.0000    271.7986     87.3898    102.3795
     9.0000      0.0000    267.4429     88.2162    103.6821
     9.2500      0.0000    266.3474     88.5597    104.9307
     9.5000      0.0000    266.1307     88.7748    105.4022
     9.7500      0.0000    266.0957     88.9234    104.4942
    10.0000      0.0000    266.0929     89.0058    102.0327
    10.2500      0.0000    266.0894     89.0493     98.0518
    10.5000      0.0000    266.0857     89.1000     93.0682
    10.7500      0.0000    266.0826     89.1880     88.4633
    11.0000      0.0000    266.0794     89.3094     85.7370
    11.2500      0.0000    266.0751     89.4398     85.0334
    11.5000      0.0000    266.0691     89.5546     84.8931
    11.7500      0.0000    266.0625     89.6358     83.8310
    12.0000      0.0000    266.0573     89.6716     81.9718
    12.2500      0.0000    266.0545     89.6594     80.8387
    12.5000      0.0000    266.0535     89.6071     81.6158
    12.7500      0.0000    266.0521     89.5266     84.0570
    13.0000      0.0000    266.0481     89.4258     87.2065
    13.2500      0.0000    266.0411     89.3063     90.6446
    13.5000      0.0000    266.0332     89.1722     94.3342
    13.7500      0.0000    266.0271     89.0399     97.2493
    14.0000      0.0000    266.0228     88.9441     97.1567
    14.2500      0.0000    266.0181     88.9300     92.6255
    14.5000      0.0000    266.0116     89.0286     84.9151
    14.7500      0.0000    266.0045     89.2256     77.1889
    15.0000      0.0000    265.9995     89.4589     71.9181
    15.2500      0.0000    265.9980     89.6547     69.2795
    15.5000      0.0000    265.9990     89.7677     67.8465
    15.7500      0.0000    266.0002     89.7902     66.4421
    16.0000      0.0000    265.9997     89.7400     65.1007
    16.2500      0.0000    265.9976     89.6455     64.3023
    16.5000      0.0000    265.9954     89.5285     63.9647
    16.7500      0.0000    265.9940     89.3846     63.7695
    17.0000      0.0000    265.9918     89.1872     63.9701
    17.2500      0.0000    265.9861     88.9212     65.0104
    17.5000      0.0000    265.9750     88.6183     66.4804
    17.7500      0.0000    265.9593     88.3519     67.2020
    18.0000      0.0000    265.9418     88.1919     66.5939
    18.2500      0.0000    265.9265     88.1607     65.4637
    18.5000      0.0000    265.9165     88.2301     65.0407
    18.7500      0.0000    265.9129     88.3554     65.5724
    19.0000      0.0000    265.9133     88.5110     66.3133
    19.2500      0.0000    265.9143     88.7005     66.4862
    19.5000      0.0000    265.9135     88.9382     65.6673
    19.7500      0.0000    265.9109     89.2200     63.5989
    20.0000      0.0000    265.9075     89.5118     60.3175
    20.2500      0.0000    265.9027     89.7746     56.4679
    20.5000      0.0000    265.8956     89.9992     53.0863
    20.7500      0.0000    265.8865     90.2126     51.0141
    21.0000      0.0000    265.8777     90.4483     50.6124
    21.2500      0.0000    265.8727     90.7153     51.8157
    21.5000      0.0000    265.8731     90.9942     54.1570
    21.7500      0.0000    265.8780     91.2435     56.7452
    22.0000      0.0000    265.8853     91.3886     58.4897
    22.2500      0.0000    265.8953     91.3251     58.6645
    22.5000      0.0000    265.9107     90.9863     57.4418
    22.7500      0.0000    265.9316     90.4323     55.8446
    23.0000      0.0000    265.9544     89.8357     55.0766
    23.2500      0.0000    265.9740     89.3557     55.8734
    23.5000      0.0000    265.9880     89.0410     58.1735
    23.7500      0.0000    265.9960     88.8507     60.9581
    24.0000      0.0000    265.9981     88.7158     62.7075
    24.2500      0.0000    265.9960     88.5517     62.7504
    24.5000      0.0000    265.9929     88.2388     61.9501
    24.7500      0.0000    265.9919     87.6317     61.4211
    25.0000      0.0000    265.9943     86.5983     60.9911
    25.2500      0.0000    266.0015     85.0315     59.6768
    25.5000      0.0000    266.0212     82.8119     57.2416
