~Version Information
 VERS.                                  2.0 : CWLS LAS VERSION
 WRAP.                                   NO : WRAPING MODE
 SWARE .                 MController 2.5.0N : SOFTWARE VERSION
~Well Information
 WELL.                      EASTON 12-30 TR : WELL
 COMP.    PIONEER NATURAL RESOURCES USA INC : COMPANY
 FLD.                      PURGATOIRE RIVER : FIELD
 LOC.                SW/NW SEC 30 T32S R66W : LOCATION
 DATE.                             06/01/05 : DATE(S) LOGGED
 SRVC.       BLANCO GEOLOGICAL SERVICES LLC : SERVICE COMPANY
 STAT.                             COLORADO : STATE
 CNTY.                           LAS ANIMAS : COUNTY
 CTRY.                                  USA : COUNTRY
 API.                       05-071-08379-00 : API NUMBER
 STRT.FT                             307.00 : START DEPTH
 STOP.FT                            2000.00 : STOP DEPTH
 STEP.FT                               1.00 : DEPTH INCREMENT
 NULL.                                -9999 : NULL VALUE
~Curve information
 DEPTH.FT                                   :
 ROP.MIN/FT                                 :
 GAS.UNITS                                  :
~ASCII Log data
# ...
       907.0         0.10          4.2 
       908.0         0.13          4.7 
       909.0         0.13          4.3 
       910.0         0.10          4.2 
       911.0         0.17          4.4 
       912.0         0.17          3.7 
       913.0         0.20          3.8 
       914.0         0.17          3.4 
       915.0         0.13          4.0 
       916.0         0.10          3.6 
       917.0         0.13          3.9 
       918.0         0.13          4.0 
       919.0         0.20          4.0 
       920.0         0.17          4.2 
       921.0         0.13          3.9 
       922.0         0.17          4.5 
       923.0         0.18          4.5 
       924.0         0.17          5.1 
       925.0         0.13          5.8 
       926.0         4.38          8.8 
       927.0         0.27          3.2 
       928.0         0.20          3.5 
       929.0         0.20          2.7 
       930.0         0.33          4.8 
       931.0         0.23          6.2 
       932.0         0.17          6.4 
       933.0         0.13          5.9 
       934.0         0.13          5.7 
       935.0         0.17          5.3 
       936.0         0.22          4.7 
       937.0         0.23          4.7 
       938.0         0.17          4.6 
       939.0         0.17          4.4 
       940.0         0.13          4.3 
       941.0         0.17          4.4 
       942.0         0.13          4.4 
       943.0         0.10          5.0 
       944.0         0.13          4.2 
       945.0         0.10          4.8 
       946.0         0.13          4.9 
       947.0         0.13          4.9 
       948.0         0.17          4.9 
       949.0         0.17          5.0 
       950.0         0.17          4.7 
       951.0         0.17          5.2 
       952.0         0.13          4.8 
       953.0         0.13          5.2 
       954.0         0.10          5.0 
       955.0         0.17          6.2 
       956.0         4.17         13.3 
       957.0         0.23          5.0 
       958.0         0.23          5.4 
       959.0         0.27          5.9 
       960.0         0.23          6.1 
       961.0         0.20          6.1 
       962.0         0.23          6.4 
       963.0         0.13          5.5 
       964.0         0.13          5.8 
       965.0         0.10          5.5 
       966.0         0.23          6.0 
       967.0         0.17          6.0 
       968.0         0.20          6.5 
       969.0         0.20          7.5 
       970.0         0.13          7.8 
       971.0         0.18          8.2 
       972.0         0.20          7.7 
       973.0         0.13          7.4 
       974.0         0.20          8.1 
       975.0         0.17          8.5 
       976.0         0.13          7.6 
       977.0         0.13          8.9 
       978.0         0.17          8.4 
       979.0         0.17          8.5 
       980.0         0.17          8.6 
       981.0         0.13          8.6 
       982.0         0.13          8.6 
       983.0         0.13          8.6 
       984.0         0.17          8.4 
       985.0         0.27          8.8 
       986.0         9.18         11.5 
       987.0         0.30          7.7 
       988.0         0.30          7.7 
       989.0         0.23          6.9 
       990.0         0.23          7.7 
       991.0         0.27          7.6 
       992.0         0.23          7.3 
       993.0         0.22          7.7 
       994.0         0.17          7.8 
       995.0         0.20          8.2 
       996.0         0.20          7.5 
       997.0         0.20          7.0 
       998.0         0.20          7.5 
       999.0         0.20          7.6 
      1000.0         0.20          8.2 
      1001.0         0.20         12.3 
      1002.0         0.20         16.3 
      1003.0         0.23         16.3 
      1004.0         0.23         12.9 
      1005.0         0.27         10.0 
      1006.0         0.23          9.0 
      1007.0         0.23          8.4 
      1008.0         0.20          8.9 
      1009.0         0.22          8.4 
      1010.0         0.23          8.7 
      1011.0         0.20          9.5 
      1012.0         0.20         11.3 
      1013.0         0.10         12.0 
      1014.0         0.30         16.8 
      1015.0         0.20         21.1 
      1016.0         5.15         83.0 
      1017.0         0.32         14.0 
      1018.0         0.30         14.9 
      1019.0         0.27         14.2 
      1020.0         0.27         13.2 
      1021.0         0.17         12.6 
      1022.0         0.17         12.0 
      1023.0         0.13         11.7 
      1024.0         0.10         11.4 
      1025.0         0.20         12.0 
      1026.0         0.17         10.6 
      1027.0         0.23         10.9 
      1028.0         0.23         10.4 
      1029.0         0.23         10.7 
      1030.0         0.17         10.0 
      1031.0         0.13         10.8 
      1032.0         0.17         11.5 
      1033.0         0.17         13.3 
      1034.0         0.22         13.3 
      1035.0         0.20         11.8 
      1036.0         0.20          9.3 
      1037.0         0.13          7.7 
      1038.0         0.17          8.1 
      1039.0         0.23          6.9 
      1040.0         0.20          6.1 
      1041.0         0.17          5.9 
      1042.0         0.17          7.0 
      1043.0         0.20          6.5 
      1044.0         0.23          6.5 
      1045.0         0.20          6.4 
      1046.0         4.45         38.4 
      1047.0         0.22         11.0 
      1048.0         0.20         11.1 
      1049.0         0.23         10.8 
      1050.0         0.23         11.1 
      1051.0         0.23         10.9 
      1052.0         0.27         11.1 
      1053.0         0.23         10.8 
      1054.0         0.23          9.3 
      1055.0         0.20          9.7 
      1056.0         0.23         10.0 
      1057.0         0.23          8.7 
      1058.0         0.23          7.8 
      1059.0         0.27          9.1 
      1060.0         0.20         20.1 
      1061.0         0.28         60.9 
      1062.0         0.23         69.7 
      1063.0         0.20         68.7 
      1064.0         0.23         55.9 
      1065.0         0.17         44.0 
      1066.0         0.27         38.7 
      1067.0         0.13         33.2 
      1068.0         0.17         30.6 
      1069.0         0.13         27.7 
      1070.0         0.13         26.8 
      1071.0         0.20         25.1 
      1072.0         0.17         23.8 
      1073.0         0.20         23.7 
      1074.0         0.17         24.9 
      1075.0         0.27         30.8 
      1076.0         3.85        137.0 
      1077.0         0.28         41.0 
      1078.0         0.27         39.7 
      1079.0         0.37         36.3 
      1080.0         0.23         31.2 
      1081.0         0.23         27.7 
      1082.0         0.30         25.4 
      1083.0         0.27         23.7 
      1084.0         0.17         22.6 
      1085.0         0.17         22.0 
      1086.0         0.17         20.8 
      1087.0         0.13         20.1 
      1088.0         0.20         20.6 
      1089.0         0.17         23.4 
      1090.0         0.17         28.8 
      1091.0         0.17         28.7 
      1092.0         0.15         28.9 
      1093.0         0.17         25.7 
      1094.0         0.20         24.0 
      1095.0         0.17         20.0 
      1096.0         0.17         18.5 
      1097.0         0.17         16.8 
      1098.0         0.20         15.4 
      1099.0         0.17         13.8 
      1100.0         0.17         12.6 
      1101.0         0.13         12.2 
      1102.0         0.13         11.4 
      1103.0         0.20         10.8 
      1104.0         0.20         11.1 
      1105.0         0.23         12.1 
      1106.0         4.87        106.0 
