~Version Information
VERS.                      2.0: CWLS Log ASCII Standard - VERSION 2.0
WRAP.                       NO: One line per depth step
~Well Information Block
STRT.FT               480.1000: 
STOP.FT              2029.0000: 
STEP.FT                 0.1000: 
NULL.                -999.2500: 
COMP.          Petrogulf Corporation: COMPANY
WELL.            Montoya 7-12R: WELL
FLD.           Purgatorie River: FIELD
LOC.           1769' FNL & 658' FWL: LOCATION
CNTY.               Las Animas: COUNTY
SRVC.                         : SERVICE COMPANY
DATE.          Mon Nov 22 07:21:54 2004: LOG DATE
UWI.           05 071 08240 00: UNIQUE WELL ID
STAT.                 Colorado: STATE
~Curve Information Block
DEPT.FT            0 000 00 00: Depth
DCAL.in                       : CDL Caliper
RHOB.g/cc                     : CDL Bulk Density
RHOC.g/cc                     : CDL Density Correction
DPOR.pu                       : CDL Density Porosity
GR.GAPI                       : Gamma Ray
NPOR.pu                       : Neutron Porosity
~Parameter Information Block
~A  Depth       DCAL        RHOB        RHOC        DPOR         GR         NPOR    
# ...
   700.9000      8.5323      2.5905      0.0778      3.6044    154.3876     28.7802
   701.0000      8.4374      2.5566      0.0310      5.6610    152.7139     29.3097
   701.1000      8.4374      2.5375      0.0395      6.8159    154.7270     29.5418
   701.2000      8.4374      2.5402      0.0492      6.6570    157.8807     29.3606
   701.3000      8.4066      2.5601      0.0615      5.4477    159.3607     29.1690
   701.4000      8.4066      2.5835      0.0963      4.0301    155.6990     29.0304
   701.5000      8.3843      2.5964      0.0380      3.2483    146.7200     28.7386
   701.6000      8.3843      2.6056      0.0535      2.6914    139.1351     28.1564
   701.7000      8.3843      2.6228      0.1398      1.6477    138.2847     27.5337
   701.8000      8.3764      2.6431      0.1558      0.4159    144.4323     27.1540
   701.9000      8.3764      2.6558      0.1943     -0.3526    152.4960     26.9135
   702.0000      8.3979      2.6579      0.2037     -0.4757    154.3685     26.7473
   702.1000      8.3979      2.6496      0.2388      0.0260    151.1913     26.7475
   702.2000      8.3979      2.6399      0.1250      0.6137    151.6827     26.8038
   702.3000      8.3822      2.6463      0.1266      0.2254    155.0673     26.8407
   702.4000      8.3822      2.6657      0.1363     -0.9539    155.0538     26.9378
   702.5000      8.3720      2.6792      0.1218     -1.7692    152.7856     27.2422
   702.6000      8.3720      2.6818      0.1045     -1.9279    152.2266     27.6670
   702.7000      8.3720      2.6782      0.1464     -1.7067    153.6931     28.0613
   702.8000      8.4065      2.6609      0.2036     -0.6596    155.9862     28.5009
   702.9000      8.4065      2.6334      0.0484      1.0039    158.2311     28.8042
   703.0000      8.3975      2.6231      0.0557      1.6309    160.5141     28.7303
   703.1000      8.3975      2.6274      0.1136      1.3697    163.5686     28.5987
   703.2000      8.3975      2.6173      0.0714      1.9796    166.4483     28.6687
   703.3000      8.4179      2.5929      0.0326      3.4582    165.5831     28.2972
   703.4000      8.4179      2.5685      0.0251      4.9365    160.9092     27.2063
   703.5000      8.3855      2.5483      0.0266      6.1663    160.4905     26.3339
   703.6000      8.3855      2.5477     -0.0390      6.1976    168.1818     26.4295
   703.7000      8.3855      2.5763      0.0330      4.4656    173.3291     27.4582
   703.8000      8.3450      2.6068      0.0977      2.6154    167.3464     28.4831
   703.9000      8.3450      2.6180      0.0526      1.9387    160.0534     28.5080
   704.0000      8.3552      2.6245      0.0690      1.5481    160.5838     27.9329
   704.1000      8.3552      2.6340      0.1183      0.9676    160.2051     27.7918
   704.2000      8.3552      2.6417      0.0924      0.5041    153.6308     28.0487
   704.3000      8.3781      2.6431      0.1364      0.4183    149.3499     28.0907
   704.4000      8.3781      2.6348      0.0676      0.9185    152.5268     27.9418
   704.5000      8.4111      2.6303      0.0618      1.1957    156.8490     27.9948
   704.6000      8.4111      2.6335      0.0927      1.0025    157.3799     28.2038
   704.7000      8.4111      2.6246      0.0954      1.5397    155.7425     28.3255
   704.8000      8.4339      2.6018      0.0364      2.9206    152.2307     28.2780
   704.9000      8.4339      2.5815      0.0470      4.1523    148.7146     28.1910
   705.0000      8.3952      2.5678     -0.0107      4.9809    147.5007     28.3939
   705.1000      8.3952      2.5608      0.0646      5.4063    147.7918     28.8187
   705.2000      8.3952      2.5608      0.0162      5.4052    147.8492     28.9147
   705.3000      8.3287      2.5723     -0.0020      4.7100    144.0476     28.4602
   705.4000      8.3287      2.5989      0.0338      3.0982    136.8230     27.7590
   705.5000      8.3106      2.6232      0.0690      1.6258    131.8422     27.1041
   705.6000      8.3106      2.6283      0.0461      1.3132    132.0275     26.3960
   705.7000      8.3106      2.6196      0.0498      1.8408    131.6641     25.7114
   705.8000      8.3197      2.5961      0.0802      3.2651    124.0079     25.1640
   705.9000      8.3197      2.5640     -0.0177      5.2126    115.3422     24.3800
   706.0000      8.2842      2.5498     -0.0158      6.0743    114.6117     23.2654
   706.1000      8.2842      2.5598      0.0263      5.4670    116.3662     22.3107
   706.2000      8.2842      2.5705      0.0455      4.8203    114.2048     21.9053
   706.3000      8.2783      2.5680     -0.0304      4.9693    112.8130     21.9346
   706.4000      8.2783      2.5567      0.0387      5.6575    113.9146     22.0356
   706.5000      8.2708      2.5365      0.0044      6.8761    114.7817     21.9786
   706.6000      8.2708      2.5149     -0.0454      8.1907    114.1481     21.5573
   706.7000      8.2708      2.5078     -0.0282      8.6154    111.9057     20.8612
   706.8000      8.2635      2.5228     -0.0124      7.7082    109.0474     20.1937
   706.9000      8.2635      2.5455      0.0892      6.3333    106.5093     19.6355
   707.0000      8.2815      2.5561      0.0169      5.6882    104.9694     19.1841
   707.1000      8.2815      2.5569      0.0333      5.6411    103.7026     18.9148
   707.2000      8.2815      2.5542      0.0738      5.8074    100.9777     18.7331
   707.3000      8.2817      2.5450     -0.0144      6.3612     96.9445     18.3339
   707.4000      8.2817      2.5257      0.0343      7.5321     93.0140     17.5137
   707.5000      8.3133      2.4979     -0.0351      9.2190     88.9839     16.4603
   707.6000      8.3133      2.4792     -0.0198     10.3522     82.6281     15.7191
   707.7000      8.3133      2.4811      0.0042     10.2384     73.8316     15.6749
   707.8000      8.2851      2.4946      0.0150      9.4168     66.6748     15.8238
   707.9000      8.2851      2.5038     -0.0026      8.8606     63.7536     15.5267
   708.0000      8.3316      2.5007      0.0176      9.0458     62.6786     15.1274
   708.1000      8.3316      2.4918      0.0251      9.5909     60.5890     15.0227
   708.2000      8.3316      2.4811      0.0774     10.2350     59.1053     14.9122
   708.3000      8.3317      2.4697     -0.0160     10.9293     58.7891     14.5080
   708.4000      8.3317      2.4662      0.0180     11.1423     55.8877     14.0262
   708.5000      8.3389      2.4746      0.0314     10.6286     51.3807     13.7851
   708.6000      8.3389      2.4846      0.0730     10.0238     49.2183     13.7112
   708.7000      8.3389      2.4837      0.0255     10.0800     48.5226     13.5264
   708.8000      8.3660      2.4739      0.0002     10.6749     47.7176     13.3965
   708.9000      8.3660      2.4650     -0.0437     11.2143     48.0315     13.5123
   709.0000      8.3569      2.4584      0.0117     11.6134     48.8473     13.5260
   709.1000      8.3569      2.4523      0.0004     11.9834     48.6650     13.1999
   709.2000      8.3569      2.4497      0.0533     12.1376     48.2381     12.9263
   709.3000      8.3660      2.4505      0.0080     12.0922     47.8601     12.9875
   709.4000      8.3660      2.4506      0.0466     12.0871     49.0033     13.0012
   709.5000      8.3906      2.4452      0.0069     12.4094     52.0848     12.7120
   709.6000      8.3906      2.4314      0.0433     13.2510     53.5985     12.4094
   709.7000      8.3906      2.4168     -0.0275     14.1317     51.7117     12.1967
   709.8000      8.3940      2.4207     -0.0059     13.9000     49.5441     11.9255
   709.9000      8.3940      2.4398      0.0691     12.7418     49.1304     11.6396
   710.0000      8.3970      2.4514     -0.0024     12.0362     47.9794     11.5014
   710.1000      8.3970      2.4521      0.0130     11.9915     44.6244     11.5075
   710.2000      8.3970      2.4521      0.0255     11.9938     41.7513     11.5758
   710.3000      8.3858      2.4564      0.0140     11.7306     41.4341     11.6984
   710.4000      8.3858      2.4591      0.0473     11.5674     42.6211     11.8405
