~Version Information
VERS.                      2.0: CWLS Log ASCII Standard - VERSION 2.0
WRAP.                       NO: One line per depth step
~Well Information Block
STRT.FT                30.0000: 
STOP.FT              2789.0000: 
STEP.FT                 0.1000: 
NULL.                -999.2500: 
COMP.          Pioneer Natural Resources: COMPANY
WELL.          Rabbit Bush Federal 44-19: WELL
FLD.           Purgatorie River: FIELD
LOC.           826' FSL & 1127' FEL: LOCATION
CNTY.               Las Animas: COUNTY
SRVC.                Patterson: SERVICE COMPANY
DATE.          Mon Aug 28 10:56:57 2006: LOG DATE
UWI.           05-071-08149-00: UNIQUE WELL ID
STAT.                 Colorado: STATE
~Curve Information Block
DEPT.FT            0 000 00 00: Depth
DCAL.in                       : CDL Caliper
RHOB.g/cc                     : CDL Bulk Density
RHOC.g/cc                     : CDL Density Correction
DPOR.pu                       : CDL Density Porosity
GR.GAPI                       : Gamma Ray
NPOR.pu                       : Neutron Porosity
~Parameter Information Block
~A  Depth       DCAL        RHOB        RHOC        DPOR         GR         NPOR    
# ...
   577.2000     17.3906      2.3502      2.0000     -0.0060     51.9957     20.8763
   577.3000     17.3907      2.3492      2.0000     -0.0060     50.0074     20.8551
   577.4000     17.3907      2.3489      2.0000     -0.0060     47.7042     20.5222
   577.5000     17.3914      2.3627      2.0000     -0.0057     47.1888     20.1054
   577.6000     17.3914      2.3802      2.0000     -0.0054     47.5447     19.9892
   577.7000     17.3914      2.3944      2.0000     -0.0051     47.0686     20.2390
   577.8000     17.3904      2.4042      2.0000     -0.0049     46.2890     20.5742
   577.9000     17.3904      2.3962      2.0000     -0.0051     46.8040     20.6782
   578.0000     17.3887      2.3644      2.0000     -0.0057     47.4919     20.4591
   578.1000     17.3887      2.3308      2.0000     -0.0064     46.8264     20.2442
   578.2000     17.3887      2.3160      2.0000     -0.0067     45.7443     20.4676
   578.3000     17.3890      2.3203      2.0000     -0.0066     45.1176     20.9419
   578.4000     17.3890      2.3289      2.0000     -0.0064     45.7559     21.0591
   578.5000     17.3877      2.3265      2.0000     -0.0065     48.3577     20.8172
   578.6000     17.3877      2.3139      2.0000     -0.0067     51.8744     20.8152
   578.7000     17.3877      2.3046      2.0000     -0.0069     53.7383     21.1816
   578.8000     17.3836      2.3104      2.0000     -0.0068     52.4782     21.4326
   578.9000     17.3836      2.3298      2.0000     -0.0064     50.3378     21.4998
   579.0000     17.3817      2.3553      2.0000     -0.0059     49.0602     21.6302
   579.1000     17.3817      2.3788      2.0000     -0.0054     47.4680     21.6556
   579.2000     17.3817      2.3930      2.0000     -0.0051     45.8133     21.3917
   579.3000     17.3828      2.4037      2.0000     -0.0049     45.7707     21.0069
   579.4000     17.3828      2.4230      2.0000     -0.0045     46.9181     20.8165
   579.5000     17.3832      2.4375      2.0000     -0.0043     45.8752     21.1483
   579.6000     17.3832      2.4236      2.0000     -0.0045     42.5169     21.9805
   579.7000     17.3832      2.3917      2.0000     -0.0052     42.1419     22.7161
   579.8000     17.3825      2.3649      2.0000     -0.0057     46.0324     22.8026
   579.9000     17.3825      2.3448      2.0000     -0.0061     49.7149     22.1597
   580.0000     17.3806      2.3258      2.0000     -0.0065     49.7884     21.1955
   580.1000     17.3806      2.3062      2.0000     -0.0069     46.5031     20.8146
   580.2000     17.3806      2.2772      2.0000     -0.0075     43.5850     21.3038
   580.3000     17.3781      2.2359      2.0000     -0.0083     43.7507     21.6846
   580.4000     17.3781      2.2022      2.0000     -0.0090     46.2526     21.2752
   580.5000     17.3727      2.1935      2.0000     -0.0091     49.2221     20.7264
   580.6000     17.3727      2.1972      2.0000     -0.0091     50.5471     20.7072
   580.7000     17.3727      2.1894      2.0000     -0.0092     50.4017     20.9659
   580.8000     17.3663      2.1771      2.0000     -0.0095     51.1637     20.8874
   580.9000     17.3663      2.1817      2.0000     -0.0094     51.7423     20.4289
   581.0000     17.3619      2.2058      2.0000     -0.0089     49.8621     20.0651
   581.1000     17.3619      2.2419      2.0000     -0.0082     47.9921     20.2486
   581.2000     17.3619      2.2730      2.0000     -0.0075     47.9968     20.6663
   581.3000     17.3569      2.2848      2.0000     -0.0073     48.0292     20.6090
   581.4000     17.3569      2.2782      2.0000     -0.0074     46.7970     20.1797
   581.5000     17.3135      2.2589      2.0000     -0.0078     44.5055     19.9331
   581.6000     17.3135      2.2414      2.0000     -0.0082     42.2760     20.1990
   581.7000     17.3135      2.2655      2.0000     -0.0077     41.7251     20.8732
   581.8000     16.8236      2.3984      2.0000     -0.0050     42.4844     21.3670
   581.9000     16.8236      2.6740      2.0000      0.0005     42.6802     21.3415
   582.0000     14.5950      3.0074      2.0000      0.0072     43.1421     21.1036
   582.1000     14.5950      3.2503      2.0000      0.0120     46.9020     20.9146
   582.2000     14.5950      3.3289      2.0000      0.0136     52.6262     20.6583
   582.3000     10.8897      3.2211      2.0000      0.0114     55.7248     20.2450
   582.4000     10.8897      2.9235      2.0000      0.0055     55.8140     20.0491
   582.5000      8.6347      2.5456      2.0000     -0.0021     56.3324     20.5179
   582.6000      8.6347      2.2650      2.0000     -0.0077     58.9677     21.3613
   582.7000      8.6347      2.1369      2.0000     -0.0103     63.7117     21.9681
   582.8000      8.1297      2.1043      2.0000     -0.0109     70.7149     22.2283
   582.9000      8.1297      2.1200      2.0000     -0.0106     77.9829     22.2583
   583.0000      8.0873      2.1513      2.0000     -0.0100     81.7789     22.3195
   583.1000      8.0873      2.1714      2.0000     -0.0096     81.4212     22.7693
   583.2000      8.0873      2.1859      2.0000     -0.0093     79.9695     23.4909
   583.3000      8.0865      2.2123      2.0000     -0.0088     82.1345     24.0538
   583.4000      8.0865      2.2347      2.0000     -0.0083     87.6507     24.3554
   583.5000      8.0874      2.2301      2.0000     -0.0084     91.8454     24.5916
   583.6000      8.0874      2.2064      2.0000     -0.0089     93.3483     24.6605
   583.7000      8.0874      2.1869      2.0000     -0.0093     93.1292     24.5425
   583.8000      8.0881      2.1767      2.0000     -0.0095     91.6082     24.7005
   583.9000      8.0881      2.1643      2.0000     -0.0097     89.8136     25.1479
   584.0000      8.0894      2.1560      2.0000     -0.0099     88.2974     25.4034
   584.1000      8.0894      2.1577      2.0000     -0.0099     87.2242     25.4467
   584.2000      8.0894      2.1576      2.0000     -0.0099     86.2090     25.2691
   584.3000      8.0891      2.1541      2.0000     -0.0099     84.9481     24.8439
   584.4000      8.0891      2.1586      2.0000     -0.0098     84.2564     24.6002
   584.5000      8.0868      2.1800      2.0000     -0.0094     84.7606     24.7065
   584.6000      8.0868      2.2058      2.0000     -0.0089     86.6205     24.9290
   584.7000      8.0868      2.2074      2.0000     -0.0089     89.3994     24.9587
   584.8000      8.0863      2.1941      2.0000     -0.0091     93.2402     24.7206
   584.9000      8.0863      2.2042      2.0000     -0.0089     97.2337     24.5661
   585.0000      8.0860      2.2353      2.0000     -0.0083     97.4047     24.6283
   585.1000      8.0860      2.2568      2.0000     -0.0079     92.7157     24.6281
   585.2000      8.0860      2.2573      2.0000     -0.0079     87.1865     24.5890
   585.3000      8.0845      2.2520      2.0000     -0.0080     86.1546     24.8447
   585.4000      8.0845      2.2605      2.0000     -0.0078     91.4567     25.2990
   585.5000      8.0838      2.2823      2.0000     -0.0074     98.6712     25.5366
   585.6000      8.0838      2.3004      2.0000     -0.0070    102.4916     25.5394
   585.7000      8.0838      2.3020      2.0000     -0.0070    104.4156     25.5843
   585.8000      8.0848      2.2966      2.0000     -0.0071    106.2324     25.6457
   585.9000      8.0848      2.2940      2.0000     -0.0071    106.1522     25.6691
   586.0000      8.0857      2.2908      2.0000     -0.0072    104.3965     25.7660
   586.1000      8.0857      2.2860      2.0000     -0.0073    102.7031     26.0314
   586.2000      8.0857      2.2756      2.0000     -0.0075    102.1480     26.4754
   586.3000      8.0866      2.2566      2.0000     -0.0079    103.5326     26.8488
   586.4000      8.0866      2.2367      2.0000     -0.0083    106.9935     26.7859
   586.5000      8.0881      2.2297      2.0000     -0.0084    110.1894     26.2232
   586.6000      8.0881      2.2274      2.0000     -0.0085    110.3624     25.3946
   586.7000      8.0881      2.2066      2.0000     -0.0089    108.4147     24.5929
