~Version Information
VERS.                      2.0: CWLS Log ASCII Standard - VERSION 2.0
WRAP.                       NO: One line per depth step
~Well Information Block
STRT.FT               840.0000: 
STOP.FT              2266.0000: 
STEP.FT                 0.1000: 
NULL.                -999.2500: 
COMP.          Pioneer Natural Resources: COMPANY
WELL.              Tonto 42-23: WELL
FLD.           Purgatoire River: FIELD
LOC.           2217' FNL & 423' FEL: LOCATION
PROV.                 Colorado: PROVINCE
CNTY.               Las Animas: COUNTRY
SRVC.                Patterson: SERVICE COMPANY
DATE.          Mon Apr 18 07:15:48 2005: LOG DATE
UWI.           05 071 08335 00: UNIQUE WELL ID
~Curve Information Block
DEPT.FT            0 000 00 00: Depth
DCAL.in                       : CDL Caliper
RHOB.g/cc                     : CDL Bulk Density
RHOC.g/cc                     : CDL Density Correction
DPOR.pu                       : CDL Density Porosity
GR.GAPI                       : Gamma Ray
NPOR.pu                       : Neutron Porosity
~Parameter Information Block
~A  Depth       DCAL        RHOB        RHOC        DPOR         GR         NPOR    
# ...
  1032.0000      8.1005      2.4883     -0.0072      9.7981     59.7845     21.5825
  1032.1000      8.1005      2.4827     -0.0190     10.1415     61.4032     21.3161
  1032.2000      8.1005      2.4963      0.0057      9.3164     61.7206     21.3852
  1032.3000      8.0997      2.5158      0.0591      8.1356     61.6197     21.9569
  1032.4000      8.0997      2.5195      0.1116      7.9103     60.9883     22.2522
  1032.5000      8.0989      2.5066      0.0331      8.6913     59.2398     21.7867
  1032.6000      8.0989      2.5011      0.0040      9.0245     56.9553     20.9704
  1032.7000      8.0989      2.5122      0.0573      8.3516     56.1523     19.9504
  1032.8000      8.0955      2.5268      0.0057      7.4678     56.6441     19.4068
  1032.9000      8.0955      2.5331      0.0712      7.0833     57.9705     20.1345
  1033.0000      8.1016      2.5306      0.0712      7.2362     60.6284     21.1319
  1033.1000      8.1016      2.5312      0.0509      7.2011     64.2506     21.1260
  1033.2000      8.1016      2.5389      0.1030      6.7334     67.2004     20.6521
  1033.3000      8.1037      2.5398      0.0872      6.6811     68.2911     20.7126
  1033.4000      8.1037      2.5352      0.0240      6.9595     71.0667     21.7588
  1033.5000      8.1027      2.5353      0.0864      6.9496     78.6034     23.1191
  1033.6000      8.1027      2.5289      0.0816      7.3369     86.1177     23.5496
  1033.7000      8.1027      2.5112      0.0449      8.4147     92.0630     23.5511
  1033.8000      8.1071      2.4970      0.0072      9.2722    100.3512     24.3667
  1033.9000      8.1071      2.4956      0.0701      9.3604    108.3242     25.5852
  1034.0000      8.1304      2.5000      0.0081      9.0927    111.7265     26.3292
  1034.1000      8.1304      2.5006      0.0662      9.0529    112.5490     26.7702
  1034.2000      8.1304      2.4911      0.0304      9.6293    114.3947     27.0274
  1034.3000      8.1046      2.4797      0.0649     10.3213    117.4589     27.0093
  1034.4000      8.1046      2.4904     -0.0113      9.6732    118.8599     26.9861
  1034.5000      8.0989      2.5394      0.0515      6.7056    117.4245     27.4056
  1034.6000      8.0989      2.6120      0.0857      2.3013    118.1213     28.4578
  1034.7000      8.0989      2.6870      0.1088     -2.2425    124.0239     29.4720
  1034.8000      8.0856      2.7626      0.1165     -6.8224    130.2507     29.6631
  1034.9000      8.0856      2.8243      0.2576    -10.5643    131.5901     28.7263
  1035.0000      8.0761      2.8459      0.2169    -11.8731    127.0354     27.4912
  1035.1000      8.0761      2.8396      0.1738    -11.4897    120.7631     27.1195
  1035.2000      8.0761      2.8342      0.1197    -11.1667    115.7815     27.5227
  1035.3000      8.0780      2.8337      0.0384    -11.1313    112.6401     28.6489
  1035.4000      8.0780      2.8234      0.0331    -10.5063    114.7622     30.4422
  1035.5000      8.0664      2.7918      0.0077     -8.5915    121.7911     31.7171
  1035.6000      8.0664      2.7508     -0.0973     -6.1086    129.3813     31.6160
  1035.7000      8.0664      2.7206     -0.1193     -4.2785    136.3277     30.6343
  1035.8000      8.0718      2.7055     -0.0627     -3.3649    140.8089     29.6615
  1035.9000      8.0718      2.7083     -0.0443     -3.5351    142.1607     29.2880
  1036.0000      8.1249      2.7115      0.0905     -3.7257    142.9449     29.2783
  1036.1000      8.1249      2.6840      0.0010     -2.0582    143.5462     29.1843
  1036.2000      8.1249      2.6360      0.0278      0.8480    141.3163     29.5324
  1036.3000      8.1424      2.5895      0.0446      3.6661    136.4929     30.3127
  1036.4000      8.1424      2.5492      0.0704      6.1065    133.9091     30.1149
  1036.5000      8.1378      2.5221     -0.0163      7.7545    135.3067     28.7719
  1036.6000      8.1378      2.5090      0.0665      8.5463    135.2902     27.7617
  1036.7000      8.1378      2.5016      0.0528      8.9952    130.0906     27.7494
  1036.8000      8.1328      2.5087      0.0353      8.5630    124.9818     28.4816
  1036.9000      8.1328      2.5312      0.1313      7.1973    125.1702     29.6010
  1037.0000      8.1287      2.5413      0.1187      6.5870    128.7069     30.6192
  1037.1000      8.1287      2.5222      0.1122      7.7452    132.5271     31.2285
  1037.2000      8.1287      2.4946     -0.0478      9.4174    133.5040     31.4333
  1037.3000      8.1269      2.4891      0.0274      9.7505    129.1870     31.4566
  1037.4000      8.1269      2.5016      0.0393      8.9913    124.8324     31.1927
  1037.5000      8.1384      2.5053      0.0588      8.7727    126.8956     30.4368
  1037.6000      8.1384      2.4784      0.0359     10.3998    133.1519     29.5079
  1037.7000      8.1384      2.4278     -0.0324     13.4651    137.0924     28.8248
  1037.8000      8.1482      2.3814      0.0177     16.2764    138.5338     28.6944
  1037.9000      8.1482      2.3477      0.0233     18.3207    141.7506     29.1401
  1038.0000      8.1521      2.3316     -0.0689     19.2994    143.1826     29.3734
  1038.1000      8.1521      2.3546     -0.0334     17.9042    136.6504     28.7847
  1038.2000      8.1521      2.4187      0.0276     14.0179    127.5876     28.2750
  1038.3000      8.1502      2.4920      0.1096      9.5761    124.4041     28.3055
  1038.4000      8.1502      2.5491      0.1329      6.1176    123.6760     28.1449
  1038.5000      8.1316      2.6013      0.1383      2.9526    120.8079     28.1673
  1038.6000      8.1316      2.6537      0.1927     -0.2232    118.4993     28.9415
  1038.7000      8.1316      2.6793      0.1748     -1.7759    116.6853     29.3310
  1038.8000      8.1132      2.6708      0.1455     -1.2608    112.8397     28.5156
  1038.9000      8.1132      2.6581      0.0713     -0.4879    109.5822     27.2342
  1039.0000      8.1130      2.6581      0.1380     -0.4908    111.1641     26.1509
  1039.1000      8.1130      2.6592      0.0552     -0.5594    117.1243     25.4519
  1039.2000      8.1130      2.6514      0.0668     -0.0878    124.3802     25.0254
  1039.3000      8.1128      2.6280      0.0353      1.3334    127.8708     24.6892
  1039.4000      8.1128      2.5956      0.0245      3.2968    125.1710     24.7787
  1039.5000      8.0992      2.5760      0.0653      4.4834    121.9169     25.5296
  1039.6000      8.0992      2.5717      0.0629      4.7473    123.3382     26.2506
  1039.7000      8.0992      2.5668      0.0667      5.0398    128.6265     26.4507
  1039.8000      8.0727      2.5556      0.0827      5.7242    133.0292     26.9020
  1039.9000      8.0727      2.5445      0.0215      6.3952    133.1730     28.1171
  1040.0000      8.0950      2.5475     -0.0101      6.2128    133.2863     28.8830
  1040.1000      8.0950      2.5669      0.0601      5.0362    135.5332     28.5080
  1040.2000      8.0950      2.5926      0.0466      3.4789    134.7508     28.2639
  1040.3000      8.1005      2.6279      0.0388      1.3383    129.6494     28.7870
  1040.4000      8.1005      2.6791      0.0606     -1.7649    124.9720     29.2303
  1040.5000      8.0987      2.7328      0.1086     -5.0193    122.8501     29.6970
  1040.6000      8.0987      2.7734      0.0711     -7.4792    122.5514     30.6200
  1040.7000      8.0987      2.7968      0.0734     -8.8983    123.2523     31.2511
  1040.8000      8.1011      2.8017      0.0310     -9.1925    122.9473     30.9399
  1040.9000      8.1011      2.7937      0.0205     -8.7100    123.1335     30.1930
  1041.0000      8.1069      2.7718      0.0349     -7.3802    125.8334     29.9537
  1041.1000      8.1069      2.7252     -0.0708     -4.5574    127.7886     30.4158
  1041.2000      8.1069      2.6688     -0.1194     -1.1410    126.7629     30.9142
  1041.3000      8.1070      2.6342     -0.0851      0.9547    123.9865     30.9000
  1041.4000      8.1070      2.6321     -0.0363      1.0861    120.7052     30.2738
  1041.5000      8.1053      2.6410     -0.0193      0.5474    117.0466     29.2393
