~Version Information
VERS.                      2.0: CWLS Log ASCII Standard - VERSION 2.0
WRAP.                       NO: One line per depth step
~Well Information Block
STRT.FT                 0.0000: 
STOP.FT              2025.0000: 
STEP.FT                 0.2500: 
NULL.                -999.2500: 
COMP.          Petrogulf Corporation: COMPANY
WELL.          Robinson 15-12V: WELL
FLD.           Purgatorie River: FIELD
LOC.           1788' FNL & 466' FWL: LOCATION
PROV.                 Colorado: PROVINCE
CNTY.               Las Animas: COUNTRY
SRVC.                Patterson: SERVICE COMPANY
DATE.          Tue Oct 04 11:57:31 2005: LOG DATE
UWI.                          : UNIQUE WELL ID
~Curve Information Block
DEPT.FT            0 000 00 00: Depth
GR.GAPI                       : Gamma Ray
CCL.                          : Casing Collar Locator
TT3.usec                      : CBL 3' Travel Time
AMP3.mV                       : CBL 3' Amplitude
~Parameter Information Block
~A  Depth        GR         CCL         TT3         AMP3    
# ...
   268.0000     89.7413      0.0000    263.8458     80.2010
   268.2500     89.0046      0.0000    263.8511     80.2218
   268.5000     88.7060      0.0000    263.8499     80.2176
   268.7500     88.1718      0.0000    263.8361     80.2414
   269.0000     87.1686      0.0000    263.8142     80.3148
   269.2500     86.6123      0.0000    263.7905     80.4131
   269.5000     87.5559      0.0000    263.7644     80.5005
   269.7500     90.1554      0.0000    263.7363     80.5641
   270.0000     93.8430      0.0000    263.7155     80.6013
   270.2500     97.9339      0.0000    263.7074     80.6134
   270.5000    101.6672      0.0000    263.7083     80.6113
   270.7500    103.9585      0.0000    263.7175     80.5975
   271.0000    103.5833      0.0000    263.7336     80.5764
   271.2500     99.9626      0.0000    263.7437     80.5728
   271.5000     93.9310      0.0000    263.7390     80.6001
   271.7500     87.5499      0.0000    263.7319     80.6203
   272.0000     83.0452      0.0000    263.7443     80.5568
   272.2500     81.9611      0.0000    263.7795     80.3694
   272.5000     84.8941      0.0000    263.8189     80.1040
   272.7500     91.2616      0.0000    263.8464     79.8271
   273.0000     99.1233      0.0000    263.8638     79.5428
   273.2500    105.7110      0.0000    263.8807     79.2366
   273.5000    108.7207      0.0000    263.8990     78.9348
   273.7500    107.6159      0.0000    263.9117     78.6762
   274.0000    103.9178      0.0000    263.9120     78.4868
   274.2500     99.9008      0.0000    263.9036     78.3702
   274.5000     96.5739      0.0000    263.9001     78.2907
   274.7500     92.9879      0.0000    263.9116     78.2017
   275.0000     87.6195      0.0000    263.9370     78.0938
   275.2500     80.1664      0.0000    263.9670     77.9927
   275.5000     71.8596      0.0000    263.9938     77.9215
   275.7500     64.3527      0.0000    264.0157     77.8878
   276.0000     58.6322      0.0000    264.0286     77.8971
   276.2500     54.8433      0.0000    264.0237     77.9582
   276.5000     52.7184      0.0000    263.9970     78.0798
   276.7500     51.9487      0.0000    263.9576     78.2487
   277.0000     52.2755      0.0000    263.9211     78.4235
   277.2500     53.4252      0.0000    263.8962     78.5794
   277.5000     55.0645      0.0000    263.8824     78.7302
   277.7500     56.8795      0.0000    263.8768     78.8990
   278.0000     58.5993      0.0000    263.8735     79.1013
   278.2500     59.7796      0.0000    263.8647     79.3437
   278.5000     59.7090      0.0000    263.8469     79.6241
   278.7500     57.9945      0.0000    263.8225     79.9342
   279.0000     55.3766      0.0000    263.7933     80.2520
   279.2500     53.5722      0.0000    263.7599     80.5338
   279.5000     53.9600      0.0000    263.7269     80.7280
   279.7500     56.5012      0.0000    263.7026     80.8134
   280.0000     60.1059      0.0000    263.6893     80.8202
   280.2500     63.8420      0.0000    263.6825     80.7857
   280.5000     67.5176      0.0000    263.6781     80.7235
   280.7500     71.3713      0.0000    263.6665     80.6726
   281.0000     75.7061      0.0000    263.6345     80.6918
   281.2500     80.6731      0.0000    263.5848     80.7792
   281.5000     85.9304      0.0000    263.5367     80.8705
   281.7500     90.5437      0.0000    263.5083     80.9175
   282.0000     93.6081      0.0000    263.4996     80.9389
   282.2500     95.1122      0.0000    263.4961     80.9797
   282.5000     96.0648      0.0000    263.4894     81.0332
   282.7500     97.6363      0.0000    263.4818     81.0570
   283.0000    100.2238      0.0000    263.4758     81.0396
   283.2500    103.4029      0.0000    263.4681     81.0037
   283.5000    106.5291      0.0000    263.4529     80.9765
   283.7500    109.0934      0.0000    263.4269     80.9733
   284.0000    110.6548      0.0000    263.3963     80.9843
   284.2500    110.9580      0.0000    263.3730     80.9834
   284.5000    110.3796      0.0000    263.3692     80.9382
   284.7500    109.9189      0.0000    263.4618     80.7196
   285.0000    110.2476      0.0000    264.1736     79.7687
   285.2500    110.8390      0.0000    267.3039     76.6802
   285.5000    110.3469      0.0000    275.5103     70.0856
   285.7500    107.6329      0.0000    287.5291     61.7599
   286.0000    102.3632      0.0000    294.8937     56.9978
   286.2500     95.2319      0.0000    291.3600     58.2212
   286.5000     87.8526      0.0000    282.0967     61.8147
   286.7500     81.8917      0.0000    275.2821     64.0230
   287.0000     78.0443      0.0000    272.6488     64.5510
   287.2500     76.0925     -2.0000    272.1131     64.3597
   287.5000     75.8558     -2.0000    272.1981     64.0100
   287.7500     77.6260      0.0000    272.7874     63.6301
   288.0000     81.6794      0.0000    275.0121     63.0774
   288.2500     87.8034      0.0000    280.5501     62.2719
   288.5000     95.3990      0.0000    288.0952     61.9283
   288.7500    103.7125      0.0000    291.2218     63.4153
   289.0000    111.9136      0.0000    285.6720     66.8580
   289.2500    119.3159      0.0000    276.0809     70.9710
   289.5000    125.6204      0.0000    269.1881     74.9992
   289.7500    130.6808      0.0000    266.3371     78.4944
   290.0000    133.9568      0.0000    265.5869     80.7626
   290.2500    134.4426      0.0000    265.4427     81.7685
   290.5000    131.3157      0.0000    265.4151     82.0853
   290.7500    124.7081      0.0000    265.4261     82.1239
   291.0000    115.9714      0.0000    265.4555     82.0167
   291.2500    107.3803      0.0000    265.4678     81.8231
   291.5000    101.3834      0.0000    265.4459     81.6041
   291.7500     99.5286      0.0000    265.4170     81.4376
   292.0000    101.5800      0.0000    265.4143     81.3859
   292.2500    105.6082      0.0000    265.4395     81.4279
   292.5000    109.2505      0.0000    265.4659     81.4812
   292.7500    111.1817      0.0000    265.4604     81.5003
   293.0000    111.5279      0.0000    265.4137     81.5181
   293.2500    111.0648      0.0000    265.3509     81.5783
   293.5000    110.2339      0.0000    265.3034     81.6676
   293.7500    108.9282      0.0000    265.2866     81.7579
   294.0000    107.0273      0.0000    265.3002     81.8479
   294.2500    104.9276      0.0000    265.3254     81.9034
   294.5000    103.3991      0.0000    265.3326     81.8559
   294.7500    102.9222      0.0000    265.3095     81.7017
   295.0000    103.2404      0.0000    265.2690     81.5310
   295.2500    103.5799      0.0000    265.2303     81.4514
   295.5000    103.3327      0.0000    265.2074     81.4894
   295.7500    102.4911      0.0000    265.2084     81.5625
   296.0000    101.2128      0.0000    265.2265     81.5654
   296.2500     99.0013      0.0000    265.2423     81.4732
   296.5000     94.8346      0.0000    265.2481     81.3529
   296.7500     88.4279      0.0000    265.2567     81.2786
   297.0000     81.0934      0.0000    265.2773     81.2491
   297.2500     75.0577      0.0000    265.2979     81.2244
   297.5000     72.0447      0.0000    265.2991     81.2144
   297.7500     72.4886      0.0000    265.2783     81.2541
   298.0000     75.6468      0.0000    265.2547     81.3309
   298.2500     80.2122      0.0000    265.2516     81.4033
   298.5000     85.0020      0.0000    265.2698     81.4624
   298.7500     89.1511      0.0000    265.2842     81.5240
   299.0000     91.7134      0.0000    265.2815     81.5936
   299.2500     91.6066      0.0000    265.2792     81.6551
   299.5000     88.3810      0.0000    265.2910     81.6734
   299.7500     82.8349      0.0000    265.2999     81.6405
   300.0000     76.7303      0.0000    265.2854     81.5936
   300.2500     72.0752      0.0000    265.2538     81.5669
   300.5000     70.4331      0.0000    265.2304     81.5875
   300.7500     72.2524      0.0000    265.2320     81.6757
   301.0000     76.6021      0.0000    265.2491     81.8106
   301.2500     81.7422      0.0000    265.2593     81.9437
