~Version Information
VERS.                      2.0: CWLS Log ASCII Standard - VERSION 2.0
WRAP.                       NO: One line per depth step
~Well Information Block
STRT.FT               528.0000: 
STOP.FT              2251.5000: 
STEP.FT                 0.2500: 
NULL.                -999.2500: 
COMP.          Pioneer Natural Resources: COMPANY
WELL.           Parklane 43-34: WELL
FLD.           Purgatorie River: FIELD
LOC.           1704' FSL & 1119' FEL: LOCATION
PROV.                 Colorado: PROVINCE
CNTY.               Las Animas: COUNTRY
SRVC.                         : SERVICE COMPANY
DATE.          Thu Oct 07 01:37:17 2004: LOG DATE
UWI.           05 071 08162 00: UNIQUE WELL ID
~Curve Information Block
DEPT.FT            0 000 00 00: Depth
LTEN.lb                       : Surface Line Tension
SN.Ohm-m                      : IEL Short Normal
SP.mV                         : IEL Spontaneous Potential
DIR.Ohm-m                     : IEL Induction Resistivity
GR.GAPI                       : Gamma Ray
~Parameter Information Block
~A  Depth       LTEN         SN          SP         DIR          GR     
# ...
  1676.0000    870.7618     13.8714   -126.1761     12.4329    108.0719
  1676.2500    873.3333     14.1249   -126.2496     12.5642    107.6907
  1676.5000    874.3274     14.4201   -126.0945     12.7098    107.3458
  1676.7500    873.7336     14.7398   -125.7489     12.8618    107.6537
  1677.0000    872.2347     15.0677   -125.2727     13.0208    109.2090
  1677.2500    870.4703     15.4009   -124.7249     13.2020    110.3248
  1677.5000    868.7252     15.7534   -124.1507     13.4305    110.1392
  1677.7500    866.9698     16.1517   -123.5701     13.7307    108.1929
  1678.0000    865.1967     16.6273   -122.9760     14.1159    103.8203
  1678.2500    863.7955     17.2051   -122.3427     14.5807    101.5102
  1678.5000    863.3510     17.8962   -121.6432     15.1048    100.6592
  1678.7500    863.9234     18.6992   -120.8723     15.6625    101.3390
  1679.0000    864.7186     19.6107   -120.0640     16.2354    101.5695
  1679.2500    864.6180     20.6351   -119.2971     16.8165     99.9436
  1679.5000    863.0240     21.7858   -118.6857     17.4090     94.9894
  1679.7500    860.2797     23.0775   -118.3536     18.0242     91.2046
  1680.0000    857.5203     24.5147   -118.3970     18.6824     86.8834
  1680.2500    856.2011     26.0854   -118.8579     19.4090     85.2017
  1680.5000    857.4362     27.7639   -119.6962     20.2193     82.8832
  1680.7500    861.2471     29.5210   -120.7962     21.0972     79.8997
  1681.0000    866.2286     31.3307   -121.9889     21.9827     71.5929
  1681.2500    870.2536     33.1677   -123.0896     22.7885     63.9055
  1681.5000    871.9926     34.9944   -123.9422     23.4564     51.7376
  1681.7500    871.9110     36.7480   -124.4575     24.0090     44.8393
  1682.0000    871.6192     38.3418   -124.6227     24.5444     37.7735
  1682.2500    872.2388     39.6841   -124.4952     25.1670     35.1696
  1682.5000    873.5732     40.7048   -124.1748     25.9176     33.5899
  1682.7500    874.7157     41.3779   -123.7670     26.7663     33.8092
  1683.0000    875.0259     41.7276   -123.3628     27.6626     36.1264
  1683.2500    874.4197     41.8224   -123.0235     28.5728     38.9951
  1683.5000    873.1276     41.7588   -122.7895     29.4393     44.5681
  1683.7500    871.5646     41.6426   -122.6877     30.1102     48.3188
  1684.0000    870.4029     41.5682   -122.7402     30.3688     52.4315
  1684.2500    870.4030     41.6015   -122.9593     30.0836     53.5577
  1684.5000    871.8833     41.7678   -123.3397     29.3230     53.0261
  1684.7500    874.2504     42.0433   -123.8459     28.2948     51.9910
  1685.0000    876.1890     42.3494   -124.4088     27.2172     50.6756
  1685.2500    876.4854     42.5555   -124.9289     26.2547     49.9239
  1685.5000    874.6667     42.5032   -125.2905     25.5113     47.8590
  1685.7500    871.0179     42.0561   -125.3798     25.0159     45.3830
  1686.0000    866.4771     41.1567   -125.1079     24.6980     40.6304
  1686.2500    862.5685     39.8610   -124.4271     24.4083     37.8789
  1686.5000    860.6714     38.3202   -123.3445     24.0196     36.6107
  1686.7500    860.9166     36.7174   -121.9284     23.5504     38.5942
  1687.0000    862.2426     35.1942   -120.3009     23.1800     46.0401
  1687.2500    863.7997     33.8081   -118.6203     23.1214     53.2739
  1687.5000    865.7951     32.5440   -117.0547     23.4691     65.3839
  1687.7500    868.7185     31.3628   -115.7482     24.1095     72.9267
  1688.0000    872.2375     30.2535   -114.8027     24.7211     81.5242
  1688.2500    875.2934     29.2581   -114.2689     24.9187     84.8584
  1688.5000    877.1885     28.4563   -114.1527     24.5255     86.7902
  1688.7500    878.1840     27.9208   -114.4350     23.7225     87.2724
  1689.0000    878.9702     27.6702   -115.0821     22.8795     89.1919
  1689.2500    879.9454     27.6500   -116.0477     22.2866     91.7469
  1689.5000    881.2106     27.7570   -117.2727     22.0384     96.0276
  1689.7500    882.8373     27.8899   -118.6603     22.0747     97.7830
  1690.0000    884.6445     27.9957   -120.0709     22.2799     97.5620
  1690.2500    885.9630     28.0790   -121.3253     22.5725     95.8906
  1690.5000    886.1987     28.1734   -122.2319     22.9355     92.6250
  1690.7500    885.5037     28.2985   -122.6280     23.3782     90.6780
  1691.0000    884.2938     28.4339   -122.4282     23.8718     88.8032
  1691.2500    882.2340     28.5262   -121.6535     24.3123     88.4755
  1691.5000    878.3865     28.5169   -120.4363     24.5434     89.4062
  1691.7500    872.5359     28.3679   -118.9887     24.4320     90.5734
  1692.0000    866.1035     28.0639   -117.5519     23.9422     91.7927
  1692.2500    861.5422     27.5961   -116.3434     23.1514     91.6565
  1692.5000    860.5936     26.9453   -115.5159     22.1965     90.5382
  1692.7500    862.8594     26.0852   -115.1382     21.2054     90.2508
  1693.0000    866.1431     25.0055   -115.2100     20.2486     91.8473
  1693.2500    868.3957     23.7361   -115.6798     19.3313     93.9564
  1693.5000    869.4998     22.3528   -116.4694     18.4254     96.8851
  1693.7500    871.1284     20.9575   -117.4855     17.5197     97.9458
  1694.0000    874.7798     19.6451   -118.6237     16.6503     98.5295
  1694.2500    880.0485     18.4722   -119.7647     15.8852     98.9211
  1694.5000    884.8646     17.4466   -120.7845     15.2823    100.1590
  1694.7500    887.2217     16.5439   -121.5723     14.8581    101.3577
  1695.0000    886.5699     15.7420   -122.0497     14.5798    103.4716
  1695.2500    883.8635     15.0440   -122.1935     14.3770    105.0249
  1695.5000    880.6630     14.4741   -122.0371     14.1687    107.2350
  1695.7500    878.3025     14.0546   -121.6567     13.8981    108.1615
  1696.0000    877.5784     13.7871   -121.1451     13.5575    107.8665
  1696.2500    878.6301     13.6528   -120.5824     13.1823    106.3630
  1696.5000    880.7488     13.6249   -120.0191     12.8187    102.4060
  1696.7500    882.5679     13.6777   -119.4719     12.4936     98.7850
  1697.0000    882.9923     13.7873   -118.9328     12.2075     91.8205
  1697.2500    882.1113     13.9271   -118.3802     11.9512     86.1746
  1697.5000    881.1672     14.0677   -117.7913     11.7285     76.8962
  1697.7500    881.5636     14.1808   -117.1492     11.5659     70.9858
  1698.0000    883.6896     14.2480   -116.4524     11.5003     64.1561
  1698.2500    886.4225     14.2679   -115.7161     11.5575     61.6832
  1698.5000    887.8337     14.2576   -114.9826     11.7362     61.4022
  1698.7500    886.5871     14.2455   -114.3167     12.0070     63.0973
  1699.0000    882.8569     14.2567   -113.7997     12.3248     67.2478
  1699.2500    878.1917     14.3026   -113.5126     12.6478     70.3563
  1699.5000    874.5784     14.3816   -113.5204     12.9494     74.4502
  1699.7500    873.3590     14.4909   -113.8585     13.2160     76.3395
  1700.0000    874.7093     14.6366   -114.5261     13.4393     77.6300
  1700.2500    877.8420     14.8360   -115.4909     13.6171     77.6362
  1700.5000    881.3548     15.1119   -116.6912     13.7657     77.0236
  1700.7500    883.5649     15.4903   -118.0448     13.9275     76.5465
  1701.0000    883.2506     15.9998   -119.4581     14.1608     75.7847
  1701.2500    880.5544     16.6658   -120.8320     14.5203     74.9295
  1701.5000    876.9429     17.4984   -122.0763     15.0429     72.5795
  1701.7500    873.9386     18.4849   -123.1210     15.7446     70.3672
  1702.0000    871.9542     19.5971   -123.9268     16.6171     66.7842
  1702.2500    870.4400     20.8125   -124.4908     17.6184     64.5352
  1702.5000    868.8763     22.1303   -124.8455     18.6668     61.2438
  1702.7500    867.2761     23.5731   -125.0406     19.6729     58.8317
  1703.0000    865.9086     25.1770   -125.1283     20.6060     54.6737
  1703.2500    865.0447     26.9815   -125.1423     21.5329     51.6506
  1703.5000    864.9349     29.0247   -125.0826     22.5696     47.0720
  1703.7500    865.5731     31.3411   -124.9167     23.7969     44.0956
