~Version Information
VERS.                      2.0: CWLS Log ASCII Standard - VERSION 2.0
WRAP.                       NO: One line per depth step
~Well Information Block
STRT.FT                30.0000: 
STOP.FT              2789.0000: 
STEP.FT                 0.1000: 
NULL.                -999.2500: 
COMP.          Pioneer Natural Resources: COMPANY
WELL.          Rabbit Bush Federal 44-19: WELL
FLD.           Purgatorie River: FIELD
LOC.           826' FSL & 1127' FEL: LOCATION
CNTY.               Las Animas: COUNTY
SRVC.                Patterson: SERVICE COMPANY
DATE.          Mon Aug 28 10:56:57 2006: LOG DATE
UWI.           05-071-08149-00: UNIQUE WELL ID
STAT.                 Colorado: STATE
~Curve Information Block
DEPT.FT            0 000 00 00: Depth
DCAL.in                       : CDL Caliper
RHOB.g/cc                     : CDL Bulk Density
RHOC.g/cc                     : CDL Density Correction
DPOR.pu                       : CDL Density Porosity
GR.GAPI                       : Gamma Ray
NPOR.pu                       : Neutron Porosity
~Parameter Information Block
~A  Depth       DCAL        RHOB        RHOC        DPOR         GR         NPOR    
# ...
  1306.8000      8.2985      2.1759     -0.0067     28.7359    155.1742     21.2716
  1306.9000      8.2985      2.2017      0.0136     27.1688    154.4264     21.8635
  1307.0000      8.2833      2.2481      0.0559     24.3568    151.9835     22.1848
  1307.1000      8.2833      2.3000      0.1577     21.2147    150.2707     22.2996
  1307.2000      8.2833      2.3474      0.2043     18.3392    147.8134     22.3063
  1307.3000      8.2312      2.3791      0.2651     16.4161    144.9139     22.1001
  1307.4000      8.2312      2.3843      0.3572     16.1007    143.7021     21.8262
  1307.5000      8.2435      2.3583      0.4549     17.6809    143.1747     21.4301
  1307.6000      8.2435      2.3051      0.4120     20.9010    141.4803     20.8205
  1307.7000      8.2435      2.2325      0.4120     25.3046    140.6167     20.1482
  1307.8000      8.2950      2.1437      0.4201     30.6878    141.6819     19.3202
  1307.9000      8.2950      2.0562      0.2895     35.9865    143.3435     17.9106
  1308.0000      8.4006      2.0043      0.3586     39.1356    145.3899     16.1375
  1308.1000      8.4006      2.0075      0.3721     38.9370    148.2871     14.8201
  1308.2000      8.4006      2.0657      0.4199     35.4098    151.8236     14.1685
  1308.3000      8.6913      2.1571      0.6286     29.8724    156.9543     13.9000
  1308.4000      8.6913      2.2422      0.7041     24.7159    163.3133     13.9435
  1308.5000      9.1097      2.2985      0.6880     21.3033    167.7848     14.3485
  1308.6000      9.1097      2.3362      0.6560     19.0164    169.8776     15.0699
  1308.7000      9.1097      2.3719      0.6784     16.8529    171.6660     16.1083
  1308.8000      9.2822      2.4058      0.6572     14.8017    173.9939     17.5470
  1308.9000      9.2822      2.4348      0.5970     13.0406    176.9274     19.3196
  1309.0000      9.0708      2.4657      0.6076     11.1686    180.5094     20.9190
  1309.1000      9.0708      2.5031      0.6295      8.9003    183.7429     22.0341
  1309.2000      9.0708      2.5404      0.6405      6.6407    184.7162     23.0528
  1309.3000      8.8014      2.5644      0.6497      5.1895    183.7162     24.0786
  1309.4000      8.8014      2.5759      0.5248      4.4917    180.4271     24.7780
  1309.5000      8.7033      2.5923      0.5449      3.4965    177.4595     24.9704
  1309.6000      8.7033      2.6172      0.5635      1.9851    178.7121     24.5693
  1309.7000      8.7033      2.6400      0.4995      0.6031    177.8778     23.9508
  1309.8000      8.7334      2.6483      0.4800      0.1040    169.9817     23.7260
  1309.9000      8.7334      2.6258      0.5064      1.4646    161.8750     23.9153
  1310.0000      8.6613      2.5732      0.4201      4.6544    159.9678     24.1883
  1310.1000      8.6613      2.5296      0.2266      7.2948    161.6504     24.5157
  1310.2000      8.6613      2.5337      0.1662      7.0483    163.1151     25.0943
  1310.3000      8.4117      2.5700      0.2137      4.8499    163.4990     25.9097
  1310.4000      8.4117      2.5930      0.2209      3.4573    162.1045     26.7446
  1310.5000      8.2043      2.5862      0.2113      3.8670    159.8779     27.3424
  1310.6000      8.2043      2.5671      0.1677      5.0238    160.2347     27.5907
  1310.7000      8.2043      2.5541      0.1739      5.8151    163.3494     27.7029
  1310.8000      8.1499      2.5489      0.1521      6.1256    166.4809     27.9628
  1310.9000      8.1499      2.5485      0.1024      6.1490    169.0235     28.2304
  1311.0000      8.1497      2.5477      0.1294      6.1973    169.4595     28.0623
  1311.1000      8.1497      2.5306      0.0917      7.2369    167.6858     27.4745
  1311.2000      8.1497      2.4971      0.0496      9.2668    167.0345     27.0585
  1311.3000      8.1203      2.4753      0.0102     10.5858    168.4977     27.0099
  1311.4000      8.1203      2.4878      0.0069      9.8273    169.1919     27.0216
  1311.5000      8.0968      2.5236      0.0832      7.6635    167.2626     26.8709
  1311.6000      8.0968      2.5576      0.0676      5.5970    165.4011     26.6946
  1311.7000      8.0968      2.5804      0.0983      4.2160    164.8727     26.8135
  1311.8000      8.0989      2.5924      0.1357      3.4913    161.0073     27.0782
  1311.9000      8.0989      2.5968      0.1408      3.2225    153.8199     27.1757
  1312.0000      8.1082      2.5995      0.1491      3.0606    149.7809     27.3186
  1312.1000      8.1082      2.5978      0.1608      3.1622    149.0685     27.7581
  1312.2000      8.1082      2.5822      0.0829      4.1077    148.2145     28.2844
  1312.3000      8.1107      2.5579      0.0669      5.5805    148.1441     28.7056
  1312.4000      8.1107      2.5472      0.0358      6.2320    150.9165     29.2087
  1312.5000      8.0956      2.5685      0.0056      4.9368    155.5279     29.7397
  1312.6000      8.0956      2.6094      0.0782      2.4625    158.7822     29.9124
  1312.7000      8.0956      2.6334      0.0869      1.0037    157.6443     29.6002
  1312.8000      8.0808      2.6322      0.0591      1.0786    154.0245     28.8785
  1312.9000      8.0808      2.6287      0.0806      1.2923    152.6370     28.1943
  1313.0000      8.0752      2.6365      0.0963      0.8164    153.8882     28.0063
  1313.1000      8.0752      2.6504      0.1266     -0.0252    153.9003     27.9134
  1313.2000      8.0752      2.6642      0.1173     -0.8577    151.6215     27.2843
  1313.3000      8.0748      2.6710      0.1958     -1.2713    151.3744     26.1675
  1313.4000      8.0748      2.6667      0.1677     -1.0134    154.9607     25.3457
  1313.5000      8.0778      2.6613      0.2372     -0.6859    156.4931     25.2487
  1313.6000      8.0778      2.6557      0.2526     -0.3479    153.9233     25.2462
  1313.7000      8.0778      2.6461      0.1959      0.2389    152.6563     24.9231
  1313.8000      8.0808      2.6427      0.1393      0.4402    154.2097     24.7070
  1313.9000      8.0808      2.6391      0.1808      0.6590    156.5450     24.9269
  1314.0000      8.0795      2.6131      0.1473      2.2387    158.7020     25.2973
  1314.1000      8.0795      2.5712      0.1094      4.7756    160.5650     25.4358
  1314.2000      8.0795      2.5341      0.1074      7.0225    162.2695     25.2976
  1314.3000      8.0752      2.5054      0.1366      8.7629    163.3986     25.0291
  1314.4000      8.0752      2.4812      0.1159     10.2292    163.3715     24.7141
  1314.5000      8.0699      2.4647      0.1105     11.2285    163.3012     24.5102
  1314.6000      8.0699      2.4656      0.0716     11.1742    162.8846     24.4558
  1314.7000      8.0699      2.4902      0.1652      9.6876    162.1221     24.4079
  1314.8000      8.0648      2.5278      0.1767      7.4037    162.5339     24.4285
  1314.9000      8.0648      2.5609      0.2370      5.3988    163.5181     24.6022
  1315.0000      8.0677      2.5838      0.2473      4.0123    164.9218     24.8449
  1315.1000      8.0677      2.6031      0.2494      2.8413    166.7203     25.0515
  1315.2000      8.0677      2.6213      0.2608      1.7374    168.7253     25.2464
  1315.3000      8.0853      2.6378      0.2511      0.7373    170.0076     25.4883
  1315.4000      8.0853      2.6518      0.3030     -0.1119    168.0556     25.5406
  1315.5000      8.1043      2.6508      0.2547     -0.0497    163.5071     25.3370
  1315.6000      8.1043      2.6341      0.1839      0.9658    158.6869     25.3379
  1315.7000      8.1043      2.6204      0.1465      1.7917    155.6108     25.8365
  1315.8000      8.1065      2.6094      0.1672      2.4577    155.1382     26.5231
  1315.9000      8.1065      2.5908      0.0756      3.5887    155.6136     26.9069
  1316.0000      8.0817      2.5752      0.0731      4.5347    156.1421     26.8460
  1316.1000      8.0817      2.5726      0.0871      4.6937    157.6977     26.4023
  1316.2000      8.0817      2.5789      0.0882      4.3115    160.0518     25.8527
  1316.3000      8.0481      2.5812      0.1345      4.1709    161.9203     25.7051
