~Version Information
VERS.                      2.0: CWLS Log ASCII Standard - VERSION 2.0
WRAP.                       NO: One line per depth step
~Well Information Block
STRT.FT                15.0000: 
STOP.FT              1869.0000: 
STEP.FT                 0.2500: 
NULL.                -999.2500: 
COMP.          Pioneer Natural Resources: COMPANY
WELL.          Victory 12-14 Tr: WELL
FLD.           Purgatoire River: FIELD
LOC.           2522' FNL & 276' FWL: LOCATION
PROV.                 Colorado: PROVINCE
CNTY.               Las Animas: COUNTRY
SRVC.                Patterson: SERVICE COMPANY
DATE.          Fri Jul 22 14:39:41 2005: LOG DATE
UWI.           05 071 08433 00: UNIQUE WELL ID
~Curve Information Block
DEPT.FT            0 000 00 00: Depth
GR.GAPI                       : Gamma Ray
CCL.                          : Casing Collar Locator
TT3.usec                      : CBL 3' Travel Time
AMP3.mV                       : CBL 3' Amplitude
~Parameter Information Block
~A  Depth        GR         CCL         TT3         AMP3    
# ...
  1087.0000    125.5745      0.0000    701.5673     12.3092
  1087.2500    130.1326      0.0000    715.7163     12.3156
  1087.5000    136.7533      0.0000    731.5773     12.2442
  1087.7500    143.5171      0.0000    744.2631     12.1217
  1088.0000    148.2577      0.0000    751.4669     11.9898
  1088.2500    149.7112      0.0000    753.9788     11.8709
  1088.5000    148.1971      0.0000    752.8036     11.7428
  1088.7500    145.2238      0.0000    746.0264     11.5627
  1089.0000    142.5836      0.0000    729.8261     11.3261
  1089.2500    141.5307      0.0000    704.2972     11.0706
  1089.5000    142.1000      0.0000    678.1953     10.7950
  1089.7500    143.0336      0.0000    665.1083     10.4285
  1090.0000    142.7696      0.0000    672.7135      9.9409
  1090.2500    140.7244      0.0000    696.4746      9.4371
  1090.5000    137.6545      0.0000    724.2592      9.0729
  1090.7500    134.8543      0.0000    745.5945      8.9152
  1091.0000    133.1197      0.0000    756.2877      8.9265
  1091.2500    132.6253      0.0000    756.7582      9.0414
  1091.5000    133.5122      0.0000    748.0311      9.2295
  1091.7500    135.5997      0.0000    729.5256      9.5203
  1092.0000    137.2634      0.0000    700.6714      9.9675
  1092.2500    135.8582      0.0000    664.8064     10.5484
  1092.5000    130.2839      0.0000    630.4167     11.1364
  1092.7500    122.7673      0.0000    607.1935     11.6554
  1093.0000    117.5849      0.0000    601.6790     12.1960
  1093.2500    117.9753      0.0000    615.8839     12.8742
  1093.5000    123.9871      0.0000    646.0637     13.6400
  1093.7500    132.8976      0.0000    682.0885     14.3225
  1094.0000    141.6504      0.0000    712.1530     14.8023
  1094.2500    148.9063      0.0000    730.0803     15.0685
  1094.5000    154.9242      0.0000    737.3080     15.1651
  1094.7500    160.0442      0.0000    738.8641     15.1443
  1095.0000    163.7033      0.0000    739.1066     15.0544
  1095.2500    164.7630      0.0000    740.4590     14.9320
  1095.5000    162.5896      0.0000    743.6364     14.7964
  1095.7500    157.9003      0.0000    747.8125     14.6536
  1096.0000    152.5000      0.0000    751.0410     14.5017
  1096.2500    147.9747      0.0000    751.5615     14.3349
  1096.5000    144.6863      0.0000    749.2387     14.1528
  1096.7500    142.0961      0.0000    745.5999     13.9706
  1097.0000    139.8785      0.0000    742.5524     13.8149
  1097.2500    138.5831      0.0000    741.2284     13.7020
  1097.5000    139.1954      0.0000    741.6997     13.6195
  1097.7500    141.9999      0.0000    743.2258     13.5329
  1098.0000    145.8382      0.0000    744.7627     13.4129
  1098.2500    148.7133      0.0000    745.5455     13.2583
  1098.5000    149.5001      0.0000    745.2429     13.0969
  1098.7500    149.0580      0.0000    743.6797     12.9654
  1099.0000    149.3861      0.0000    740.8506     12.8861
  1099.2500    151.5953      0.0000    737.2009     12.8507
  1099.5000    154.7480      0.0000    733.5831     12.8252
  1099.7500    156.5950      0.0000    731.0576     12.7775
  1100.0000    155.5648      0.0000    730.8368     12.7061
  1100.2500    152.3994      0.0000    733.7893     12.6416
  1100.5000    149.8441      0.0000    739.4095     12.6184
  1100.7500    150.2899      0.0000    745.5446     12.6485
  1101.0000    153.5284      0.0000    749.6852     12.7155
  1101.2500    156.9006      0.0000    750.6857     12.7873
  1101.5000    157.6547      0.0000    749.2194     12.8373
  1101.7500    155.1217      0.0000    746.6647     12.8601
  1102.0000    150.7211      0.0000    743.8416     12.8672
  1102.2500    146.2497      0.0000    741.0383     12.8694
  1102.5000    142.6398      0.0000    738.8482     12.8640
  1102.7500    140.1640      0.0000    738.3106     12.8369
  1103.0000    138.8806      0.0000    740.0630     12.7732
  1103.2500    138.3299      0.0000    743.4572     12.6719
  1103.5000    137.4175      0.0000    746.7346     12.5566
  1103.7500    135.4296      0.0000    748.4157     12.4755
  1104.0000    133.1342      0.0000    748.6353     12.4839
  1104.2500    132.2917      0.0000    748.8424     12.6059
  1104.5000    133.8923      0.0000    750.2148     12.7951
  1104.7500    137.1460      0.0000    752.5402     12.9422
  1105.0000    140.4086      0.0000    754.3326     12.9451
  1105.2500    142.9023      0.0000    753.7798     12.7816
  1105.5000    144.9988      0.0000    750.0276     12.5157
  1105.7500    146.8058      0.0000    743.9573     12.2395
  1106.0000    147.2865      0.0000    737.5640     12.0144
  1106.2500    145.2338      0.0000    732.3899     11.8508
  1106.5000    140.8284      0.0000    728.4809     11.7291
  1106.7500    136.0832      0.0000    724.5975     11.6396
  1107.0000    133.7663      0.0000    719.2788     11.6096
  1107.2500    135.3583      0.0000    712.0210     11.6856
  1107.5000    139.5921      0.0000    703.7908     11.8884
  1107.7500    143.1973      0.0000    696.3513     12.1884
  1108.0000    143.4039      0.0000    690.9706     12.5188
  1108.2500    139.8433      0.0000    687.7728     12.8038
  1108.5000    134.3903      0.0000    686.1579     12.9854
  1108.7500    129.5544      0.0000    685.5159     13.0463
  1109.0000    127.0768      0.0000    685.4909     13.0166
  1109.2500    127.7476      0.0000    685.8447     12.9491
  1109.5000    131.7843      0.0000    686.3177     12.8838
  1109.7500    138.6599      0.0000    686.7050     12.8332
  1110.0000    146.7032      0.0000    687.0519     12.7896
  1110.2500    153.6029      0.0000    687.7883     12.7409
  1110.5000    157.6909      0.0000    689.6024     12.6910
  1110.7500    158.7179      0.0000    693.0285     12.6712
  1111.0000    157.4932      0.0000    698.0414     12.7238
  1111.2500    155.1086      0.0000    704.0913     12.8705
  1111.5000    152.5939      0.0000    710.4937     13.1028
  1111.7500    150.9380      0.0000    716.6099     13.3987
  1112.0000    150.8981      0.0000    721.7435     13.7372
  1112.2500    152.4244      0.0000    725.2234     14.0987
  1112.5000    154.2312      0.0000    726.6437     14.4583
  1112.7500    154.2681      0.0000    725.9352     14.7870
  1113.0000    151.0921      0.0000    723.4246     15.0667
  1113.2500    144.9145      0.0000    719.9739     15.3142
  1113.5000    137.3355      0.0000    716.7252     15.5860
  1113.7500    130.3239      0.0000    714.5352     15.9480
  1114.0000    125.3995      0.0000    714.0337     16.4335
  1114.2500    123.2364      0.0000    716.0510     17.0273
  1114.5000    123.5024      0.0000    720.9744     17.6822
  1114.7500    124.9630      0.0000    727.6960     18.3396
  1115.0000    126.0324      0.0000    734.3459     18.9381
  1115.2500    125.5755      0.0000    740.0842     19.4254
  1115.5000    123.3523      0.0000    745.2026     19.7806
  1115.7500    119.9201      0.0000    749.6782     20.0297
  1116.0000    116.1876      0.0000    752.1786     20.2365
  1116.2500    112.8850      0.0000    749.6843     20.4639
  1116.5000    110.4208      0.0000    737.6965     20.7205
  1116.7500    109.3364      0.0000    713.3502     20.9216
  1117.0000    110.6059      0.0000    681.4056     20.8999
  1117.2500    115.0406      0.0000    656.1838     20.4705
  1117.5000    122.2872      0.0000    652.6810     19.5230
  1117.7500    130.5441      0.0000    673.2324     18.0976
  1118.0000    137.4025      0.0000    705.1066     16.4028
  1118.2500    141.1911      0.0000    732.1442     14.7402
  1118.5000    141.7352      0.0000    746.7773     13.3672
  1118.7500    139.9421      0.0000    751.5547     12.3954
  1119.0000    136.7518      0.0000    753.0561     11.7875
  1119.2500    132.6948      0.0000    755.7819     11.4250
  1119.5000    128.4387      0.0000    759.9327     11.1859
  1119.7500    125.0524      0.0000    763.1091     10.9983
  1120.0000    123.0801      0.0000    763.2910     10.8607
  1120.2500    121.7257      0.0000    760.1047     10.8384
