~Version Information
VERS.                      2.0: CWLS Log ASCII Standard - VERSION 2.0
WRAP.                       NO: One line per depth step
~Well Information Block
STRT.FT               -14.2500: 
STOP.FT              2177.5000: 
STEP.FT                 0.2500: 
NULL.                -999.2500: 
COMP.          Evergreen Operating Corp.: COMPANY
WELL.            Triumph 13-10: WELL
FLD.           Purgatorie River: FIELD
LOC.           1551' FSL & 522' FWL--: LOCATION
PROV.                       CO: PROVINCE
CNTY.               Las Animas: COUNTRY
SRVC.                         : SERVICE COMPANY
DATE.          Sat Aug 21 09:27:32 2004: LOG DATE
UWI.           005 071 08108 : UNIQUE WELL ID
~Curve Information Block
DEPT.FT            0 000 00 00: Depth
CCL.                          : Casing Collar Locator
TT3.usec                      : CBL 3' Travel Time
AMP3.mV                       : CBL 3' Amplitude
GR.GAPI                       : Gamma Ray
~Parameter Information Block
~A  Depth       CCL         TT3         AMP3         GR     
# ...
  1560.2500      0.0000    691.2388      2.5883    102.7541
  1560.5000      0.0000    678.1708      2.6157    101.8220
  1560.7500      0.0000    661.6082      2.7231    103.8619
  1561.0000      0.0000    646.5790      2.8656    108.5324
  1561.2500      0.0000    640.3815      3.0037    114.2693
  1561.5000      0.0000    646.7552      3.1326    120.2384
  1561.7500      0.0000    662.3067      3.2824    126.7394
  1562.0000      0.0000    679.3051      3.4720    133.9426
  1562.2500      0.0000    691.6699      3.6680    141.1884
  1562.5000      0.0000    698.2952      3.8030    147.6717
  1562.7500      0.0000    701.8921      3.8253    153.1393
  1563.0000      0.0000    705.6123      3.7273    157.7848
  1563.2500      0.0000    710.3453      3.5446    161.9775
  1563.5000      0.0000    714.5789      3.3378    165.9186
  1563.7500      0.0000    716.5439      3.1676    169.0440
  1564.0000      0.0000    716.0081      3.0786    170.3748
  1564.2500      0.0000    713.8767      3.1025    170.0329
  1564.5000      0.0000    710.8861      3.2457    169.5047
  1564.7500      0.0000    707.4296      3.4439    169.6839
  1565.0000      0.0000    704.2682      3.5573    169.6888
  1565.2500      0.0000    702.5906      3.4613    168.2629
  1565.5000      0.0000    703.1408      3.1546    165.2212
  1565.7500      0.0000    705.7526      2.7712    160.6718
  1566.0000      0.0000    709.9286      2.4899    154.0425
  1566.2500      0.0000    715.2755      2.4355    145.1323
  1566.5000      0.0000    720.8401      2.6455    135.4423
  1566.7500      0.0000    724.3490      3.0776    127.1845
  1567.0000      0.0000    722.7942      3.6145    121.0276
  1567.2500      0.0000    714.4672      4.0828    115.7681
  1567.5000      0.0000    701.4078      4.3090    110.4267
  1567.7500      0.0000    689.8437      4.1925    105.9827
  1568.0000      0.0000    686.1281      3.7671    104.7369
  1568.2500      0.0000    690.5454      3.2118    108.3323
  1568.5000      0.0000    696.3239      2.7836    116.6356
  1568.7500      0.0000    696.3492      2.6907    128.2083
  1569.0000      0.0000    690.2661      2.9771    141.3367
  1569.2500      0.0000    684.0826      3.4962    154.2175
  1569.5000      0.0000    683.5676      3.9964    164.3979
  1569.7500      0.0000    689.2129      4.2730    169.2654
  1570.0000      0.0000    697.2407      4.2813    168.0847
  1570.2500      0.0000    703.7980      4.1221    163.0124
  1570.5000      0.0000    707.3535      3.9260    157.3297
  1570.7500      0.0000    708.1512      3.7598    153.1163
  1571.0000      0.0000    706.9147      3.6313    150.9104
  1571.2500      0.0000    704.4742      3.5314    150.4397
  1571.5000      0.0000    702.0212      3.4427    150.8487
  1571.7500      0.0000    700.7703      3.3365    150.8895
  1572.0000      0.0000    700.8287      3.1958    149.5374
  1572.2500      0.0000    700.4648      3.0536    146.2786
  1572.5000      0.0000    697.1604      3.0061    141.1279
  1572.7500      0.0000    690.1646      3.1579    135.0834
  1573.0000      0.0000    682.2680      3.5217    130.5580
  1573.2500      0.0000    678.1085      3.9691    130.5629
  1573.5000      0.0000    679.6822      4.2977    136.6383
  1573.7500      0.0000    684.1498      4.3607    147.1719
  1574.0000      0.0000    687.0063      4.1605    157.8443
  1574.2500      0.0000    686.6370      3.8432    164.3398
  1574.5000      0.0000    684.9982      3.5936    165.2480
  1574.7500      0.0000    684.8825      3.5112    162.6640
  1575.0000      0.0000    687.4965      3.5693    160.2868
  1575.2500      0.0000    691.9780      3.6712    161.0740
  1575.5000      0.0000    696.2581      3.7366    165.9554
  1575.7500      0.0000    698.5076      3.7541    173.5168
  1576.0000      0.0000    698.4102      3.7733    180.7829
  1576.2500      0.0000    697.3504      3.8476    185.0311
  1576.5000      0.0000    697.4305      3.9867    185.1872
  1576.7500      0.0000    699.9536      4.1646    181.8169
  1577.0000      0.0000    704.3585      4.3541    176.4635
  1577.2500      0.0000    708.6204      4.5306    170.7812
  1577.5000      0.0000    711.0273      4.6489    165.5374
  1577.7500      0.0000    711.6154      4.6472    160.3768
  1578.0000      0.0000    711.7792      4.4967    154.7071
  1578.2500      0.0000    712.5217      4.2436    148.5170
  1578.5000      0.0000    713.2162      3.9979    142.2146
  1578.7500      0.0000    711.8926      3.8774    136.0185
  1579.0000      0.0000    706.6606      3.9444    129.8271
  1579.2500      0.0000    697.5546      4.1726    123.9766
  1579.5000      0.0000    687.5814      4.4636    120.1887
  1579.7500      0.0000    681.1058      4.7000    121.1723
  1580.0000      0.0000    680.1935      4.8060    128.4622
  1580.2500      0.0000    683.2804      4.7875    140.3449
  1580.5000      0.0000    688.1844      4.7275    152.4784
  1580.7500      0.0000    695.0554      4.7237    161.2134
  1581.0000      0.0000    705.2106      4.8137    166.0739
  1581.2500      0.0000    718.1583      4.9515    168.6533
  1581.5000      0.0000    731.0779      5.0425    169.9893
  1581.7500      0.0000    741.0754      4.9919    169.9985
  1582.0000      0.0000    747.4202      4.7446    168.8572
  1582.2500      0.0000    751.4808      4.3168    167.5961
  1582.5000      0.0000    754.4080      3.8125    167.0752
  1582.7500      0.0000    755.1105      3.3959    167.1320
  1583.0000      0.0000    751.4382      3.2098    167.0614
  1583.2500      0.0000    743.3749      3.2889    166.5524
  1583.5000      0.0000    733.8839      3.5485    165.8499
  1583.7500      0.0000    726.3162      3.8660    165.2234
  1584.0000      0.0000    721.8275      4.1605    164.6328
  1584.2500      0.0000    719.2747      4.3930    163.9012
  1584.5000      0.0000    716.6666      4.5350    163.0682
  1584.7500      0.0000    712.5895      4.5764    162.5697
  1585.0000      0.0000    707.1980      4.5479    162.9592
  1585.2500      0.0000    702.4082      4.5115    164.2116
  1585.5000      0.0000    700.7365      4.5250    165.4803
  1585.7500      0.0000    703.3215      4.6066    165.9060
  1586.0000      0.0000    708.8936      4.7221    165.6328
  1586.2500      0.0000    714.7016      4.8126    165.6546
  1586.5000      0.0000    718.3610      4.8345    166.4952
  1586.7500      0.0000    718.9449      4.7538    167.3876
  1587.0000      0.0000    716.9579      4.5246    167.0975
  1587.2500      0.0000    713.7769      4.1268    165.1979
  1587.5000      0.0000    710.8689      3.6342    162.0042
  1587.7500      0.0000    709.0303      3.2175    157.7210
  1588.0000      0.0000    708.3063      3.0420    152.5921
  1588.2500      0.0000    708.5483      3.1362    147.6740
  1588.5000      0.0000    709.6254      3.3683    144.4211
  1588.7500      0.0000    711.1186      3.5706    143.3466
  1589.0000      0.0000    712.3631      3.6729    143.6810
  1589.2500      0.0000    712.9445      3.7061    144.2822
  1589.5000      0.0000    712.8936      3.7280    144.4776
  1589.7500      0.0000    712.3514      3.7889    144.2481
  1590.0000      0.0000    711.1342      3.9194    143.9907
  1590.2500      0.0000    708.6174      4.1006    144.1138
  1590.5000      0.0000    704.0699      4.2548    144.8909
  1590.7500      0.0000    697.2950      4.2910    146.4611
  1591.0000      0.0000    688.9962      4.1678    148.5299
  1591.2500      0.0000    680.4390      3.9241    150.2289
  1591.5000      0.0000    672.8872      3.6450    150.8313
  1591.7500      0.0000    667.4931      3.3868    150.4125
  1592.0000      0.0000    665.2712      3.1424    149.3230
  1592.2500      0.0000    666.5999      2.8802    147.4716
  1592.5000      0.0000    670.8117      2.5970    144.9332
  1592.7500      0.0000    676.5795      2.3377    142.7398
  1593.0000      0.0000    682.5626      2.1886    142.0037
  1593.2500      0.0000    687.7103      2.2308    142.4019
  1593.5000      0.0000    691.4258      2.4620    142.3666
