~Version Information
VERS.                      2.0: CWLS Log ASCII Standard - VERSION 2.0
WRAP.                       NO: One line per depth step
~Well Information Block
STRT.FT               528.0000: 
STOP.FT              2251.5000: 
STEP.FT                 0.2500: 
NULL.                -999.2500: 
COMP.          Pioneer Natural Resources: COMPANY
WELL.           Parklane 43-34: WELL
FLD.           Purgatorie River: FIELD
LOC.           1704' FSL & 1119' FEL: LOCATION
PROV.                 Colorado: PROVINCE
CNTY.               Las Animas: COUNTRY
SRVC.                         : SERVICE COMPANY
DATE.          Thu Oct 07 01:37:17 2004: LOG DATE
UWI.           05 071 08162 00: UNIQUE WELL ID
~Curve Information Block
DEPT.FT            0 000 00 00: Depth
LTEN.lb                       : Surface Line Tension
SN.Ohm-m                      : IEL Short Normal
SP.mV                         : IEL Spontaneous Potential
DIR.Ohm-m                     : IEL Induction Resistivity
GR.GAPI                       : Gamma Ray
~Parameter Information Block
~A  Depth       LTEN         SN          SP         DIR          GR     
# ...
  1200.0000    852.9048   2000.0000   2000.0000      7.1927    137.5329
  1200.2500    848.7427   2000.0000   2000.0000      7.1187    139.3967
  1200.5000    845.8395   2000.0000   2000.0000      7.0500    140.7331
  1200.7500    843.8243   2000.0000   2000.0000      6.9853    141.1910
  1201.0000    842.2520   2000.0000   2000.0000      6.9282    142.0796
  1201.2500    841.2012   2000.0000   2000.0000      6.8834    143.0109
  1201.5000    841.1097   2000.0000   2000.0000      6.8498    144.5007
  1201.7500    842.3259   2000.0000   2000.0000      6.8179    144.9533
  1202.0000    845.0761   2000.0000   2000.0000      6.7754    143.7577
  1202.2500    849.2722   2000.0000   2000.0000      6.7157    141.4482
  1202.5000    853.8984   2000.0000   2000.0000      6.6441    136.0663
  1202.7500    857.2020   2000.0000   2000.0000      6.5754    131.5841
  1203.0000    858.3068   2000.0000   2000.0000      6.5274    123.8850
  1203.2500    858.5164   2000.0000   2000.0000      6.5121    118.2076
  1203.5000    860.2100   2000.0000   2000.0000      6.5304    109.6358
  1203.7500    864.1279   2000.0000   2000.0000      6.5713    104.9590
  1204.0000    868.1176   2000.0000   2000.0000      6.6160    101.9802
  1204.2500    868.8245   2000.0000   2000.0000      6.6477    103.7367
  1204.5000    864.5766   2000.0000   2000.0000      6.6593    111.6813
  1204.7500    856.6724   2000.0000   2000.0000      6.6534    119.0658
  1205.0000    848.1039   2000.0000   2000.0000      6.6356    130.0726
  1205.2500    841.2600   2000.0000   2000.0000      6.6084    135.9167
  1205.5000    836.9033   2000.0000   2000.0000      6.5710    141.1404
  1205.7500    834.9338   2000.0000   2000.0000      6.5246    142.2321
  1206.0000    835.2524   2000.0000   2000.0000      6.4772    141.8093
  1206.2500    837.5071   2000.0000   2000.0000      6.4431    141.7257
  1206.5000    840.7318   2000.0000   2000.0000      6.4374    143.8711
  1206.7500    843.9034   2000.0000   2000.0000      6.4697    146.6147
  1207.0000    846.5876   2000.0000   2000.0000      6.5394    150.4812
  1207.2500    848.8577   2000.0000   2000.0000      6.6354    151.6903
  1207.5000    851.0437   2000.0000   2000.0000      6.7377    151.1275
  1207.7500    853.4661   2000.0000   2000.0000      6.8228    149.8547
  1208.0000    855.7279   2000.0000   2000.0000      6.8721    147.9969
  1208.2500    856.5856   2000.0000   2000.0000      6.8797    147.1789
  1208.5000    855.4403   2000.0000   2000.0000      6.8562    146.2461
  1208.7500    853.6376   2000.0000   2000.0000      6.8238    145.3354
  1209.0000    853.3007   2000.0000   2000.0000      6.8057    142.9710
  1209.2500    854.9287   2000.0000   2000.0000      6.8163    140.6771
  1209.5000    856.9111   2000.0000   2000.0000      6.8559    136.2932
  1209.7500    857.4711   2000.0000   2000.0000      6.9131    132.9321
  1210.0000    856.4133   2000.0000   2000.0000      6.9723    127.9268
  1210.2500    854.8082   2000.0000   2000.0000      7.0237    125.1451
  1210.5000    853.6368   2000.0000   2000.0000      7.0691    122.5667
  1210.7500    853.1669   2000.0000   2000.0000      7.1216    122.1397
  1211.0000    853.2392   2000.0000   2000.0000      7.1988    123.1985
  1211.2500    853.6143   2000.0000   2000.0000      7.3145    124.4382
  1211.5000    853.9940   2000.0000   2000.0000      7.4733    125.7052
  1211.7500    854.0085   2000.0000   2000.0000      7.6686    125.5949
  1212.0000    853.3832   2000.0000   2000.0000      7.8860    124.0352
  1212.2500    852.1352   2000.0000   2000.0000      8.1090    122.6307
  1212.5000    850.4869   2000.0000   2000.0000      8.3258    121.0976
  1212.7500    848.6144   2000.0000   2000.0000      8.5327    120.5315
  1213.0000    846.7109   2000.0000   2000.0000      8.7345    119.0071
  1213.2500    845.2809   2000.0000   2000.0000      8.9431    116.4921
  1213.5000    844.9785   2000.0000   2000.0000      9.1760    110.0216
  1213.7500    846.0125   2000.0000   2000.0000      9.4531    104.7318
  1214.0000    848.0621   2000.0000   2000.0000      9.7901     97.5383
  1214.2500    850.9199   2000.0000   2000.0000     10.1900     94.2387
  1214.5000    854.7692   2000.0000   2000.0000     10.6352     92.1133
  1214.7500    859.4101   2000.0000   2000.0000     11.0842     92.2663
  1215.0000    863.5016   2000.0000   2000.0000     11.4751     93.5401
  1215.2500    865.3021   2000.0000   2000.0000     11.7439     94.2618
  1215.5000    864.3098   2000.0000   2000.0000     11.8535     94.5004
  1215.7500    861.6905   2000.0000   2000.0000     11.8159     94.2786
  1216.0000    859.0641   2000.0000   2000.0000     11.6868     94.0668
  1216.2500    857.3313   2000.0000   2000.0000     11.5354     94.3148
  1216.5000    856.6149   2000.0000   2000.0000     11.4110     95.5874
  1216.7500    856.7988   2000.0000   2000.0000     11.3275     97.1008
  1217.0000    857.6936   2000.0000   2000.0000     11.2666     99.9465
  1217.2500    858.6476   2000.0000   2000.0000     11.1920    101.6560
  1217.5000    858.5644   2000.0000   2000.0000     11.0658    103.0371
  1217.7500    856.9518   2000.0000   2000.0000     10.8608    102.9695
  1218.0000    854.7958   2000.0000   2000.0000     10.5673    101.3487
  1218.2500    853.8479   2000.0000   2000.0000     10.1969     99.2196
  1218.5000    854.9086   2000.0000   2000.0000      9.7792     94.7394
  1218.7500    856.8206   2000.0000   2000.0000      9.3526     91.6032
  1219.0000    857.2717   2000.0000   2000.0000      8.9518     88.7707
  1219.2500    854.9955   2000.0000   2000.0000      8.5965     89.3435
  1219.5000    851.1125   2000.0000   2000.0000      8.2862     94.7121
  1219.7500    847.8706   2000.0000   2000.0000      8.0027    100.6664
  1220.0000    846.4039   2000.0000   2000.0000      7.7218    110.6117
  1220.2500    846.4151   2000.0000   2000.0000      7.4276    116.3047
  1220.5000    847.4524   2000.0000   2000.0000      7.1209    121.9421
  1220.7500    849.2324   2000.0000   2000.0000      6.8154    123.9429
  1221.0000    850.8632   2000.0000   2000.0000      6.5274    125.6792
  1221.2500    851.0320   2000.0000   2000.0000      6.2674    126.7610
  1221.5000    849.3730   2000.0000   2000.0000      6.0388    128.9461
  1221.7500    847.0411   2000.0000   2000.0000      5.8406    130.7939
  1222.0000    845.7527   2000.0000   2000.0000      5.6704    133.4668
  1222.2500    846.5221   2000.0000   2000.0000      5.5258    134.4509
  1222.5000    849.1216   2000.0000   2000.0000      5.4056    133.7439
  1222.7500    852.4169   2000.0000   2000.0000      5.3091    131.8359
  1223.0000    855.3433   2000.0000   2000.0000      5.2358    127.6668
  1223.2500    857.6243   2000.0000   2000.0000      5.1855    124.5388
  1223.5000    859.4257   2000.0000   2000.0000      5.1575    119.8296
  1223.7500    860.5897   2000.0000   2000.0000      5.1497    116.8529
  1224.0000    860.4545   2000.0000   2000.0000      5.1567    112.9414
  1224.2500    858.4521   2000.0000   2000.0000      5.1707    110.9241
  1224.5000    855.0539   2000.0000   2000.0000      5.1846    109.2706
  1224.7500    851.9980   2000.0000   2000.0000      5.1963    109.4863
  1225.0000    850.8898   2000.0000   2000.0000      5.2097    112.4766
  1225.2500    851.3655   2000.0000   2000.0000      5.2322    116.3130
  1225.5000    851.2783   2000.0000   2000.0000      5.2716    123.8151
  1225.7500    848.9800   2000.0000   2000.0000      5.3358    128.8536
  1226.0000    844.9038   2000.0000   2000.0000      5.4345    134.6658
  1226.2500    840.7073   2000.0000   2000.0000      5.5800    136.8982
  1226.5000    837.5902   2000.0000   2000.0000      5.7838    137.9353
  1226.7500    835.8831   2000.0000   2000.0000      6.0539    137.4679
  1227.0000    835.6916   2000.0000   2000.0000      6.3920    136.0452
  1227.2500    837.1539   2000.0000   2000.0000      6.7951    135.4571
  1227.5000    840.0469   2000.0000   2000.0000      7.2574    136.5553
  1227.7500    843.6678   2000.0000   2000.0000      7.7726    138.9668
