~Version Information
VERS.                      2.0: CWLS Log ASCII Standard - VERSION 2.0
WRAP.                       NO: One line per depth step
~Well Information Block
STRT.FT               954.4000: 
STOP.FT              2380.0000: 
STEP.FT                 0.1000: 
NULL.                -999.2500: 
COMP.          Petrogulf Corporation: COMPANY
WELL.             State 16-24V: WELL
FLD.           Purgatorie River: FIELD
LOC.           481' FSL & 2419' FWL: LOCATION
CNTY.               Las Animas: COUNTY
SRVC.                         : SERVICE COMPANY
DATE.          Tue May 04 07:31:25 2004: LOG DATE
UWI.           05 071 08014 00: UNIQUE WELL ID
STAT.                 Colorado: STATE
~Curve Information Block
DEPT.FT            0 000 00 00: Depth
DCAL.in                       : CDL Caliper
RHOB.g/cc                     : CDL Bulk Density
RHOC.g/cc                     : CDL Density Correction
DPOR.pu                       : CDL Density Porosity
GR.GAPI                       : Gamma Ray
~Parameter Information Block
~A  Depth       DCAL        RHOB        RHOC        DPOR         GR     
# ...
  2365.6000      7.7790      2.4931      0.0243      9.5093    116.7710
  2365.7000      7.7790      2.5224      0.0526      7.7313    113.7148
  2365.8000      7.7947      2.5664      0.1582      5.0647    110.9914
  2365.9000      7.7947      2.5922      0.1767      3.5008    118.9342
  2366.0000      7.8306      2.5771      0.1621      4.4212    139.6222
  2366.1000      7.8306      2.5403      0.0576      6.6512    154.5475
  2366.2000      7.8306      2.5132      0.0627      8.2880    154.6854
  2366.3000      7.8325      2.5013      0.0545      9.0127    140.4294
  2366.4000      7.8325      2.5031      0.1413      8.9012    118.0235
  2366.5000      7.8400      2.5123      0.0928      8.3476    101.1755
  2366.6000      7.8400      2.5197      0.0809      7.8974     93.8123
  2366.7000      7.8400      2.5293      0.0684      7.3128     89.3644
  2366.8000      7.8358      2.5531      0.0714      5.8714     88.6630
  2366.9000      7.8358      2.5798      0.1291      4.2543     97.8736
  2367.0000      7.8344      2.5865      0.1041      3.8491    104.3920
  2367.1000      7.8344      2.5788      0.0626      4.3145     97.5771
  2367.2000      7.8344      2.5681      0.0755      4.9650     89.7113
  2367.3000      7.7942      2.5504      0.1207      6.0369     89.9933
  2367.4000      7.7942      2.5302      0.0828      7.2620     94.4462
  2367.5000      7.7363      2.5244      0.0308      7.6094    101.1557
  2367.6000      7.7363      2.5443      0.0621      6.4062    110.6003
  2367.7000      7.7363      2.5793      0.0601      4.2873    113.9943
  2367.8000      7.7277      2.5886      0.1300      3.7242    109.0104
  2367.9000      7.7277      2.5621      0.0333      5.3243    112.4401
  2368.0000      7.7255      2.5433      0.0979      6.4688    128.5881
  2368.1000      7.7255      2.5364      0.0986      6.8874    135.5668
  2368.2000      7.7255      2.5261      0.1145      7.5111    117.0599
  2368.3000      7.7313      2.5347     -0.0276      6.9872     88.7539
  2368.4000      7.7313      2.5594      0.1023      5.4929     75.2604
  2368.5000      7.7276      2.5579      0.1006      5.5847     82.3950
  2368.6000      7.7276      2.5316      0.0096      7.1759     98.5085
  2368.7000      7.7276      2.5117     -0.0058      8.3803    106.2101
  2368.8000      7.7289      2.5003      0.0098      9.0707    100.3671
  2368.9000      7.7289      2.4853      0.1024      9.9845     89.4071
  2369.0000      7.7281      2.4709      0.0441     10.8537     81.2667
  2369.1000      7.7281      2.4730      0.0065     10.7246     76.4113
  2369.2000      7.7281      2.4791      0.0752     10.3594     72.2969
  2369.3000      7.7209      2.4635      0.0002     11.3013     71.3468
  2369.4000      7.7209      2.4333     -0.0114     13.1313     75.1172
  2369.5000      7.7250      2.4140     -0.0892     14.3048     82.1836
  2369.6000      7.7250      2.4242      0.0227     13.6862     94.1360
  2369.7000      7.7250      2.4553      0.0393     11.7993    105.5015
  2369.8000      7.7293      2.4806      0.0394     10.2646     98.3101
  2369.9000      7.7293      2.4916      0.0679      9.6012     65.8935
  2370.0000      7.7403      2.4984      0.0841      9.1859     29.0769
  2370.1000      7.7403      2.5080      0.0940      8.6073      8.0017
  2370.2000      7.7403      2.5166      0.0944      8.0855      1.3143
  2370.3000      7.7320      2.5220      0.0866      7.7557      0.1236
  2370.4000      7.7320      2.5275      0.1666      7.4237      0.0060
  2370.5000      7.7169      2.5296      0.1337      7.2945      0.0000
  2370.6000      7.7169      2.5272      0.0187      7.4418   -999.2500
  2370.7000      7.7169      2.5336      0.0420      7.0525   -999.2500
  2370.8000      7.7210      2.5567      0.1025      5.6541   -999.2500
  2370.9000      7.7210      2.5877      0.1885      3.7779   -999.2500
  2371.0000      7.7218      2.6064      0.1195      2.6432   -999.2500
  2371.1000      7.7218      2.6032      0.0711      2.8381   -999.2500
  2371.2000      7.7218      2.5930      0.1086      3.4542   -999.2500
  2371.3000      7.7122      2.5930      0.1108      3.4537   -999.2500
  2371.4000      7.7122      2.5971      0.1957      3.2031   -999.2500
  2371.5000      7.6878      2.5906      0.1347      3.6029   -999.2500
  2371.6000      7.6878      2.5746      0.1397      4.5708   -999.2500
  2371.7000      7.6878      2.5424      0.1056      6.5202   -999.2500
  2371.8000      7.6634      2.4852      0.0782      9.9902   -999.2500
  2371.9000      7.6634      2.4343     -0.0414     13.0718   -999.2500
  2372.0000      7.6600      2.4279      0.0407     13.4635   -999.2500
  2372.1000      7.6600      2.4589      0.0419     11.5840   -999.2500
  2372.2000      7.6600      2.5006      0.1153      9.0567   -999.2500
  2372.3000      7.7065      2.5373      0.1510      6.8276   -999.2500
  2372.4000      7.7065      2.5634      0.1643      5.2500   -999.2500
  2372.5000      7.7127      2.5751      0.1301      4.5387   -999.2500
  2372.6000      7.7127      2.5787      0.1738      4.3219   -999.2500
  2372.7000      7.7127      2.5814      0.1854      4.1602   -999.2500
  2372.8000      7.7112      2.5698      0.2079      4.8612   -999.2500
  2372.9000      7.7112      2.5355      0.0819      6.9387   -999.2500
  2373.0000      7.7075      2.4965      0.0882      9.3046   -999.2500
  2373.1000      7.7075      2.4671      0.0155     11.0857   -999.2500
  2373.2000      7.7075      2.4410      0.0874     12.6693   -999.2500
  2373.3000      7.7055      2.4166     -0.0012     14.1445   -999.2500
  2373.4000      7.7055      2.4179      0.0746     14.0658   -999.2500
  2373.5000      7.6704      2.4495      0.1153     12.1502   -999.2500
  2373.6000      7.6704      2.4923      0.1882      9.5585   -999.2500
  2373.7000      7.6704      2.5393      0.2101      6.7105   -999.2500
  2373.8000      7.6278      2.5881      0.2547      3.7509   -999.2500
  2373.9000      7.6278      2.6292      0.2444      1.2612   -999.2500
  2374.0000      7.5032      2.6486      0.2963      0.0861   -999.2500
  2374.1000      7.5032      2.6295      0.2621      1.2447   -999.2500
  2374.2000      7.5032      2.5816      0.1870      4.1456   -999.2500
  2374.3000      7.4891      2.5483      0.1857      6.1631   -999.2500
  2374.4000      7.4891      2.5591      0.1017      5.5114   -999.2500
  2374.5000      7.4725      2.5976      0.1955      3.1766   -999.2500
  2374.6000      7.4725      2.6095      0.2190      2.4574   -999.2500
  2374.7000      7.4725      2.5759      0.1468      4.4910   -999.2500
  2374.8000      7.4761      2.5463      0.0672      6.2825   -999.2500
  2374.9000      7.4761      2.5523      0.1534      5.9231   -999.2500
  2375.0000      7.4901      2.5688      0.1116      4.9189   -999.2500
  2375.1000      7.4901      2.5642      0.1591      5.2011   -999.2500
  2375.2000      7.4901      2.5251      0.1438      7.5676   -999.2500
  2375.3000      7.4818      2.4742      0.1079     10.6520   -999.2500
  2375.4000      7.4818      2.4482      0.1274     12.2329   -999.2500
  2375.5000      7.4266      2.4446      0.1511     12.4502   -999.2500
  2375.6000      7.4266      2.4362      0.1533     12.9591   -999.2500
  2375.7000      7.4266      2.4300      0.0627     13.3363   -999.2500
  2375.8000      7.0044      2.4779      0.0791     10.4321   -999.2500
  2375.9000      7.0044      2.6157      0.2120      2.0770   -999.2500
  2376.0000      6.6619      2.6901      0.2626     -2.4325   -999.2500
  2376.1000      6.6619      2.2642      0.7183     23.3805   -999.2500
  2376.2000      6.6619      1.2869      0.0500     82.6105   -999.2500
  2376.3000      6.6167      0.4363      0.0500    134.1654   -999.2500
  2376.4000      6.6167      0.0828   -999.2500    155.5870   -999.2500
  2376.5000      6.1348      0.0085   -999.2500    160.0888   -999.2500
  2376.6000      6.1348      0.0005   -999.2500    160.5780   -999.2500
  2376.7000      6.1348      0.0000   -999.2500    160.6061   -999.2500
