~Version Information
VERS.                      2.0: CWLS Log ASCII Standard - VERSION 2.0
WRAP.                       NO: One line per depth step
~Well Information Block
STRT.FT                -7.5000: 
STOP.FT              1877.2500: 
STEP.FT                 0.2500: 
NULL.                -999.2500: 
COMP.          Pioneer Natural Resources: COMPANY
WELL.            Nova 11-14 Tr: WELL
FLD.           Purgatorie River: FIELD
LOC.           706' FNL & 1109' FWL--: LOCATION
PROV.                       CO: PROVINCE
CNTY.               Las Animas: COUNTRY
SRVC.          Patterson Wireline: SERVICE COMPANY
DATE.          Tue Jul 26 15:08:01 2005: LOG DATE
UWI.           05 071 08434 00: UNIQUE WELL ID
~Curve Information Block
DEPT.FT            0 000 00 00: Depth
CCL.                          : Casing Collar Locator
TT3.usec                      : CBL 3' Travel Time
AMP3.mV                       : CBL 3' Amplitude
GR.GAPI                       : Gamma Ray
~Parameter Information Block
~A  Depth       CCL         TT3         AMP3         GR     
# ...
  1835.0000      0.0000    652.5942      6.9133    148.8163
  1835.2500      0.0000    646.5961      6.8871    148.2253
  1835.5000      0.0000    648.3872      6.8694    144.0142
  1835.7500      0.0000    655.7574      6.8654    136.8191
  1836.0000      0.0000    665.7771      6.8782    128.1631
  1836.2500      0.0000    677.0406      6.9051    119.8386
  1836.5000      0.0000    688.4485      6.9396    112.6388
  1836.7500      0.0000    697.2206      6.9761    105.7189
  1837.0000      0.0000    699.8577      7.0088     98.0487
  1837.2500      0.0000    695.2255      7.0288     90.6146
  1837.5000      0.0000    685.7568      7.0255     86.1452
  1837.7500      0.0000    675.2061      6.9941     86.1767
  1838.0000      0.0000    665.7026      6.9437     89.2812
  1838.2500      0.0000    657.3696      6.8976     92.7253
  1838.5000      0.0000    650.3054      6.8814     95.0392
  1838.7500      0.0000    645.9435      6.9092     96.3258
  1839.0000      0.0000    645.8985      6.9791     96.7550
  1839.2500      0.0000    649.8763      7.0796     95.6530
  1839.5000      0.0000    655.5154      7.1983     92.2609
  1839.7500      0.0000    660.3948      7.3213     87.1947
  1840.0000      0.0000    663.7798      7.4305     82.8079
  1840.2500      0.0000    666.6155      7.5092     81.6527
  1840.5000      0.0000    670.1549      7.5565     84.3388
  1840.7500      0.0000    674.0251      7.5926     88.8713
  1841.0000      0.0000    674.6200      7.6462     92.0118
  1841.2500      0.0000    666.1943      7.7323     91.4436
  1841.5000      0.0000    646.4073      7.8307     87.2383
  1841.7500      0.0000    622.3460      7.8794     81.7563
  1842.0000      0.0000    608.6335      7.8040     78.0228
  1842.2500      0.0000    616.0140      7.5811     77.7417
  1842.5000      0.0000    641.6224      7.2817     80.6278
  1842.7500      0.0000    672.0297      7.0336     85.3889
  1843.0000      0.0000    695.0593      6.9315     90.9608
  1843.2500      0.0000    707.4102      6.9823     96.7443
  1843.5000      2.0000    712.9723      7.1267    102.4338
  1843.7500     -2.0000    717.2626      7.2896    108.3662
  1844.0000      0.0000    723.5541      7.4117    115.4970
  1844.2500      0.0000    731.4321      7.4581    123.8941
  1844.5000      0.0000    737.5135      7.4306    131.2010
  1844.7500      0.0000    738.6318      7.3858    133.6378
  1845.0000      0.0000    734.9330      7.4269    129.1004
  1845.2500      0.0000    729.3839      7.6394    118.7712
  1845.5000      0.0000    724.6705      8.0089    105.4715
  1845.7500      0.0000    721.6511      8.4110     91.3615
  1846.0000      0.0000    719.9360      8.6992     77.6212
  1846.2500      0.0000    718.0989      8.8050     65.2084
  1846.5000      0.0000    713.7217      8.7578     54.9584
  1846.7500      0.0000    705.0943      8.6299     47.2891
  1847.0000      0.0000    693.2358      8.4784     42.2993
  1847.2500      0.0000    681.1339      8.3263     39.8954
  1847.5000      0.0000    670.6734      8.1766     39.6780
  1847.7500      0.0000    660.5609      8.0294     41.0882
  1848.0000      0.0000    647.5812      7.8882     43.8247
  1848.2500      0.0000    630.7463      7.7621     47.7257
  1848.5000      0.0000    614.7961      7.6671     52.1548
  1848.7500      0.0000    608.0637      7.6249     56.1439
  1849.0000      0.0000    614.9455      7.6542     59.5676
  1849.2500      0.0000    631.4053      7.7590     63.6229
  1849.5000      0.0000    649.1265      7.9187     69.4518
  1849.7500      0.0000    662.4496      8.0929     76.3996
  1850.0000      0.0000    670.2358      8.2398     82.2175
  1850.2500      0.0000    673.5916      8.3336     85.1992
  1850.5000      0.0000    674.3624      8.3687     85.8989
  1850.7500      0.0000    675.1299      8.3552     86.6093
  1851.0000      0.0000    678.6136      8.3097     89.3113
  1851.2500      0.0000    686.1698      8.2462     94.2069
  1851.5000      0.0000    696.8957      8.1717     99.9304
  1851.7500      0.0000    708.1181      8.0865    104.7397
  1852.0000      0.0000    716.9157      7.9853    107.5403
  1852.2500      0.0000    721.6100      7.8621    108.4827
  1852.5000      0.0000    722.2797      7.7227    109.1244
  1852.7500      0.0000    720.0043      7.5900    111.5509
  1853.0000      0.0000    715.6011      7.4881    116.4608
  1853.2500      0.0000    709.0579      7.4249    122.0825
  1853.5000      0.0000    700.2023      7.3921    125.5100
  1853.7500      0.0000    689.8900      7.3798    125.2328
  1854.0000      0.0000    680.1766      7.3834    122.1869
  1854.2500      0.0000    673.0670      7.3988    118.4698
  1854.5000      0.0000    669.3818      7.4152    115.4011
  1854.7500      0.0000    669.0391      7.4170    112.9106
  1855.0000      0.0000    672.0668      7.3935    110.5145
  1855.2500      0.0000    678.8798      7.3474    108.5451
  1855.5000      0.0000    689.3325      7.2907    108.2852
  1855.7500      0.0000    701.6335      7.2349    110.7576
  1856.0000      0.0000    712.7083      7.1870    115.3433
  1856.2500      0.0000    720.1343      7.1535    119.7937
  1856.5000      0.0000    723.6931      7.1417    121.7774
  1856.7500      0.0000    724.8109      7.1565    120.5321
  1857.0000      0.0000    724.7025      7.1982    117.2151
  1857.2500      0.0000    723.3694      7.2602    113.8212
  1857.5000      0.0000    720.3557      7.3260    111.7198
  1857.7500      0.0000    716.0903      7.3689    111.0743
  1858.0000      0.0000    712.1130      7.3639    111.3267
  1858.2500      0.0000    709.9409      7.3048    111.9501
  1858.5000      0.0000    709.8710      7.2120    112.6953
  1858.7500      0.0000    710.8185      7.1229    113.3161
  1859.0000      0.0000    711.2345      7.0713    113.3183
  1859.2500      0.0000    710.3740      7.0715    112.2435
  1859.5000      0.0000    708.8235      7.1151    110.3337
  1859.7500      0.0000    707.7139      7.1792    108.6693
  1860.0000      0.0000    707.2807      7.2384    108.4545
  1860.2500      0.0000    706.1442      7.2730    110.2057
  1860.5000      0.0000    702.1038      7.2705    113.4381
  1860.7500      0.0000    693.8284      7.2250    116.8397
  1861.0000      0.0000    681.5662      7.1428    119.0174
  1861.2500      0.0000    665.9882      7.0441    119.6143
  1861.5000      0.0000    647.0710      6.9537    119.8143
  1861.7500      0.0000    625.1483      6.8889    121.3131
  1862.0000      0.0000    602.8402      6.8559    124.4619
  1862.2500      0.0000    584.8026      6.8518    127.5695
  1862.5000      0.0000    575.3810      6.8667    128.1235
  1862.7500      0.0000    576.8713      6.8883    124.2567
  1863.0000      0.0000    589.0597      6.9074    114.7627
  1863.2500      0.0000    608.7034      6.9174     98.6729
  1863.5000      0.0000    629.6186      6.9104     76.3957
  1863.7500      0.0000    645.3058      6.8795     51.3669
  1864.0000      0.0000    652.7394      6.8279     29.0694
  1864.2500      0.0000    653.4417      6.7740     13.5244
  1864.5000      0.0000    650.9160      6.7415      5.0885
  1864.7500      0.0000    647.6911      6.7436      1.5307
  1865.0000      0.0000    644.9448      6.7742      0.3649
  1865.2500      0.0000    643.8713      6.8152      0.0680
  1865.5000      0.0000    645.8894      6.8529      0.0092
  1865.7500      0.0000    651.3510      6.8844      0.0000
  1866.0000      0.0000    659.2945      6.9107   -999.2500
  1866.2500      0.0000    668.9670      6.9272   -999.2500
  1866.5000      0.0000    680.7083      6.9242   -999.2500
  1866.7500      0.0000    694.6568      6.8950   -999.2500
  1867.0000      0.0000    709.0724      6.8440   -999.2500
  1867.2500      0.0000    720.6354      6.7848   -999.2500
  1867.5000      0.0000    725.8781      6.7250   -999.2500
  1867.7500      0.0000    721.0543      6.6459   -999.2500
  1868.0000      0.0000    699.4667      6.4814   -999.2500
  1868.2500      0.0000    649.6403      6.1167   -999.2500
