~Version Information
 VERS.                                  2.0 : CWLS LAS VERSION
 WRAP.                                   NO : WRAPING MODE
 SWARE .                  MController 2.6.3 : SOFTWARE VERSION
~Well Information
 WELL.                        Chevron 13-13 : WELL
 COMP.    Pioneer Natural Resources USA Inc : COMPANY
 FLD.                      Purgatoire River : FIELD
 LOC.                NW/SW Sec 13 T32S R66W : LOCATION
 DATE.                         2/10-11/2007 : DATE(S) LOGGED
 SRVC.        Ismay Geological Services Ltd : SERVICE COMPANY
 STAT.                                   CO : STATE
 CNTY.                           Las Animas : COUNTY
 CTRY.                                  USA : COUNTRY
 API.                          05-071-08319 : API NUMBER
 STRT.FT                             985.00 : START DEPTH
 STOP.FT                            2410.00 : STOP DEPTH
 STEP.FT                               1.00 : DEPTH INCREMENT
 NULL.                                -9999 : NULL VALUE
~Curve information
 DEPTH.FT                                   :
 ROP.MIN/FT                                 :
 GAS.UNITS                                  :
~ASCII Log data
# ...
     1886.00         0.43        104.3 
     1887.00         0.42        105.7 
     1888.00         0.37        103.7 
     1889.00         0.47        106.0 
     1890.00         0.40        104.1 
     1891.00         0.43        106.8 
     1892.00         0.47        144.7 
     1893.00         0.40        144.2 
     1894.00         0.40        136.7 
     1895.00         0.38        117.3 
     1896.00         0.33        110.0 
     1897.00         0.33        106.1 
     1898.00         0.30        106.1 
     1899.00         0.30        106.0 
     1900.00         0.30        103.5 
     1901.00         0.27         99.3 
     1902.00         0.27         98.9 
     1903.00         0.27        100.5 
     1904.00         0.27        102.8 
     1905.00         0.27         85.6 
     1906.00         0.27         48.8 
     1907.00         0.32         27.8 
     1908.00         0.30         40.1 
     1909.00         0.27        136.3 
     1910.00         0.27        248.7 
     1911.00         0.60        433.3 
     1912.00         3.52       1161.9 
     1913.00         0.60        142.0 
     1914.00         0.43        105.7 
     1915.00         0.40        108.3 
     1916.00         0.32        105.1 
     1917.00         0.37        104.8 
     1918.00         0.37        100.6 
     1919.00         0.33         94.7 
     1920.00         0.27         94.9 
     1921.00         0.30         97.1 
     1922.00         0.23         97.6 
     1923.00         0.27         97.1 
     1924.00         0.23         96.6 
     1925.00         0.23         97.2 
     1926.00         0.23         96.6 
     1927.00         0.23         96.2 
     1928.00         0.25         96.4 
     1929.00         0.20         95.2 
     1930.00         0.23         94.9 
     1931.00         0.27         96.5 
     1932.00         0.23        104.9 
     1933.00         0.23        108.5 
     1934.00         0.23         89.7 
     1935.00         0.23         50.0 
     1936.00         0.20         23.8 
     1937.00         0.20         22.2 
     1938.00         0.23        123.3 
     1939.00         0.20        123.3 
     1940.00         0.20        235.5 
     1941.00         0.33        325.7 
     1942.00         3.67       1171.9 
     1943.00         0.77        130.6 
     1944.00         0.50         82.9 
     1945.00         0.37         82.6 
     1946.00         0.40         82.4 
     1947.00         0.37         81.0 
     1948.00         0.33         79.5 
     1949.00         0.30         78.1 
     1950.00         0.28         78.4 
     1951.00         0.30         81.9 
     1952.00         0.23         86.5 
     1953.00         0.30         89.2 
     1954.00         0.23         83.3 
     1955.00         0.23         83.3 
     1956.00         0.30         85.3 
     1957.00         0.40         88.2 
     1958.00         0.33         94.2 
     1959.00         0.33         97.9 
     1960.00         0.23        102.3 
     1961.00         0.20        102.4 
     1962.00         0.25        103.0 
     1963.00         0.27        105.2 
     1964.00         0.27        105.3 
     1965.00         0.27         92.2 
     1966.00         0.23         48.5 
     1967.00         0.17         22.8 
     1968.00         0.27         47.5 
     1969.00         0.27        137.6 
     1970.00         0.33        281.5 
     1971.00         0.37        376.0 
     1972.00         3.90       1838.8 
     1973.00         0.27        215.5 
     1974.00         0.57        147.7 
     1975.00         0.50        110.3 
     1976.00         0.47        110.3 
     1977.00         0.30        110.5 
     1978.00         0.27        110.9 
     1979.00         0.43        108.2 
     1980.00         0.30        102.8 
     1981.00         0.18         98.6 
     1982.00         0.23         99.5 
     1983.00         0.27        100.5 
     1984.00         0.20        102.9 
     1985.00         0.27        100.8 
     1986.00         0.33         99.9 
     1987.00         0.30        100.2 
     1988.00         0.30         99.4 
     1989.00         0.47        103.2 
     1990.00         0.27        105.1 
     1991.00         0.27        105.5 
     1992.00         0.27        104.9 
     1993.00         0.35        105.3 
     1994.00         0.33        107.9 
     1995.00         0.27        105.3 
     1996.00         0.27         94.6 
     1997.00         0.27         90.6 
     1998.00         0.27         52.8 
     1999.00         0.40         32.8 
     2000.00         0.30        139.4 
     2001.00         0.23        256.1 
     2002.00         5.50       2208.3 
     2003.00         0.50        107.6 
     2004.00         0.50        101.3 
     2005.00         0.37         95.0 
     2006.00         0.43         98.6 
     2007.00         0.42        101.9 
     2008.00         0.33        105.3 
     2009.00         0.33        106.5 
     2010.00         0.33        109.0 
     2011.00         0.30         99.8 
     2012.00         0.27         97.8 
     2013.00         0.30         98.7 
     2014.00         0.30        118.2 
     2015.00         0.37        119.9 
     2016.00         0.75        122.9 
     2017.00         0.50         88.5 
     2018.00         0.33        107.8 
     2019.00         0.33        186.9 
     2020.00         0.30        282.3 
     2021.00         0.20        294.2 
     2022.00         0.27        310.5 
     2023.00         0.23        285.2 
     2024.00         0.23        278.4 
     2025.00         0.20        250.0 
     2026.00         0.27        230.8 
     2027.00         0.38        202.8 
     2028.00         0.37        161.4 
     2029.00         0.37         56.9 
     2030.00         0.33         92.9 
     2031.00         0.33        304.6 
     2032.00         2.82        637.8 
     2033.00         0.60        338.4 
     2034.00         0.47        298.4 
     2035.00         0.73        230.4 
     2036.00         0.53        141.3 
     2037.00         0.55        126.4 
     2038.00         0.50        251.0 
     2039.00         0.53        352.3 
     2040.00         0.40        340.6 
     2041.00         0.17        305.7 
     2042.00         0.33        272.2 
     2043.00         0.37        244.7 
     2044.00         0.30        218.8 
     2045.00         0.35        205.8 
     2046.00         0.30        193.5 
     2047.00         0.30        153.1 
     2048.00         0.30        210.5 
     2049.00         0.43        259.5 
     2050.00         0.30        264.4 
     2051.00         0.20        254.3 
     2052.00         0.20        251.0 
     2053.00         0.27        233.3 
     2054.00         0.30        216.8 
     2055.00         0.33        209.0 
     2056.00         0.33        198.9 
     2057.00         0.35        195.3 
     2058.00         0.33        186.5 
     2059.00         0.33        125.4 
     2060.00         0.33         70.3 
     2061.00         0.33         82.8 
     2062.00         5.70        970.5 
     2063.00         0.33        371.0 
     2064.00         0.63        255.2 
     2065.00         0.77        198.7 
     2066.00         0.67        176.4 
     2067.00         0.65        254.5 
     2068.00         0.60        270.9 
     2069.00         0.50        268.7 
     2070.00         0.40        265.8 
     2071.00         0.43        282.7 
     2072.00         0.40        311.3 
     2073.00         0.43        307.2 
     2074.00         0.45        283.2 
     2075.00         0.40        248.6 
     2076.00         0.40        225.0 
     2077.00         0.43        203.8 
     2078.00         0.43        203.4 
     2079.00         0.40        204.8 
     2080.00         0.33        205.5 
     2081.00         0.37        194.2 
     2082.00         0.30        195.7 
     2083.00         0.38        203.5 
     2084.00         0.33        203.8 
     2085.00         0.33        202.7 
