~Version Information
VERS.                      2.0: CWLS Log ASCII Standard - VERSION 2.0
WRAP.                       NO: One line per depth step
~Well Information Block
STRT.FT               590.0000: 
STOP.FT              1563.5000: 
STEP.FT                 0.1000: 
NULL.                -999.2500: 
COMP.          Petrogulf Corporation: COMPANY
WELL.             State 16-43R: WELL
FLD.           Purgatorie River: FIELD
LOC.           2538' FSL & 716' FEL: LOCATION
PROV.                 Colorado: PROVINCE
CNTY.               Las Animas: COUNTRY
SRVC.                Patterson: SERVICE COMPANY
DATE.          Tue Aug 09 14:21:37 2005: LOG DATE
UWI.                          : UNIQUE WELL ID
~Curve Information Block
DEPT.FT            0 000 00 00: Depth
DCAL.in                       : CDL Caliper
RHOB.g/cc                     : CDL Bulk Density
RHOC.g/cc                     : CDL Density Correction
DPOR.pu                       : CDL Density Porosity
GR.GAPI                       : Gamma Ray
NPOR.pu                       : Neutron Porosity
~Parameter Information Block
~A  Depth       DCAL        RHOB        RHOC        DPOR         GR         NPOR    
# ...
   782.0000      7.7921      2.7719     -0.0235     -7.3893    124.2199     30.5584
   782.1000      7.7921      2.7361      0.0422     -5.2196    123.8661     30.5517
   782.2000      7.7921      2.7156      0.0089     -3.9769    125.2308     30.8100
   782.3000      7.8560      2.6916      0.0848     -2.5229    127.1611     31.0999
   782.4000      7.8560      2.6592      0.0185     -0.5553    129.2722     31.1102
   782.5000      7.8673      2.6350      0.0482      0.9067    129.7150     30.9201
   782.6000      7.8673      2.6308      0.0515      1.1631    127.6563     30.6902
   782.7000      7.8673      2.6381      0.0718      0.7226    125.9904     30.4148
   782.8000      7.8547      2.6483      0.0372      0.1040    127.7115     30.2519
   782.9000      7.8547      2.6581      0.0961     -0.4884    132.6808     30.1086
   783.0000      7.8604      2.6590      0.0760     -0.5444    137.7633     29.8404
   783.1000      7.8604      2.6497      0.0938      0.0154    140.2099     29.6970
   783.2000      7.8604      2.6372      0.0519      0.7765    141.2575     29.7340
   783.3000      7.8670      2.6249      0.0646      1.5227    142.9487     29.7561
   783.4000      7.8670      2.6060      0.1050      2.6641    142.7190     29.6642
   783.5000      7.8543      2.5757      0.0736      4.5024    138.5437     29.3016
   783.6000      7.8543      2.5506      0.0033      6.0237    134.7358     28.5513
   783.7000      7.8543      2.5479      0.0213      6.1892    134.6966     27.6551
   783.8000      7.8650      2.5608      0.0425      5.4039    135.8899     26.9354
   783.9000      7.8650      2.5760      0.0548      4.4876    135.6655     26.4384
   784.0000      7.8530      2.5837      0.1109      4.0164    136.3031     26.0557
   784.1000      7.8530      2.5740      0.1341      4.6060    138.8894     25.6162
   784.2000      7.8530      2.5462      0.1217      6.2881    139.8348     25.0574
   784.3000      7.8309      2.5149      0.0951      8.1865    138.7252     24.4437
   784.4000      7.8309      2.4914      0.1201      9.6135    139.3711     23.9971
   784.5000      7.7921      2.4714      0.1263     10.8252    142.7606     23.8204
   784.6000      7.7921      2.4506      0.1353     12.0824    147.3885     23.7535
   784.7000      7.7921      2.4421      0.0693     12.6019    152.0104     23.6761
   784.8000      7.7774      2.4600      0.1123     11.5174    153.9227     23.4770
   784.9000      7.7774      2.4950      0.1540      9.3933    151.1475     23.1216
   785.0000      7.7713      2.5280      0.1721      7.3968    147.2068     22.9367
   785.1000      7.7713      2.5502      0.2015      6.0462    144.5331     23.2890
   785.2000      7.7713      2.5597      0.2055      5.4700    141.7706     23.9899
   785.3000      7.7730      2.5537      0.1987      5.8363    142.1539     24.4967
   785.4000      7.7730      2.5313      0.1799      7.1945    147.0311     24.6914
   785.5000      7.7676      2.5040      0.1172      8.8474    150.9897     24.8416
   785.6000      7.7676      2.4933      0.0847      9.4989    151.0717     25.1612
   785.7000      7.7676      2.5075      0.0839      8.6391    150.3692     25.6161
   785.8000      7.7321      2.5287      0.1745      7.3523    150.9620     25.9461
   785.9000      7.7321      2.5351      0.1627      6.9606    151.3460     26.1705
   786.0000      7.7090      2.5266      0.1410      7.4808    151.3750     26.5168
   786.1000      7.7090      2.5159      0.1358      8.1265    151.3227     26.7705
   786.2000      7.7090      2.5121      0.1404      8.3569    151.1854     26.5827
   786.3000      7.7058      2.5119      0.1512      8.3720    152.1032     26.1813
   786.4000      7.7058      2.5023      0.1484      8.9542    154.5987     26.0639
   786.5000      7.7220      2.4761      0.1461     10.5412    157.0259     26.3355
   786.6000      7.7220      2.4446      0.0586     12.4465    156.8365     26.5307
   786.7000      7.7220      2.4254      0.0664     13.6125    154.0614     26.2939
   786.8000      7.7356      2.4168      0.0828     14.1311    152.0023     25.7943
   786.9000      7.7356      2.4069      0.0588     14.7321    151.1410     25.2764
   787.0000      7.7031      2.3979      0.0477     15.2818    148.2860     25.0190
   787.1000      7.7031      2.4010      0.0493     15.0908    143.2424     25.0925
   787.2000      7.7031      2.4114      0.0858     14.4597    140.1231     25.3194
   787.3000      7.6681      2.4034      0.1160     14.9477    139.7124     25.6681
   787.4000      7.6681      2.3621      0.0731     17.4509    138.0163     26.0182
   787.5000      7.6801      2.2980      0.0584     21.3353    134.8209     26.0955
   787.6000      7.6801      2.2263      0.0527     25.6786    133.6658     25.7644
   787.7000      7.6801      2.1573      0.0334     29.8582    136.5637     25.1798
   787.8000      7.7248      2.0894      0.0438     33.9730    140.8458     24.5522
   787.9000      7.7248      2.0149      0.0268     38.4930    140.7995     23.8482
   788.0000      7.8798      1.9414     -0.0064     42.9467    133.6233     22.7782
   788.1000      7.8798      1.8747      0.0380     46.9850    123.0490     21.3974
   788.2000      7.8798      1.7967      0.0829     51.7133    113.9890     19.9887
   788.3000      8.0317      1.6994      0.0425     57.6137    106.4640     18.4667
   788.4000      8.0317      1.6028      0.0424     63.4664     98.6669     16.8489
   788.5000      8.0110      1.5148      0.0889     68.8000     90.3173     15.3159
   788.6000      8.0110      1.4289      0.0341     74.0038     82.8335     13.8491
   788.7000      8.0110      1.3612     -0.0382     78.1098     77.7908     12.3182
   788.8000      8.1560      1.3265      0.0765     80.2112     73.6933     10.8242
   788.9000      8.1560      1.3082      0.0893     81.3216     68.3565      9.7631
   789.0000      8.4158      1.2927      0.0651     82.2590     63.0821      9.3225
   789.1000      8.4158      1.2909      0.0496     82.3706     59.4233      9.3007
   789.2000      8.4158      1.3080      0.1106     81.3306     56.4565      9.5315
   789.3000      8.5076      1.3274      0.1548     80.1572     52.4565     10.0866
   789.4000      8.5076      1.3340      0.1310     79.7557     46.8424     10.9255
   789.5000      8.5331      1.3307      0.1202     79.9578     41.6470     11.7311
   789.6000      8.5331      1.3271      0.0969     80.1772     39.4425     12.2977
   789.7000      8.5331      1.3311      0.0810     79.9337     40.7041     12.6827
   789.8000      8.4114      1.3406      0.1055     79.3605     43.6983     13.1438
   789.9000      8.4114      1.3439      0.1023     79.1603     46.2693     13.8604
   790.0000      8.4088      1.3377      0.0739     79.5336     47.3538     14.6768
   790.1000      8.4088      1.3294      0.0765     80.0341     46.4920     15.2775
   790.2000      8.4088      1.3254      0.0512     80.2803     43.5696     15.5611
   790.3000      8.4117      1.3257      0.0544     80.2580     40.5215     15.5661
   790.4000      8.4117      1.3237      0.0634     80.3814     40.2209     15.2520
   790.5000      8.3986      1.3145      0.0490     80.9397     42.1629     14.8581
   790.6000      8.3986      1.3089      0.0061     81.2814     43.3792     14.6875
   790.7000      8.3986      1.3196      0.0601     80.6321     42.3781     14.6216
   790.8000      8.4166      1.3408      0.0703     79.3462     40.0661     14.3375
   790.9000      8.4166      1.3590      0.0887     78.2433     39.1464     13.6301
   791.0000      8.6873      1.3655      0.1021     77.8455     41.4134     12.6562
   791.1000      8.6873      1.3585      0.0939     78.2733     45.6033     11.8578
   791.2000      8.6873      1.3440      0.0893     79.1521     49.8189     11.2607
   791.3000      8.9972      1.3300      0.0948     80.0010     52.3674     10.6750
   791.4000      8.9972      1.3174      0.1079     80.7606     52.2317     10.2609
   791.5000      9.3252      1.3032      0.0711     81.6257     50.5083     10.1207
