~Version Information
VERS.                      2.0: CWLS Log ASCII Standard - VERSION 2.0
WRAP.                       NO: One line per depth step
~Well Information Block
STRT.FT               480.0000: 
STOP.FT              1994.2500: 
STEP.FT                 0.2500: 
NULL.                -999.2500: 
COMP.          Evergreen Operating Corporation: COMPANY
WELL.          McCullough 34-32 Tr: WELL
FLD.           Purgatoire River: FIELD
LOC.           394' FSL & 2077' FEL: LOCATION
PROV.                 Colorado: PROVINCE
CNTY.               Las Animas: COUNTRY
SRVC.                Patterson: SERVICE COMPANY
DATE.          Sun Sep 19 05:48:59 2004: LOG DATE
UWI.           05 071 08157 00: UNIQUE WELL ID
~Curve Information Block
DEPT.FT            0 000 00 00: Depth
SN.Ohm-m                      : IEL Short Normal
SP.mV                         : IEL Spontaneous Potential
DIR.Ohm-m                     : IEL Induction Resistivity
GR.GAPI                       : Gamma Ray
~Parameter Information Block
~A  Depth        SN          SP         DIR          GR     
# ...
  1652.5000     34.2733    294.8669     23.3704     90.5579
  1652.7500     34.4642    294.7781     23.5777     91.1495
  1653.0000     34.6400    294.6289     23.7165     93.1672
  1653.2500     34.8618    294.4588     23.7835     94.7949
  1653.5000     35.0952    294.3139     23.7724     96.4652
  1653.7500     35.2152    294.2303     23.6744     96.6196
  1654.0000     35.1049    294.2230     23.4884     95.4881
  1654.2500     34.7606    294.2848     23.2312     94.3412
  1654.5000     34.3115    294.3909     22.9369     93.4101
  1654.7500     33.9377    294.5077     22.6453     94.0107
  1655.0000     33.7554    294.6018     22.3876     96.8057
  1655.2500     33.7498    294.6490     22.1778     99.1560
  1655.5000     33.7948    294.6407     22.0099    101.4660
  1655.7500     33.7300    294.5860     21.8589    101.2429
  1656.0000     33.4301    294.5102     21.6845     97.4913
  1656.2500     32.8438    294.4484     21.4418     93.0429
  1656.5000     32.0248    294.4361     21.1025     85.7692
  1656.7500     31.1506    294.4998     20.6738     82.4705
  1657.0000     30.4616    294.6498     20.2010     82.1626
  1657.2500     30.1154    294.8776     19.7468     84.9723
  1657.5000     30.0667    295.1591     19.3641     91.4293
  1657.7500     30.0922    295.4623     19.0782     95.4667
  1658.0000     29.9462    295.7549     18.8833     98.8609
  1658.2500     29.5194    296.0112     18.7504     98.9785
  1658.5000     28.8857    296.2147     18.6418     97.0096
  1658.7500     28.2324    296.3576     18.5295     95.4214
  1659.0000     27.7572    296.4375     18.4128     94.3748
  1659.2500     27.6010    296.4548     18.3238     95.0729
  1659.5000     27.8280    296.4095     18.3186     98.0301
  1659.7500     28.4376    296.3005     18.4578    100.6154
  1660.0000     29.3916    296.1258     18.7882    103.7218
  1660.2500     30.6287    295.8825     19.3299    104.3637
  1660.5000     32.0557    295.5684     20.0691    102.4810
  1660.7500     33.5550    295.1826     20.9569     99.5276
  1661.0000     35.0409    294.7281     21.9226     93.5484
  1661.2500     36.5248    294.2139     22.9008     89.3123
  1661.5000     38.1235    293.6580     23.8627     84.1190
  1661.7500     39.9870    293.0890     24.8241     82.1458
  1662.0000     42.1894    292.5466     25.8194     81.3970
  1662.2500     44.6324    292.0784     26.8538     81.5193
  1662.5000     47.0093    291.7323     27.8625     80.8066
  1662.7500     48.8682    291.5454     28.7048     79.1493
  1663.0000     49.7815    291.5340     29.2075     75.0587
  1663.2500     49.5417    291.6872     29.2379     71.8943
  1663.5000     48.2563    291.9697     28.7585     68.2867
  1663.7500     46.2845    292.3307     27.8365     67.8933
  1664.0000     44.0665    292.7158     26.6182     71.8595
  1664.2500     41.9476    293.0789     25.2867     77.5619
  1664.5000     40.0784    293.3879     24.0148     88.8963
  1664.7500     38.4201    293.6275     22.9229     96.3711
  1665.0000     36.8270    293.7966     22.0584    103.8239
  1665.2500     35.1478    293.9053     21.3972    104.9809
  1665.5000     33.2998    293.9711     20.8667    101.4348
  1665.7500     31.3022    294.0171     20.3825     97.0626
  1666.0000     29.2685    294.0688     19.8831     90.4577
  1666.2500     27.3616    294.1516     19.3451     87.2819
  1666.5000     25.7242    294.2859     18.7705     85.7630
  1666.7500     24.4115    294.4823     18.1616     87.5197
  1667.0000     23.3663    294.7391     17.5077     94.7129
  1667.2500     22.4604    295.0415     16.7920    102.1608
  1667.5000     21.5786    295.3655     16.0082    115.7910
  1667.7500     20.6775    295.6830     15.1709    125.4702
  1668.0000     19.7767    295.9671     14.3105    139.1231
  1668.2500     18.9132    296.1956     13.4626    146.7337
  1668.5000     18.1118    296.3520     12.6616    154.9007
  1668.7500     17.3874    296.4254     11.9423    158.0446
  1669.0000     16.7574    296.4099     11.3395    159.5893
  1669.2500     16.2410    296.3064     10.8837    158.7789
  1669.5000     15.8408    296.1240     10.5940    155.5149
  1669.7500     15.5292    295.8808     10.4751    152.4983
  1670.0000     15.2492    295.6011     10.5169    147.0513
  1670.2500     14.9305    295.3100     10.6975    142.3318
  1670.5000     14.5252    295.0272     10.9853    132.3983
  1670.7500     14.0649    294.7643     11.3423    123.9152
  1671.0000     13.6935    294.5262     11.7295    110.7725
  1671.2500     13.6201    294.3166     12.1133    103.8599
  1671.5000     14.0021    294.1424     12.4682     99.0258
  1671.7500     14.8353    294.0152     12.7711     99.8901
  1672.0000     15.9317    293.9489     12.9925    106.0785
  1672.2500     16.9991    293.9544     13.0928    112.0903
  1672.5000     17.7690    294.0345     13.0345    121.5710
  1672.7500     18.0949    294.1803     12.8031    127.3670
  1673.0000     17.9754    294.3723     12.4248    134.8424
  1673.2500     17.5107    294.5826     11.9621    138.8482
  1673.5000     16.8366    294.7820     11.4910    142.7864
  1673.7500     16.0746    294.9460     11.0728    143.9492
  1674.0000     15.3093    295.0616     10.7372    144.6438
  1674.2500     14.5906    295.1282     10.4813    145.3990
  1674.5000     13.9451    295.1563     10.2806    147.6388
  1674.7500     13.3852    295.1624     10.1046    149.4844
  1675.0000     12.9085    295.1640      9.9296    151.9248
  1675.2500     12.4982    295.1753      9.7461    153.1189
  1675.5000     12.1340    295.2053      9.5585    154.0930
  1675.7500     11.8031    295.2567      9.3808    154.1377
  1676.0000     11.5028    295.3265      9.2290    153.5268
  1676.2500     11.2350    295.4063      9.1156    152.8731
  1676.5000     11.0005    295.4849      9.0457    151.3262
  1676.7500     10.7955    295.5507      9.0172    149.4973
  1677.0000     10.6162    295.5949      9.0224    145.2158
  1677.2500     10.4712    295.6135      9.0521    141.6766
  1677.5000     10.3944    295.6083      9.1004    136.4160
  1677.7500     10.4421    295.5867      9.1674    133.4354
  1678.0000     10.6716    295.5594      9.2594    130.2269
  1678.2500     11.1076    295.5363      9.3858    129.1384
  1678.5000     11.7181    295.5229      9.5551    129.1636
  1678.7500     12.4120    295.5170      9.7716    129.8827
  1679.0000     13.0673    295.5098     10.0321    130.5523
  1679.2500     13.5798    295.4899     10.3226    129.8415
  1679.5000     13.9020    295.4492     10.6168    126.3265
  1679.7500     14.0501    295.3883     10.8818    122.6132
  1680.0000     14.0794    295.3192     11.0884    116.4814
  1680.2500     14.0531    295.2616     11.2236    113.1925
  1680.5000     14.0219    295.2373     11.2949    111.1288
  1680.7500     14.0131    295.2625     11.3242    112.0289
  1681.0000     14.0280    295.3420     11.3370    116.0223
  1681.2500     14.0430    295.4693     11.3505    119.3094
  1681.5000     14.0191    295.6304     11.3672    123.0591
  1681.7500     13.9192    295.8102     11.3739    124.1400
  1682.0000     13.7258    295.9976     11.3478    124.0318
  1682.2500     13.4451    296.1866     11.2666    123.5045
  1682.5000     13.0999    296.3741     11.1185    123.0949
  1682.7500     12.7179    296.5571     10.9051    123.4329
  1683.0000     12.3276    296.7328     10.6393    124.8173
  1683.2500     11.9594    296.9006     10.3399    125.7617
  1683.5000     11.6453    297.0668     10.0276    125.5926
  1683.7500     11.4089    297.2439      9.7220    123.7294
  1684.0000     11.2492    297.4451      9.4399    118.5945
  1684.2500     11.1305    297.6743      9.1917    114.5714
  1684.5000     11.0018    297.9173      8.9806    109.7573
  1684.7500     10.8372    298.1414      8.8022    108.4387
  1685.0000     10.6577    298.3060      8.6495    110.2704
  1685.2500     10.5077    298.3791      8.5197    113.8266
  1685.5000     10.4186    298.3516      8.4198    121.0112
  1685.7500     10.3995    298.2413      8.3658    125.7074
