~Version Information
VERS.                      2.0: CWLS Log ASCII Standard - VERSION 2.0
WRAP.                       NO: One line per depth step
~Well Information Block
STRT.FT               780.0000: 
STOP.FT              2866.2000: 
STEP.FT                 0.1000: 
NULL.                -999.2500: 
COMP.          Pioneer Natural Resources: COMPANY
WELL.            Sebring 42-29: WELL
FLD.           Purgatoire River: FIELD
LOC.           1751' FNL & 584' FEL--: LOCATION
PROV.                 Colorado: PROVINCE
CNTY.               Las Animas: COUNTRY
SRVC.                Patterson: SERVICE COMPANY
DATE.          Mon Aug 15 07:11:37 2005: LOG DATE
UWI.           05 071 08293 00: UNIQUE WELL ID
~Curve Information Block
DEPT.FT            0 000 00 00: Depth
DCAL.in                       : CDL Caliper
RHOB.g/cc                     : CDL Bulk Density
RHOC.g/cc                     : CDL Density Correction
DPOR.pu                       : CDL Density Porosity
NPOR.pu                       : Neutron Porosity
GR.GAPI                       : Gamma Ray
~Parameter Information Block
~A  Depth       DCAL        RHOB        RHOC        DPOR        NPOR         GR     
# ...
  1327.2000      8.0920      2.4671      0.0113     11.0849     27.5744    120.7165
  1327.3000      8.0758      2.4565     -0.0329     11.7258     26.9274    119.3731
  1327.4000      8.0758      2.4697      0.0250     10.9255     25.6886    125.7731
  1327.5000      8.0743      2.4848      0.0538     10.0135     24.3125    135.9106
  1327.6000      8.0743      2.4752      0.0557     10.5926     23.3641    143.9464
  1327.7000      8.0743      2.4490      0.0632     12.1835     22.9272    146.2464
  1327.8000      8.0733      2.4392      0.0376     12.7758     22.6494    140.5087
  1327.9000      8.0733      2.4597      0.0787     11.5325     22.2277    128.1615
  1328.0000      8.0730      2.4870      0.1101      9.8806     21.8504    118.6761
  1328.1000      8.0730      2.4973      0.0744      9.2559     21.7855    117.7184
  1328.2000      8.0730      2.4963      0.0650      9.3123     21.9965    119.9167
  1328.3000      8.0754      2.4944      0.0705      9.4283     22.2704    120.6729
  1328.4000      8.0754      2.4866      0.0799      9.9027     22.3755    119.9435
  1328.5000      8.0775      2.4733      0.0560     10.7074     22.5192    117.0256
  1328.6000      8.0775      2.4736      0.0115     10.6933     23.1077    113.1852
  1328.7000      8.0775      2.4976      0.0670      9.2344     24.1217    112.1177
  1328.8000      8.0768      2.5333      0.0865      7.0742     25.1500    115.4194
  1328.9000      8.0768      2.5612      0.0953      5.3839     25.6290    122.9406
  1329.0000      8.0752      2.5688      0.0947      4.9233     25.2723    131.4845
  1329.1000      8.0752      2.5609      0.0390      5.3986     24.5324    135.8287
  1329.2000      8.0752      2.5573      0.0402      5.6211     23.9703    136.0185
  1329.3000      8.0737      2.5680      0.1126      4.9681     23.4944    137.2434
  1329.4000      8.0737      2.5849      0.0989      3.9457     22.8052    139.9127
  1329.5000      8.0726      2.5952      0.0913      3.3227     22.0401    139.8742
  1329.6000      8.0726      2.5912      0.0518      3.5617     21.3973    135.7541
  1329.7000      8.0726      2.5793      0.0388      4.2834     20.9866    131.3300
  1329.8000      8.0736      2.5758      0.0308      4.4942     20.8565    129.7849
  1329.9000      8.0736      2.5834      0.0728      4.0349     20.7396    128.4097
  1330.0000      8.0747      2.5987      0.0450      3.1092     20.5255    123.1819
  1330.1000      8.0747      2.6195      0.0954      1.8460     20.3965    115.5304
  1330.2000      8.0747      2.6236      0.0870      1.5994     20.4657    108.3645
  1330.3000      8.0735      2.5988      0.0497      3.1004     20.7879    101.3228
  1330.4000      8.0735      2.5689      0.0091      4.9168     21.2152     95.4371
  1330.5000      8.0720      2.5611      0.0164      5.3855     21.3272     91.7765
  1330.6000      8.0720      2.5799      0.0579      4.2509     21.1285     89.1185
  1330.7000      8.0720      2.6096      0.0650      2.4515     21.3311     87.5981
  1330.8000      8.0718      2.6333      0.0682      1.0104     22.1099     86.3498
  1330.9000      8.0718      2.6390      0.0586      0.6668     22.7132     83.2626
  1331.0000      8.0736      2.6247      0.0358      1.5313     22.7398     78.6743
  1331.1000      8.0736      2.6118     -0.0123      2.3178     22.4453     74.0066
  1331.2000      8.0736      2.6163      0.0497      2.0413     22.0790     70.3977
  1331.3000      8.0743      2.6252      0.0329      1.5040     21.8844     66.9395
  1331.4000      8.0743      2.6293      0.0272      1.2570     22.0197     62.1987
  1331.5000      8.0744      2.6329      0.0407      1.0384     22.3631     59.0691
  1331.6000      8.0744      2.6296      0.0459      1.2356     22.7214     60.6648
  1331.7000      8.0744      2.6190      0.0104      1.8793     22.8472     65.9536
  1331.8000      8.0768      2.6157     -0.0098      2.0806     22.6287     73.0202
  1331.9000      8.0768      2.6161      0.0395      2.0553     22.2424     77.9398
  1332.0000      8.0796      2.6076      0.0127      2.5697     21.9041     77.1197
  1332.1000      8.0796      2.5929      0.0061      3.4627     21.6102     72.2821
  1332.2000      8.0796      2.5699      0.0179      4.8560     21.3759     67.9640
  1332.3000      8.0807      2.5359     -0.0196      6.9132     21.2564     66.9704
  1332.4000      8.0807      2.5020      0.0250      8.9713     20.9261     69.9147
  1332.5000      8.0805      2.4797     -0.0604     10.3190     20.3404     73.3229
  1332.6000      8.0805      2.4727     -0.0179     10.7439     20.0083     71.6753
  1332.7000      8.0805      2.4743     -0.0087     10.6499     20.0138     66.0221
  1332.8000      8.0800      2.4755      0.0036     10.5744     20.0946     61.1939
  1332.9000      8.0800      2.4722     -0.0001     10.7765     20.2722     59.8393
  1333.0000      8.0791      2.4733     -0.0085     10.7077     20.4633     62.0443
  1333.1000      8.0791      2.4897     -0.0065      9.7176     20.2368     65.1521
  1333.2000      8.0791      2.5131      0.0353      8.2999     19.7812     68.0148
  1333.3000      8.0780      2.5269      0.0120      7.4583     19.7037     69.6428
  1333.4000      8.0780      2.5294      0.0426      7.3096     19.6909     66.9175
  1333.5000      8.0765      2.5233      0.0703      7.6773     19.2692     60.9291
  1333.6000      8.0765      2.5049      0.0365      8.7932     18.8613     57.0057
  1333.7000      8.0765      2.4825      0.0389     10.1512     18.7229     57.0826
  1333.8000      8.0727      2.4738     -0.0170     10.6804     18.6097     58.6493
  1333.9000      8.0727      2.4801     -0.0040     10.2952     18.6281     59.3417
  1334.0000      8.0690      2.4841      0.0574     10.0530     18.8714     59.9228
  1334.1000      8.0690      2.4811     -0.0055     10.2366     19.0116     61.0512
  1334.2000      8.0690      2.4889      0.0259      9.7614     18.8375     61.9871
  1334.3000      8.0677      2.5098      0.0468      8.4990     18.4325     63.2920
  1334.4000      8.0677      2.5250      0.0973      7.5777     18.0674     65.1462
  1334.5000      8.0681      2.5256      0.0744      7.5424     18.1028     66.6893
  1334.6000      8.0681      2.5192      0.0448      7.9248     18.3869     67.9849
  1334.7000      8.0681      2.5155      0.0427      8.1502     18.3897     69.4669
  1334.8000      8.0673      2.5132      0.0844      8.2934     18.1606     70.0795
  1334.9000      8.0673      2.5059      0.0617      8.7348     18.2322     67.9881
  1335.0000      8.0644      2.4931      0.0764      9.5115     18.7280     65.4356
  1335.1000      8.0644      2.4814      0.0258     10.2209     19.0566     66.3906
  1335.2000      8.0644      2.4753      0.0595     10.5851     18.7647     70.6661
  1335.3000      8.0643      2.4664      0.0576     11.1248     18.3220     74.1938
  1335.4000      8.0643      2.4555      0.0178     11.7901     18.2156     73.2747
  1335.5000      8.0677      2.4542      0.0287     11.8664     18.3452     67.8191
  1335.6000      8.0677      2.4583      0.0644     11.6161     18.4305     60.6772
  1335.7000      8.0677      2.4533      0.0505     11.9239     18.3218     54.9004
  1335.8000      8.0720      2.4397     -0.0072     12.7454     17.8625     52.8467
  1335.9000      8.0720      2.4312      0.0376     13.2605     17.1845     55.1061
  1336.0000      8.0743      2.4311      0.0042     13.2673     16.7141     57.3404
  1336.1000      8.0743      2.4345      0.0330     13.0585     16.6574     56.4717
  1336.2000      8.0743      2.4393      0.0122     12.7694     16.8091     55.7545
  1336.3000      8.0736      2.4441      0.0492     12.4784     16.7968     55.7379
  1336.4000      8.0736      2.4414      0.0296     12.6395     16.5168     52.1137
  1336.5000      8.0742      2.4248      0.0545     13.6499     16.1765     45.7330
  1336.6000      8.0742      2.4046      0.0027     14.8736     15.9138     42.7713
  1336.7000      8.0742      2.3982     -0.0007     15.2614     15.7601     46.2721
