~Version Information
 VERS.                                  2.0 : CWLS LAS VERSION
 WRAP.                                   NO : WRAPING MODE
 SWARE .                 MController 2.5.0E : SOFTWARE VERSION
~Well Information
 WELL.                            Eric 42-9 : WELL
 COMP.         Pioneer Natural Resources Inc: COMPANY
 FLD.                      Purgatorie River : FIELD
 LOC.                 SE/NE Sec 9 T32S R65W : LOCATION
 DATE.                            10/310/04 : DATE(S) LOGGED
 SRVC.       Blanco Geological Services LLC : SERVICE COMPANY
 STAT.                                   CO : STATE
 CNTY.                           Las Animas : COUNTY
 CTRY.                                  USA : COUNTRY
 API.                       05-071-07999-00 : API NUMBER
 STRT.FT                             346.00 : START DEPTH
 STOP.FT                            1616.00 : STOP DEPTH
 STEP.FT                               1.00 : DEPTH INCREMENT
 NULL.                                -9999 : NULL VALUE
~Curve information
 DEPTH.FT                                   :
 ROP.MIN/FT                                 :
 GAS.UNITS                                  :
~ASCII Log data
# ...
     1146.00        0.200        715.9 
     1147.00        0.233        692.7 
     1148.00        0.233        656.5 
     1149.00        0.233        599.4 
     1150.00        0.233        533.0 
     1151.00        0.233        461.9 
     1152.00        0.233        440.0 
     1153.00        0.267        194.5 
     1154.00        0.283        171.8 
     1155.00        0.267        159.3 
     1156.00        0.267        157.7 
     1157.00        0.267        162.9 
     1158.00        0.267        168.2 
     1159.00        0.267        172.8 
     1160.00        0.300        175.4 
     1161.00        0.267        175.3 
     1162.00        0.267        173.8 
     1163.00        0.300        172.2 
     1164.00        0.300        171.1 
     1165.00        0.317        170.9 
     1166.00        5.167       1918.1 
     1167.00        0.333       1911.7 
     1168.00        0.267       1749.2 
     1169.00        0.267       1416.6 
     1170.00        0.200       1055.8 
     1171.00        0.233        806.0 
     1172.00        0.200        632.1 
     1173.00        0.233        581.0 
     1174.00        0.233        576.2 
     1175.00        0.250        575.2 
     1176.00        0.233        566.0 
     1177.00        0.233        522.2 
     1178.00        0.233        466.1 
     1179.00        0.200        440.0 
     1180.00        0.267        202.6 
     1181.00        0.267        174.8 
     1182.00        0.267        157.1 
     1183.00        0.167        149.5 
     1184.00        0.167        153.7 
     1185.00        0.200        158.2 
     1186.00        0.167        161.0 
     1187.00        0.167        166.2 
     1188.00        0.217        172.2 
     1189.00        0.167        173.4 
     1190.00        0.167        171.7 
     1191.00        0.167        162.2 
     1192.00        0.167        146.5 
     1193.00        0.167        133.7 
     1194.00        0.167        130.0 
     1195.00        0.200        131.2 
     1196.00        5.600       2151.1 
     1197.00        0.267       1692.8 
     1198.00        0.233       1209.4 
     1199.00        0.283        858.0 
     1200.00        0.200        572.7 
     1201.00        0.200        460.7 
     1202.00        0.200        440.0 
     1203.00        0.200        240.6 
     1204.00        0.167        250.3 
     1205.00        0.200        256.9 
     1206.00        0.167        257.4 
     1207.00        0.167        254.4 
     1208.00        0.167        242.2 
     1209.00        0.200        226.1 
     1210.00        0.167        206.4 
     1211.00        0.200        192.2 
     1212.00        0.200        177.5 
     1213.00        0.200        162.6 
     1214.00        0.200        146.0 
     1215.00        0.200        132.4 
     1216.00        0.250        119.5 
     1217.00        0.233        110.0 
     1218.00        0.167        106.6 
     1219.00        0.200        106.1 
     1220.00        0.167        104.4 
     1221.00        0.167        101.5 
     1222.00        0.167         97.3 
     1223.00        0.200         94.0 
     1224.00        0.367        105.7 
     1225.00        0.267        129.6 
     1226.00        3.983       1397.6 
     1227.00        0.267       1708.0 
     1228.00        0.267       1875.2 
     1229.00        0.250       1917.5 
     1230.00        0.233       1895.6 
     1231.00        0.233       1692.8 
     1232.00        0.200       1332.2 
     1233.00        0.233       1008.8 
     1234.00        0.200        738.7 
     1235.00        0.233        612.4 
     1236.00        0.200        531.1 
     1237.00        0.200        487.7 
     1238.00        0.233        455.0 
     1239.00        0.233        440.0 
     1240.00        0.200        227.0 
     1241.00        0.200        213.9 
     1242.00        0.200        197.9 
     1243.00        0.233        179.9 
     1244.00        0.200        157.9 
     1245.00        0.217        141.3 
     1246.00        0.167        128.9 
     1247.00        0.233        123.9 
     1248.00        0.233        109.1 
     1249.00        0.233        100.1 
     1250.00        0.267        100.9 
     1251.00        0.267         97.9 
     1252.00        0.200         94.0 
     1253.00        0.200        112.3 
     1254.00        0.233        125.2 
     1255.00        0.233        133.3 
     1256.00        6.100       2405.3 
     1257.00        0.333       2185.7 
     1258.00        0.333       1547.4 
     1259.00        0.333        894.5 
     1260.00        0.300        529.5 
     1261.00        0.350        442.3 
     1262.00        0.267        227.1 
     1263.00        0.267        228.1 
     1264.00        0.267        211.0 
     1265.00        0.267        177.6 
     1266.00        0.267        157.3 
     1267.00        0.233        137.5 
     1268.00        0.267        117.2 
     1269.00        0.233        116.4 
     1270.00        0.233        127.9 
     1271.00        0.267        132.4 
     1272.00        0.300        132.1 
     1273.00        0.233        130.4 
     1274.00        0.250        129.4 
     1275.00        0.200        125.8 
     1276.00        0.300        129.2 
     1277.00        0.300        137.2 
     1278.00        0.233        139.0 
     1279.00        0.300        138.6 
     1280.00        0.300        133.9 
     1281.00        0.267        131.1 
     1282.00        0.300        131.7 
     1283.00        0.333        131.6 
     1284.00        0.333        130.0 
     1285.00        0.317        124.4 
     1286.00        4.250        242.1 
     1287.00        0.367        325.9 
     1288.00        0.400        375.5 
     1289.00        0.333        376.0 
     1290.00        0.367        346.0 
     1291.00        0.267        288.2 
     1292.00        0.267        269.3 
     1293.00        0.267        261.6 
     1294.00        0.250        256.1 
     1295.00        0.233        247.8 
     1296.00        0.200        239.5 
     1297.00        0.267        228.9 
     1298.00        0.267        193.8 
     1299.00        0.233        164.0 
     1300.00        0.267        147.1 
     1301.00        0.267        126.8 
     1302.00        0.267        109.4 
     1303.00        0.333        124.5 
     1304.00        0.267        129.0 
     1305.00        0.300        129.4 
     1306.00        0.350        127.8 
     1307.00        0.333        125.7 
     1308.00        0.300        124.0 
     1309.00        0.367        121.9 
     1310.00        0.367        121.0 
     1311.00        0.300        117.3 
     1312.00        0.400        113.0 
     1313.00        0.300        108.6 
     1314.00        0.267        107.2 
     1315.00        0.333        110.1 
     1316.00      289.917       8194.3 
     1317.00        0.200        257.6 
     1318.00        0.133        248.8 
     1319.00        0.600        236.3 
     1320.00        0.200        182.0 
     1321.00        0.200        173.5 
     1322.00        0.183        168.3 
     1323.00        0.233        167.2 
     1324.00        0.233        167.1 
     1325.00        0.433        162.4 
     1326.00        0.300        166.4 
     1327.00        0.267        167.8 
     1328.00        0.200        168.2 
     1329.00        0.133        171.8 
     1330.00        0.233        183.3 
     1331.00        0.267        194.1 
     1332.00        0.233        204.8 
     1333.00        0.233        212.9 
     1334.00        0.200        217.2 
     1335.00        0.233        219.1 
     1336.00        0.217        218.8 
     1337.00        0.233        215.7 
     1338.00        0.233        210.2 
     1339.00        0.167        204.5 
     1340.00        0.233        201.7 
     1341.00        0.200        196.7 
     1342.00        0.233        191.3 
     1343.00        0.233        185.5 
     1344.00        0.200        178.7 
     1345.00        0.133        174.6 
