~Version Information
VERS.                      2.0: CWLS Log ASCII Standard - VERSION 2.0
WRAP.                       NO: One line per depth step
~Well Information Block
STRT.FT                 0.0000: 
STOP.FT              1390.5000: 
STEP.FT                 0.2500: 
NULL.                -999.2500: 
COMP.          Petrogulf Corporation: COMPANY
WELL.             Leier 17-42R: WELL
FLD.           Purgatorie River: FIELD
LOC.           2398' FNL & 1109' FEL: LOCATION
PROV.                 Colorado: PROVINCE
CNTY.               Las Animas: COUNTRY
SRVC.                Patterson: SERVICE COMPANY
DATE.          Thu Nov 10 14:34:29 2005: LOG DATE
UWI.                          : UNIQUE WELL ID
~Curve Information Block
DEPT.FT            0 000 00 00: Depth
CCL.                          : Casing Collar Locator
TT3.usec                      : CBL 3' Travel Time
AMP3.mV                       : CBL 3' Amplitude
GR.GAPI                       : Gamma Ray
~Parameter Information Block
~A  Depth       CCL         TT3         AMP3         GR     
# ...
   904.5000      0.0000    286.2978     38.6736     90.2060
   904.7500      0.0000    288.7428     38.7628     91.7962
   905.0000      0.0000    292.9431     36.9924     95.1876
   905.2500      0.0000    296.2608     33.5657     99.7729
   905.5000      0.0000    298.3416     29.3013    103.8129
   905.7500      0.0000    300.9222     25.2370    106.4716
   906.0000      0.0000    308.4610     22.0252    108.7695
   906.2500      0.0000    330.0076     19.6620    112.1763
   906.5000      0.0000    374.6417     17.7903    116.7787
   906.7500      0.0000    440.5130     16.1224    121.3745
   907.0000      0.0000    512.3457     14.5743    124.8698
   907.2500      0.0000    571.1838     13.1621    126.8923
   907.5000      0.0000    605.7007     11.8882    127.4126
   907.7500      0.0000    617.8669     10.7773    126.5024
   908.0000      0.0000    619.2338      9.9120    124.4229
   908.2500      0.0000    622.2272      9.2720    121.4993
   908.5000      0.0000    632.2323      8.6736    117.8279
   908.7500      0.0000    645.9941      8.0131    113.1409
   909.0000      0.0000    658.3384      7.3836    107.0953
   909.2500      0.0000    668.6450      6.9008    100.0402
   909.5000      0.0000    677.7991      6.6170     93.5107
   909.7500      0.0000    682.2378      6.5565     89.5679
   910.0000      0.0000    678.7331      6.7002     89.4986
   910.2500      0.0000    671.3609      7.0137     93.1661
   910.5000      0.0000    666.0892      7.5331     99.2435
   910.7500      0.0000    663.5900      8.3662    105.8539
   911.0000      0.0000    659.5826      9.5937    111.4409
   911.2500      0.0000    645.0289     11.2085    115.5835
   911.5000      0.0000    605.7421     13.2645    119.1769
   911.7500      0.0000    533.2828     16.0992    123.6211
   912.0000      0.0000    442.4576     20.0879    129.4148
   912.2500      0.0000    364.9703     25.0665    135.3278
   912.5000      0.0000    318.9229     30.3854    139.1433
   912.7500      0.0000    296.9693     35.5721    139.2553
   913.0000      0.0000    283.7328     40.5623    135.5864
   913.2500      0.0000    272.2418     45.2890    129.3422
   913.5000      0.0000    263.5580     49.4214    122.1367
   913.7500      0.0000    259.0202     52.7409    115.1374
   914.0000      0.0000    257.3795     55.5196    108.8198
   914.2500      0.0000    256.8918     58.2180    103.3677
   914.5000      0.0000    256.7286     60.9869     99.1708
   914.7500      0.0000    256.6824     63.6300     96.8719
   915.0000      0.0000    256.6996     65.9083     96.8741
   915.2500      0.0000    256.7437     67.7679     98.7687
   915.5000      0.0000    256.7993     69.3112    101.4514
   915.7500      0.0000    256.8671     70.6596    104.0002
   916.0000      0.0000    256.9408     71.8984    106.3906
   916.2500      0.0000    257.0035     73.1112    109.0558
   916.5000      0.0000    257.0428     74.3788    111.7593
   916.7500      0.0000    257.0567     75.6915    113.3016
   917.0000      0.0000    257.0513     76.8758    112.6209
   917.2500      0.0000    257.0463     77.6401    109.9056
   917.5000      0.0000    257.0674     77.7507    106.4481
   917.7500      0.0000    257.1186     77.2269    103.7782
   918.0000      0.0000    257.1705     76.3177    103.1611
   918.2500      0.0000    257.1866     75.2447    105.3889
   918.5000      0.0000    257.1547     74.0525    110.3778
   918.7500      0.0000    257.0955     72.7146    116.9044
   919.0000      0.0000    257.0474     71.2672    123.1769
   919.2500      0.0000    257.0326     69.7504    127.9560
   919.5000      0.0000    257.0430     68.0253    131.0750
   919.7500      0.0000    257.0856     65.7644    133.0135
   920.0000      0.0000    257.2419     62.6996    134.4927
   920.2500      0.0000    257.8009     58.7866    136.5012
   920.5000      0.0000    259.6564     54.0770    139.7698
   920.7500      0.0000    264.5160     48.6534    143.7011
   921.0000      0.0000    273.6554     42.7427    146.4649
   921.2500      0.0000    287.1054     36.6131    146.6513
   921.5000      0.0000    309.0079     30.4932    144.4591
   921.7500      0.0000    353.9925     24.8517    141.1490
   922.0000      0.0000    434.0004     20.3512    137.9401
   922.2500      0.0000    531.9761     17.3466    135.5470
   922.5000      0.0000    610.1005     15.6647    133.9848
   922.7500      0.0000    649.7971     14.8310    132.4042
   923.0000      0.0000    659.5550     14.4897    129.6705
   923.2500      0.0000    647.7166     14.6061    125.5458
   923.5000      0.0000    608.3949     15.2203    121.0962
   923.7500      0.0000    535.7043     16.2303    117.8026
   924.0000      0.0000    445.0567     17.6003    116.3792
   924.2500      0.0000    368.0228     19.5864    116.2002
   924.5000      0.0000    322.9145     22.5869    115.5374
   924.7500      0.0000    303.3042     26.8304    112.7778
   925.0000      0.0000    293.5834     32.0973    107.9758
   925.2500      0.0000    283.9112     37.6491    103.0471
   925.5000      0.0000    273.1393     42.6681    100.1429
   925.7500      0.0000    264.5193     46.7865    100.0191
   926.0000      0.0000    259.8933     50.0530    102.0168
   926.2500      0.0000    258.1988     52.5950    104.9967
   926.5000      0.0000    257.7457     54.4562    107.9427
   926.7500      0.0000    257.6450     55.7077    110.2203
   927.0000      0.0000    257.6119     56.5653    111.7834
   927.2500      0.0000    257.5728     57.2372    112.8815
   927.5000      0.0000    257.5298     57.7668    113.4318
   927.7500      0.0000    257.5087     58.1070    113.1119
   928.0000      0.0000    257.5082     58.2341    112.1994
   928.2500      0.0000    257.5015     58.1680    111.7457
   928.5000      0.0000    257.4734     57.9595    112.5317
   928.7500      0.0000    257.4317     57.6811    114.1225
   929.0000      0.0000    257.3890     57.3966    115.4642
   929.2500      0.0000    257.3488     57.0948    116.3577
   929.5000      0.0000    257.3161     56.6423    117.7522
   929.7500      0.0000    257.3133     55.8413    120.3854
   930.0000      0.0000    257.3720     54.5525    123.5888
   930.2500      0.0000    257.5099     52.7762    125.7296
   930.5000      0.0000    257.7249     50.6918    125.8256
   930.7500      0.0000    258.0056     48.6069    124.5916
   931.0000      0.0000    258.3229     46.8102    123.7486
   931.2500      0.0000    258.6060     45.4727    124.2702
   931.5000      0.0000    258.7644     44.6394    125.4272
   931.7500      0.0000    258.7963     44.2305    125.5095
   932.0000      0.0000    259.0000     44.0025    123.4873
   932.2500      0.0000    260.3433     43.5434    120.0355
   932.5000      0.0000    264.6182     42.3574    116.8437
   932.7500      0.0000    273.0003     40.0470    114.9282
   933.0000      0.0000    283.6284     36.6696    114.0361
   933.2500      0.0000    293.0792     32.8121    113.6956
   933.5000      0.0000    302.4876     29.0046    114.1858
   933.7500      0.0000    321.7703     25.3230    116.2166
   934.0000      0.0000    365.8734     21.7278    120.1212
   934.2500      0.0000    439.5417     18.4004    125.4519
   934.5000      0.0000    524.0703     15.5696    130.9255
   934.7500      0.0000    591.4900     13.2626    134.9219
   935.0000      0.0000    630.4025     11.3721    136.7345
   935.2500      0.0000    645.9864      9.8014    137.3088
   935.5000      0.0000    646.4778      8.4788    138.0942
   935.7500      0.0000    640.6186      7.3632    139.2435
   936.0000      0.0000    635.9436      6.4741    139.5795
   936.2500      0.0000    632.9454      5.8451    138.2199
   936.5000      0.0000    628.4957      5.4628    135.7297
   936.7500      0.0000    623.5751      5.3169    133.6796
   937.0000      0.0000    621.0756      5.4444    133.2325
   937.2500      0.0000    620.2805      5.8581    134.0266
   937.5000      0.0000    618.7582      6.4424    134.3466
   937.7500      0.0000    618.7262      6.9233    132.4175
