~Version Information
VERS.                      2.0: CWLS Log ASCII Standard - VERSION 2.0
WRAP.                       NO: One line per depth step
~Well Information Block
STRT.FT              1882.7500: 
STOP.FT              2400.5000: 
STEP.FT                 0.2500: 
NULL.                -999.2500: 
COMP.          Pioneer Natural Resources: COMPANY
WELL.          Flying Horse 12-11: WELL
FLD.           Purgatoire River: FIELD
LOC.           2,428' FNL & 308' FWL------: LOCATION
PROV.                 Colorado: PROVINCE
CNTY.               Las Animas: COUNTRY
SRVC.                         : SERVICE COMPANY
DATE.          Fri Jun 10 06:52:30 2005: LOG DATE
UWI.                          : UNIQUE WELL ID
~Curve Information Block
DEPT.FT            0 000 00 00: Depth
CCL.                          : Casing Collar Locator
TT3.usec                      : CBL 3' Travel Time
AMP3.mV                       : CBL 3' Amplitude
AMP5.mV                       : CBL 5' Amplitude
GR.GAPI                       : Gamma Ray
~Parameter Information Block
~A  Depth       CCL         TT3         AMP3        AMP5         GR     
# ...
  2302.7500      0.0000    259.0765     66.0695     93.0045     51.7780
  2303.0000      0.0000    259.0761     66.1805     93.0045     53.1913
  2303.2500      0.0000    259.0732     66.2778     92.5693     55.0059
  2303.5000      0.0000    259.0688     66.3499     92.4823     55.5232
  2303.7500      0.0000    259.0621     66.3949     92.2211     54.0118
  2304.0000      0.0000    259.0531     66.4109     92.5693     51.1745
  2304.2500      0.0000    259.0458     66.3945     92.1341     48.5843
  2304.5000      0.0000    259.0453     66.3473     92.5693     47.5998
  2304.7500      0.0000    259.0524     66.2788     93.3527     48.7212
  2305.0000      0.0000    259.0631     66.2043     93.0916     51.7463
  2305.2500      0.0000    259.0727     66.1397     92.5693     56.2517
  2305.5000      0.0000    259.0789     66.0959     93.0916     61.8517
  2305.7500      0.0000    259.0813     66.0734     92.2211     68.0920
  2306.0000      0.0000    259.0793     66.0643     92.7434     74.3089
  2306.2500      0.0000    259.0726     66.0599     93.0045     79.9513
  2306.5000      0.0000    259.0631     66.0561     93.1786     85.2583
  2306.7500      0.0000    259.0544     66.0537     92.6564     91.3332
  2307.0000      0.0000    259.0484     66.0547     92.7434     98.9584
  2307.2500      0.0000    259.0434     66.0583     93.1786    107.1115
  2307.5000      0.0000    259.0371     66.0606     92.5693    113.0417
  2307.7500      0.0000    259.0322     66.0569     92.7434    114.4622
  2308.0000      0.0000    259.0345     66.0399     92.5693    111.7156
  2308.2500      0.0000    259.0464     65.9939     92.4823    107.3915
  2308.5000      0.0000    259.0633     65.8985     91.5248    103.8968
  2308.7500      0.0000    259.0781     65.7479     92.4823    101.7097
  2309.0000      0.0000    259.0870     65.5701     92.3082     99.7317
  2309.2500      0.0000    259.0897     65.4211     91.6989     96.6411
  2309.5000      0.0000    259.0861     65.3474     90.9154     91.7865
  2309.7500      0.0000    259.0758     65.3481     91.2636     85.2921
  2310.0000      0.0000    259.0593     65.3785     91.0895     77.7711
  2310.2500      0.0000    259.0393     65.3948     91.4377     70.2213
  2310.5000      0.0000    259.0202     65.3924     91.9600     64.1330
  2310.7500      0.0000    259.0072     65.3985     92.1341     61.1106
  2311.0000      0.0000    259.0042     65.4327     92.3082     61.9265
  2311.2500      0.0000    259.0105     65.4790     92.3082     66.0430
  2311.5000      0.0000    259.0199     65.4972     91.7859     72.0757
  2311.7500      0.0000    259.0240     65.4652     92.0470     78.4334
  2312.0000      0.0000    259.0178     65.4095     92.8305     83.6488
  2312.2500      0.0000    259.0029     65.3860     92.0470     86.7994
  2312.5000      0.0000    258.9850     65.4260     91.9600     87.8926
  2312.7500      0.0000    258.9692     65.5054     91.8729     87.6856
  2313.0000      0.0000    258.9572     65.5684     90.2191     87.1786
  2313.2500      0.0000    258.9484     65.5781     90.2191     87.2406
  2313.5000      0.0000    258.9414     65.5423     90.5672     88.2507
  2313.7500      0.0000    258.9338     65.4970     89.7838     89.7716
  2314.0000      0.0000    258.9222     65.4688     90.1320     90.7819
  2314.2500      0.0000    258.9059     65.4535     89.2616     90.5432
  2314.5000      0.0000    258.8898     65.4268     89.1745     89.2970
  2314.7500      0.0000    258.8799     65.3696     89.5227     88.0677
  2315.0000      0.0000    258.8773     65.2810     89.6097     87.7556
  2315.2500      0.0000    258.8759     65.1732     90.0450     88.2607
  2315.5000      0.0000    258.8686     65.0625     90.1320     88.3867
  2315.7500      0.0000    258.8558     64.9664     89.6968     86.8967
  2316.0000      0.0000    258.8456     64.9028     91.0025     83.8545
  2316.2500      0.0000    258.8450     64.8867     90.3932     80.5905
  2316.5000      0.0000    258.8505     64.9216     90.6543     78.3395
  2316.7500      0.0000    258.8488     64.9920     90.2191     77.6072
  2317.0000      0.0000    258.8293     65.0624     89.8709     78.7302
  2317.2500      0.0000    258.7952     65.0913     90.3061     81.8881
  2317.5000      0.0000    258.7627     65.0525     89.5227     86.2292
  2317.7500      0.0000    258.7477     64.9508     89.0875     89.9788
  2318.0000      0.0000    258.7541     64.8207     90.0450     91.8373
  2318.2500      0.0000    258.7728     64.7131     89.8709     91.7405
  2318.5000      0.0000    258.7906     64.6739     90.7413     90.2509
  2318.7500      0.0000    258.7994     64.7223     90.0450     87.8957
  2319.0000      0.0000    258.8000     64.8384     89.8709     85.2216
  2319.2500      0.0000    258.7989     64.9751     89.0004     82.9521
  2319.5000      0.0000    258.8026     65.0867     89.2616     81.7950
  2319.7500      0.0000    258.8116     65.1481     89.8709     82.1036
  2320.0000      0.0000    258.8203     65.1558     89.0004     83.6633
  2320.2500      0.0000    258.8217     65.1218     89.2616     85.7833
  2320.5000      0.0000    258.8157     65.0686     89.5227     87.7843
  2320.7500      0.0000    258.8098     65.0166     89.4356     89.5208
  2321.0000      0.0000    258.8134     64.9710     89.7838     91.2777
  2321.2500      0.0000    258.8320     64.9173     89.1745     93.0699
  2321.5000      0.0000    258.8651     64.8239     89.0004     94.3601
  2321.7500      0.0000    258.9084     64.6557     89.2616     94.7584
  2322.0000      0.0000    258.9557     64.4036     88.2170     94.6526
  2322.2500      0.0000    258.9992     64.1104     87.9558     94.6170
  2322.5000      0.0000    259.0294     63.8595     89.0875     94.2403
  2322.7500      0.0000    259.0377     63.7280     89.2616     91.9881
  2323.0000      0.0000    259.0223     63.7517     90.5672     86.4558
  2323.2500      0.0000    258.9933     63.9239     91.2636     77.7466
  2323.5000      0.0000    258.9671     64.2093     90.9154     67.6843
  2323.7500      0.0000    258.9556     64.5507     90.6543     58.8532
  2324.0000      0.0000    258.9605     64.8784     91.2636     53.4356
  2324.2500      0.0000    258.9881     65.1098     91.4377     52.6159
  2324.5000      0.0000    259.0760     65.1036     86.8242     56.5502
  2324.7500      0.0000    259.3166     64.5368     34.6834     64.6942
  2325.0000      0.0000    259.8425     62.8358     89.2616     76.2220
  2325.2500      0.0000    260.7456     59.4230     56.1839     89.8119
  2325.5000      0.0000    261.9626     54.2915     68.9797    102.8116
  2325.7500      0.0000    263.2475     48.3662     67.9352    111.4507
  2326.0000      0.0000    264.2978     43.1001     67.4999    113.0383
  2326.2500      0.0000    264.9352     39.5770     66.3683    108.0955
  2326.5000      0.0000    265.1832     37.9512     65.5849     99.9127
  2326.7500      0.0000    265.2025     37.6237     65.8460     92.0577
  2327.0000     -2.0000    265.2000     37.8129     66.1072     86.5012
  2327.2500      0.0000    265.4086     37.9871     66.8906     83.5432
  2327.5000      2.0000    266.1351     37.9368     67.4999     82.5592
  2327.7500      0.0000    267.6758     37.6848     67.9352     82.5610
  2328.0000      0.0000    269.9063     37.5489     68.4574     82.5562
  2328.2500      0.0000    271.8658     38.2893     68.9797     81.8424
  2328.5000      0.0000    272.1329     40.8418     68.3704     80.1483
  2328.7500      0.0000    270.0520     45.4960     68.1963     77.4784
  2329.0000      0.0000    266.4647     51.3660     68.5445     73.7845
  2329.2500      0.0000    262.9618     56.9211     63.1476     68.9944
  2329.5000      0.0000    260.5832     61.0396     42.3435     63.5791
  2329.7500      0.0000    259.3897     63.5018    100.1424     58.8003
  2330.0000      0.0000    258.9376     64.7126     88.6522     55.9717
  2330.2500      0.0000    258.8096     65.2099     88.3040     55.4916
  2330.5000      0.0000    258.7845     65.3844     89.2616     56.7629
