~Version Information
VERS.                      2.0: CWLS Log ASCII Standard - VERSION 2.0
WRAP.                       NO: One line per depth step
~Well Information Block
STRT.FT               768.0000: 
STOP.FT              2637.5000: 
STEP.FT                 0.2500: 
NULL.                -999.2500: 
COMP.          Pioneer Natural Resources: COMPANY
WELL.               Zink 44-10: WELL
FLD.           Purgatoire River: FIELD
LOC.           548' FSL & 473' FEL: LOCATION
PROV.                 Colorado: PROVINCE
CNTY.               Las Animas: COUNTRY
SRVC.                Patterson: SERVICE COMPANY
DATE.          Mon May 30 05:59:42 2005: LOG DATE
UWI.           05 071 08380 00: UNIQUE WELL ID
~Curve Information Block
DEPT.FT            0 000 00 00: Depth
SN.Ohm-m                      : IEL Short Normal
SP.mV                         : IEL Spontaneous Potential
DIR.Ohm-m                     : IEL Induction Resistivity
GR.GAPI                       : Gamma Ray
~Parameter Information Block
~A  Depth        SN          SP         DIR          GR     
# ...
  1873.5000     14.2895    -85.8564     10.7685    123.4045
  1873.7500     15.4252    -86.3012     11.1552    119.4490
  1874.0000     16.5375    -86.5902     11.6394    118.7027
  1874.2500     17.7428    -86.7002     12.2489    121.3988
  1874.5000     19.1973    -86.6431     13.0067    127.2044
  1874.7500     20.8626    -86.4536     13.9186    129.7442
  1875.0000     22.5526    -86.1513     14.9642    128.5207
  1875.2500     24.0941    -85.7070     16.0972    124.1714
  1875.5000     25.4219    -85.0538     17.2567    114.1647
  1875.7500     26.6437    -84.1407     18.3858    106.5195
  1876.0000     28.0146    -82.9768     19.4479     95.4088
  1876.2500     29.7501    -81.6232     20.4373     89.0839
  1876.5000     31.8081    -80.1531     21.3770     82.4514
  1876.7500     33.8749    -78.6281     22.3048     80.3064
  1877.0000     35.6264    -77.1038     23.2596     80.0133
  1877.2500     36.9888    -75.6377     24.2750     80.7697
  1877.5000     38.1064    -74.2810     25.3793     81.1466
  1877.7500     39.1365    -73.0676     26.5918     80.0662
  1878.0000     40.1381    -72.0158     27.9121     76.6237
  1878.2500     41.1196    -71.1354     29.3043     73.8953
  1878.5000     42.0944    -70.4256     30.6857     70.5820
  1878.7500     43.0475    -69.8695     31.9356     69.3918
  1879.0000     43.9419    -69.4355     32.9370     69.1397
  1879.2500     44.7721    -69.0862     33.6320     69.4909
  1879.5000     45.5615    -68.7873     34.0508     69.5722
  1879.7500     46.3319    -68.5168     34.2941     68.9175
  1880.0000     47.0983    -68.2732     34.4908     67.2392
  1880.2500     47.8756    -68.0793     34.7611     66.2729
  1880.5000     48.6819    -67.9684     35.1860     65.8935
  1880.7500     49.5465    -67.9564     35.7802     66.4027
  1881.0000     50.5107    -68.0275     36.4827     67.5636
  1881.2500     51.5941    -68.1481     37.1883     67.8569
  1881.5000     52.7566    -68.2911     37.8126     66.4956
  1881.7500     53.9020    -68.4442     38.3375     64.3238
  1882.0000     54.9235    -68.6060     38.7980     60.1710
  1882.2500     55.7586    -68.7791     39.2347     57.6350
  1882.5000     56.4000    -68.9660     39.6677     55.1172
  1882.7500     56.8623    -69.1704     40.1074     54.3976
  1883.0000     57.1434    -69.4038     40.5699     54.5156
  1883.2500     57.1971    -69.6849     41.0547     55.2983
  1883.5000     56.9494    -70.0256     41.5002     57.6127
  1883.7500     56.3711    -70.4178     41.7710     59.9326
  1884.0000     55.5145    -70.8381     41.7167     64.1083
  1884.2500     54.4711    -71.2624     41.2705     66.7477
  1884.5000     53.3338    -71.6738     40.4956     69.4130
  1884.7500     52.1757    -72.0639     39.5432     70.0975
  1885.0000     51.0303    -72.4327     38.5665     69.9321
  1885.2500     49.8964    -72.7856     37.6610     69.4135
  1885.5000     48.7613    -73.1263     36.8517     68.3560
  1885.7500     47.6284    -73.4505     36.1222     67.5843
  1886.0000     46.5516    -73.7499     35.4532     66.7741
  1886.2500     45.6133    -74.0229     34.8448     66.7888
  1886.5000     44.8519    -74.2824     34.3062     67.8165
  1886.7500     44.2530    -74.5495     33.8313     68.8342
  1887.0000     43.8053    -74.8429     33.3927     69.6600
  1887.2500     43.5134    -75.1727     32.9687     69.1733
  1887.5000     43.3620    -75.5405     32.5775     67.1282
  1887.7500     43.3024    -75.9446     32.2829     65.6941
  1888.0000     43.2768    -76.3864     32.1516     64.7324
  1888.2500     43.2375    -76.8780     32.1904     65.0206
  1888.5000     43.1590    -77.4420     32.3156     66.1772
  1888.7500     43.0566    -78.0983     32.3821     67.0216
  1889.0000     42.9782    -78.8439     32.2561     68.1446
  1889.2500     42.9830    -79.6428     31.8713     68.7168
  1889.5000     43.1401    -80.4369     31.2252     69.0056
  1889.7500     43.4901    -81.1688     30.3432     68.7860
  1890.0000     43.9526    -81.7991     29.2657     68.4537
  1890.2500     44.2793    -82.3087     28.0665     68.8355
  1890.5000     44.1185    -82.6930     26.8612     71.3701
  1890.7500     43.1169    -82.9573     25.7806     74.9778
  1891.0000     41.0610    -83.1134     24.9263     84.1649
  1891.2500     38.1034    -83.1771     24.3386     92.8217
  1891.5000     34.8276    -83.1696     23.9889    107.9576
  1891.7500     31.9045    -83.1236     23.7951    117.6494
  1892.0000     29.6713    -83.0831     23.6540    128.3584
  1892.2500     28.1035    -83.0888     23.4824    131.8206
  1892.5000     27.0899    -83.1568     23.2498    131.4150
  1892.7500     26.6040    -83.2699     22.9852    128.2693
  1893.0000     26.6744    -83.3911     22.7569    121.6429
  1893.2500     27.3392    -83.4882     22.6394    117.4528
  1893.5000     28.6127    -83.5497     22.6876    113.2906
  1893.7500     30.3727    -83.5829     22.9241    112.1613
  1894.0000     32.3189    -83.5967     23.3412    112.0169
  1894.2500     34.1319    -83.5842     23.9102    112.1158
  1894.5000     35.6285    -83.5184     24.5926    111.6910
  1894.7500     36.7527    -83.3675     25.3525    111.0902
  1895.0000     37.5255    -83.1119     26.1665    110.2610
  1895.2500     38.0367    -82.7489     27.0272    109.9078
  1895.5000     38.4086    -82.2864     27.9296    109.4754
  1895.7500     38.7301    -81.7354     28.8471    109.1135
  1896.0000     39.0192    -81.1075     29.7118    108.5076
  1896.2500     39.2238    -80.4181     30.4243    108.1142
  1896.5000     39.2732    -79.6923     30.8941    107.2682
  1896.7500     39.1540    -78.9682     31.0850    106.2500
  1897.0000     38.9158    -78.2877     31.0334    103.9474
  1897.2500     38.6085    -77.6802     30.8326    102.2356
  1897.5000     38.2533    -77.1540     30.5991    100.4356
  1897.7500     37.8655    -76.7007     30.4362    100.3285
  1898.0000     37.4907    -76.3058     30.4023    102.0846
  1898.2500     37.2110    -75.9582     30.4945    103.9763
  1898.5000     37.0717    -75.6568     30.6565    105.9562
  1898.7500     36.9890    -75.4095     30.8058    105.6543
  1899.0000     36.7881    -75.2223     30.8667    102.3415
  1899.2500     36.3644    -75.0889     30.7896     98.9295
  1899.5000     35.7782    -74.9896     30.5569     94.2126
  1899.7500     35.1729    -74.9021     30.1859     92.6817
  1900.0000     34.6217    -74.8142     29.7270     94.1394
  1900.2500     34.0843    -74.7274     29.2451     97.4416
  1900.5000     33.4985    -74.6517     28.7898    104.3217
  1900.7500     32.8530    -74.5925     28.3789    109.1319
  1901.0000     32.1719    -74.5438     28.0080    115.2802
  1901.2500     31.4770    -74.4923     27.6716    118.0480
  1901.5000     30.7657    -74.4286     27.3709    119.3948
  1901.7500     30.0115    -74.3541     27.0996    118.3398
  1902.0000     29.2190    -74.2806     26.8276    114.9716
  1902.2500     28.4895    -74.2247     26.5035    112.8295
  1902.5000     27.9873    -74.2022     26.0793    111.5413
  1902.7500     27.8234    -74.2213     25.5394    111.8897
  1903.0000     27.9620    -74.2755     24.9071    112.4082
  1903.2500     28.2113    -74.3436     24.2231    111.7209
  1903.5000     28.3278    -74.3995     23.5142    108.9288
  1903.7500     28.1650    -74.4250     22.7816    106.6360
  1904.0000     27.7095    -74.4191     22.0129    104.2933
  1904.2500     27.0102    -74.3990     21.2027    104.2471
  1904.5000     26.1296    -74.3991     20.3601    106.9083
  1904.7500     25.1264    -74.4690     19.5011    110.3060
  1905.0000     24.0403    -74.6677     18.6374    117.2566
  1905.2500     22.8875    -75.0519     17.7723    122.8752
  1905.5000     21.6789    -75.6576     16.9083    132.4229
  1905.7500     20.4481    -76.4843     16.0553    139.1802
  1906.0000     19.2572    -77.4928     15.2335    148.8549
  1906.2500     18.1697    -78.6179     14.4675    154.2406
  1906.5000     17.2263    -79.7871     13.7776    159.9236
  1906.7500     16.4485    -80.9338     13.1779    162.3271
