~Version Information
VERS.                      2.0: CWLS Log ASCII Standard - VERSION 2.0
WRAP.                       NO: One line per depth step
~Well Information Block
STRT.FT               528.0000: 
STOP.FT              2250.0000: 
STEP.FT                 0.1000: 
NULL.                -999.2500: 
COMP.          Pioneer Natural Resources: COMPANY
WELL.           Parklane 43-34: WELL
FLD.           Purgatorie River: FIELD
LOC.           1704' FSL & 1119' FEL: LOCATION
PROV.                 Colorado: PROVINCE
CNTY.               Las Animas: COUNTRY
SRVC.                         : SERVICE COMPANY
DATE.          Thu Oct 07 08:21:17 2004: LOG DATE
UWI.           05 071 08162 00: UNIQUE WELL ID
~Curve Information Block
DEPT.FT            0 000 00 00: Depth
LTEN.lb                       : Surface Line Tension
DCAL.in                       : CDL Caliper
RHOB.g/cc                     : CDL Bulk Density
RHOC.g/cc                     : CDL Density Correction
DPOR.pu                       : CDL Density Porosity
GR.GAPI                       : Gamma Ray
NPOR.pu                       : Neutron Porosity
~Parameter Information Block
~A  Depth       LTEN        DCAL        RHOB        RHOC        DPOR         GR         NPOR    
   528.0000    697.5287      1.9465      2.1239     -0.4773     31.8848    173.3426     24.6408
   528.1000    697.5287      1.9465      2.1486     -0.4809     30.3864    178.4263     25.1119
   528.2000    697.5287      1.9465      2.1668     -0.4454     29.2836    176.8672     25.1810
   528.3000    696.4612      1.9463      2.1783     -0.4290     28.5867    175.0871     25.0135
   528.4000    696.4612      1.9463      2.1854     -0.4601     28.1575    173.2543     24.9155
   528.5000    699.1668      1.9459      2.1857     -0.4952     28.1419    173.1927     25.0108
   528.6000    699.1668      1.9459      2.1811     -0.4788     28.4173    179.0208     25.1436
   528.7000    699.1668      1.9459      2.1783     -0.5093     28.5880    181.3917     24.9465
   528.8000    699.2444      1.9449      2.1802     -0.4524     28.4703    174.5986     24.6923
   528.9000    699.2444      1.9449      2.1925     -0.5327     27.7244    170.4238     24.8593
   529.0000    697.1884      1.9439      2.2249     -0.4923     25.7657    171.9951     25.0199
   529.1000    697.1884      1.9439      2.2675     -0.4443     23.1804    170.6682     24.7713
   529.2000    697.1884      1.9439      2.2968     -0.3887     21.4031    163.5217     24.4145
   529.3000    698.6740      1.9443      2.3092     -0.4793     20.6519    156.9363     24.2061
   529.4000    698.6740      1.9443      2.3214     -0.4642     19.9168    155.8414     23.9351
   529.5000    699.7877      1.9445      2.3334     -0.3880     19.1875    153.9687     23.4033
   529.6000    699.7877      1.9445      2.3294     -0.4393     19.4280    144.6076     22.5960
   529.7000    699.7877      1.9445      2.2979     -0.4460     21.3408    132.7675     21.8979
   529.8000    702.0789      1.9430      2.2378     -0.5106     24.9811    127.1551     22.1762
   529.9000    702.0789      1.9430      2.1624     -0.5174     29.5529    125.1940     23.0579
   530.0000    702.2019      1.9433      2.0829     -0.5715     34.3720    120.7183     23.3755
   530.1000    702.2019      1.9433      2.0192     -0.6945     38.2329    116.9591     23.4527
   530.2000    702.2019      1.9433      1.9903     -0.5685     39.9822    117.7782     24.1025
   530.3000    704.2139      1.9717      1.9862     -0.5843     40.2290    119.6934     25.0427
   530.4000    704.2139      1.9717      1.9946     -0.5913     39.7231    119.2039     25.8047
   530.5000    699.4191      2.3092      2.0175     -0.6099     38.3315    117.1980     26.1646
   530.6000    699.4191      2.3092      2.0590     -0.6174     35.8152    114.9288     25.6681
   530.7000    699.4191      2.3092      2.1214     -0.6078     32.0335    110.3982     24.5899
   530.8000    702.5744      3.8175      2.1938     -0.5240     27.6486    103.5970     23.8207
   530.9000    702.5744      3.8175      2.2475     -0.4949     24.3928     98.1736     23.3251
   531.0000    702.3860      6.3029      2.2673     -0.5452     23.1956     97.1504     22.9098
   531.1000    702.3860      6.3029      2.2625     -0.4899     23.4843    100.4476     22.8158
   531.2000    702.3860      6.3029      2.2545     -0.5650     23.9668    105.5798     22.6888
   531.3000    700.6228      7.8106      2.2591     -0.4916     23.6890    110.3415     22.2234
   531.4000    700.6228      7.8106      2.2627     -0.4566     23.4707    116.0736     21.9430
   531.5000    696.4628      8.1481      2.2487     -0.4762     24.3187    123.2998     22.1885
   531.6000    696.4628      8.1481      2.2287     -0.4830     25.5321    128.9631     22.6621
   531.7000    696.4628      8.1481      2.2103     -0.4253     26.6505    133.6253     23.2140
   531.8000    696.6906      8.1767      2.1853     -0.4612     28.1620    140.1848     23.8167
   531.9000    696.6906      8.1767      2.1549     -0.4854     30.0088    146.1526     23.9865
   532.0000    700.7129      8.1773      2.1205     -0.4936     32.0888    143.9411     23.7833
   532.1000    700.7129      8.1773      2.0829     -0.5014     34.3707    134.2483     23.6193
   532.2000    700.7129      8.1773      2.0601     -0.5784     35.7519    127.6757     23.3674
   532.3000    690.4462      8.1763      2.0693     -0.5481     35.1933    128.7213     23.2226
   532.4000    690.4462      8.1763      2.0947     -0.4815     33.6575    130.8974     23.4987
   532.5000    701.1351      8.1754      2.1150     -0.5196     32.4255    126.8311     23.8665
   532.6000    701.1351      8.1754      2.1291     -0.4959     31.5672    118.0456     24.0517
   532.7000    701.1351      8.1754      2.1318     -0.4751     31.4071    111.1377     24.1459
   532.8000    714.9820      8.1754      2.1214     -0.4994     32.0345    109.8264     24.1405
   532.9000    714.9820      8.1754      2.1098     -0.5200     32.7398    113.9872     23.9693
   533.0000    760.0912      8.1763      2.0999     -0.5258     33.3400    121.8092     23.8898
   533.1000    760.0912      8.1763      2.0904     -0.5197     33.9140    128.9920     24.1395
   533.2000    760.0912      8.1763      2.0901     -0.5474     33.9337    132.1964     24.4779
   533.3000    796.3925      8.1771      2.1052     -0.5338     33.0161    135.2016     24.6670
   533.4000    796.3925      8.1771      2.1196     -0.4378     32.1468    137.8512     24.6314
   533.5000    802.9742      8.1777      2.1085     -0.4969     32.8160    136.4531     24.5009
   533.6000    802.9742      8.1777      2.0756     -0.5059     34.8115    135.1600     24.7172
   533.7000    802.9742      8.1777      2.0485     -0.5523     36.4575    139.9927     25.3648
   533.8000    794.0893      8.1782      2.0459     -0.5334     36.6094    148.5581     26.0514
   533.9000    794.0893      8.1782      2.0574     -0.4945     35.9124    152.8237     26.3873
   534.0000    806.1091      8.1779      2.0633     -0.4970     35.5594    152.0315     26.2705
   534.1000    806.1091      8.1779      2.0624     -0.4849     35.6127    149.6483     25.9360
   534.2000    806.1091      8.1779      2.0682     -0.4990     35.2579    144.7213     25.4100
   534.3000    799.2375      8.1777      2.0829     -0.4838     34.3716    138.6502     24.6413
   534.4000    799.2375      8.1777      2.0975     -0.5265     33.4871    137.1522     24.0513
   534.5000    802.9844      8.1779      2.1103     -0.4578     32.7099    141.2323     24.1367
   534.6000    802.9844      8.1779      2.1216     -0.4885     32.0227    146.9913     24.7173
   534.7000    802.9844      8.1779      2.1321     -0.4604     31.3853    152.9377     25.2901
   534.8000    795.3701      8.1779      2.1401     -0.4779     30.9054    158.3295     25.4480
   534.9000    795.3701      8.1779      2.1436     -0.4690     30.6890    159.8395     25.0572
   535.0000    798.5878      8.1774      2.1408     -0.4661     30.8606    154.5164     24.5394
   535.1000    798.5878      8.1774      2.1307     -0.4837     31.4733    144.4589     24.5459
   535.2000    798.5878      8.1774      2.1201     -0.4434     32.1150    138.2715     25.1162
   535.3000    794.3613      8.1773      2.1141     -0.4848     32.4770    141.1057     25.5400
   535.4000    794.3613      8.1773      2.1122     -0.4795     32.5957    143.9629     25.5439
   535.5000    794.8391      8.1778      2.1166     -0.4713     32.3272    143.5552     25.1243
   535.6000    794.8391      8.1778      2.1239     -0.4492     31.8829    149.1230     24.3123
   535.7000    794.8391      8.1778      2.1177     -0.4427     32.2594    162.8562     23.8934
   535.8000    790.3666      8.1779      2.0934     -0.5021     33.7314    175.0222     24.4446
   535.9000    790.3666      8.1779      2.0702     -0.5464     35.1410    180.4511     25.4808
   536.0000    785.0600      8.1778      2.0637     -0.5316     35.5327    178.3019     25.9144
   536.1000    785.0600      8.1778      2.0771     -0.5371     34.7234    166.4861     25.0466
   536.2000    785.0600      8.1778      2.1035     -0.4460     33.1216    155.5615     23.5201
   536.3000    786.9927      8.1775      2.1262     -0.4590     31.7429    157.1844     22.6250
