~Version Information
VERS.                      2.0: CWLS Log ASCII Standard - VERSION 2.0
WRAP.                       NO: One line per depth step
~Well Information Block
STRT.FT                -7.5000: 
STOP.FT              1716.7500: 
STEP.FT                 0.2500: 
NULL.                -999.2500: 
COMP.          Pioneer Natural Resources: COMPANY
WELL.          Lookout Point 31-23 Tr: WELL
FLD.           Purgatorie River: FIELD
LOC.           541' FNL & 1786' FEL--------: LOCATION
PROV.                       CO: PROVINCE
CNTY.               Las Animas: COUNTRY
SRVC.                         : SERVICE COMPANY
DATE.          Fri Jan 28 08:30:47 2005: LOG DATE
UWI.         005 071 08260 : UNIQUE WELL ID
~Curve Information Block
DEPT.FT            0 000 00 00: Depth
CCL.                          : Casing Collar Locator
TT3.usec                      : CBL 3' Travel Time
AMP3.mV                       : CBL 3' Amplitude
GR.GAPI                       : Gamma Ray
~Parameter Information Block
~A  Depth       CCL         TT3         AMP3         GR     
    -7.5000   -999.2500   -999.2500   -999.2500   -999.2500
    -7.2500   -999.2500   -999.2500   -999.2500    112.9069
    -7.0000   -999.2500   -999.2500   -999.2500    108.6588
    -6.7500   -999.2500   -999.2500   -999.2500    104.2268
    -6.5000   -999.2500   -999.2500   -999.2500    100.0262
    -6.2500   -999.2500   -999.2500   -999.2500     96.6845
    -6.0000   -999.2500   -999.2500   -999.2500     95.1682
    -5.7500   -999.2500   -999.2500   -999.2500     96.3563
    -5.5000   -999.2500   -999.2500   -999.2500    100.2565
    -5.2500   -999.2500   -999.2500   -999.2500    105.4482
    -5.0000   -999.2500   -999.2500   -999.2500    109.5407
    -4.7500   -999.2500   -999.2500   -999.2500    110.7641
    -4.5000   -999.2500   -999.2500   -999.2500    109.3174
    -4.2500   -999.2500   -999.2500   -999.2500    107.0458
    -4.0000   -999.2500   -999.2500   -999.2500    105.7439
    -3.7500   -999.2500   -999.2500   -999.2500    105.6576
    -3.5000   -999.2500   -999.2500   -999.2500    105.5380
    -3.2500   -999.2500   -999.2500   -999.2500    104.0580
    -3.0000   -999.2500   -999.2500   -999.2500    101.0230
    -2.7500   -999.2500   -999.2500   -999.2500     97.2251
    -2.5000   -999.2500   -999.2500   -999.2500     93.5639
    -2.2500   -999.2500    798.0000      1.0937     90.6634
    -2.0000   -999.2500    798.0000      1.1158     89.0989
    -1.7500   -999.2500    798.0000      1.1508     89.3197
    -1.5000   -999.2500    798.0000      1.1870     91.0570
    -1.2500   -999.2500    798.0000      1.2142     92.9194
    -1.0000   -999.2500    798.0000      1.2301     92.8425
    -0.7500   -999.2500    798.0000      1.2385     89.5283
    -0.5000   -999.2500    798.0000      1.2436     84.0090
    -0.2500   -999.2500    798.0000      1.2457     79.4316
     0.0000   -999.2500    798.0000      1.2424     78.3446
     0.2500   -999.2500    798.0000      1.2312     81.2038
     0.5000   -999.2500    798.0000      1.2104     78.6306
     0.7500   -999.2500    798.0000      1.1812     71.5995
     1.0000   -999.2500    798.0000      1.1513     61.5906
     1.2500   -999.2500    798.0000      1.1362     51.0332
     1.5000   -999.2500    798.0000      1.1495     42.3067
     1.7500   -999.2500    798.0000      1.1882     37.2112
     2.0000   -999.2500    798.0000      1.2329     36.4478
     2.2500   -999.2500    798.0000      1.2633     39.3194
     2.5000   -999.2500    798.0000      1.2727     44.2784
     2.7500   -999.2500    798.0000      1.2673     49.9443
     3.0000   -999.2500    798.0000      1.2549     55.4482
     3.2500   -999.2500    798.0000      1.2376     60.0860
     3.5000      0.0000    798.0000      1.2140     63.2760
     3.7500      0.0000    798.0000      1.1863     64.9103
     4.0000      0.0000    798.0000      1.1630     65.2474
     4.2500      0.0000    797.9644      1.1574     64.3762
     4.5000      0.0000    797.7326      1.1874     62.2836
     4.7500      0.0000    796.5555      1.3114     59.6236
     5.0000      0.0000    791.9017      1.7241     57.8441
     5.2500      0.0000    777.5757      2.8944     58.1169
     5.5000      0.0000    743.2467      5.5678     60.3347
     5.7500      0.0000    679.2778     10.3406     63.3571
     6.0000      0.0000    586.8243     16.8730     66.0630
     6.2500      0.0000    484.1956     23.5390     68.0675
     6.5000      0.0000    399.9563     28.2475     69.6203
     6.7500      0.0000    357.6422     29.8285     71.0424
     7.0000      0.0000    366.2618     28.5757     72.3124
     7.2500      0.0000    420.2100     25.6065     73.0788
     7.5000      0.0000    502.1089     21.9866     72.9057
     7.7500      0.0000    588.0798     18.3757     71.6042
     8.0000      0.0000    658.6821     15.1024     69.5067
     8.2500      0.0000    708.2103     12.3280     67.3046
     8.5000      0.0000    741.9366     10.1354     65.4249
     8.7500      0.0000    765.9200      8.5384     63.6543
     9.0000      0.0000    782.2818      7.4682     61.5362
     9.2500      0.0000    791.7117      6.7966     59.0165
     9.5000      0.0000    795.9987      6.3865     56.5570
     9.7500      0.0000    797.4977      6.1308     54.8786
    10.0000      0.0000    797.8657      5.9636     54.6945
    10.2500      0.0000    797.7627      5.8468     56.3802
    10.5000      0.0000    796.9555      5.7498     59.7654
    10.7500      0.0000    794.0788      5.6499     64.3672
    11.0000      0.0000    786.1786      5.5551     69.6349
    11.2500      0.0000    769.2769      5.5039     74.6664
    11.5000      0.0000    741.3840      5.5253     78.0880
    11.7500      0.0000    706.4127      5.6045     78.9882
    12.0000      0.0000    673.6829      5.6970     78.0088
    12.2500      0.0000    650.6041      5.7708     76.9174
    12.5000      0.0000    635.7775      5.8290     76.8766
    12.7500      0.0000    621.8618      5.8901     77.3215
    13.0000      0.0000    605.1506      5.9525     76.6016
    13.2500      0.0000    590.0251      5.9933     73.6876
    13.5000      0.0000    584.3179      6.0063     69.3579
    13.7500      0.0000    592.6633      6.0182     65.7939
    14.0000      0.0000    614.1171      6.0548     64.8123
    14.2500      0.0000    643.6975      6.1058     66.4000
    14.5000      0.0000    674.8250      6.1291     69.0887
    14.7500      0.0000    701.3303      6.0781     71.4976
    15.0000      0.0000    719.8553      5.9357     73.0336
    15.2500      0.0000    731.6657      5.7426     73.3660
    15.5000      0.0000    740.6104      5.5822     72.1222
    15.7500      0.0000    748.5134      5.5125     69.5006
    16.0000      0.0000    754.0506      5.5143     66.6617
    16.2500      0.0000    755.8340      5.5151     64.8628
    16.5000      0.0000    754.1416      5.4450     64.2616
    16.7500      0.0000    749.5242      5.2660     64.0685
    17.0000      0.0000    742.0557      4.9878     63.8121
    17.2500      0.0000    733.0645      4.6894     63.7451
    17.5000      0.0000    725.7001      4.5011     63.9066
    17.7500      0.0000    722.0627      4.5109     63.7067
    18.0000      0.0000    720.8958      4.6842     62.9491
    18.2500      0.0000    720.2560      4.9042     62.5596
    18.5000      0.0000    721.2247      5.0836     63.5395
    18.7500      0.0000    726.3707      5.2125     65.6207
    19.0000      0.0000    735.4696      5.3111     67.6944
    19.2500      0.0000    745.2264      5.3768     69.1851
    19.5000      0.0000    752.9224      5.3871     70.2213
    19.7500      0.0000    758.5763      5.3323     70.8377
    20.0000      0.0000    763.1522      5.2391     70.8682
    20.2500      0.0000    765.0782      5.1629     70.5144
    20.5000      0.0000    759.4773      5.1471     70.3572
    20.7500      0.0000    742.7429      5.1807     70.6851
    21.0000      0.0000    719.2223      5.2099     71.2280
    21.2500      0.0000    701.8956      5.2015     71.8275
    21.5000      0.0000    703.0258      5.1847     73.1939
    21.7500      0.0000    723.2117      5.2160     76.4669
    22.0000      0.0000    751.3200      5.3081     81.7525
    22.2500      0.0000    774.9569      5.4064     87.4679
    22.5000      0.0000    788.9872      5.4327     91.5368
    22.7500      0.0000    795.0500      5.3500     93.0862
    23.0000      0.0000    796.5630      5.1905     92.7592
    23.2500      0.0000    795.4968      5.0288     91.7307
    23.5000      0.0000    792.2813      4.9223     90.8208
    23.7500      0.0000    787.3474      4.8767     90.2395
    24.0000      0.0000    782.5005      4.8640     89.7517
    24.2500      0.0000    780.4367      4.8611     89.3293
    24.5000      0.0000    782.5005      4.8682     89.7056
    24.7500      0.0000    787.3474      4.8946     91.7502
    25.0000      0.0000    792.2980      4.9306     95.2485
    25.2500      0.0000    795.6174      4.9383     98.8560
    25.5000      0.0000    797.1916      4.8816    101.3652
    25.7500      0.0000    797.6183      4.7705    102.6904
