~Version Information
 VERS.                                  2.0 : CWLS LAS VERSION
 WRAP.                                   NO : WRAPING MODE
 SWARE .                 MController 2.5.0N : SOFTWARE VERSION
~Well Information
 WELL.                   Sand Pebbles 13-33 : WELL
 COMP.    Pioneer Natural Resources USA Inc : COMPANY
 FLD.                      Purgatoire River : FIELD
 LOC.                 NW/SW Sec 33 T32S R67W : LOCATION
 DATE.                           3/08-10/05 : DATE(S) LOGGED
 SRVC.         Blanco Geological Services LLC : SERVICE COMPANY
 STAT.                                   CO : STATE
 CNTY.                           Las Animas : COUNTY
 CTRY.                                  USA : COUNTRY
 API.                       05-071-08224-00 : API NUMBER
 STRT.FT                             655.00 : START DEPTH
 STOP.FT                            2730.00 : STOP DEPTH
 STEP.FT                               1.00 : DEPTH INCREMENT
 NULL.                                -9999 : NULL VALUE
~Curve information
 DEPTH.FT                                   :
 ROP.MIN/FT                                 :
 GAS.UNITS                                  :
~ASCII Log data
# ...
      1255.0         0.48          2.7 
      1256.0         0.43          3.9 
      1257.0         0.40          6.5 
      1258.0         0.40         15.0 
      1259.0         0.40         24.8 
      1260.0         0.37         29.3 
      1261.0         8.48         14.4 
      1262.0         0.37         14.9 
      1263.0         0.37         15.0 
      1264.0         0.30         17.1 
      1265.0         0.27         17.7 
      1266.0         0.20         18.7 
      1267.0         0.33         17.9 
      1268.0         0.37         14.5 
      1269.0         0.27         11.1 
      1270.0         0.32          8.3 
      1271.0         0.33          7.1 
      1272.0         0.37          6.3 
      1273.0         0.33          6.5 
      1274.0         0.47          9.7 
      1275.0         0.37         10.5 
      1276.0         0.37          8.7 
      1277.0         0.30          6.5 
      1278.0         0.43          7.8 
      1279.0         0.42          8.8 
      1280.0         0.60          6.1 
      1281.0         0.57          5.1 
      1282.0         0.30          5.0 
      1283.0         0.23          4.6 
      1284.0         0.27          4.6 
      1285.0         0.33          4.0 
      1286.0         0.27          4.0 
      1287.0         0.37          3.9 
      1288.0         0.42          4.3 
      1289.0         0.33          4.8 
      1290.0         0.60          6.8 
      1291.0         7.27         14.3 
      1292.0         0.37         15.8 
      1293.0         0.27         15.7 
      1294.0         0.17         16.2 
      1295.0         0.27         17.1 
      1296.0         0.40         20.3 
      1297.0         0.35         22.0 
      1298.0         0.37         23.0 
      1299.0         0.40         16.3 
      1300.0         0.30         10.2 
      1301.0         0.37          6.9 
      1302.0         0.23          5.9 
      1303.0         0.30          5.7 
      1304.0         0.27          7.0 
      1305.0         0.27          8.7 
      1306.0         0.30         10.2 
      1307.0         0.32          9.7 
      1308.0         0.30          8.1 
      1309.0         0.37          5.6 
      1310.0         0.23          4.6 
      1311.0         0.33          4.1 
      1312.0         0.30          4.2 
      1313.0         0.30          4.3 
      1314.0         0.23          4.5 
      1315.0         0.23          5.6 
      1316.0         0.23          6.0 
      1317.0         0.23          6.5 
      1318.0         0.20          7.0 
      1319.0         0.23          7.0 
      1320.0         0.25          7.1 
      1321.0         8.10         15.7 
      1322.0         0.40         16.3 
      1323.0         0.43         16.9 
      1324.0         0.40         18.5 
      1325.0         0.47         23.1 
      1326.0         0.62         19.8 
      1327.0         0.67          9.0 
      1328.0         0.60         11.3 
      1329.0         0.57         16.2 
      1330.0         0.47         20.6 
      1331.0         0.37         20.2 
      1332.0         0.55         10.5 
      1333.0         0.77          4.5 
      1334.0         1.07          5.1 
      1335.0         0.93          7.2 
      1336.0         0.88          6.6 
      1337.0         0.70          6.6 
      1338.0         0.60          7.4 
      1339.0         0.57          8.1 
      1340.0         0.57          8.0 
      1341.0         0.38          8.1 
      1342.0         0.17          8.4 
      1343.0         0.33          8.7 
      1344.0         0.27          8.8 
      1345.0         0.50          8.7 
      1346.0         0.53          8.8 
      1347.0         0.33          9.3 
      1348.0         0.33          9.0 
      1349.0         0.33         11.0 
      1350.0         0.45         18.9 
      1351.0         9.40         20.7 
      1352.0         0.98         36.1 
      1353.0         0.43         41.5 
      1354.0         0.33         45.0 
      1355.0         0.37         48.5 
      1356.0         0.37         51.8 
      1357.0         0.27         56.4 
      1358.0         0.40         71.4 
      1359.0         0.47         93.8 
      1360.0         0.48         66.9 
      1361.0         0.50         26.2 
      1362.0         0.47         11.7 
      1363.0         0.47          6.7 
      1364.0         0.33          6.2 
      1365.0         0.43          6.2 
      1366.0         0.40          5.5 
      1367.0         0.43          5.2 
      1368.0         0.48          6.6 
      1369.0         0.43          8.2 
      1370.0         0.43          9.2 
      1371.0         0.37          9.6 
      1372.0         0.43          9.3 
      1373.0         0.40          8.5 
      1374.0         0.37          8.0 
      1375.0         0.37          7.5 
      1376.0         0.45          5.9 
      1377.0         0.40          5.0 
      1378.0         0.30          4.9 
      1379.0         0.37          5.2 
      1380.0         0.47          6.0 
      1381.0         7.43         14.3 
      1382.0         0.67         16.2 
      1383.0         0.75         17.6 
      1384.0         0.63         19.1 
      1385.0         0.77         23.9 
      1386.0         0.47         35.7 
      1387.0         0.60         23.6 
      1388.0         0.58         13.0 
      1389.0         0.83         15.3 
      1390.0         0.87         19.6 
      1391.0         0.47         14.1 
      1392.0         0.57          6.6 
      1393.0         0.82          4.3 
      1394.0         0.73          7.7 
      1395.0         1.37         13.5 
      1396.0         1.72         15.2 
      1397.0         1.57         16.0 
      1398.0         0.98         18.1 
      1399.0         1.13         18.9 
      1400.0         0.97         19.8 
      1401.0         1.18         17.5 
      1402.0         1.07         17.9 
      1403.0         0.53         18.7 
      1404.0         0.53         19.0 
      1405.0         0.47         17.7 
      1406.0         0.37         18.3 
      1407.0         0.62         18.5 
      1408.0         0.50         17.2 
      1409.0         0.27         18.1 
      1410.0         0.40         19.3 
      1411.0         9.58         26.6 
      1412.0         0.20         26.6 
      1413.0         0.13         26.1 
      1414.0         0.37         27.5 
      1415.0         0.37         27.1 
      1416.0         0.37         27.5 
      1417.0         0.30         29.0 
      1418.0         0.30         35.3 
      1419.0         0.42         50.9 
      1420.0         0.40         25.1 
      1421.0         0.27         17.2 
      1422.0         0.30         16.5 
      1423.0         0.37         20.3 
      1424.0         0.27         20.8 
      1425.0         0.20         20.6 
      1426.0         0.30         18.6 
      1427.0         0.20         19.0 
      1428.0         0.13         19.2 
      1429.0         0.17         19.1 
      1430.0         0.13         19.9 
      1431.0         0.27         21.0 
      1432.0         0.17         20.1 
      1433.0         0.15         19.3 
      1434.0         0.17         16.8 
      1435.0         0.20         13.8 
      1436.0         0.23         12.5 
      1437.0         0.27         12.7 
      1438.0         0.30         12.8 
      1439.0         0.33          9.7 
      1440.0         0.43          7.5 
      1441.0         8.32         23.1 
      1442.0         0.80         24.9 
      1443.0         0.33         25.9 
      1444.0         0.47         26.9 
      1445.0         0.47         27.5 
      1446.0         0.37         30.3 
      1447.0         0.40         39.1 
      1448.0         0.45         13.4 
      1449.0         0.50          5.5 
      1450.0         0.50          4.4 
      1451.0         0.63          5.1 
      1452.0         0.57          7.9 
      1453.0         0.53         15.6 
      1454.0         0.37         14.3 
