~Version Information
VERS.                      2.0: CWLS Log ASCII Standard - VERSION 2.0
WRAP.                       NO: One line per depth step
~Well Information Block
STRT.FT               350.0000: 
STOP.FT              2531.5000: 
STEP.FT                 0.1000: 
NULL.                -999.2500: 
COMP.          Pioneer Natural Resources: COMPANY
WELL.          Cock-a-doodle-doo: WELL
FLD.           Purgatoire River: FIELD
LOC.           163' FSL & 54' FEL: LOCATION
PROV.                 Colorado: PROVINCE
CNTY.               Las Animas: COUNTRY
SRVC.                Patterson: SERVICE COMPANY
DATE.          Fri Jul 01 09:34:59 2005: LOG DATE
UWI.           05 071 08429 00: UNIQUE WELL ID
~Curve Information Block
DEPT.FT            0 000 00 00: Depth
DCAL.in                       : CDL Caliper
RHOB.g/cc                     : CDL Bulk Density
RHOC.g/cc                     : CDL Density Correction
DPOR.pu                       : CDL Density Porosity
GR.GAPI                       : Gamma Ray
NPOR.pu                       : Neutron Porosity
~Parameter Information Block
~A  Depth       DCAL        RHOB        RHOC        DPOR         GR         NPOR    
# ...
  1799.6000      9.1709      2.4782      0.4153     10.4102    122.6071     27.3320
  1799.7000      9.1709      2.5460      0.4643      6.3002    121.1872     26.7429
  1799.8000      9.1620      2.5761      0.4696      4.4767    118.8317     26.9656
  1799.9000      9.1620      2.5738      0.4782      4.6168    114.3331     27.7292
  1800.0000      9.3669      2.5417      0.3926      6.5616    108.5065     28.2754
  1800.1000      9.3669      2.4894      0.3119      9.7341    104.5955     28.5900
  1800.2000      9.3669      2.4402      0.1531     12.7147    101.9749     28.5947
  1800.3000      9.4174      2.4180      0.1968     14.0593     98.3963     28.3451
  1800.4000      9.4174      2.4221      0.1831     13.8098     96.2324     28.7820
  1800.5000      9.0621      2.4410      0.1851     12.6645     98.7864     30.2055
  1800.6000      9.0621      2.4729      0.1668     10.7319    105.6761     31.3712
  1800.7000      9.0621      2.5179      0.2164      8.0049    111.5894     31.1412
  1800.8000      8.6141      2.5624      0.3368      5.3064    112.3930     30.0281
  1800.9000      8.6141      2.5810      0.3829      4.1826    109.7543     29.2398
  1801.0000      8.3284      2.5529      0.3638      5.8828    106.3228     29.0571
  1801.1000      8.3284      2.4824      0.3097     10.1546    105.6031     28.8514
  1801.2000      8.3284      2.4129      0.1759     14.3671    109.5582     28.3966
  1801.3000      8.2614      2.3887      0.2369     15.8366    114.8110     28.5293
  1801.4000      8.2614      2.3954      0.3390     15.4287    118.1013     29.3957
  1801.5000      8.3087      2.3802      0.3511     16.3533    119.6968     29.7949
  1801.6000      8.3087      2.3100      0.3216     20.6057    121.0786     29.3359
  1801.7000      8.3087      2.1966      0.2281     27.4774    121.1285     28.5992
  1801.8000      8.8506      2.0827      0.1729     34.3810    116.9195     28.1394
  1801.9000      8.8506      1.9990      0.1757     39.4530    110.6262     28.5704
  1802.0000      9.0892      1.9438      0.1729     42.7991    110.0410     29.8840
  1802.1000      9.0892      1.9133      0.1230     44.6455    117.8203     31.0719
  1802.2000      9.0892      1.9204      0.1379     44.2165    126.4506     31.2813
  1802.3000      9.3588      1.9666      0.2165     41.4182    128.8385     30.7179
  1802.4000      9.3588      2.0293      0.2803     37.6170    127.7075     30.1398
  1802.5000      9.9993      2.0888      0.2745     34.0100    125.6749     29.9075
  1802.6000      9.9993      2.1405      0.3789     30.8818    122.3752     30.2744
  1802.7000      9.9993      2.1891      0.3432     27.9329    120.2665     31.0627
  1802.8000     10.4046      2.2420      0.3892     24.7296    119.4260     31.1309
  1802.9000     10.4046      2.2951      0.3751     21.5105    117.0054     30.3913
  1803.0000     10.4490      2.3430      0.3661     18.6033    111.9862     29.6559
  1803.1000     10.4490      2.3811      0.4093     16.2958    108.0328     29.1104
  1803.2000     10.4490      2.3962      0.4251     15.3832    107.4175     28.7130
  1803.3000     10.2186      2.3834      0.4173     16.1546    109.4714     28.6062
  1803.4000     10.2186      2.3563      0.3669     17.8008    115.5343     28.8262
  1803.5000     10.0493      2.3320      0.3371     19.2705    123.5781     29.6004
  1803.6000     10.0493      2.3248      0.3126     19.7101    128.2387     30.6524
  1803.7000     10.0493      2.3405      0.3050     18.7564    127.0135     31.0627
  1803.8000     10.0175      2.3619      0.3512     17.4636    122.5093     30.8920
  1803.9000     10.0175      2.3689      0.3344     17.0373    120.5172     30.7867
  1804.0000     10.0374      2.3652      0.3751     17.2610    119.0824     30.8885
  1804.1000     10.0374      2.3548      0.3610     17.8924    114.7430     30.7906
  1804.2000     10.0374      2.3305      0.3756     19.3609    114.0857     30.2676
  1804.3000     10.0425      2.2828      0.3213     22.2525    120.0300     30.1081
  1804.4000     10.0425      2.2107      0.2849     26.6220    124.0405     30.8500
  1804.5000     10.0275      2.1369      0.2125     31.0960    121.3023     31.6676
  1804.6000     10.0275      2.0911      0.2423     33.8743    115.0142     31.9760
  1804.7000     10.0275      2.0767      0.2722     34.7446    108.0651     32.2368
  1804.8000     10.0372      2.0755      0.2703     34.8206    104.5293     32.5404
  1804.9000     10.0372      2.0668      0.2963     35.3457    105.5201     32.1460
  1805.0000     10.1794      2.0470      0.2941     36.5443    103.1022     31.2437
  1805.1000     10.1794      2.0305      0.3196     37.5442     93.8465     30.8806
  1805.2000     10.1794      2.0413      0.2799     36.8915     83.3488     30.9295
  1805.3000     10.3638      2.1164      0.2985     32.3380     74.9513     30.6765
  1805.4000     10.3638      2.2708      0.3484     22.9813     70.0514     30.2448
  1805.5000     10.3646      2.4557      0.4426     11.7730     69.3332     29.8045
  1805.6000     10.3646      2.6052      0.4552      2.7152     70.1730     29.2430
  1805.7000     10.3646      2.7105      0.4512     -3.6688     71.8910     28.7456
  1805.8000      9.6602      2.7944      0.5211     -8.7493     74.3032     28.5117
  1805.9000      9.6602      2.8484      0.5006    -12.0264     75.4768     28.5527
  1806.0000      8.5808      2.8545      0.3742    -12.3934     76.4602     27.9739
  1806.1000      8.5808      2.8207      0.2552    -10.3432     78.2804     26.1410
  1806.2000      8.5808      2.7736      0.2025     -7.4912     83.9776     24.4463
  1806.3000      8.3042      2.7377      0.2123     -5.3158     83.6861     23.9847
  1806.4000      8.3042      2.7159      0.1230     -3.9928     81.3580     23.6675
  1806.5000      8.1375      2.6913      0.0734     -2.5039     79.3260     22.5572
  1806.6000      8.1375      2.6499      0.0331      0.0060     80.2876     21.8884
  1806.7000      8.1375      2.5998      0.0346      3.0444     83.1871     22.2591
  1806.8000      8.1096      2.5635     -0.0359      5.2409     85.0458     21.8804
  1806.9000      8.1096      2.5555     -0.0031      5.7261     83.5596     20.1797
  1807.0000      8.0592      2.5704     -0.0027      4.8238     78.5645     19.0833
  1807.1000      8.0592      2.5910      0.0247      3.5755     73.0223     19.5089
  1807.2000      8.0592      2.5991      0.0186      3.0838     76.7029     20.5432
  1807.3000      8.0429      2.5944      0.0148      3.3721     76.9897     21.5383
  1807.4000      8.0429      2.5941     -0.0037      3.3858     80.3845     22.1492
  1807.5000      8.0185      2.6025      0.0566      2.8800     82.6898     21.6885
  1807.6000      8.0185      2.6090      0.0459      2.4823     82.5903     20.4531
  1807.7000      8.0185      2.6183      0.0217      1.9182     84.0851     19.4506
  1807.8000      8.0070      2.6284      0.0903      1.3083     88.8644     19.4014
  1807.9000      8.0070      2.6183      0.0523      1.9200     93.3615     20.1566
  1808.0000      8.0012      2.5960      0.0436      3.2715     94.0592     20.8755
  1808.1000      8.0012      2.5871      0.0109      3.8135     92.1309     21.0767
  1808.2000      8.0012      2.5947     -0.0065      3.3520     99.1016     21.2298
  1808.3000      8.0209      2.6096      0.1025      2.4476    100.5138     21.5340
  1808.4000      8.0209      2.6207      0.0482      1.7757    103.3139     21.1468
  1808.5000      8.0775      2.6233      0.0666      1.6178    103.6994     20.1889
  1808.6000      8.0775      2.6244      0.0427      1.5535    102.6002     19.7512
  1808.7000      8.0775      2.6368      0.0492      0.8003    104.5601     19.7598
  1808.8000      8.0792      2.6533      0.1383     -0.2027    111.4980     19.6326
  1808.9000      8.0792      2.6507      0.0956     -0.0451    123.5624     19.6028
  1809.0000      8.0121      2.6350      0.0770      0.9112    137.6146     19.8167
  1809.1000      8.0121      2.6297      0.0419      1.2291    145.7898     19.7628
