~Version Information
VERS.                      2.0: CWLS Log ASCII Standard - VERSION 2.0
WRAP.                       NO: One line per depth step
~Well Information Block
STRT.FT               260.0000: 
STOP.FT              1199.2000: 
STEP.FT                 0.1000: 
NULL.                -999.2500: 
COMP.          Evergreen Operating Corporation: COMPANY
WELL.             Justin 32-10: WELL
FLD.           Purgatorie River: FIELD
LOC.           2994' FNL & 1449' FEL: LOCATION
PROV.                 Colorado: PROVINCE
CNTY.               Las Animas: COUNTRY
SRVC.                         : SERVICE COMPANY
DATE.          Mon Aug 30 07:14:35 2004: LOG DATE
UWI.           05 071 08053 00: UNIQUE WELL ID
~Curve Information Block
DEPT.FT            0 000 00 00: Depth
LTEN.lb                       : Surface Line Tension
DCAL.in                       : CDL Caliper
RHOB.g/cc                     : CDL Bulk Density
RHOC.g/cc                     : CDL Density Correction
DPOR.pu                       : CDL Density Porosity
GR.GAPI                       : Gamma Ray
NPOR.pu                       : Neutron Porosity
~Parameter Information Block
~A  Depth       LTEN        DCAL        RHOB        RHOC        DPOR         GR         NPOR    
# ...
   512.0000    813.2618      8.1530      2.5559      0.0476      5.7028    139.2892     26.0417
   512.1000    813.2618      8.1530      2.5524      0.0422      5.9163    139.7561     26.1218
   512.2000    813.2618      8.1530      2.5423      0.0758      6.5294    137.6246     26.3979
   512.3000    775.6716      8.1571      2.5307      0.0571      7.2319    135.2145     26.6887
   512.4000    775.6716      8.1571      2.5150      0.0276      8.1823    136.5061     26.8705
   512.5000    776.9403      8.1295      2.5014     -0.0329      9.0064    136.5968     27.0012
   512.6000    776.9403      8.1295      2.5013      0.0101      9.0147    133.7018     27.3295
   512.7000    776.9403      8.1295      2.5094      0.0566      8.5237    136.6072     27.8092
   512.8000    839.5518      8.0920      2.5173      0.0466      8.0422    146.9564     27.8351
   512.9000    839.5518      8.0920      2.5314      0.0744      7.1896    154.5782     27.1728
   513.0000    813.9711      8.0815      2.5551      0.0836      5.7507    153.4758     26.3651
   513.1000    813.9711      8.0815      2.5717      0.1811      4.7456    148.4873     26.0060
   513.2000    813.9711      8.0815      2.5656      0.1295      5.1128    143.6967     26.3299
   513.3000    829.5616      8.0731      2.5539      0.0715      5.8232    136.4361     27.0905
   513.4000    829.5616      8.0731      2.5574      0.1093      5.6121    128.3875     27.6289
   513.5000    849.8876      8.0425      2.5600      0.1404      5.4524    124.6088     27.7342
   513.6000    849.8876      8.0425      2.5393      0.0958      6.7084    123.0988     27.7395
   513.7000    849.8876      8.0425      2.5084      0.0628      8.5803    120.5352     27.5745
   513.8000    833.3680      8.0518      2.4985      0.0463      9.1813    117.8820     27.0964
   513.9000    833.3680      8.0518      2.5232      0.1200      7.6846    114.8187     26.6908
   514.0000    865.0205      8.0626      2.5701      0.1768      4.8454    110.1495     26.4612
   514.1000    865.0205      8.0626      2.6167      0.2220      2.0179    104.2495     25.8999
   514.2000    865.0205      8.0626      2.6493      0.2182      0.0404    100.2514     24.9221
   514.3000    878.5309      8.0556      2.6625      0.2025     -0.7573    100.4216     24.2302
   514.4000    878.5309      8.0556      2.6595      0.2112     -0.5761    101.0846     24.0835
   514.5000    908.3175      8.0319      2.6543      0.1582     -0.2579     98.0614     24.0922
   514.6000    908.3175      8.0319      2.6464      0.1936      0.2212     93.5269     24.0589
   514.7000    908.3175      8.0319      2.6217      0.1426      1.7171     92.4798     23.9088
   514.8000    858.0346      8.0166      2.5905      0.0744      3.6072     95.7292     23.7524
   514.9000    858.0346      8.0166      2.5752      0.0343      4.5343     98.7361     23.7973
   515.0000    819.9240      8.0492      2.5776      0.0430      4.3873     97.5387     23.8512
   515.1000    819.9240      8.0492      2.5840      0.0615      4.0003     96.2422     23.7095
   515.2000    819.9240      8.0492      2.5841      0.0425      3.9964    101.4902     23.5321
   515.3000    846.2497      8.0700      2.5744      0.0614      4.5843    111.0300     23.6477
   515.4000    846.2497      8.0700      2.5531      0.0063      5.8722    116.2318     24.0004
   515.5000    853.3694      8.0763      2.5273     -0.0236      7.4342    111.5654     24.3092
   515.6000    853.3694      8.0763      2.5113     -0.0186      8.4083    104.0208     24.3845
   515.7000    853.3694      8.0763      2.5088      0.0089      8.5602    104.5878     24.0550
   515.8000    859.4603      8.0668      2.5124      0.0256      8.3409    113.0739     23.6634
   515.9000    859.4603      8.0668      2.5201      0.0495      7.8747    120.8551     23.6698
   516.0000    844.3701      8.0785      2.5301      0.0617      7.2646    120.5191     23.9654
   516.1000    844.3701      8.0785      2.5331      0.1092      7.0864    115.0820     24.4382
   516.2000    844.3701      8.0785      2.5282      0.0822      7.3799    115.9930     25.0305
   516.3000    900.0488      8.0547      2.5297      0.0850      7.2899    127.0254     25.3208
   516.4000    900.0488      8.0547      2.5442      0.1020      6.4124    139.4184     25.1094
   516.5000    893.8817      8.0567      2.5611      0.1327      5.3902    144.5204     24.8441
   516.6000    893.8817      8.0567      2.5738      0.1362      4.6190    141.3347     24.9407
   516.7000    893.8817      8.0567      2.5956      0.1420      3.2944    132.9224     25.2690
   516.8000    900.7939      8.0736      2.6263      0.2203      1.4334    125.1982     25.6229
   516.9000    900.7939      8.0736      2.6317      0.2479      1.1088    122.2805     25.8839
   517.0000    854.1664      8.0556      2.5984      0.1373      3.1257    121.9040     25.7571
   517.1000    854.1664      8.0556      2.5592      0.0530      5.5026    121.0883     25.3251
   517.2000    854.1664      8.0556      2.5401      0.0641      6.6585    121.6060     25.2595
   517.3000    857.0523      8.0629      2.5343      0.0506      7.0134    126.2426     25.7989
   517.4000    857.0523      8.0629      2.5286      0.0391      7.3569    131.1738     26.2587
   517.5000    821.9093      8.0569      2.5197      0.0251      7.8942    129.4501     26.0289
   517.6000    821.9093      8.0569      2.5095      0.0298      8.5178    123.8945     25.4179
   517.7000    821.9093      8.0569      2.4988      0.0256      9.1608    122.3741     25.0634
   517.8000    885.2480      8.0470      2.4821      0.0682     10.1773    125.5362     24.9358
   517.9000    885.2480      8.0470      2.4609      0.0047     11.4588    129.9690     24.8425
   518.0000    914.6602      8.0446      2.4599     -0.0453     11.5224    135.1829     25.0795
   518.1000    914.6602      8.0446      2.4870      0.0421      9.8791    139.9317     25.7512
   518.2000    914.6602      8.0446      2.5152      0.0753      8.1678    140.8727     26.2337
   518.3000    913.1276      8.0441      2.5347      0.0545      6.9876    138.1775     25.9696
   518.4000    913.1276      8.0441      2.5584      0.1118      5.5525    134.5337     25.3840
   518.5000    840.2632      8.0273      2.5850      0.1795      3.9422    129.0283     25.1932
   518.6000    840.2632      8.0273      2.6025      0.2127      2.8782    121.1728     25.3436
   518.7000    840.2632      8.0273      2.6019      0.2382      2.9175    117.8947     25.3707
   518.8000    887.7307      8.0402      2.5789      0.2062      4.3109    119.2655     25.1274
   518.9000    887.7307      8.0402      2.5451      0.1245      6.3567    119.2003     24.6794
   519.0000    896.1235      8.0824      2.5232      0.0764      7.6828    117.7960     24.1542
   519.1000    896.1235      8.0824      2.5306      0.0445      7.2390    115.9474     23.8406
   519.2000    896.1235      8.0824      2.5654      0.1229      5.1301    113.2717     24.1024
   519.3000    945.1849      8.0953      2.6054      0.1387      2.7014    110.7744     24.8377
   519.4000    945.1849      8.0953      2.6267      0.1573      1.4132    107.3123     25.4024
   519.5000    888.4038      8.1180      2.6199      0.1500      1.8220    102.2568     25.2424
   519.6000    888.4038      8.1180      2.6006      0.1441      2.9967     97.3424     24.4393
   519.7000    888.4038      8.1180      2.5897      0.1489      3.6536     94.7451     23.4622
   519.8000    825.3729      8.0977      2.5903      0.0748      3.6161     95.3390     22.7093
   519.9000    825.3729      8.0977      2.5916      0.1420      3.5406     97.8168     22.5228
   520.0000    813.1480      8.0759      2.5850      0.1197      3.9389     99.3062     22.7699
   520.1000    813.1480      8.0759      2.5794      0.0802      4.2785     97.8354     22.9681
   520.2000    813.1480      8.0759      2.5847      0.1106      3.9567     93.8744     23.0282
   520.3000    830.4831      8.0624      2.5941      0.1131      3.3863     90.0487     23.1866
