~Version Information
 VERS.                                  2.0 : CWLS LAS VERSION
 WRAP.                                   NO : WRAPING MODE
 SWARE .                 MController 2.5.0I : SOFTWARE VERSION
~Well Information
 WELL.                      Alexander 9-43R : WELL
 COMP.                       Petrogulf corp : COMPANY
 FLD.                      Purgatorie River : FIELD
 LOC.                 NE/SE Sec 9 T33s R67W : LOCATION
 DATE.                              9/03/04 : DATE(S) LOGGED
 SRVC.       Blanco Geological Services LLC : SERVICE COMPANY
 STAT.                                   CO : STATE
 CNTY.                           Las Animas : COUNTY
 CTRY.                                  USA : COUNTRY
 API.                       05-071-08036-00 : API NUMBER
 STRT.FT                             527.00 : START DEPTH
 STOP.FT                            1779.00 : STOP DEPTH
 STEP.FT                               1.00 : DEPTH INCREMENT
 NULL.                                -9999 : NULL VALUE
~Curve information
 DEPTH.FT                                   :
 ROP.MIN/FT                                 :
 GAS.UNITS                                  :
~ASCII Log data
# ...
       727.0          0.1          7.8 
       728.0          0.2          6.6 
       729.0          0.2          6.2 
       730.0          0.2          5.6 
       731.0          0.2          5.4 
       732.0          0.2          5.3 
       733.0          0.1          5.2 
       734.0          0.1          5.3 
       735.0          0.1          4.9 
       736.0          0.2          5.1 
       737.0          0.2          8.0 
       738.0          0.1          9.6 
       739.0          0.1         11.0 
       740.0          0.1         11.8 
       741.0          0.1         11.4 
       742.0          0.1         10.6 
       743.0          0.2          9.7 
       744.0          0.2          7.1 
       745.0          0.1          5.2 
       746.0          2.0        140.5 
       747.0          0.2        129.3 
       748.0          0.4         81.1 
       749.0          0.2         32.1 
       750.0          0.2         22.4 
       751.0          0.2         16.2 
       752.0          0.2         12.2 
       753.0          0.2          8.8 
       754.0          0.3          7.4 
       755.0          0.2          6.1 
       756.0          0.2          5.5 
       757.0          0.2          5.7 
       758.0          0.2          5.9 
       759.0          0.2          5.5 
       760.0          0.2          5.4 
       761.0          0.2          5.8 
       762.0          0.2          5.9 
       763.0          0.2          5.6 
       764.0          0.2          5.8 
       765.0          0.1          7.1 
       766.0          0.1          8.9 
       767.0          0.1          9.5 
       768.0          0.1         10.8 
       769.0          0.1         11.2 
       770.0          0.1         12.1 
       771.0          0.1         11.9 
       772.0          0.2         12.2 
       773.0          0.1         13.0 
       774.0          0.2         13.5 
       775.0          0.2         10.9 
       776.0          1.5         64.4 
       777.0          0.5         63.6 
       778.0          0.2         30.9 
       779.0          0.3         24.6 
       780.0          0.2         15.9 
       781.0          0.2         11.6 
       782.0          0.2         10.1 
       783.0          0.2          8.4 
       784.0          0.2          7.1 
       785.0          0.2          6.1 
       786.0          0.2          4.8 
       787.0          0.2          3.9 
       788.0          0.2          3.8 
       789.0          0.2          3.7 
       790.0          0.2          3.6 
       791.0          0.2          3.9 
       792.0          0.2          3.6 
       793.0          0.2          3.3 
       794.0          0.2          3.0 
       795.0          0.2          2.9 
       796.0          0.2          3.3 
       797.0          0.1          3.8 
       798.0          0.2          4.1 
       799.0          0.1          4.6 
       800.0          0.2          4.5 
       801.0          0.2          4.1 
       802.0          0.2          4.1 
       803.0          0.3          4.2 
       804.0          0.2          5.2 
       805.0          0.2          4.7 
       806.0          2.0         65.9 
       807.0          0.2         28.4 
       808.0          0.3         26.9 
       809.0          0.2         21.2 
       810.0          0.2         18.6 
       811.0          0.2         16.5 
       812.0          0.2         15.4 
       813.0          0.2         13.4 
       814.0          0.2         12.5 
       815.0          0.2         11.0 
       816.0          0.2          8.6 
       817.0          0.2          7.1 
       818.0          0.1          5.3 
       819.0          0.2          4.0 
       820.0          0.1          2.7 
       821.0          0.2          2.3 
       822.0          0.2          1.9 
       823.0          0.1          1.6 
       824.0          0.2          1.1 
       825.0          0.2          0.9 
       826.0          0.2          0.7 
       827.0          0.2          0.3 
       828.0          0.2          0.3 
       829.0          0.2          1.0 
       830.0          0.2          1.5 
       831.0          0.2          1.8 
       832.0          0.2          1.3 
       833.0          0.2          2.3 
       834.0          0.1          2.1 
       835.0          0.2          1.5 
       836.0          2.5         70.0 
       837.0          0.3         29.0 
       838.0          0.2         21.8 
       839.0          0.2         17.8 
       840.0          0.2         13.2 
       841.0          0.2         11.5 
       842.0          0.2         10.4 
       843.0          0.2          9.4 
       844.0          0.2          8.3 
       845.0          0.2          7.2 
       846.0          0.2          5.9 
       847.0          0.2          5.2 
       848.0          0.2          4.1 
       849.0          0.2          3.6 
       850.0          0.2          3.1 
       851.0          0.2          2.6 
       852.0          0.2          2.5 
       853.0          0.2          2.2 
       854.0          0.2          2.4 
       855.0          0.2          2.6 
       856.0          0.2          2.6 
       857.0          0.1          3.7 
       858.0          0.2          4.9 
       859.0          0.1          5.3 
       860.0          0.2          5.5 
       861.0          0.2          5.4 
       862.0          0.2          5.4 
       863.0          0.2          4.6 
       864.0          0.1          2.7 
       865.0          0.2          0.2 
       866.0          2.2         79.5 
       867.0          0.3         22.0 
       868.0          0.3         18.0 
       869.0          0.3         14.4 
       870.0          0.3         12.7 
       871.0          0.2          9.6 
       872.0          0.2          7.2 
       873.0          0.2          5.0 
       874.0          0.2          3.6 
       875.0          0.2          2.6 
       876.0          0.2          1.6 
       877.0          0.2          1.5 
       878.0          0.2          1.5 
       879.0          0.2          2.1 
       880.0          0.1          2.5 
       881.0          0.2          3.1 
       882.0          0.2          3.6 
       883.0          0.2          3.7 
       884.0          0.2          3.6 
       885.0          0.1          4.1 
       886.0          0.1          6.8 
       887.0          0.1          9.2 
       888.0          0.1         12.0 
       889.0          0.1         14.4 
       890.0          0.2         15.6 
       891.0          0.2         15.4 
       892.0          0.2         15.8 
       893.0          0.1         14.6 
       894.0          0.2         12.7 
       895.0          0.2          7.7 
       896.0          2.2         81.3 
       897.0          0.2         29.6 
       898.0          0.2         24.7 
       899.0          0.3         20.2 
       900.0          0.1         17.3 
       901.0          0.1         15.6 
       902.0          0.1         14.6 
       903.0          0.1         15.2 
       904.0          0.2         15.1 
       905.0          0.2         15.2 
       906.0          0.2         13.5 
       907.0          0.2         12.5 
       908.0          0.2         10.9 
       909.0          0.2          9.5 
       910.0          0.2          9.2 
       911.0          0.2          8.3 
       912.0          0.2          7.6 
       913.0          0.2          7.2 
       914.0          0.2          7.0 
       915.0          0.2          6.5 
       916.0          0.1          5.9 
       917.0          0.1          5.8 
       918.0          0.1          5.4 
       919.0          0.1          5.1 
       920.0          0.2          4.9 
       921.0          0.2          5.9 
       922.0          0.2          6.6 
       923.0          0.2          5.8 
       924.0          0.2          1.6 
       925.0          0.2          0.7 
       926.0          2.0         97.6 
