~Version Information
VERS.                      2.0: CWLS Log ASCII Standard - VERSION 2.0
WRAP.                       NO: One line per depth step
~Well Information Block
STRT.FT               962.7000: 
STOP.FT              2435.5000: 
STEP.FT                 0.1000: 
NULL.                -999.2500: 
COMP.          Petrogulf Corporation: COMPANY
WELL.              Hand 8-44 V: WELL
FLD.           Purgatorie River: FIELD
LOC.           1076' FEL & 820' FSL: LOCATION
CNTY.               Las Animas: COUNTY
SRVC.                         : SERVICE COMPANY
DATE.          Fri Nov 21 14:12:41 2003: LOG DATE
UWI.                          : UNIQUE WELL ID
STAT.                 Colorado: STATE
~Curve Information Block
DEPT.FT            0 000 00 00: Depth
DCAL.in                       : CDL Caliper
RHOB.g/cc                     : CDL Bulk Density
RHOC.g/cc                     : CDL Density Correction
DPOR.pu                       : CDL Density Porosity
GR.GAPI                       : Gamma Ray
NPOR.pu                       : Neutron Porosity
~Parameter Information Block
~A  Depth       DCAL        RHOB        RHOC        DPOR         GR         NPOR    
# ...
  2421.9000      8.0300      2.5123      0.0525      8.3461   -999.2500   -999.2500
  2422.0000      8.0363      2.5001      0.0121      9.0857   -999.2500   -999.2500
  2422.1000      8.0363      2.5156      0.0273      8.1461   -999.2500   -999.2500
  2422.2000      8.0363      2.5288      0.0870      7.3485   -999.2500   -999.2500
  2422.3000      8.0514      2.5079      0.0853      8.6145   -999.2500   -999.2500
  2422.4000      8.0514      2.4695     -0.0231     10.9419   -999.2500   -999.2500
  2422.5000      8.0469      2.4630      0.0114     11.3306   -999.2500   -999.2500
  2422.6000      8.0469      2.5006      0.0208      9.0525   -999.2500   -999.2500
  2422.7000      8.0469      2.5437      0.1165      6.4416   -999.2500   -999.2500
  2422.8000      8.0524      2.5595      0.1147      5.4825   -999.2500   -999.2500
  2422.9000      8.0524      2.5559      0.0905      5.7022   -999.2500   -999.2500
  2423.0000      8.0367      2.5515      0.0587      5.9691   -999.2500   -999.2500
  2423.1000      8.0367      2.5534      0.0492      5.8557   -999.2500   -999.2500
  2423.2000      8.0367      2.5620      0.0920      5.3326   -999.2500   -999.2500
  2423.3000      8.0250      2.5731      0.0869      4.6636   -999.2500   -999.2500
  2423.4000      8.0250      2.5747      0.1443      4.5622   -999.2500   -999.2500
  2423.5000      8.0235      2.5611      0.0136      5.3881   -999.2500   -999.2500
  2423.6000      8.0235      2.5405      0.1205      6.6341   -999.2500   -999.2500
  2423.7000      8.0235      2.5139      0.0079      8.2510   -999.2500   -999.2500
  2423.8000      8.0280      2.4862     -0.0175      9.9253   -999.2500   -999.2500
  2423.9000      8.0280      2.4674      0.0255     11.0673   -999.2500   -999.2500
  2424.0000      8.0251      2.4587      0.0092     11.5960   -999.2500   -999.2500
  2424.1000      8.0251      2.4607      0.0310     11.4753   -999.2500   -999.2500
  2424.2000      8.0251      2.4705      0.0632     10.8809   -999.2500   -999.2500
  2424.3000      8.0290      2.4874      0.0072      9.8555   -999.2500   -999.2500
  2424.4000      8.0290      2.5125      0.0573      8.3312   -999.2500   -999.2500
  2424.5000      8.0259      2.5296      0.0945      7.2970   -999.2500   -999.2500
  2424.6000      8.0259      2.5219      0.0722      7.7616   -999.2500   -999.2500
  2424.7000      8.0259      2.5003      0.0041      9.0710   -999.2500   -999.2500
  2424.8000      8.0318      2.4848      0.0221     10.0135   -999.2500   -999.2500
  2424.9000      8.0318      2.4795      0.0172     10.3322   -999.2500   -999.2500
  2425.0000      8.0089      2.4835     -0.0086     10.0904   -999.2500   -999.2500
  2425.1000      8.0089      2.5053      0.0286      8.7684   -999.2500   -999.2500
  2425.2000      8.0089      2.5427      0.0446      6.5051   -999.2500   -999.2500
  2425.3000      8.0290      2.5651      0.1593      5.1430   -999.2500   -999.2500
  2425.4000      8.0290      2.5493      0.0899      6.1059   -999.2500   -999.2500
  2425.5000      8.0293      2.5179     -0.0089      8.0072   -999.2500   -999.2500
  2425.6000      8.0293      2.4941      0.0990      9.4506   -999.2500   -999.2500
  2425.7000      8.0293      2.4709     -0.0031     10.8540   -999.2500   -999.2500
  2425.8000      8.0267      2.4479      0.0310     12.2480   -999.2500   -999.2500
  2425.9000      8.0267      2.4274      0.0340     13.4914   -999.2500   -999.2500
  2426.0000      8.0287      2.4184     -0.0208     14.0382   -999.2500   -999.2500
  2426.1000      8.0287      2.4370      0.0135     12.9088   -999.2500   -999.2500
  2426.2000      8.0287      2.4756      0.0586     10.5704   -999.2500   -999.2500
  2426.3000      8.0293      2.5087      0.1044      8.5653   -999.2500   -999.2500
  2426.4000      8.0293      2.5236      0.0650      7.6625   -999.2500   -999.2500
  2426.5000      8.0427      2.5264      0.0213      7.4895   -999.2500   -999.2500
  2426.6000      8.0427      2.5274      0.0131      7.4277   -999.2500   -999.2500
  2426.7000      8.0427      2.5205      0.1166      7.8476   -999.2500   -999.2500
  2426.8000      8.0313      2.4955      0.0410      9.3666   -999.2500   -999.2500
  2426.9000      8.0313      2.4704      0.0340     10.8861   -999.2500   -999.2500
  2427.0000      7.9956      2.4659     -0.0149     11.1579   -999.2500   -999.2500
  2427.1000      7.9956      2.4740      0.0121     10.6687   -999.2500   -999.2500
  2427.2000      7.9956      2.4729      0.0720     10.7307   -999.2500   -999.2500
  2427.3000      8.0386      2.4662     -0.0034     11.1387   -999.2500   -999.2500
  2427.4000      8.0386      2.4814      0.0453     10.2164   -999.2500   -999.2500
  2427.5000      8.0332      2.5163      0.0834      8.1014   -999.2500   -999.2500
  2427.6000      8.0332      2.5376      0.1132      6.8109   -999.2500   -999.2500
  2427.7000      8.0332      2.5296      0.0556      7.2947   -999.2500   -999.2500
  2427.8000      8.0252      2.5076      0.0453      8.6281   -999.2500   -999.2500
  2427.9000      8.0252      2.4875      0.1006      9.8504   -999.2500   -999.2500
  2428.0000      8.0260      2.4766      0.0053     10.5114   -999.2500   -999.2500
  2428.1000      8.0260      2.4839      0.0116     10.0678   -999.2500   -999.2500
  2428.2000      8.0260      2.5009      0.1340      9.0394   -999.2500   -999.2500
  2428.3000      8.0136      2.5131      0.0364      8.2995   -999.2500   -999.2500
  2428.4000      8.0136      2.5253      0.1483      7.5586   -999.2500   -999.2500
  2428.5000      8.0120      2.5423      0.0969      6.5303   -999.2500   -999.2500
  2428.6000      8.0120      2.5665      0.0646      5.0613   -999.2500   -999.2500
  2428.7000      8.0120      2.5861      0.1743      3.8704   -999.2500   -999.2500
  2428.8000      8.0065      2.5774      0.1349      4.4016   -999.2500   -999.2500
  2428.9000      8.0065      2.5464      0.0786      6.2788   -999.2500   -999.2500
  2429.0000      8.0077      2.5207      0.0337      7.8392   -999.2500   -999.2500
  2429.1000      8.0077      2.5141      0.0063      8.2393   -999.2500   -999.2500
  2429.2000      8.0077      2.5226      0.0636      7.7205   -999.2500   -999.2500
  2429.3000      8.0427      2.5294      0.0685      7.3114   -999.2500   -999.2500
  2429.4000      8.0427      2.5186      0.0831      7.9643   -999.2500   -999.2500
  2429.5000      8.0168      2.4926     -0.0027      9.5424   -999.2500   -999.2500
  2429.6000      8.0168      2.4696      0.0316     10.9330   -999.2500   -999.2500
  2429.7000      8.0168      2.4605     -0.0011     11.4861   -999.2500   -999.2500
  2429.8000      8.0104      2.4669     -0.0501     11.0986   -999.2500   -999.2500
  2429.9000      8.0104      2.4909      0.0466      9.6438   -999.2500   -999.2500
  2430.0000      8.0057      2.5235      0.0640      7.6686   -999.2500   -999.2500
  2430.1000      8.0057      2.5418      0.1123      6.5598   -999.2500   -999.2500
  2430.2000      8.0057      2.5306      0.0829      7.2355   -999.2500   -999.2500
  2430.3000      7.9981      2.5109      0.0067      8.4333   -999.2500   -999.2500
  2430.4000      7.9981      2.5117      0.0037      8.3793   -999.2500   -999.2500
  2430.5000      8.0021      2.5203      0.1165      7.8615   -999.2500   -999.2500
  2430.6000      8.0021      2.5090      0.0470      8.5480   -999.2500   -999.2500
  2430.7000      8.0021      2.4858      0.0162      9.9536   -999.2500   -999.2500
  2430.8000      8.0014      2.4757     -0.0111     10.5607   -999.2500   -999.2500
  2430.9000      8.0014      2.4898      0.0008      9.7063   -999.2500   -999.2500
  2431.0000      7.9973      2.5179      0.0513      8.0058   -999.2500   -999.2500
  2431.1000      7.9973      2.5381      0.0919      6.7846   -999.2500   -999.2500
  2431.2000      7.9973      2.5412      0.1001      6.5962   -999.2500   -999.2500
  2431.3000      7.9991      2.5361      0.0554      6.9039   -999.2500   -999.2500
  2431.4000      7.9991      2.5234      0.0930      7.6716   -999.2500   -999.2500
