~Version Information
VERS.                      2.0: CWLS Log ASCII Standard - VERSION 2.0
WRAP.                       NO: One line per depth step
~Well Information Block
STRT.FT               250.0000: 
STOP.FT               894.7000: 
STEP.FT                 0.1000: 
NULL.                -999.2500: 
COMP.          Pioneer Natural Resources: COMPANY
WELL.          Santisteven 13-22: WELL
FLD.           Purgatoire River: FIELD
LOC.           1861' FSL & 992' FWL----: LOCATION
PROV.                 Colorado: PROVINCE
CNTY.               Las Animas: COUNTRY
SRVC.                Patterson: SERVICE COMPANY
DATE.          Mon Apr 04 11:05:36 2005: LOG DATE
UWI.           05 071 08337 00: UNIQUE WELL ID
~Curve Information Block
DEPT.FT            0 000 00 00: Depth
DCAL.in                       : CDL Caliper
RHOB.g/cc                     : CDL Bulk Density
RHOC.g/cc                     : CDL Density Correction
DPOR.pu                       : CDL Density Porosity
NPOR.pu                       : Neutron Porosity
GR.GAPI                       : Gamma Ray
~Parameter Information Block
~A  Depth       DCAL        RHOB        RHOC        DPOR        NPOR         GR     
# ...
   826.0000      7.8141      2.4135      0.0276     14.3311     22.5978    125.2120
   826.1000      7.8141      2.4109      0.0058     14.4920     22.9538    126.4707
   826.2000      7.8141      2.4119      0.0245     14.4302     23.1744    135.6861
   826.3000      7.8129      2.4114      0.0402     14.4577     23.1616    142.7383
   826.4000      7.8129      2.4071      0.0033     14.7228     22.6775    145.3219
   826.5000      7.8130      2.4088     -0.0017     14.6164     21.9828    146.8179
   826.6000      7.8130      2.4218      0.0133     13.8327     21.4027    146.4041
   826.7000      7.8130      2.4329      0.0251     13.1577     21.0945    146.6378
   826.8000      7.8128      2.4308      0.0332     13.2820     21.1258    149.3826
   826.9000      7.8128      2.4263      0.0013     13.5589     21.2892    148.9551
   827.0000      7.8122      2.4283      0.0379     13.4391     21.3692    143.3888
   827.1000      7.8122      2.4246      0.0288     13.6584     21.4001    137.2248
   827.2000      7.8122      2.4143      0.0070     14.2862     21.2782    133.6402
   827.3000      7.8116      2.4114      0.0287     14.4599     20.9996    134.7785
   827.4000      7.8116      2.4155      0.0400     14.2097     20.8294    141.4926
   827.5000      7.8128      2.4239     -0.0001     13.7014     20.7966    146.2156
   827.6000      7.8128      2.4490      0.0298     12.1813     20.6205    143.5842
   827.7000      7.8128      2.4893      0.0734      9.7400     20.1249    137.3027
   827.8000      7.8158      2.5197      0.0788      7.8963     19.6781    132.4418
   827.9000      7.8158      2.5232      0.0737      7.6876     19.8662    130.0513
   828.0000      7.8179      2.5105      0.0552      8.4568     20.5817    128.2968
   828.1000      7.8179      2.5059      0.0547      8.7305     21.0242    128.1405
   828.2000      7.8179      2.5227      0.0594      7.7164     20.8772    132.9307
   828.3000      7.8181      2.5564      0.0594      5.6711     20.7290    143.3835
   828.4000      7.8181      2.5969      0.0657      3.2187     21.0469    150.2575
   828.5000      7.8164      2.6314      0.1069      1.1283     21.8880    146.5737
   828.6000      7.8164      2.6441      0.0890      0.3596     22.9796    140.5284
   828.7000      7.8164      2.6324      0.0657      1.0637     23.9522    136.4864
   828.8000      7.8145      2.6110      0.0176      2.3664     24.8667    131.5925
   828.9000      7.8145      2.5916      0.0158      3.5382     25.5851    127.5453
   829.0000      7.8144      2.5753     -0.0149      4.5287     25.7410    126.0239
   829.1000      7.8144      2.5597     -0.0249      5.4731     25.6365    125.0636
   829.2000      7.8144      2.5427     -0.0221      6.5032     25.7452    127.0539
   829.3000      7.8152      2.5253     -0.0308      7.5563     26.2045    135.1860
   829.4000      7.8152      2.5085     -0.0082      8.5779     26.6858    144.0583
   829.5000      7.8167      2.4904     -0.0233      9.6721     26.4025    147.8012
   829.6000      7.8167      2.4743     -0.0295     10.6474     25.3080    146.4326
   829.7000      7.8167      2.4671     -0.0315     11.0840     24.4609    141.6748
   829.8000      7.8179      2.4698      0.0074     10.9208     24.4170    133.8154
   829.9000      7.8179      2.4742      0.0450     10.6574     24.4153    127.0248
   830.0000      7.8176      2.4769     -0.0266     10.4899     23.8721    124.2062
   830.1000      7.8176      2.4807      0.0272     10.2612     23.1129    123.5694
   830.2000      7.8176      2.4775      0.0460     10.4530     22.4249    126.2135
   830.3000      7.8162      2.4598      0.0542     11.5296     21.7174    131.8854
   830.4000      7.8162      2.4334      0.0197     13.1249     21.0392    137.0109
   830.5000      7.8151      2.4142     -0.0128     14.2930     20.8202    141.3338
   830.6000      7.8151      2.4105      0.0355     14.5157     21.1138    145.2457
   830.7000      7.8151      2.4185      0.0216     14.0302     21.2686    146.0398
   830.8000      7.8150      2.4321      0.0276     13.2063     21.1662    141.3797
   830.9000      7.8150      2.4421      0.0308     12.5996     21.4492    134.8759
   831.0000      7.8157      2.4446      0.0258     12.4472     22.1288    133.2499
   831.1000      7.8157      2.4427      0.0507     12.5626     22.5191    136.7138
   831.2000      7.8157      2.4408      0.0233     12.6806     22.4157    140.7633
   831.3000      7.8158      2.4461      0.0168     12.3562     22.2538    141.5527
   831.4000      7.8158      2.4540      0.0587     11.8817     22.1079    138.0017
   831.5000      7.8159      2.4500      0.0352     12.1197     22.0670    132.2280
   831.6000      7.8159      2.4362      0.0091     12.9565     22.5872    127.5676
   831.7000      7.8159      2.4249     -0.0048     13.6427     23.3201    123.7287
   831.8000      7.8172      2.4238      0.0015     13.7088     23.3046    118.8935
   831.9000      7.8172      2.4301      0.0151     13.3302     22.7691    112.1759
   832.0000      7.8215      2.4313      0.0322     13.2560     22.5392    106.5221
   832.1000      7.8215      2.4264      0.0145     13.5490     22.6607    107.5587
   832.2000      7.8215      2.4295      0.0233     13.3616     22.7501    113.7251
   832.3000      7.8302      2.4413      0.0503     12.6473     22.5891    122.1661
   832.4000      7.8302      2.4494      0.0351     12.1578     22.5017    129.5470
   832.5000      7.8385      2.4550     -0.0088     11.8198     22.7532    130.4156
   832.6000      7.8385      2.4638      0.0365     11.2836     22.8590    128.0345
   832.7000      7.8385      2.4668      0.0590     11.1012     22.3431    129.8025
   832.8000      7.8403      2.4601      0.0406     11.5113     21.7028    136.1592
   832.9000      7.8403      2.4531      0.0106     11.9328     21.4688    140.0177
   833.0000      7.8384      2.4495      0.0214     12.1487     21.1501    134.5630
   833.1000      7.8384      2.4450      0.0324     12.4248     20.5553    124.6583
   833.2000      7.8384      2.4368      0.0508     12.9226     20.4506    122.5032
   833.3000      7.8378      2.4259      0.0230     13.5837     21.1128    130.5952
   833.4000      7.8378      2.4178      0.0007     14.0755     21.9840    141.2745
   833.5000      7.8380      2.4169      0.0341     14.1284     22.5890    147.5260
   833.6000      7.8380      2.4227      0.0104     13.7765     22.6588    149.2307
   833.7000      7.8380      2.4282      0.0396     13.4420     22.1011    147.3204
   833.8000      7.8394      2.4257      0.0235     13.5915     21.3484    140.9038
   833.9000      7.8394      2.4252     -0.0010     13.6256     20.9597    136.0193
   834.0000      7.8414      2.4314      0.0535     13.2500     21.0001    138.2894
   834.1000      7.8414      2.4258      0.0444     13.5867     21.1043    139.6924
   834.2000      7.8414      2.4049      0.0197     14.8530     21.1146    132.5536
   834.3000      7.8419      2.3933     -0.0495     15.5594     21.3116    125.7408
   834.4000      7.8419      2.4012      0.0398     15.0790     21.7036    128.6374
   834.5000      7.8400      2.4108      0.0131     14.4950     21.9949    136.8624
   834.6000      7.8400      2.4151      0.0033     14.2339     22.2495    141.1035
   834.7000      7.8400      2.4222      0.0080     13.8031     22.7070    141.7165
   834.8000      7.8398      2.4351      0.0124     13.0219     23.2835    146.3291
   834.9000      7.8398      2.4506      0.0442     12.0877     23.6225    153.3118
   835.0000      7.8409      2.4644      0.0470     11.2492     23.3997    153.9587
   835.1000      7.8409      2.4707      0.0380     10.8660     22.7627    147.3153
   835.2000      7.8409      2.4594      0.0516     11.5507     22.1626    138.9009
   835.3000      7.8416      2.4357      0.0075     12.9863     21.9782    136.6582
   835.4000      7.8416      2.4245      0.0149     13.6683     22.1409    141.9379
   835.5000      7.8411      2.4323      0.0202     13.1922     22.1626    144.0986
