~Version Information
VERS.                      2.0: CWLS Log ASCII Standard - VERSION 2.0
WRAP.                       NO: One line per depth step
~Well Information Block
STRT.FT               275.0000: 
STOP.FT              1682.2000: 
STEP.FT                 0.1000: 
NULL.                -999.2500: 
COMP.          Pioneer Natural Resources: COMPANY
WELL.               Elmo 14-21: WELL
FLD.           Purgatoire River: FIELD
LOC.           623' FSL & 450' FWL----: LOCATION
PROV.                 Colorado: PROVINCE
CNTY.               Las Animas: COUNTRY
SRVC.                Patterson: SERVICE COMPANY
DATE.          Wed May 18 08:17:30 2005: LOG DATE
UWI.           05 071 08360 00: UNIQUE WELL ID
~Curve Information Block
DEPT.FT            0 000 00 00: Depth
DCAL.in                       : CDL Caliper
RHOB.g/cc                     : CDL Bulk Density
RHOC.g/cc                     : CDL Density Correction
DPOR.pu                       : CDL Density Porosity
NPOR.pu                       : Neutron Porosity
GR.GAPI                       : Gamma Ray
~Parameter Information Block
~A  Depth       DCAL        RHOB        RHOC        DPOR        NPOR         GR     
# ...
  1551.8000      7.8976      2.5881      0.0518      3.7535     16.9582     63.2040
  1551.9000      7.8976      2.5948      0.0448      3.3465     17.1773     58.4219
  1552.0000      7.8968      2.5940      0.0320      3.3924     17.4247     59.8531
  1552.1000      7.8968      2.5948      0.0637      3.3476     16.9908     65.3826
  1552.2000      7.8968      2.5929      0.0412      3.4635     16.2658     65.5080
  1552.3000      7.8970      2.5781      0.0727      4.3548     16.1729     61.0122
  1552.4000      7.8970      2.5527      0.0171      5.8988     16.6629     61.4537
  1552.5000      7.8965      2.5326      0.0351      7.1168     16.8142     69.6106
  1552.6000      7.8965      2.5297      0.0082      7.2913     16.2448     78.8894
  1552.7000      7.8965      2.5373      0.0494      6.8297     15.5138     82.0870
  1552.8000      7.8940      2.5376      0.0535      6.8148     15.2044     79.9198
  1552.9000      7.8940      2.5322     -0.0061      7.1379     15.2988     76.9880
  1553.0000      7.8933      2.5388      0.0209      6.7407     15.4058     74.6868
  1553.1000      7.8933      2.5559      0.0324      5.7001     15.3327     70.6691
  1553.2000      7.8933      2.5702      0.0415      4.8391     15.1884     64.3329
  1553.3000      7.8964      2.5766      0.0466      4.4509     15.0968     60.0351
  1553.4000      7.8964      2.5764      0.0364      4.4589     14.9932     57.2577
  1553.5000      7.8989      2.5701      0.0442      4.8439     14.8153     52.7600
  1553.6000      7.8989      2.5625      0.0014      5.3046     14.8124     51.5668
  1553.7000      7.8989      2.5578      0.0784      5.5864     15.3284     56.3341
  1553.8000      7.8990      2.5488      0.0370      6.1311     15.9534     60.5216
  1553.9000      7.8990      2.5377      0.0133      6.8080     15.8614     60.2209
  1554.0000      7.8988      2.5369      0.0224      6.8522     15.2890     56.3634
  1554.1000      7.8988      2.5460      0.0384      6.3054     14.7611     54.5900
  1554.2000      7.8988      2.5573      0.0375      5.6200     14.4391     59.5438
  1554.3000      7.8981      2.5673      0.0218      5.0149     14.4900     65.4846
  1554.4000      7.8981      2.5682      0.0550      4.9547     14.8087     66.3932
  1554.5000      7.8970      2.5589      0.0111      5.5236     14.8927     64.3504
  1554.6000      7.8970      2.5534      0.0203      5.8576     14.7509     61.6172
  1554.7000      7.8970      2.5523      0.0403      5.9194     14.8623     58.0648
  1554.8000      7.8970      2.5417      0.0341      6.5637     15.0389     56.2066
  1554.9000      7.8970      2.5244     -0.0093      7.6151     14.9216     55.7710
  1555.0000      7.8982      2.5116      0.0245      8.3877     14.6092     54.9239
  1555.1000      7.8982      2.5044     -0.0061      8.8220     14.2933     58.1492
  1555.2000      7.8982      2.5015      0.0243      8.9997     14.2634     65.3665
  1555.3000      7.8991      2.5046     -0.0069      8.8104     14.4890     68.5807
  1555.4000      7.8991      2.5174     -0.0025      8.0344     14.7208     66.0426
  1555.5000      7.8985      2.5333      0.0397      7.0755     14.9338     62.2543
  1555.6000      7.8985      2.5369      0.0375      6.8535     15.3896     61.8851
  1555.7000      7.8985      2.5335     -0.0047      7.0598     16.1387     66.7712
  1555.8000      7.8967      2.5407      0.0136      6.6265     17.0113     71.4667
  1555.9000      7.8967      2.5543      0.0670      5.8014     17.4768     73.1947
  1556.0000      7.8951      2.5633      0.0239      5.2528     16.8610     76.4197
  1556.1000      7.8951      2.5681      0.0238      4.9618     15.9214     81.1828
  1556.2000      7.8951      2.5661      0.0504      5.0844     15.6759     84.4806
  1556.3000      7.8956      2.5582      0.0180      5.5620     15.9306     86.9197
  1556.4000      7.8956      2.5531      0.0431      5.8709     16.2749     89.6210
  1556.5000      7.8954      2.5567      0.0297      5.6566     16.4558     90.9346
  1556.6000      7.8954      2.5694      0.0716      4.8872     16.4474     90.7783
  1556.7000      7.8954      2.5772      0.1020      4.4113     16.6889     89.7278
  1556.8000      7.8936      2.5676      0.0205      4.9939     17.3127     87.1760
  1556.9000      7.8936      2.5522      0.0335      5.9253     17.9452     84.0028
  1557.0000      7.8934      2.5497      0.0182      6.0775     18.4300     82.6069
  1557.1000      7.8934      2.5627      0.0424      5.2915     18.8344     83.0070
  1557.2000      7.8934      2.5762      0.0483      4.4755     19.0088     82.4426
  1557.3000      7.8947      2.5778      0.0390      4.3737     18.8571     79.4364
  1557.4000      7.8947      2.5706      0.0487      4.8147     18.5973     78.0706
  1557.5000      7.8945      2.5627      0.0264      5.2905     18.4949     80.6107
  1557.6000      7.8945      2.5609      0.0273      5.4022     18.5424     81.9624
  1557.7000      7.8945      2.5639      0.0386      5.2170     18.4063     80.6396
  1557.8000      7.8934      2.5659      0.0231      5.0967     17.8535     79.2300
  1557.9000      7.8934      2.5653      0.0419      5.1318     16.9673     77.5972
  1558.0000      7.8940      2.5624      0.0342      5.3088     16.1498     77.4737
  1558.1000      7.8940      2.5648      0.0018      5.1631     15.8179     78.6392
  1558.2000      7.8940      2.5780      0.0362      4.3649     15.5600     77.2607
  1558.3000      7.8952      2.5841      0.0525      3.9927     14.7813     73.3298
  1558.4000      7.8952      2.5694      0.0239      4.8841     14.0756     69.7422
  1558.5000      7.8947      2.5495      0.0124      6.0929     14.0899     68.5462
  1558.6000      7.8947      2.5466     -0.0152      6.2641     14.6194     68.4606
  1558.7000      7.8947      2.5627      0.0337      5.2891     15.4564     66.9137
  1558.8000      7.8953      2.5808      0.0357      4.1944     16.5240     62.7513
  1558.9000      7.8953      2.5826      0.0467      4.0820     17.6199     59.1652
  1559.0000      7.8966      2.5656      0.0326      5.1126     18.2200     59.1334
  1559.1000      7.8966      2.5502      0.0027      6.0472     17.9630     63.7928
  1559.2000      7.8966      2.5528      0.0171      5.8935     17.3616     71.7338
  1559.3000      7.8961      2.5634      0.0540      5.2475     17.3482     77.2531
  1559.4000      7.8961      2.5696      0.0570      4.8746     18.0992     79.7391
  1559.5000      7.8947      2.5720      0.0477      4.7299     18.9049     85.8483
  1559.6000      7.8947      2.5756      0.0552      4.5113     19.3167     95.5428
  1559.7000      7.8947      2.5832      0.0459      4.0479     19.3774     98.0351
  1559.8000      7.8954      2.5956      0.0629      3.2990     18.9100     90.2874
  1559.9000      7.8954      2.6104      0.0757      2.3985     18.0805     82.4310
  1560.0000      7.8971      2.6234      0.0723      1.6108     17.5332     80.5953
  1560.1000      7.8971      2.6324      0.0681      1.0670     17.3523     81.4370
  1560.2000      7.8971      2.6361      0.0664      0.8411     16.8955     80.6650
  1560.3000      7.8969      2.6314      0.0768      1.1298     15.9931     80.3167
  1560.4000      7.8969      2.6215      0.0278      1.7255     15.5326     84.8616
  1560.5000      7.8948      2.6166      0.0281      2.0261     15.7986     90.4246
  1560.6000      7.8948      2.6174      0.0529      1.9753     16.1076     88.3202
  1560.7000      7.8948      2.6183      0.0346      1.9238     15.9756     80.0068
  1560.8000      7.8933      2.6174      0.0619      1.9773     15.5530     75.8363
  1560.9000      7.8933      2.6139      0.0298      2.1908     15.1942     78.8980
  1561.0000      7.8941      2.6066      0.0366      2.6319     14.8995     83.2204
  1561.1000      7.8941      2.5989     -0.0013      3.0950     14.7373     83.8195
  1561.2000      7.8941      2.5906      0.0115      3.5986     14.9976     80.7139
  1561.3000      7.8966      2.5706      0.0534      4.8149     15.4965     77.4234
