~Version Information
VERS.                      2.0: CWLS Log ASCII Standard - VERSION 2.0
WRAP.                       NO: One line per depth step
~Well Information Block
STRT.FT               500.0000: 
STOP.FT              2732.5000: 
STEP.FT                 0.1000: 
NULL.                -999.2500: 
COMP.          Pioneer Natural Resources: COMPANY
WELL.          Dude Canyon 22-32: WELL
FLD.           Purgatoire River: FIELD
LOC.           1662' FNL & 2446' FWL----: LOCATION
PROV.                 Colorado: PROVINCE
CNTY.               Las Animas: COUNTRY
SRVC.                Patterson: SERVICE COMPANY
DATE.          Thu Mar 10 07:06:34 2005: LOG DATE
UWI.           05 071 08257 00: UNIQUE WELL ID
~Curve Information Block
DEPT.FT            0 000 00 00: Depth
GR.GAPI                       : Gamma Ray
DCAL.in                       : CDL Caliper
DPOR.pu                       : CDL Density Porosity
NPOR.pu                       : Neutron Porosity
RHOB.g/cc                     : CDL Bulk Density
RHOC.g/cc                     : CDL Density Correction
~Parameter Information Block
~A  Depth        GR         DCAL        DPOR        NPOR        RHOB        RHOC    
# ...
  1978.4000     90.2440      8.0847      7.3720     18.9255      2.5284      0.0284
  1978.5000     74.2960      8.0825      7.1729     17.8110      2.5316      0.0355
  1978.6000     58.3908      8.0825      6.7701     16.6393      2.5383      0.0275
  1978.7000     51.1911      8.0825      6.7702     15.7581      2.5383      0.0334
  1978.8000     52.5376      8.0825      7.3059     15.4079      2.5295      0.0214
  1978.9000     54.8021      8.0825      7.7995     15.2862      2.5213      0.0282
  1979.0000     50.3842      8.0830      7.8991     14.9524      2.5197      0.0566
  1979.1000     44.3438      8.0830      8.1255     14.4117      2.5159      0.0607
  1979.2000     42.8119      8.0830      9.0193     13.9721      2.5012      0.0073
  1979.3000     43.5193      8.0824     10.0671     14.0664      2.4839     -0.0133
  1979.4000     42.6522      8.0824     10.1584     14.7860      2.4824      0.0244
  1979.5000     39.9892      8.0813      9.4817     15.3190      2.4936      0.0534
  1979.6000     38.1433      8.0813      9.5858     15.1658      2.4918      0.0571
  1979.7000     36.5341      8.0813     10.7978     14.7797      2.4718     -0.0154
  1979.8000     38.2558      8.0799     11.4868     14.6133      2.4605      0.0215
  1979.9000     50.4012      8.0799     10.6570     14.6196      2.4742     -0.0013
  1980.0000     67.0624      8.0779      9.1484     14.7755      2.4991      0.0466
  1980.1000     73.5703      8.0779      8.3474     15.0890      2.5123      0.0412
  1980.2000     68.6238      8.0779      8.6221     15.0243      2.5077      0.0306
  1980.3000     63.7675      8.0772      9.7634     14.3424      2.4889      0.0556
  1980.4000     60.6866      8.0772     11.3538     13.5924      2.4627     -0.0025
  1980.5000     52.7035      8.0790     12.2462     13.4548      2.4479     -0.0067
  1980.6000     42.5340      8.0790     11.9607     14.0998      2.4526      0.0171
  1980.7000     36.0630      8.0790     11.0082     14.6569      2.4684      0.0295
  1980.8000     34.6164      8.0828      9.9942     14.3705      2.4851      0.0580
  1980.9000     36.2646      8.0828      9.9453     13.8201      2.4859      0.0809
  1981.0000     38.9744      8.0888     11.0341     13.7632      2.4679      0.0321
  1981.1000     41.5322      8.0888     11.7209     14.1352      2.4566      0.0258
  1981.2000     42.4526      8.0888     11.2337     14.4413      2.4646      0.0459
  1981.3000     40.4868      8.0960     10.3125     14.3933      2.4798      0.0256
  1981.4000     38.3716      8.0960      9.7246     14.4464      2.4895      0.0389
  1981.5000     41.1377      8.1031      9.6229     14.8264      2.4912      0.0540
  1981.6000     45.6019      8.1031      9.5530     14.9226      2.4924      0.0476
  1981.7000     45.1909      8.1031      9.3469     14.8000      2.4958      0.0840
  1981.8000     40.6978      8.1052      9.5242     14.9861      2.4929      0.0509
  1981.9000     36.7644      8.1052     10.5318     15.0969      2.4762      0.0678
  1982.0000     35.1108      8.1005     12.1976     14.7383      2.4487      0.0634
  1982.1000     36.7849      8.1005     13.4079     14.3010      2.4288     -0.0043
  1982.2000     40.8691      8.1005     12.8853     14.2250      2.4374     -0.0201
  1982.3000     43.6179      8.0912     11.1826     14.7495      2.4655      0.0323
  1982.4000     42.3049      8.0912     10.1396     15.8197      2.4827      0.0475
  1982.5000     38.5342      8.0848     10.3724     16.5612      2.4789      0.0539
  1982.6000     37.6038      8.0848     11.2671     16.2782      2.4641      0.0233
  1982.7000     40.2160      8.0848     12.1673     15.5974      2.4492      0.0139
  1982.8000     40.0088      8.0817     12.6460     15.5721      2.4413      0.0237
  1982.9000     36.4632      8.0817     12.5950     16.2955      2.4422      0.0144
  1983.0000     37.7182      8.0789     12.1556     17.1102      2.4494      0.0231
  1983.1000     45.1002      8.0789     11.3860     17.6265      2.4621      0.0293
  1983.2000     50.6092      8.0789     10.1989     17.9852      2.4817      0.0145
  1983.3000     50.7175      8.0783      8.9196     18.7210      2.5028      0.0503
  1983.4000     49.7386      8.0783      8.2146     19.8654      2.5145      0.0326
  1983.5000     51.7456      8.0794      8.1724     20.8554      2.5152      0.0437
  1983.6000     57.0311      8.0794      8.4734     21.5127      2.5102      0.0667
  1983.7000     68.1717      8.0794      8.8633     21.9602      2.5038      0.0405
  1983.8000     86.8202      8.0820      8.8699     22.0597      2.5036      0.0076
  1983.9000    100.1387      8.0820      8.2686     21.8056      2.5136      0.0409
  1984.0000     98.5814      8.0832      7.4731     21.7105      2.5267      0.0069
  1984.1000     93.5047      8.0832      6.8122     22.1351      2.5376      0.0418
  1984.2000     95.7681      8.0832      6.5405     22.7797      2.5421      0.0589
  1984.3000    101.6885      8.0827      7.0939     23.1826      2.5330      0.0232
  1984.4000    102.8430      8.0827      8.2231     23.3809      2.5143      0.0180
  1984.5000     99.9300      8.0828      8.3955     23.3674      2.5115     -0.0371
  1984.6000    102.2590      8.0828      6.8239     22.9526      2.5374      0.0617
  1984.7000    112.1714      8.0828      5.0290     22.1308      2.5670      0.0480
  1984.8000    123.3224      8.0834      4.4322     21.0324      2.5769      0.0664
  1984.9000    129.9046      8.0834      4.5599     20.1340      2.5748      0.0205
  1985.0000    129.9988      8.0828      4.3383     19.7148      2.5784      0.0359
  1985.1000    128.3151      8.0828      3.9510     19.4494      2.5848      0.0326
  1985.2000    130.8685      8.0828      4.2150     18.9175      2.5805      0.0483
  1985.3000    134.2025      8.0815      5.2082     18.1131      2.5641      0.0424
  1985.4000    130.4836      8.0815      6.2508     16.9565      2.5469      0.0420
  1985.5000    120.6616      8.0799      6.4878     15.4859      2.5430      0.0129
  1985.6000    109.8960      8.0799      5.7829     14.4558      2.5546      0.0539
  1985.7000     97.5805      8.0799      5.0575     14.2332      2.5666      0.0621
  1985.8000     82.4144      8.0793      4.8650     14.3316      2.5697      0.0349
  1985.9000     69.0231      8.0793      4.9631     14.4314      2.5681      0.0624
  1986.0000     64.9932      8.0812      5.3380     14.5329      2.5619      0.0253
  1986.1000     72.2930      8.0812      6.1543     14.7233      2.5485      0.0503
  1986.2000     81.2726      8.0812      7.0504     15.2365      2.5337      0.0156
  1986.3000     82.6766      8.0811      7.2286     15.6785      2.5307     -0.0057
  1986.4000     76.1247      8.0811      6.6645     15.3187      2.5400      0.0243
  1986.5000     70.4457      8.0791      6.4625     14.6587      2.5434      0.0460
  1986.6000     69.6703      8.0791      7.0947     14.5437      2.5329      0.0010
  1986.7000     72.8438      8.0791      7.5602     14.9839      2.5253     -0.0061
  1986.8000     79.9073      8.0800      7.2690     15.9190      2.5301      0.0135
  1986.9000     80.8866      8.0800      6.6597     16.8981      2.5401      0.0313
  1987.0000     70.1090      8.0822      5.9432     17.1377      2.5519      0.0075
  1987.1000     58.2172      8.0822      5.5771     16.8834      2.5580      0.0132
  1987.2000     53.9939      8.0822      6.3642     16.8603      2.5450      0.0140
  1987.3000     54.6751      8.0826      7.6301     17.2485      2.5241     -0.0117
  1987.4000     54.7700      8.0826      7.3621     17.5144      2.5285     -0.0024
  1987.5000     55.1063      8.0804      5.2271     17.2487      2.5638      0.0250
  1987.6000     58.8270      8.0804      3.4754     17.3844      2.5927      0.0671
  1987.7000     63.5798      8.0804      3.7477     18.6511      2.5882      0.0375
  1987.8000     66.9559      8.0782      5.0484     20.3576      2.5667      0.0061
  1987.9000     70.9530      8.0782      5.7796     21.8985      2.5546      0.0094
