~Version Information
VERS.                      2.0: CWLS Log ASCII Standard - VERSION 2.0
WRAP.                       NO: One line per depth step
~Well Information Block
STRT.FT                -7.7500: 
STOP.FT               973.7500: 
STEP.FT                 0.2500: 
NULL.                -999.2500: 
COMP.          Pioneer Natural Resources: COMPANY
WELL.              Dylan 42-25: WELL
FLD.           Purgatorie River: FIELD
LOC.           2160' FNL & 855' FEL: LOCATION
PROV.                 Colorado: PROVINCE
CNTY.               Las Animas: COUNTRY
SRVC.          Patterson Wireline: SERVICE COMPANY
DATE.          Fri Apr 29 16:36:17 2005: LOG DATE
UWI.           05-071-08229-00: UNIQUE WELL ID
~Curve Information Block
DEPT.FT            0 000 00 00: Depth
CCL.                          : Casing Collar Locator
TT3.usec                      : CBL 3' Travel Time
AMP3.mV                       : CBL 3' Amplitude
GR.GAPI                       : Gamma Ray
~Parameter Information Block
~A  Depth       CCL         TT3         AMP3         GR     
# ...
   628.7500      0.0000    763.4701      8.8435    150.3301
   629.0000      0.0000    770.0802      8.9149    149.5666
   629.2500      0.0000    774.5925      8.9811    149.2699
   629.5000      0.0000    777.0834      9.0439    150.2337
   629.7500      0.0000    778.3374      9.1065    151.9812
   630.0000      0.0000    779.0985      9.1714    152.6197
   630.2500      0.0000    779.7067      9.2402    150.2979
   630.5000      0.0000    780.0551      9.3145    144.9944
   630.7500      0.0000    779.5656      9.3939    138.6794
   631.0000      0.0000    777.2456      9.4783    133.5804
   631.2500      0.0000    772.1849      9.5698    130.5612
   631.5000      0.0000    764.4611      9.6652    128.9370
   631.7500      0.0000    755.6036      9.7474    127.1250
   632.0000      0.0000    747.8156      9.7992    123.6198
   632.2500      0.0000    742.5463      9.8282    118.2634
   632.5000      0.0000    739.8365      9.8675    112.7798
   632.7500      0.0000    738.8942      9.9479    109.6606
   633.0000      0.0000    739.0545     10.0719    110.3155
   633.2500      0.0000    740.3024     10.2129    114.0594
   633.5000      0.0000    743.1735     10.3339    118.5066
   633.7500      0.0000    748.1429     10.4091    120.9487
   634.0000      0.0000    754.7332     10.4336    119.8550
   634.2500      0.0000    761.1117     10.4157    115.5490
   634.5000      0.0000    764.9569     10.3577    109.6558
   634.7500      0.0000    765.0147     10.2364    104.0178
   635.0000      0.0000    761.8491     10.0013    100.1282
   635.2500      0.0000    757.1815      9.6225     99.1027
   635.5000      0.0000    752.7979      9.1720    101.4583
   635.7500      0.0000    749.4464      8.8258    106.5759
   636.0000      0.0000    745.9983      8.7116    112.5705
   636.2500      0.0000    740.6813      8.7633    117.1904
   636.5000      0.0000    735.0152      8.7987    119.1693
   636.7500      0.0000    735.2470      8.7221    118.7903
   637.0000      0.0000    746.0643      8.5859    117.2734
   637.2500     -3.3792    762.0432      8.4837    115.9365
   637.5000     -5.0000    768.5577      8.4581    115.9726
   637.7500     -3.2611    753.0229      8.5102    118.3029
   638.0000      0.0000    714.3801      8.6557    122.8154
   638.2500      0.0000    662.5356      8.9473    127.9082
   638.5000      0.0000    612.5546      9.4170    131.6454
   638.7500      0.0000    580.3004      9.9847    133.4721
   639.0000      0.0000    576.8699     10.4686    134.1465
   639.2500      0.0000    600.6209     10.7388    134.1874
   639.5000      0.0000    636.6946     10.8319    133.4060
   639.7500      0.0000    668.2523     10.8786    131.8773
   640.0000      0.0000    687.5328     10.9625    130.3077
   640.2500      0.0000    696.2081     11.0818    129.2215
   640.5000      0.0000    699.1404     11.1987    128.3676
   640.7500      0.0000    699.8937     11.2787    127.1040
   641.0000      0.0000    700.0745     11.2961    125.2606
   641.2500      0.0000    700.1749     11.2355    123.6458
   641.5000      0.0000    700.3094     11.0984    123.5229
   641.7500      0.0000    700.5092     10.9034    125.2634
   642.0000      0.0000    700.8135     10.6765    127.7378
   642.2500      0.0000    701.3790     10.4392    129.4637
   642.5000      0.0000    702.5843     10.2082    130.0868
   642.7500      0.0000    705.0193      9.9977    130.3035
   643.0000      0.0000    709.1135      9.8154    130.6301
   643.2500      0.0000    714.5357      9.6568    130.8316
   643.5000      0.0000    720.1491      9.5089    130.5255
   643.7500      0.0000    724.9398      9.3610    129.9321
   644.0000      0.0000    728.8667      9.2124    129.7905
   644.2500      0.0000    732.4080      9.0706    130.4679
   644.5000      0.0000    735.5136      8.9443    131.2854
   644.7500      0.0000    737.4335      8.8417    131.1914
   645.0000      0.0000    737.4224      8.7765    130.3418
   645.2500      0.0000    735.3438      8.7665    130.5429
   645.5000      0.0000    731.7979      8.8181    133.4967
   645.7500      0.0000    727.8306      8.9095    138.6457
   646.0000      0.0000    724.3304      8.9948    143.3397
   646.2500      0.0000    721.6436      9.0301    145.2485
   646.5000      0.0000    719.8539      8.9992    143.9841
   646.7500      0.0000    719.2882      8.9164    140.2801
   647.0000      0.0000    720.4564      8.8074    134.4905
   647.2500      0.0000    723.5172      8.6900    126.6699
   647.5000      0.0000    727.9891      8.5698    117.8238
   647.7500      0.0000    732.9189      8.4468    110.1537
   648.0000      0.0000    737.2137      8.3180    105.5479
   648.2500      0.0000    740.0123      8.1788    104.2109
   648.5000      0.0000    740.9011      8.0273    105.2831
   648.7500      0.0000    739.7820      7.8683    108.4225
   649.0000      0.0000    736.6960      7.7095    113.9518
   649.2500      0.0000    731.9419      7.5582    121.4337
   649.5000      0.0000    726.2626      7.4191    128.8619
   649.7500      0.0000    720.8739      7.2922    133.6811
   650.0000      0.0000    717.4726      7.1694    134.4733
   650.2500      0.0000    718.1983      7.0508    131.7566
   650.5000      0.0000    725.1190      6.9648    127.4137
   650.7500      0.0000    739.3087      6.9495    123.3290
   651.0000      0.0000    759.9674      6.9953    120.3066
   651.2500      0.0000    784.0334      7.0381    118.0342
   651.5000      0.0000    806.7288      7.0292    115.8349
   651.7500      0.0000    823.2130      6.9825    113.4632
   652.0000      0.0000    830.7487      6.9386    111.4229
   652.2500      0.0000    829.9673      6.9175    110.6645
   652.5000      5.0000    824.1505      6.9258    111.8143
   652.7500      5.0000    817.3746      6.9862    114.4131
   653.0000      0.0000    812.9001      7.1434    117.0529
   653.2500      0.0000    811.4355      7.4424    118.6252
   653.5000      0.0000    809.7336      7.8815    119.2299
   653.7500      0.0000    802.5270      8.3652    119.6080
   654.0000      0.0000    787.5876      8.7350    120.2529
   654.2500      0.0000    768.3904      8.8955    121.4570
   654.5000      0.0000    751.2114      8.8902    123.5095
   654.7500      0.0000    740.2582      8.8216    126.1757
   655.0000      0.0000    735.4620      8.7392    128.2693
   655.2500      0.0000    733.8212      8.6380    128.3739
   655.5000      0.0000    732.5266      8.5183    126.0861
   655.7500      0.0000    731.6489      8.4010    122.4056
   656.0000      0.0000    734.3316      8.3061    118.9914
   656.2500      0.0000    743.7508      8.2424    117.1275
   656.5000      0.0000    758.8774      8.2140    116.9583
   656.7500      0.0000    773.2268      8.2260    117.1279
   657.0000      0.0000    778.8198      8.2828    115.4571
   657.2500      0.0000    772.2622      8.3825    110.8855
   657.5000      0.0000    757.2460      8.5114    104.8464
   657.7500      0.0000    741.3846      8.6436    100.1437
   658.0000      0.0000    730.8811      8.7478     98.5052
   658.2500      0.0000    727.4099      8.8006     99.7386
   658.5000      0.0000    728.4964      8.7953    102.8987
   658.7500      0.0000    730.1743      8.7403    107.3604
   659.0000      0.0000    729.8765      8.6514    112.8388
   659.2500      0.0000    727.5211      8.5478    119.1259
   659.5000      0.0000    724.3912      8.4532    125.6323
   659.7500      0.0000    721.6362      8.3939    130.8508
   660.0000      0.0000    720.0050      8.3928    133.0531
   660.2500      0.0000    720.2955      8.4596    132.1729
   660.5000      0.0000    723.0845      8.5873    130.2960
   660.7500      0.0000    727.8273      8.7607    129.7010
   661.0000      0.0000    732.7173      8.9681    130.9267
   661.2500      0.0000    735.6879      9.1980    132.9491
   661.5000      0.0000    735.4328      9.4322    134.4255
   661.7500      0.0000    731.7786      9.6531    134.4228
   662.0000      0.0000    725.8869      9.8599    132.6300
