~Version Information
VERS.                      2.0: CWLS Log ASCII Standard - VERSION 2.0
WRAP.                       NO: One line per depth step
~Well Information Block
STRT.FT               875.6000: 
STOP.FT              2510.0000: 
STEP.FT                 0.1000: 
NULL.                -999.2500: 
COMP.          Petrogulf Corporation: COMPANY
WELL.          Collister 17-31 V: WELL
FLD.           Purgatoire River: FIELD
LOC.           910' FNL & 1594' FEL: LOCATION
PROV.                 Colorado: PROVINCE
CNTY.               Las Animas: COUNTRY
SRVC.                Patterson: SERVICE COMPANY
DATE.          Fri Dec 12 13:49:30 2003: LOG DATE
UWI.                          : UNIQUE WELL ID
~Curve Information Block
DEPT.FT            0 000 00 00: Depth
DCAL.in                       : CDL Caliper
DPOR.pu                       : CDL Density Porosity
NPOR.pu                       : Neutron Porosity
RHOB.g/cc                     : CDL Bulk Density
RHOC.g/cc                     : CDL Density Correction
GR.GAPI                       : Gamma Ray
~Parameter Information Block
~A  Depth       DCAL        DPOR        NPOR        RHOB        RHOC         GR     
# ...
  1432.4000      8.1033      3.6099     25.9216      2.5904      0.0902    131.6320
  1432.5000      8.1252      1.9926     25.8982      2.6171      0.1884    137.5460
  1432.6000      8.1252      2.0675     25.6057      2.6159      0.1227    145.7779
  1432.7000      8.1252      3.3776     25.5079      2.5943      0.1074    151.7631
  1432.8000      8.1135      4.4557     25.7349      2.5765      0.1377    151.6903
  1432.9000      8.1135      4.5044     25.8943      2.5757      0.0938    145.7212
  1433.0000      8.1120      4.0086     25.6214      2.5839      0.1505    139.9555
  1433.1000      8.1120      4.0130     24.7309      2.5838      0.1273    140.3475
  1433.2000      8.1120      4.3406     23.5261      2.5784      0.1489    142.6203
  1433.3000      8.1037      4.2334     22.6016      2.5801      0.1211    138.1349
  1433.4000      8.1037      3.7287     22.0547      2.5885      0.1518    131.0856
  1433.5000      8.1167      3.0149     21.5478      2.6003      0.1178    129.1733
  1433.6000      8.1167      1.8936     21.2938      2.6188      0.1092    127.2553
  1433.7000      8.1167      1.3882     21.4853      2.6271      0.1565    123.2504
  1433.8000      8.1617      2.5166     21.5468      2.6085      0.1101    120.7490
  1433.9000      8.1617      3.9495     21.0816      2.5848      0.0436    116.2660
  1434.0000      8.1362      4.4658     20.3149      2.5763      0.0942    108.1383
  1434.1000      8.1362      4.3627     19.9493      2.5780      0.0349    100.3020
  1434.2000      8.1362      3.6805     20.3546      2.5893      0.0954     93.8056
  1434.3000      8.1186      2.2053     20.9627      2.6136      0.1184     89.8931
  1434.4000      8.1186     -0.0443     21.3621      2.6507      0.0414     92.3678
  1434.5000      8.0961     -1.9140     21.5482      2.6816      0.1462     94.6673
  1434.6000      8.0961     -1.7532     21.3500      2.6789      0.0969     88.9223
  1434.7000      8.0961     -0.4893     20.6647      2.6581      0.0660     83.6375
  1434.8000      8.0998      0.0234     19.7109      2.6496      0.1115     85.9561
  1434.9000      8.0998      0.3239     18.8328      2.6447      0.1048     90.2272
  1435.0000      8.1082      1.2116     18.3208      2.6300      0.0255     92.0961
  1435.1000      8.1082      2.1692     18.0209      2.6142      0.0815     92.8350
  1435.2000      8.1082      2.5883     17.5384      2.6073      0.0070     91.0034
  1435.3000      8.0878      1.7759     16.8546      2.6207      0.0582     84.3809
  1435.4000      8.0878      0.0607     16.3200      2.6490      0.1207     75.3588
  1435.5000      8.0735     -0.9883     16.2337      2.6663      0.1297     68.8307
  1435.6000      8.0735     -0.9923     16.3885      2.6664      0.1439     68.1277
  1435.7000      8.0735     -0.8137     16.2508      2.6634      0.1671     70.4134
  1435.8000      8.0807     -0.5039     15.7113      2.6583      0.1720     70.2504
  1435.9000      8.0807      0.4001     15.0777      2.6434      0.1440     65.2419
  1436.0000      8.0649      1.5431     14.7723      2.6245      0.1085     58.4308
  1436.1000      8.0649      2.0841     14.7065      2.6156      0.0688     54.2912
  1436.2000      8.0649      1.7421     14.5733      2.6213      0.0719     52.1269
  1436.3000      8.0637      1.7625     14.6018      2.6209      0.1540     50.5443
  1436.4000      8.0637      3.0549     14.6446      2.5996      0.0691     51.9634
  1436.5000      8.0677      4.4291     14.4807      2.5769      0.0631     54.6241
  1436.6000      8.0677      5.6008     14.5309      2.5576      0.1045     54.0482
  1436.7000      8.0677      7.3479     14.7240      2.5288      0.0250     50.2356
  1436.8000      8.0753      8.6006     14.5962      2.5081     -0.0083     46.6197
  1436.9000      8.0753      7.9570     14.3031      2.5187      0.0341     48.1422
  1437.0000      8.0656      6.0745     14.2238      2.5498      0.0508     54.4729
  1437.1000      8.0656      4.5468     14.4663      2.5750      0.1374     60.9435
  1437.2000      8.0656      3.8552     14.6656      2.5864      0.0893     65.2309
  1437.3000      8.0593      2.9154     14.8229      2.6019      0.1560     65.2901
  1437.4000      8.0593      0.8595     15.6730      2.6358      0.1233     59.3116
  1437.5000      8.0450     -1.9479     17.0034      2.6821      0.1946     55.3439
  1437.6000      8.0450     -3.6517     17.8471      2.7103      0.2256     59.5105
  1437.7000      8.0450     -2.8160     18.6609      2.6965      0.2122     65.7454
  1437.8000      8.0096     -0.5800     20.3237      2.6596      0.1317     71.5835
  1437.9000      8.0096      1.5587     22.0845      2.6243      0.1607     79.5095
  1438.0000      7.9899      3.9983     22.9292      2.5840      0.1409     87.7472
  1438.1000      7.9899      6.6228     23.1278      2.5407      0.0983     92.2427
  1438.2000      7.9899      7.2787     23.1571      2.5299      0.0391     92.3009
  1438.3000      8.0211      5.1323     23.0612      2.5653      0.1273     91.6300
  1438.4000      8.0211      2.4943     23.0363      2.6088      0.1788     92.7291
  1438.5000      8.0663      1.3934     23.1893      2.6270      0.1883     95.1227
  1438.6000      8.0663      1.2290     23.3534      2.6297      0.1475     96.8194
  1438.7000      8.0663      0.5559     23.3622      2.6408      0.1919     95.4111
  1438.8000      8.0584     -0.9599     22.9991      2.6658      0.2374     91.2908
  1438.9000      8.0584     -2.5262     22.4720      2.6917      0.2424     86.1551
  1439.0000      8.0354     -3.3984     22.2509      2.7061      0.2079     81.9983
  1439.1000      8.0354     -3.2260     22.1915      2.7032      0.2017     82.0288
  1439.2000      8.0354     -2.0496     21.8677      2.6838      0.2037     87.2883
  1439.3000      8.0472     -0.8513     21.4195      2.6640      0.1405     96.5325
  1439.4000      8.0472     -0.3077     21.1975      2.6551      0.1463    108.8662
  1439.5000      8.0546     -0.2769     21.3913      2.6546      0.0860    119.7994
  1439.6000      8.0546     -0.1403     22.1398      2.6523      0.1896    122.8262
  1439.7000      8.0546      0.7280     23.0302      2.6380      0.0933    120.5430
  1439.8000      8.0885      1.2469     23.5355      2.6294      0.0532    121.5190
  1439.9000      8.0885      0.3797     24.0124      2.6437      0.1089    127.5711
  1440.0000      8.0990     -0.4487     24.5862      2.6574      0.1610    135.9063
  1440.1000      8.0990      0.4597     24.7221      2.6424      0.1440    141.7136
  1440.2000      8.0990      2.5998     24.5812      2.6071      0.1158    141.8338
  1440.3000      8.1112      4.5195     24.7201      2.5754      0.1038    139.2402
  1440.4000      8.1112      5.6671     25.2239      2.5565      0.0905    136.9409
  1440.5000      8.1102      6.4365     25.7625      2.5438      0.1148    133.7952
  1440.6000      8.1102      7.1978     26.2804      2.5312      0.0811    130.6803
  1440.7000      8.1102      7.8725     26.8653      2.5201      0.0805    133.2327
  1440.8000      8.1297      8.6182     26.8193      2.5078      0.1091    142.9904
  1440.9000      8.1297      9.4856     25.7463      2.4935      0.0828    150.4269
  1441.0000      8.1934      9.7419     24.5058      2.4893      0.0911    147.4287
  1441.1000      8.1934      8.7919     23.7753      2.5049      0.0325    141.6979
  1441.2000      8.1934      7.2808     23.2850      2.5299      0.0980    143.6813
  1441.3000      8.2336      6.3355     22.8064      2.5455      0.1023    148.6227
  1441.4000      8.2336      5.8889     22.9985      2.5528      0.0838    149.8747
  1441.5000      8.2355      5.2915     24.0637      2.5627      0.0989    151.8371
  1441.6000      8.2355      4.4526     24.8379      2.5765      0.0987    156.9739
  1441.7000      8.2355      4.1547     24.4798      2.5814      0.1350    159.6579
  1441.8000      8.2110      4.8125     23.4692      2.5706      0.1034    155.5612
  1441.9000      8.2110      5.3865     23.0097      2.5611      0.0647    153.8787
