~Version Information
VERS.                      2.0: CWLS Log ASCII Standard - VERSION 2.0
WRAP.                       NO: One line per depth step
~Well Information Block
STRT.FT                -9.2500: 
STOP.FT              1945.2500: 
STEP.FT                 0.2500: 
NULL.                -999.2500: 
COMP.          Pioneer Natural Resources: COMPANY
WELL.          Titan Federal 34-17: WELL
FLD.           Purgatorie River: FIELD
LOC.           321' FSL & 1911' FEL: LOCATION
STAT.                       CO: State
CNTY.               Las Animas: COUNTY
CTRY. USA : Country
SECT. 17 : Section
TOWN. 32S : Township
RANG. 65W : Range
SRVC.          Patterson Wireline: SERVICE COMPANY
DATE.          Tue Oct 11 10:22:27 2005: LOG DATE
API.           05 071 08272 00: UNIQUE WELL ID
~Curve Information Block
DEPT.FT            0 000 00 00: Depth
CCL.                          : Casing Collar Locator
TT3.usec                      : CBL 3' Travel Time
AMP3.mV                       : CBL 3' Amplitude
GR.GAPI                       : Gamma Ray
~Parameter Information Block
~A  Depth       CCL         TT3         AMP3         GR     
    -9.2500   -999.2500   -999.2500   -999.2500     74.7099
    -9.0000   -999.2500   -999.2500   -999.2500     73.3322
    -8.7500   -999.2500   -999.2500   -999.2500     72.6233
    -8.5000   -999.2500   -999.2500   -999.2500     72.1432
    -8.2500   -999.2500   -999.2500   -999.2500     71.9337
    -8.0000   -999.2500   -999.2500   -999.2500     72.5390
    -7.7500   -999.2500   -999.2500   -999.2500     74.3295
    -7.5000   -999.2500   -999.2500   -999.2500     76.6957
    -7.2500   -999.2500   -999.2500   -999.2500     78.1738
    -7.0000   -999.2500   -999.2500   -999.2500     77.6739
    -6.7500   -999.2500   -999.2500   -999.2500     75.4170
    -6.5000   -999.2500   -999.2500   -999.2500     72.3802
    -6.2500   -999.2500   -999.2500   -999.2500     69.1585
    -6.0000   -999.2500   -999.2500   -999.2500     66.0486
    -5.7500   -999.2500   -999.2500   -999.2500     63.9769
    -5.5000   -999.2500   -999.2500   -999.2500     64.2524
    -5.2500   -999.2500   -999.2500   -999.2500     67.1072
    -5.0000   -999.2500   -999.2500   -999.2500     71.1527
    -4.7500   -999.2500   -999.2500   -999.2500     74.4769
    -4.5000   -999.2500   -999.2500   -999.2500     75.8657
    -4.2500   -999.2500   1149.0000      0.5278     75.0785
    -4.0000   -999.2500   1149.0000      0.5322     72.5026
    -3.7500   -999.2500   1149.0000      0.5343     68.8319
    -3.5000   -999.2500   1149.0000      0.5353     65.0238
    -3.2500   -999.2500   1149.0000      0.5371     62.1912
    -3.0000   -999.2500   1149.0000      0.5400     60.9801
    -2.7500   -999.2500   1149.0000      0.5442     60.9334
    -2.5000   -999.2500   1149.0000      0.5498     60.8901
    -2.2500   -999.2500   1149.0000      0.5566     60.1547
    -2.0000   -999.2500   1149.0000      0.5620     59.0488
    -1.7500   -999.2500   1149.0000      0.5630     58.2998
    -1.5000   -999.2500   1149.0000      0.5593     58.0797
    -1.2500   -999.2500   1149.0000      0.5532     57.5734
    -1.0000   -999.2500   1149.0000      0.5477     55.4783
    -0.7500   -999.2500   1149.0000      0.5444     51.3887
    -0.5000   -999.2500   1149.0000      0.5432     46.8376
    -0.2500   -999.2500   1149.0000      0.5433     44.4847
     0.0000   -999.2500   1149.0000      0.5437     45.9814
     0.2500   -999.2500   1149.0000      0.5424     50.7610
     0.5000   -999.2500   1149.0000      0.5268     61.7200
     0.7500   -999.2500   1149.0000      0.5178     64.4725
     1.0000      0.0000   1149.0000      0.5173     64.8438
     1.2500      0.0000   1149.0000      0.5280     63.6748
     1.5000      0.0000   1149.0000      0.5436     62.2528
     1.7500      0.0000   1149.0000      0.5546     61.4003
     2.0000      0.0000   1149.0000      0.5561     60.9049
     2.2500      0.0000   1149.0000      0.5499     60.2067
     2.5000      0.0000   1149.0000      0.5410     59.7322
     2.7500      0.0000   1149.0000      0.5327     61.0493
     3.0000      0.0000   1149.0000      0.5252     65.3028
     3.2500      0.0000   1149.0000      0.5172     71.5052
     3.5000      0.0000   1149.0000      0.5081     76.4809
     3.7500      0.0000   1149.0000      0.4985     76.7641
     4.0000      0.0000   1149.0000      0.4895     71.0643
     4.2500      0.0000   1149.0000      0.4819     61.2107
     4.5000      0.0000   1149.0000      0.4774     50.7264
     4.7500      0.0000   1149.0000      0.4782     42.4132
     5.0000      0.0000   1149.0000      0.4849     37.0444
     5.2500      0.0000   1149.0000      0.4952     33.8582
     5.5000      0.0000   1148.9739      0.5048     31.7697
     5.7500      0.0000   1148.7833      0.5122     30.0759
     6.0000      0.0000   1147.7740      0.5261     28.5719
     6.2500      0.0000   1143.6024      0.5833     27.5307
     6.5000      0.0000   1130.0046      0.8205     27.5052
     6.7500      0.0000   1094.9275      1.6369     28.8511
     7.0000      0.0000   1023.0309      3.9156     31.3454
     7.2500      0.0000    905.4094      9.0139     34.3002
     7.5000      0.0000    751.0954     18.0763     37.0310
     7.7500      0.0000    588.0300     30.7949     39.2909
     8.0000      0.0000    448.7743     44.8288     41.2737
     8.2500      0.0000    352.5034     56.9720     43.1547
     8.5000      0.0000    298.6430     65.2032     44.6749
     8.7500      0.0000    274.3115     69.5843     45.3121
     9.0000      0.0000    265.4668     71.4409     44.9775
     9.2500      0.0000    262.8883     72.1041     44.4541
     9.5000      0.0000    262.2840     72.3442     44.8249
     9.7500      0.0000    262.1682     72.4616     46.4258
    10.0000      0.0000    262.1459     72.5393     48.6142
    10.2500      0.0000    262.1400     72.5946     50.6212
    10.5000      0.0000    262.1402     72.6341     52.4189
    10.7500      0.0000    262.1467     72.6625     54.6464
    11.0000      0.0000    262.1571     72.6838     57.7119
    11.2500      0.0000    262.1696     72.6978     61.2302
    11.5000      0.0000    262.1843     72.6982     64.6364
    11.7500      0.0000    262.2015     72.6783     68.1434
    12.0000      0.0000    262.2198     72.6397     72.5934
    12.2500      0.0000    262.2351     72.5967     78.4338
    12.5000      0.0000    262.2433     72.5711     85.3004
    12.7500      0.0000    262.2422     72.5804     92.6326
    13.0000      0.0000    262.2327     72.6278    100.1794
    13.2500      0.0000    262.2185     72.7002    107.5038
    13.5000      0.0000    262.2042     72.7767    113.2421
    13.7500      0.0000    262.1937     72.8412    115.6790
    14.0000      0.0000    262.1883     72.8909    114.6014
    14.2500      0.0000    262.1863     72.9348    112.1973
    14.5000      0.0000    262.1849     72.9859    111.5490
    14.7500      0.0000    262.1823     73.0519    114.2967
    15.0000      0.0000    262.1790     73.1287    119.7530
    15.2500      0.0000    262.1768     73.2039    125.6802
    15.5000      0.0000    262.1765     73.2666    129.6598
    15.7500      0.0000    262.1778     73.3140    130.5095
    16.0000      0.0000    262.1797     73.3510    129.1189
    16.2500      0.0000    262.1810     73.3837    127.7116
    16.5000      0.0000    262.1801     73.4143    127.8279
    16.7500      0.0000    262.1765     73.4425    128.9958
    17.0000      0.0000    262.1709     73.4685    129.4461
    17.2500      0.0000    262.1653     73.4954    128.0064
    17.5000      0.0000    262.1620     73.5251    125.1147
    17.7500      0.0000    262.1615     73.5544    122.1721
    18.0000      0.0000    262.1631     73.5759    120.3459
    18.2500      0.0000    262.1639     73.5853    120.0810
    18.5000      0.0000    262.1615     73.5878    121.0919
    18.7500      0.0000    262.1555     73.5954    122.3039
    19.0000      0.0000    262.1483     73.6193    122.2085
    19.2500      0.0000    262.1427     73.6639    119.7566
    19.5000      0.0000    262.1392     73.7272    114.8858
    19.7500      0.0000    262.1371     73.8018    108.4006
    20.0000      0.0000    262.1377     73.8757    101.6658
    20.2500      0.0000    262.1432     73.9338     96.1110
    20.5000      0.0000    262.1548     73.9619     92.5610
    20.7500      0.0000    262.1709     73.9552     90.9220
    21.0000      0.0000    262.1874     73.9218     90.3045
    21.2500      0.0000    262.2010     73.8788     89.5523
    21.5000      0.0000    262.2098     73.8415     88.2900
    21.7500      0.0000    262.2130     73.8177     87.4650
    22.0000      0.0000    262.2101     73.8083     88.2044
    22.2500      0.0000    262.2016     73.8123     90.3487
    22.5000      0.0000    262.1894     73.8315     92.6892
    22.7500      0.0000    262.1759     73.8708     94.1970
    23.0000      0.0000    262.1626     73.9313     94.3445
    23.2500      0.0000    262.1505     74.0043     92.7256
    23.5000      0.0000    262.1413     74.0721     89.3258
    23.7500      0.0000    262.1376     74.1185     85.1590
    24.0000      0.0000    262.1407     74.1377     81.8122
