~Version Information
VERS.                      2.0: CWLS Log ASCII Standard - VERSION 2.0
WRAP.                       NO: One line per depth step
~Well Information Block
STRT.FT               948.2500: 
STOP.FT              2134.5000: 
STEP.FT                 0.2500: 
NULL.                -999.2500: 
COMP.          Petrogulf Corporation: COMPANY
WELL.             Valejo 8-12R: WELL
FLD.           Purgatorie River: FIELD
LOC.           1351'' FNL & 1562' FWL: LOCATION
CNTY.               Las Animas: COUNTY
SRVC.                         : SERVICE COMPANY
DATE.          Wed Apr 28 02:30:32 2004: LOG DATE
UWI.           05 071 08038 00: UNIQUE WELL ID
STAT.                 Colorado: STATE
~Curve Information Block
DEPT.FT            0 000 00 00: Depth
SP.mV                         : DIL Spontaneous Potential
RILD.Ohm-m                    : DIL Deep Resistivity
RILM.Ohm-m                    : DIL Medium Resistivity
RLL3.Ohm-m                    : DIL Shallow Resistivity
GR.GAPI                       : Gamma Ray
~Parameter Information Block
~A  Depth        SP         RILD        RILM        RLL3         GR     
# ...
  1648.2500    124.6038     11.3605     13.4092     20.0644    129.2880
  1648.5000    124.6842     11.1425     13.2109     20.7256    130.5381
  1648.7500    124.7815     10.9153     12.8772     20.5447    132.9187
  1649.0000    124.9245     10.6847     12.4369     19.3703    137.6283
  1649.2500    125.1152     10.4564     11.9422     17.4785    140.7089
  1649.5000    125.3055     10.2360     11.4454     15.3850    144.6754
  1649.7500    125.4135     10.0269     10.9844     13.5620    147.1710
  1650.0000    125.3732      9.8290     10.5793     12.2610    151.2828
  1650.2500    125.1781      9.6397     10.2356     11.4953    154.0519
  1650.5000    124.8848      9.4576      9.9493     11.1363    156.9631
  1650.7500    124.5784      9.2856      9.7114     11.0418    157.4738
  1651.0000    124.3273      9.1314      9.5118     11.1195    156.2595
  1651.2500    124.1532      9.0059      9.3428     11.2883    154.8294
  1651.5000    124.0317      8.9189      9.2036     11.4142    153.0930
  1651.7500    123.9185      8.8756      9.1023     11.3343    152.6113
  1652.0000    123.7812      8.8757      9.0558     10.9910    152.6584
  1652.2500    123.6124      8.9144      9.0846     10.5596    152.7410
  1652.5000    123.4107      8.9849      9.2067     10.4267    152.1734
  1652.7500    123.1500      9.0816      9.4292     10.9920    150.9769
  1653.0000    122.7767      9.2011      9.7428     12.3957    147.5760
  1653.2500    122.2490      9.3416     10.1199     14.3386    144.4957
  1653.5000    121.5921      9.4997     10.5209     16.1568    140.4502
  1653.7500    120.9150      9.6678     10.9076     17.1945    139.5572
  1654.0000    120.3586      9.8330     11.2563     17.2428    142.1713
  1654.2500    120.0125      9.9798     11.5615     16.6820    145.9328
  1654.5000    119.8837     10.0930     11.8263     16.2034    151.7299
  1654.7500    119.9273     10.1622     12.0479     16.3522    153.9121
  1655.0000    120.0813     10.1852     12.2086     17.1902    153.3472
  1655.2500    120.2810     10.1680     12.2801     18.2406    151.1194
  1655.5000    120.4702     10.1212     12.2401     18.7726    147.6488
  1655.7500    120.6142     10.0542     12.0895     18.3056    146.4343
  1656.0000    120.6966      9.9709     11.8571     16.9664    146.3739
  1656.2500    120.6977      9.8705     11.5846     15.3750    146.7038
  1656.5000    120.5907      9.7510     11.3060     14.1636    146.3046
  1656.7500    120.3661      9.6122     11.0353     13.5701    145.2721
  1657.0000    120.0451      9.4572     10.7680     13.4075    143.8098
  1657.2500    119.6637      9.2920     10.4930     13.3300    143.9629
  1657.5000    119.2583      9.1236     10.2051     13.1020    146.7520
  1657.7500    118.8642      8.9578      9.9113     12.6697    149.9180
  1658.0000    118.5161      8.7964      9.6299     12.0793    155.2039
  1658.2500    118.2494      8.6357      9.3826     11.4166    158.4539
  1658.5000    118.1128      8.4686      9.1844     10.8349    162.3361
  1658.7500    118.1772      8.2878      9.0362     10.5658    163.8503
  1659.0000    118.5050      8.0898      8.9222     10.8133    163.6950
  1659.2500    119.0903      7.8763      8.8130     11.5981    162.0210
  1659.5000    119.8244      7.6537      8.6749     12.6868    158.6413
  1659.7500    120.5362      7.4313      8.4824     13.6611    156.9098
  1660.0000    121.0752      7.2209      8.2287     14.0942    156.0927
  1660.2500    121.3681      7.0356      7.9271     13.7523    156.7074
  1660.5000    121.4296      6.8874      7.6044     12.7020    158.7366
  1660.7500    121.3452      6.7838      7.2907     11.2480    160.2570
  1661.0000    121.2323      6.7246      7.0124      9.7579    161.7457
  1661.2500    121.1814      6.7010      6.7899      8.5147    161.9751
  1661.5000    121.2126      6.6990      6.6367      7.6716    161.8953
  1661.7500    121.2889      6.7032      6.5574      7.2776    162.1469
  1662.0000    121.3671      6.7018      6.5475      7.3071    162.7162
  1662.2500    121.4306      6.6882      6.5936      7.6676    162.3265
  1662.5000    121.4811      6.6624      6.6770      8.2136    159.6880
  1662.7500    121.5175      6.6305      6.7801      8.7974    157.1332
  1663.0000    121.5325      6.6031      6.8908      9.3358    153.9646
  1663.2500    121.5223      6.5921      7.0046      9.8259    152.9115
  1663.5000    121.4915      6.6072      7.1217     10.2909    152.8447
  1663.7500    121.4498      6.6536      7.2429     10.7163    153.5822
  1664.0000    121.4068      6.7314      7.3657     11.0453    155.5909
  1664.2500    121.3683      6.8371      7.4828     11.2207    157.3109
  1664.5000    121.3322      6.9660      7.5851     11.2112    159.9863
  1664.7500    121.2829      7.1151      7.6672     11.0098    161.7152
  1665.0000    121.1923      7.2836      7.7347     10.6370    164.1523
  1665.2500    121.0316      7.4728      7.8062     10.1554    165.3714
  1665.5000    120.7947      7.6829      7.9104      9.6861    165.6752
  1665.7500    120.5115      7.9121      8.0773      9.4215    164.4732
  1666.0000    120.2352      8.1568      8.3310      9.6283    160.4221
  1666.2500    120.0127      8.4142      8.6860     10.5851    156.2317
  1666.5000    119.8645      8.6845      9.1449     12.4332    147.7062
  1666.7500    119.7843      8.9718      9.6996     15.0277    140.7348
  1667.0000    119.7515      9.2829     10.3347     17.9421    129.4736
  1667.2500    119.7459      9.6245     11.0347     20.6694    122.4911
  1667.5000    119.7588     10.0004     11.7935     22.9070    114.4897
  1667.7500    119.7965     10.4116     12.6196     24.7900    111.0654
  1668.0000    119.8774     10.8569     13.5342     26.9588    107.5974
  1668.2500    120.0224     11.3334     14.5592     30.3141    105.3199
  1668.5000    120.2351     11.8336     15.6982     35.4554    101.1021
  1668.7500    120.4750     12.3412     16.9150     42.1677     98.2690
  1669.0000    120.6469     12.8308     18.1154     49.3884     96.3931
  1669.2500    120.6418     13.2733     19.1505     55.6309     98.4336
  1669.5000    120.4158     13.6476     19.8569     59.4360    107.9250
  1669.7500    120.0354     13.9489     20.1269     59.6570    117.5771
  1670.0000    119.6361     14.1876     19.9664     55.8144    132.5729
  1670.2500    119.3297     14.3813     19.4925     48.5624    140.1624
  1670.5000    119.1478     14.5459     18.8782     39.7228    145.6815
  1670.7500    119.0521     14.6900     18.2880     31.4905    145.8052
  1671.0000    118.9817     14.8155     17.8408     25.3606    142.6459
  1671.2500    118.8988     14.9196     17.6032     21.7123    139.4043
  1671.5000    118.8148     14.9977     17.5988     20.2370    133.9551
  1671.7500    118.7817     15.0440     17.8206     20.5919    130.2501
  1672.0000    118.8513     15.0520     18.2405     22.6974    125.0637
  1672.2500    119.0307     15.0151     18.8139     26.6583    122.2912
  1672.5000    119.2677     14.9295     19.4776     32.6235    120.1945
  1672.7500    119.4747     14.7970     20.1444     40.6837    120.7146
  1673.0000    119.5665     14.6260     20.7003     50.5305    124.3906
  1673.2500    119.4945     14.4307     21.0168     60.8165    127.9312
  1673.5000    119.2695     14.2279     20.9866     68.8798    132.5955
  1673.7500    118.9621     14.0314     20.5698     71.6526    134.3299
  1674.0000    118.6645     13.8467     19.8232     67.4899    134.9386
  1674.2500    118.4377     13.6687     18.8818     57.4512    134.7409
  1674.5000    118.2972     13.4832     17.9032     44.8219    134.7650
  1674.7500    118.2459     13.2726     17.0115     33.2112    135.3785
  1675.0000    118.3013     13.0213     16.2678     24.7686    137.3960
  1675.2500    118.4759     12.7206     15.6682     19.7434    139.4307
  1675.5000    118.7434     12.3700     15.1591     17.2622    143.0795
  1675.7500    119.0331     11.9768     14.6655     16.2957    145.3898
  1676.0000    119.2598     11.5527     14.1263     16.0844    147.9237
