~Version Information
VERS.                      2.0: CWLS Log ASCII Standard - VERSION 2.0
WRAP.                       NO: One line per depth step
~Well Information Block
STRT.FT               780.0000: 
STOP.FT              2866.2000: 
STEP.FT                 0.1000: 
NULL.                -999.2500: 
COMP.          Pioneer Natural Resources: COMPANY
WELL.            Sebring 42-29: WELL
FLD.           Purgatoire River: FIELD
LOC.           1751' FNL & 584' FEL--: LOCATION
PROV.                 Colorado: PROVINCE
CNTY.               Las Animas: COUNTRY
SRVC.                Patterson: SERVICE COMPANY
DATE.          Mon Aug 15 07:11:37 2005: LOG DATE
UWI.           05 071 08293 00: UNIQUE WELL ID
~Curve Information Block
DEPT.FT            0 000 00 00: Depth
DCAL.in                       : CDL Caliper
RHOB.g/cc                     : CDL Bulk Density
RHOC.g/cc                     : CDL Density Correction
DPOR.pu                       : CDL Density Porosity
NPOR.pu                       : Neutron Porosity
GR.GAPI                       : Gamma Ray
~Parameter Information Block
~A  Depth       DCAL        RHOB        RHOC        DPOR        NPOR         GR     
# ...
  2287.2000      8.1327      2.6208      0.0429      1.7685     16.8475    102.7904
  2287.3000      8.1290      2.5940      0.0459      3.3925     17.2550    107.6892
  2287.4000      8.1290      2.5655      0.0371      5.1209     17.6937    114.6876
  2287.5000      8.1233      2.5387      0.0148      6.7480     18.1339    121.3411
  2287.6000      8.1233      2.5271     -0.0186      7.4472     18.6442    123.3145
  2287.7000      8.1233      2.5387      0.0048      6.7462     18.7689    122.3034
  2287.8000      8.1164      2.5638      0.0339      5.2268     18.5584    122.5408
  2287.9000      8.1164      2.5910      0.0493      3.5738     18.6288    122.2075
  2288.0000      8.1134      2.6133      0.0821      2.2240     18.8313    119.8672
  2288.1000      8.1134      2.6206      0.0658      1.7847     18.7689    114.5772
  2288.2000      8.1134      2.6091      0.0535      2.4814     18.8285    106.4562
  2288.3000      8.1134      2.5853      0.0212      3.9228     19.1433    100.7938
  2288.4000      8.1134      2.5640      0.0068      5.2144     19.1467     98.1207
  2288.5000      8.1135      2.5587     -0.0052      5.5346     18.5609     96.8344
  2288.6000      8.1135      2.5712      0.0003      4.7742     17.6794     98.6133
  2288.7000      8.1135      2.5842      0.0572      3.9849     17.1191    101.5109
  2288.8000      8.1115      2.5771      0.0497      4.4189     17.2294    100.6947
  2288.9000      8.1115      2.5531      0.0475      5.8735     17.4286     98.1580
  2289.0000      8.1077      2.5309      0.0171      7.2203     17.0808     97.3260
  2289.1000      8.1077      2.5203      0.0105      7.8588     16.3007     95.5507
  2289.2000      8.1077      2.5112      0.0788      8.4136     15.3016     90.1579
  2289.3000      8.1032      2.4907      0.0021      9.6520     14.2250     82.0099
  2289.4000      8.1032      2.4689      0.0008     10.9767     13.4228     74.1535
  2289.5000      8.1002      2.4606     -0.0002     11.4782     13.0732     69.4996
  2289.6000      8.1002      2.4624      0.0655     11.3670     12.8138     66.9464
  2289.7000      8.1002      2.4605      0.0142     11.4826     12.2142     62.9719
  2289.8000      8.1012      2.4593      0.0087     11.5565     11.3319     59.1557
  2289.9000      8.1012      2.4668      0.0657     11.1023     10.5626     57.6264
  2290.0000      8.1041      2.4781      0.0324     10.4169     10.2786     54.6503
  2290.1000      8.1041      2.4888      0.0629      9.7707     10.3207     48.7724
  2290.2000      8.1041      2.4890      0.0714      9.7560     10.2393     44.0504
  2290.3000      8.1067      2.4731      0.0766     10.7208     10.0024     42.4583
  2290.4000      8.1067      2.4531      0.0306     11.9317      9.8884     43.4984
  2290.5000      8.1093      2.4515     -0.0093     12.0285     10.1298     46.9734
  2290.6000      8.1093      2.4790      0.0493     10.3613     10.7587     53.2491
  2290.7000      8.1093      2.5181      0.0762      7.9969     11.4126     61.5661
  2290.8000      8.1100      2.5408      0.1111      6.6211     11.7106     67.6090
  2290.9000      8.1100      2.5330      0.0865      7.0909     11.7921     68.0703
  2291.0000      8.1081      2.5039      0.0355      8.8552     12.0790     63.0008
  2291.1000      8.1081      2.4735      0.0175     10.6962     12.6294     58.5739
  2291.2000      8.1081      2.4541     -0.0053     11.8750     13.2703     60.8828
  2291.3000      8.1056      2.4462      0.0291     12.3499     13.6314     64.7502
  2291.4000      8.1056      2.4436      0.0264     12.5088     13.5701     62.9481
  2291.5000      8.1048      2.4500      0.0306     12.1215     13.3133     57.9934
  2291.6000      8.1048      2.4723      0.0592     10.7689     13.1351     56.7545
  2291.7000      8.1048      2.4944      0.0950      9.4280     13.3290     59.4514
  2291.8000      8.1030      2.4929      0.0831      9.5195     13.7063     60.9411
  2291.9000      8.1030      2.4700      0.0368     10.9072     13.8215     61.3715
  2292.0000      8.1014      2.4424      0.0561     12.5814     13.6993     63.1236
  2292.1000      8.1014      2.4244      0.0415     13.6755     13.4688     64.7033
  2292.2000      8.1014      2.4328      0.0252     13.1651     13.1973     65.3739
  2292.3000      8.1041      2.4699      0.0666     10.9138     13.1145     66.0840
  2292.4000      8.1041      2.5134      0.1049      8.2775     13.1341     64.8493
  2292.5000      8.1077      2.5356      0.1410      6.9325     12.8244     59.1448
  2292.6000      8.1077      2.5280      0.0842      7.3955     12.2827     51.9022
  2292.7000      8.1077      2.5088      0.0573      8.5562     11.9546     47.2672
  2292.8000      8.1090      2.4956      0.0707      9.3578     11.5666     44.4744
  2292.9000      8.1090      2.4843      0.0729     10.0427     10.8274     42.0448
  2293.0000      8.1103      2.4768      0.0697     10.4954     10.2885     42.1294
  2293.1000      8.1103      2.4908      0.0416      9.6491     10.3278     45.9595
  2293.2000      8.1103      2.5227      0.0894      7.7162     10.4923     48.1782
  2293.3000      8.1107      2.5473      0.0477      6.2236     10.3689     44.7866
  2293.4000      8.1107      2.5515      0.0768      5.9721     10.4173     40.1771
  2293.5000      8.1094      2.5369      0.0874      6.8533     11.0860     37.7795
  2293.6000      8.1094      2.5198      0.0116      7.8938     12.0023     35.4823
  2293.7000      8.1094      2.5236      0.0066      7.6585     12.7292     32.2432
  2293.8000      8.1097      2.5469      0.0482      6.2482     13.5284     31.0463
  2293.9000      8.1097      2.5644      0.0596      5.1865     14.6810     36.0359
  2294.0000      8.1117      2.5591      0.0767      5.5062     16.0657     45.5830
  2294.1000      8.1117      2.5352      0.0402      6.9557     17.4222     54.0885
  2294.2000      8.1117      2.5188      0.0038      7.9536     18.6895     60.2256
  2294.3000      8.1117      2.5303      0.0286      7.2554     19.8874     68.9436
  2294.4000      8.1117      2.5666      0.0272      5.0525     20.8491     84.1464
  2294.5000      8.1106      2.6111      0.0900      2.3548     21.4650    102.6025
  2294.6000      8.1106      2.6350      0.1310      0.9065     21.9493    119.4891
  2294.7000      8.1106      2.6204      0.0895      1.7933     22.3968    131.1415
  2294.8000      8.1104      2.5888      0.0790      3.7066     22.6990    136.0788
  2294.9000      8.1104      2.5746      0.0627      4.5675     22.8645    140.1189
  2295.0000      8.1115      2.5792      0.1517      4.2935     23.1284    148.0930
  2295.1000      8.1115      2.5825      0.1120      4.0925     23.4174    157.5147
  2295.2000      8.1115      2.5814      0.0394      4.1570     23.2968    164.4778
  2295.3000      8.1115      2.5819      0.0622      4.1257     23.0818    168.1328
  2295.4000      8.1115      2.5842      0.0089      3.9863     23.3627    168.1338
  2295.5000      8.1072      2.5872      0.0665      3.8039     23.7095    163.7581
  2295.6000      8.1072      2.5820      0.0444      4.1185     23.3122    155.4329
  2295.7000      8.1072      2.5630      0.0042      5.2752     22.3546    144.9810
  2295.8000      8.1026      2.5437      0.0022      6.4434     21.9920    138.1345
  2295.9000      8.1026      2.5423     -0.0096      6.5257     22.8628    139.8030
  2296.0000      8.1019      2.5604      0.0134      5.4299     24.1636    146.9138
  2296.1000      8.1019      2.5814      0.0533      4.1606     24.7340    155.0936
  2296.2000      8.1019      2.5888      0.0542      3.7082     24.6218    161.4279
  2296.3000      8.1023      2.5883      0.0482      3.7383     24.3084    163.2937
  2296.4000      8.1023      2.5922      0.0949      3.5008     23.6858    164.7399
  2296.5000      8.1023      2.5940      0.0697      3.3955     22.7649    167.3366
  2296.6000      8.1023      2.5829      0.0633      4.0680     22.1998    167.2700
  2296.7000      8.1023      2.5629      0.0564      5.2798     22.5420    165.8187
