~Version Information
 VERS.                                  2.0 : CWLS LAS VERSION
 WRAP.                                   NO : WRAPING MODE
 SWARE .                 MController 2.5.0N : SOFTWARE VERSION
~Well Information
 WELL.                         State 16-41V : WELL
 COMP.                Petrogulf Corporation : COMPANY
 FLD.                      Purgatoire River : FIELD
 LOC.                NE/NE Sec 16 T33S R67W : LOCATION
 DATE.                             08/01/05 : DATE(S) LOGGED
 SRVC.       BLANCO Geological Services LLC : SERVICE COMPANY
 STAT.                                   CO : STATE
 CNTY.                           Las Animas : COUNTY
 CTRY.                                  USA : COUNTRY
 API.                       05-071-08344-00 : API NUMBER
 STRT.FT                             582.00 : START DEPTH
 STOP.FT                            2275.00 : STOP DEPTH
 STEP.FT                               1.00 : DEPTH INCREMENT
 NULL.                                -9999 : NULL VALUE
~Curve information
 DEPTH.FT                                   :
 ROP.MIN/FT                                 :
 GAS.UNITS                                  :
~ASCII Log data
# ...
      1582.0         0.20          7.8 
      1583.0         0.20          8.2 
      1584.0         0.22         10.7 
      1585.0         0.23         13.5 
      1586.0         2.00         70.1 
      1587.0         0.67         65.2 
      1588.0         0.35         44.1 
      1589.0         0.33         35.3 
      1590.0         0.37         28.0 
      1591.0         0.37         23.5 
      1592.0         0.33         20.8 
      1593.0         0.33         19.0 
      1594.0         0.33         18.0 
      1595.0         0.37         17.0 
      1596.0         0.30         16.0 
      1597.0         0.28         15.8 
      1598.0         0.30         15.6 
      1599.0         0.27         14.7 
      1600.0         0.33         14.3 
      1601.0         0.23         13.6 
      1602.0         0.37         13.5 
      1603.0         0.40         13.0 
      1604.0         0.37         12.7 
      1605.0         0.30         12.0 
      1606.0         0.23         13.5 
      1607.0         0.27         14.2 
      1608.0         0.22         13.6 
      1609.0         0.20         12.3 
      1610.0         0.33          9.7 
      1611.0         0.23          7.6 
      1612.0         0.20          7.3 
      1613.0         0.23          8.7 
      1614.0         0.23         11.5 
      1615.0         0.20         15.4 
      1616.0         2.08         53.7 
      1617.0         0.30         42.5 
      1618.0         0.37         35.5 
      1619.0         0.40         28.7 
      1620.0         0.33         23.4 
      1621.0         0.27         19.2 
      1622.0         0.33         17.4 
      1623.0         0.37         16.2 
      1624.0         0.55         14.8 
      1625.0         0.13         13.8 
      1626.0         0.20         13.5 
      1627.0         0.23         13.3 
      1628.0         0.23         12.8 
      1629.0         0.23         13.0 
      1630.0         0.17         12.8 
      1631.0         0.20         12.5 
      1632.0         0.17         12.3 
      1633.0         0.20         12.0 
      1634.0         0.17         12.0 
      1635.0         0.20         13.9 
      1636.0         0.23         14.1 
      1637.0         0.17         13.3 
      1638.0         0.17         12.0 
      1639.0         0.22         10.5 
      1640.0         0.23          8.9 
      1641.0         0.23          7.9 
      1642.0         0.20          7.8 
      1643.0         0.20          9.4 
      1644.0         0.20         11.5 
      1645.0         0.23         16.3 
      1646.0         3.05         59.6 
      1647.0         0.30         17.7 
      1648.0         0.43         20.9 
      1649.0         0.17         21.5 
      1650.0         0.20         21.8 
      1651.0         0.20         21.9 
      1652.0         0.37         21.5 
      1653.0         0.35         20.7 
      1654.0         0.33         19.6 
      1655.0         0.27         18.6 
      1656.0         0.27         17.6 
      1657.0         0.27         16.6 
      1658.0         0.23         16.0 
      1659.0         0.27         15.6 
      1660.0         0.23         15.5 
      1661.0         0.23         15.2 
      1662.0         0.23         15.0 
      1663.0         0.30         14.8 
      1664.0         0.23         14.7 
      1665.0         0.17         14.8 
      1666.0         0.25         16.7 
      1667.0         0.20         17.3 
      1668.0         0.23         16.5 
      1669.0         0.30         13.1 
      1670.0         0.23         10.0 
      1671.0         0.23          8.7 
      1672.0         0.23          9.8 
      1673.0         0.17         11.8 
      1674.0         0.20         15.6 
      1675.0         0.17         19.9 
      1676.0         2.32         71.4 
      1677.0         0.27         42.3 
      1678.0         0.23         36.4 
      1679.0         0.20         32.0 
      1680.0         0.23         28.8 
      1681.0         0.20         25.8 
      1682.0         0.17         23.5 
      1683.0         0.20         22.0 
      1684.0         0.28         19.8 
      1685.0         0.27         18.6 
      1686.0         0.30         23.7 
      1687.0         0.30         27.5 
      1688.0         0.23         27.9 
      1689.0         0.23         28.0 
      1690.0         0.23         27.5 
      1691.0         0.20         25.8 
      1692.0         0.37         25.2 
      1693.0         0.27         26.1 
      1694.0         0.23         25.3 
      1695.0         0.23         21.2 
      1696.0         0.20         17.0 
      1697.0         0.25         13.9 
      1698.0         0.20         12.2 
      1699.0         0.20         12.9 
      1700.0         0.20         14.7 
      1701.0         0.20         18.5 
      1702.0         0.20         24.6 
      1703.0         0.27         36.7 
      1704.0         0.17         45.9 
      1705.0         0.17         54.5 
      1706.0         1.55         68.0 
      1707.0         0.20         43.1 
      1708.0         0.23         37.3 
      1709.0         0.23         31.8 
      1710.0         0.23         28.4 
      1711.0         0.23         25.1 
      1712.0         0.27         23.2 
      1713.0         0.33         20.8 
      1714.0         0.30         18.7 
      1715.0         0.37         17.4 
      1716.0         0.40         16.7 
      1717.0         0.35         16.3 
      1718.0         0.40         16.5 
      1719.0         0.37         17.3 
      1720.0         0.27         18.2 
      1721.0         0.23         18.5 
      1722.0         0.23         18.3 
      1723.0         0.23         17.8 
      1724.0         0.17         17.2 
      1725.0         0.20         17.0 
      1726.0         0.10         16.7 
      1727.0         0.17         16.3 
      1728.0         0.23         16.7 
      1729.0         0.23         18.2 
      1730.0         0.25         18.5 
      1731.0         0.20         17.3 
      1732.0         0.23         14.9 
      1733.0         0.33         13.9 
      1734.0         0.33          9.2 
      1735.0         0.30          8.6 
      1736.0         1.78          8.5 
      1737.0         0.27         -0.9 
      1738.0         0.37         -1.0 
      1739.0         0.33         -1.0 
      1740.0         0.30         -1.1 
      1741.0         0.27         -1.2 
      1742.0         0.37         -0.9 
      1743.0         0.23         -0.8 
      1744.0         0.27         -1.3 
      1745.0         0.20         -0.6 
      1746.0         0.17         -0.7 
      1747.0         0.48         -0.5 
      1748.0         0.23         -0.4 
      1749.0         0.23         -0.6 
      1750.0         0.23          1.8 
      1751.0         0.23          6.1 
      1752.0         0.37         12.2 
      1753.0         0.37         10.6 
      1754.0         0.30          4.6 
      1755.0         0.30          4.7 
      1756.0         0.40         22.3 
      1757.0         0.42         29.8 
      1758.0         0.20         28.8 
      1759.0         0.17         23.9 
      1760.0         0.13         20.8 
      1761.0         0.27         19.1 
      1762.0         0.20         18.4 
      1763.0         0.20         19.7 
      1764.0         0.20         23.3 
      1765.0         0.20         28.3 
      1766.0         2.05         56.5 
      1767.0         0.33         42.3 
      1768.0         0.30         41.1 
      1769.0         0.20         40.7 
      1770.0         0.20         40.5 
      1771.0         0.23         41.0 
      1772.0         0.27         41.0 
      1773.0         0.23         39.1 
      1774.0         0.13         37.4 
      1775.0         0.17         36.3 
      1776.0         0.27         34.2 
      1777.0         0.32         32.1 
      1778.0         0.33         30.4 
      1779.0         0.27         31.2 
      1780.0         0.20         31.5 
      1781.0         0.27         31.5 
