~Version Information
VERS.                      2.0: CWLS Log ASCII Standard - VERSION 2.0
WRAP.                       NO: One line per depth step
~Well Information Block
STRT.FT                -9.2500: 
STOP.FT              2353.7500: 
STEP.FT                 0.2500: 
NULL.                -999.2500: 
COMP.          Petrogulf Corporation: COMPANY
WELL.             Kraft 17-23V: WELL
FLD.           Purgatorie River: FIELD
LOC.           1500' FSL & 1773' FWL--: LOCATION
PROV.                       CO: PROVINCE
CNTY.               Las Animas: COUNTRY
SRVC.          Patterson Wireline: SERVICE COMPANY
DATE.          Wed Dec 10 19:09:59 2003: LOG DATE
UWI.                          : UNIQUE WELL ID
~Curve Information Block
DEPT.FT            0 000 00 00: Depth
CCL.                          : Casing Collar Locator
TT3.usec                      : CBL 3' Travel Time
AMP3.mV                       : CBL 3' Amplitude
GR.GAPI                       : Gamma Ray
~Parameter Information Block
~A  Depth       CCL         TT3         AMP3         GR     
# ...
  1397.7500      0.0000    821.5404      6.1699    100.7511
  1398.0000      0.0000    823.6703      6.2407     97.9375
  1398.2500      0.0000    824.0839      6.3951     95.6757
  1398.5000      0.0000    819.4799      6.7009     95.9841
  1398.7500      0.0000    805.6176      7.1967     99.7376
  1399.0000      0.0000    780.6199      7.8817    105.5622
  1399.2500      0.0000    746.2130      8.7152    110.1777
  1399.5000      0.0000    707.2568      9.6157    110.3742
  1399.7500      0.0000    672.6950     10.4670    105.1906
  1400.0000      0.0000    654.3558     11.1487     96.2240
  1400.2500      0.0000    658.9186     11.5768     86.0424
  1400.5000      0.0000    680.5613     11.7201     76.8621
  1400.7500      0.0000    705.4464     11.5838     70.5736
  1401.0000      0.0000    723.6702     11.1901     68.8647
  1401.2500      0.0000    734.5596     10.5807     72.4249
  1401.5000      0.0000    741.8563      9.8360     80.1640
  1401.7500      0.0000    747.5949      9.0871     89.7082
  1402.0000      0.0000    751.3230      8.4813     98.7265
  1402.2500      0.0000    752.5688      8.1009    105.5385
  1402.5000      0.0000    751.9837      7.9084    108.6993
  1402.7500      0.0000    750.6105      7.7925    106.9505
  1403.0000      0.0000    749.1581      7.6733    100.2628
  1403.2500      0.0000    748.1439      7.5551     90.6057
  1403.5000      0.0000    748.2780      7.4984     81.0076
  1403.7500      0.0000    750.6766      7.5724     73.7234
  1404.0000      0.0000    756.0686      7.8303     69.4996
  1404.2500      0.0000    762.0818      8.2932     68.2527
  1404.5000      0.0000    760.6888      8.9388     69.7503
  1404.7500      0.0000    740.6632      9.7062     73.4603
  1405.0000      0.0000    696.2666     10.5028     78.1641
  1405.2500      0.0000    634.7069     11.2102     82.2409
  1405.5000      0.0000    572.9262     11.7162     84.7328
  1405.7500      0.0000    525.0717     11.9640     86.1416
  1406.0000      0.0000    495.7616     11.9632     87.6473
  1406.2500      0.0000    487.2554     11.7569     89.3079
  1406.5000      0.0000    505.7032     11.3979     89.7112
  1406.7500      0.0000    551.6709     10.9527     87.8514
  1407.0000      0.0000    608.9750     10.4887     84.7171
  1407.2500      0.0000    654.0216     10.0441     82.2694
  1407.5000      0.0000    677.7749      9.6221     81.1371
  1407.7500      0.0000    691.9030      9.2106     80.0222
  1408.0000      0.0000    712.1826      8.7850     77.3970
  1408.2500      0.0000    742.1675      8.3013     73.2991
  1408.5000      0.0000    774.3218      7.7115     69.3308
  1408.7500      0.0000    800.1514      6.9980     67.2813
  1409.0000      0.0000    815.8130      6.1994     68.0819
  1409.2500      0.0000    822.2515      5.4102     71.6129
  1409.5000      0.0000    823.5980      4.7397     76.5324
  1409.7500      0.0000    823.9084      4.2468     80.2393
  1410.0000      0.0000    823.9370      3.9011     80.1022
  1410.2500      0.0000    821.6490      3.6140     75.4453
  1410.5000      0.0000    815.9310      3.3179     68.2163
  1410.7500      0.0000    808.0984      3.0199     61.6644
  1411.0000      0.0000    799.3866      2.7805     58.4197
  1411.2500      0.0000    788.9333      2.6519     59.2836
  1411.5000      0.0000    775.8670      2.6509     63.1548
  1411.7500      0.0000    762.4458      2.7783     68.0030
  1412.0000      0.0000    753.2118      3.0329     72.3236
  1412.2500      0.0000    750.4833      3.3901     75.9417
  1412.5000      0.0000    751.3019      3.7790     79.5633
  1412.7500      0.0000    750.2155      4.0929     83.8000
  1413.0000      0.0000    745.4149      4.2270     88.8577
  1413.2500      0.0000    740.4404      4.1219     94.8191
  1413.5000      0.0000    738.8690      3.7955    101.6107
  1413.7500      0.0000    739.4082      3.3367    108.7911
  1414.0000      0.0000    737.9850      2.8508    115.9467
  1414.2500      0.0000    733.0613      2.3996    123.1930
  1414.5000      0.0000    726.9536      1.9951    130.6034
  1414.7500      0.0000    722.5414      1.6382    137.1110
  1415.0000      0.0000    720.5366      1.3513    140.7007
  1415.2500      0.0000    720.3405      1.1760    139.9663
  1415.5000      0.0000    721.9035      1.1475    135.1740
  1415.7500      0.0000    725.5049      1.2637    127.8129
  1416.0000      0.0000    730.9794      1.4742    119.5156
  1416.2500      0.0000    738.6672      1.7027    111.6097
  1416.5000      0.0000    749.5714      1.8893    105.4342
  1416.7500      0.0000    763.0523      2.0101    102.4831
  1417.0000      0.0000    775.8253      2.0611    103.8206
  1417.2500      0.0000    784.6786      2.0413    109.3822
  1417.5000      0.0000    788.8611      1.9679    117.8833
  1417.7500      0.0000    788.8850      1.8981    127.2354
  1418.0000      0.0000    784.1770      1.9153    135.4073
  1418.2500      0.0000    773.2942      2.0883    141.4772
  1418.5000      0.0000    756.7275      2.4521    145.6305
  1418.7500      0.0000    739.2213      3.0072    147.7864
  1419.0000      0.0000    728.2378      3.6997    146.9019
  1419.2500      0.0000    728.5522      4.4141    142.1862
  1419.5000      0.0000    737.9113      5.0365    134.5085
  1419.7500      0.0000    749.2592      5.5313    126.1900
  1420.0000      0.0000    757.8889      5.9332    119.8492
  1420.2500      0.0000    765.0879      6.2732    117.5861
  1420.5000     -2.0000    773.8301      6.5375    120.3711
  1420.7500     -2.0000    782.9545      6.6879    127.4058
  1421.0000      0.0000    786.8873      6.7107    136.2079
  1421.2500      0.0000    779.8429      6.6501    143.8805
  1421.5000      0.0000    760.6994      6.5918    148.6478
  1421.7500      0.0000    736.4583      6.6037    150.4880
  1422.0000      0.0000    719.5135      6.7074    150.5596
  1422.2500      0.0000    717.7297      6.9306    150.1924
  1422.5000      0.0000    727.7325      7.3576    150.1716
  1422.7500      0.0000    739.5112      8.0823    150.3741
  1423.0000      0.0000    743.6923      9.1212    149.8454
  1423.2500      0.0000    732.9044     10.3996    147.4324
  1423.5000      0.0000    701.8464     11.8140    142.5538
  1423.7500      0.0000    650.4393     13.2939    135.5404
  1424.0000      0.0000    584.7576     14.8055    127.4942
  1424.2500      0.0000    513.7926     16.2869    119.9015
  1424.5000      0.0000    448.0810     17.5691    113.9449
  1424.7500      0.0000    401.3664     18.3779    109.7356
  1425.0000      0.0000    388.3863     18.4533    106.3450
  1425.2500      0.0000    416.9934     17.6908    102.8964
  1425.5000      0.0000    480.9090     16.1868     99.4927
  1425.7500      0.0000    560.4515     14.1759     96.9168
  1426.0000      0.0000    633.0302     11.9289     95.5580
  1426.2500      0.0000    685.6641      9.6793     94.9452
  1426.5000      0.0000    718.4208      7.6001     94.4095
  1426.7500      0.0000    738.0173      5.8104     94.0802
  1427.0000      0.0000    750.1791      4.3766     95.0591
  1427.2500      0.0000    756.9571      3.3062     98.6510
  1427.5000      0.0000    758.3342      2.5566    105.4911
  1427.7500      0.0000    755.1447      2.0603    115.2131
  1428.0000      0.0000    750.1426      1.7581    126.5282
  1428.2500      0.0000    745.9786      1.6186    137.5234
  1428.5000      0.0000    742.7460      1.6175    146.2730
  1428.7500      0.0000    738.9880      1.6970    151.7816
  1429.0000      0.0000    735.0405      1.7643    154.5024
  1429.2500      0.0000    733.5217      1.7427    155.5946
  1429.5000      0.0000    735.6102      1.6283    155.5149
  1429.7500      0.0000    738.4623      1.4948    153.5768
  1430.0000      0.0000    738.2955      1.4381    149.0093
  1430.2500      0.0000    735.3322      1.4975    142.3040
  1430.5000      0.0000    733.3173      1.6220    135.2307
  1430.7500      0.0000    733.9610      1.7201    129.4444
  1431.0000      0.0000    734.1244      1.7472    125.4014
