~Version Information
VERS.                      2.0: CWLS Log ASCII Standard - VERSION 2.0
WRAP.                       NO: One line per depth step
~Well Information Block
STRT.FT               -12.3000: 
STOP.FT              1768.7000: 
STEP.FT                 0.1000: 
NULL.                -999.2500: 
COMP.          Petrogulf Corporation: COMPANY
WELL.          Alexander 9-43R: WELL
FLD.           Purgatorie River: FIELD
LOC.           1652' FSL & 1049' FEL--: LOCATION
CNTY.               Las Animas: COUNTY
SRVC.                         : SERVICE COMPANY
DATE.          Tue Sep 28 14:27:54 2004: LOG DATE
UWI.                          : UNIQUE WELL ID
STAT.                       CO: STATE
~Curve Information Block
DEPT.FT            0 000 00 00: Depth
GR.GAPI                       : Gamma Ray
CCL.                          : Casing Collar Locator
TT3.usec                      : CBL 3' Travel Time
AMP3.mV                       : CBL 3' Amplitude
~Parameter Information Block
~A  Depth        GR         CCL         TT3         AMP3    
# ...
  1515.3000    142.5068      0.0000    727.0167     17.9457
  1515.4000    142.5068      0.0000    727.0167     17.9457
  1515.5000    141.9432      0.0000    718.4547     17.7099
  1515.6000    141.9432      0.0000    718.4547     17.7099
  1515.7000    141.9432      0.0000    718.4547     17.7099
  1515.8000    146.9706      0.0000    704.6524     17.3394
  1515.9000    146.9706      0.0000    704.6524     17.3394
  1516.0000    155.0348      0.0000    684.3483     16.9527
  1516.1000    155.0348      0.0000    684.3483     16.9527
  1516.2000    155.0348      0.0000    684.3483     16.9527
  1516.3000    162.8049      0.0000    658.0234     16.6010
  1516.4000    162.8049      0.0000    658.0234     16.6010
  1516.5000    168.6906      0.0000    630.1770     16.2435
  1516.6000    168.6906      0.0000    630.1770     16.2435
  1516.7000    168.6906      0.0000    630.1770     16.2435
  1516.8000    173.3475      0.0000    608.8846     15.7884
  1516.9000    173.3475      0.0000    608.8846     15.7884
  1517.0000    177.7607      0.0000    601.6686     15.1599
  1517.1000    177.7607      0.0000    601.6686     15.1599
  1517.2000    177.7607      0.0000    601.6686     15.1599
  1517.3000    181.7448      0.0000    609.5482     14.3471
  1517.4000    181.7448      0.0000    609.5482     14.3471
  1517.5000    184.4907      0.0000    624.2825     13.4115
  1517.6000    184.4907      0.0000    624.2825     13.4115
  1517.7000    184.4907      0.0000    624.2825     13.4115
  1517.8000    185.6843      0.0000    634.2239     12.4569
  1517.9000    185.6843      0.0000    634.2239     12.4569
  1518.0000    185.5224      0.0000    634.9589     11.5819
  1518.1000    185.5224      0.0000    634.9589     11.5819
  1518.2000    185.5224      0.0000    634.9589     11.5819
  1518.3000    183.9753      0.0000    632.3999     10.8409
  1518.4000    183.9753      0.0000    632.3999     10.8409
  1518.5000    180.5672      0.0000    634.8665     10.2380
  1518.6000    180.5672      0.0000    634.8665     10.2380
  1518.7000    180.5672      0.0000    634.8665     10.2380
  1518.8000    175.0740      0.0000    645.0557      9.7516
  1518.9000    175.0740      0.0000    645.0557      9.7516
  1519.0000    168.1158      0.0000    660.2063      9.3609
  1519.1000    168.1158      0.0000    660.2063      9.3609
  1519.2000    168.1158      0.0000    660.2063      9.3609
  1519.3000    160.6948      0.0000    676.5566      9.0524
  1519.4000    160.6948      0.0000    676.5566      9.0524
  1519.5000    153.4035      0.0000    691.8316      8.8138
  1519.6000    153.4035      0.0000    691.8316      8.8138
  1519.7000    153.4035      0.0000    691.8316      8.8138
  1519.8000    146.6072      0.0000    705.3657      8.6332
  1519.9000    146.6072      0.0000    705.3657      8.6332
  1520.0000    141.0399      0.0000    717.3252      8.5071
  1520.1000    141.0399      0.0000    717.3252      8.5071
  1520.2000    141.0399      0.0000    717.3252      8.5071
  1520.3000    137.2290      0.0000    727.7021      8.4438
  1520.4000    137.2290      0.0000    727.7021      8.4438
  1520.5000    134.2785      0.0000    735.9614      8.4502
  1520.6000    134.2785      0.0000    735.9614      8.4502
  1520.7000    134.2785      0.0000    735.9614      8.4502
  1520.8000    130.2188      0.0000    741.6387      8.5097
  1520.9000    130.2188      0.0000    741.6387      8.5097
  1521.0000    123.9436      0.0000    744.9443      8.5789
  1521.1000    123.9436      0.0000    744.9443      8.5789
  1521.2000    123.9436      0.0000    744.9443      8.5789
  1521.3000    116.5428      0.0000    746.6121      8.6183
  1521.4000    116.5428      0.0000    746.6121      8.6183
  1521.5000    110.8021      0.0000    747.3376      8.6207
  1521.6000    110.8021      0.0000    747.3376      8.6207
  1521.7000    110.8021      0.0000    747.3376      8.6207
  1521.8000    109.4990      0.0000    747.3324      8.5952
  1521.9000    109.4990      0.0000    747.3324      8.5952
  1522.0000    113.6606      0.0000    745.8792      8.5311
  1522.1000    113.6606      0.0000    745.8792      8.5311
  1522.2000    113.6606      0.0000    745.8792      8.5311
  1522.3000    121.8651      0.0000    741.0339      8.3942
  1522.4000    121.8651      0.0000    741.0339      8.3942
  1522.5000    131.0865      0.0000    730.2290      8.1631
  1522.6000    131.0865      0.0000    730.2290      8.1631
  1522.7000    131.0865      0.0000    730.2290      8.1631
  1522.8000    138.5091      0.0000    712.0671      7.8617
  1522.9000    138.5091      0.0000    712.0671      7.8617
  1523.0000    142.9767      0.0000    687.7709      7.5556
  1523.1000    142.9767      0.0000    687.7709      7.5556
  1523.2000    142.9767      0.0000    687.7709      7.5556
  1523.3000    145.1542      0.0000    660.9311      7.3216
  1523.4000    145.1542      0.0000    660.9311      7.3216
  1523.5000    146.3368      0.0000    636.3879      7.2176
  1523.6000    146.3368      0.0000    636.3879      7.2176
  1523.7000    146.3368      0.0000    636.3879      7.2176
  1523.8000    146.9111      0.0000    619.2946      7.2662
  1523.9000    146.9111      0.0000    619.2946      7.2662
  1524.0000    145.9178      0.0000    613.3665      7.4470
  1524.1000    145.9178      0.0000    613.3665      7.4470
  1524.2000    145.9178      0.0000    613.3665      7.4470
  1524.3000    142.2206      0.0000    618.1595      7.6983
  1524.4000    142.2206      0.0000    618.1595      7.6983
  1524.5000    136.0770      0.0000    628.1541      7.9360
  1524.6000    136.0770      0.0000    628.1541      7.9360
  1524.7000    136.0770      0.0000    628.1541      7.9360
  1524.8000    129.4977      0.0000    636.6053      8.0903
  1524.9000    129.4977      0.0000    636.6053      8.0903
  1525.0000    125.0631      0.0000    642.0363      8.1333
  1525.1000    125.0631      0.0000    642.0363      8.1333
  1525.2000    125.0631      0.0000    642.0363      8.1333
  1525.3000    124.3924      0.0000    649.9325      8.0829
  1525.4000    124.3924      0.0000    649.9325      8.0829
  1525.5000    127.3373      0.0000    666.2698      7.9855
  1525.6000    127.3373      0.0000    666.2698      7.9855
  1525.7000    127.3373      0.0000    666.2698      7.9855
  1525.8000    132.0220      0.0000    690.3501      7.8935
  1525.9000    132.0220      0.0000    690.3501      7.8935
  1526.0000    135.7547      0.0000    715.4597      7.8484
  1526.1000    135.7547      0.0000    715.4597      7.8484
  1526.2000    135.7547      0.0000    715.4597      7.8484
  1526.3000    136.6745      0.0000    735.2126      7.8700
  1526.4000    136.6745      0.0000    735.2126      7.8700
  1526.5000    134.8696      0.0000    747.3203      7.9525
  1526.6000    134.8696      0.0000    747.3203      7.9525
  1526.7000    134.8696      0.0000    747.3203      7.9525
  1526.8000    131.9142      0.0000    752.4779      8.0705
  1526.9000    131.9142      0.0000    752.4779      8.0705
  1527.0000    129.5148      0.0000    752.1372      8.1924
  1527.1000    129.5148      0.0000    752.1372      8.1924
  1527.2000    129.5148      0.0000    752.1372      8.1924
  1527.3000    128.4326      0.0000    747.6432      8.2950
  1527.4000    128.4326      0.0000    747.6432      8.2950
  1527.5000    128.1481      0.0000    740.1369      8.3709
  1527.6000    128.1481      0.0000    740.1369      8.3709
  1527.7000    128.1481      0.0000    740.1369      8.3709
  1527.8000    127.4572      0.0000    730.9233      8.4296
  1527.9000    127.4572      0.0000    730.9233      8.4296
  1528.0000    125.6924      0.0000    722.2222      8.4948
  1528.1000    125.6924      0.0000    722.2222      8.4948
  1528.2000    125.6924      0.0000    722.2222      8.4948
  1528.3000    123.3273      0.0000    717.1362      8.5974
  1528.4000    123.3273      0.0000    717.1362      8.5974
  1528.5000    121.1446      0.0000    717.8973      8.7624
  1528.6000    121.1446      0.0000    717.8973      8.7624
