~Version Information
VERS.                      2.0: CWLS Log ASCII Standard - VERSION 2.0
WRAP.                       NO: One line per depth step
~Well Information Block
STRT.FT               679.2000: 
STOP.FT              2289.5000: 
STEP.FT                 0.1000: 
NULL.                -999.2500: 
COMP.          Petrogulf Corporation: COMPANY
WELL.          Anderson 18-43V: WELL
FLD.           Purgatorie River: FIELD
LOC.           1782' FSL & 887' FEL: LOCATION
CNTY.               Las Animas: COUNTY
SRVC.                         : SERVICE COMPANY
DATE.          Thu Sep 02 08:33:50 2004: LOG DATE
UWI.           05 071 08156 00: UNIQUE WELL ID
STAT.                 Colorado: STATE
~Curve Information Block
DEPT.FT            0 000 00 00: Depth
GR.GAPI                       : Gamma Ray
DCAL.in                       : CDL Caliper
DPOR.pu                       : CDL Density Porosity
NPOR.pu                       : Neutron Porosity
RHOB.g/cc                     : CDL Bulk Density
RHOC.g/cc                     : CDL Density Correction
~Parameter Information Block
~A  Depth        GR         DCAL        DPOR        NPOR        RHOB        RHOC    
# ...
  1744.8000     52.7785      8.0828     17.7863      9.4638      2.3565      0.0892
  1744.9000     53.2629      8.0828     17.7381      9.7163      2.3573      0.0533
  1745.0000     53.8876      8.0814     17.3352      9.6720      2.3640      0.0518
  1745.1000     54.6048      8.0814     16.9691      9.5524      2.3700      0.0934
  1745.2000     55.3789      8.0814     17.5229      9.8619      2.3609      0.0864
  1745.3000     56.1840      8.0814     18.1882     10.2997      2.3499      0.0126
  1745.4000     57.0056      8.0814     17.7160     10.7233      2.3577      0.0628
  1745.5000     57.8368      8.0800     16.8807     11.3212      2.3715      0.0636
  1745.6000     58.6746      8.0800     16.9468     11.8088      2.3704      0.0562
  1745.7000     59.5201      8.0800     17.7147     11.8623      2.3577      0.0587
  1745.8000     60.3736      8.0806     18.3379     11.9868      2.3474      0.0462
  1745.9000     61.2375      8.0806     18.4184     12.6603      2.3461      0.0432
  1746.0000     62.1155      8.0807     17.9307     13.4774      2.3541      0.0320
  1746.1000     63.0130      8.0807     17.1495     13.7786      2.3670      0.0599
  1746.2000     63.9397      8.0807     16.4859     13.5925      2.3780      0.0459
  1746.3000     64.9098      8.0811     15.8771     13.5463      2.3880      0.0355
  1746.4000     65.9419      8.0811     15.2972     13.7861      2.3976      0.0566
  1746.5000     67.0623      8.0807     15.2629     13.8615      2.3982      0.0581
  1746.6000     68.2987      8.0807     15.5760     13.5506      2.3930      0.0308
  1746.7000     69.6858      8.0807     15.4898     13.0748      2.3944      0.0495
  1746.8000     71.2610      8.0807     15.1393     12.9178      2.4002      0.0159
  1746.9000     73.0631      8.0807     14.9182     13.3453      2.4038      0.0439
  1747.0000     75.1367      8.0810     14.6363     14.0068      2.4085      0.0436
  1747.1000     77.5312      8.0810     14.1238     14.4344      2.4170      0.0717
  1747.2000     80.3066      8.0810     13.4624     14.6096      2.4279      0.0538
  1747.3000     83.5320      8.0801     12.6823     14.5807      2.4407      0.0544
  1747.4000     87.2873      8.0801     12.1430     14.4125      2.4496      0.0800
  1747.5000     91.6560      8.0812     12.1363     14.7117      2.4498      0.0707
  1747.6000     96.7180      8.0812     12.0867     15.8778      2.4506      0.0713
  1747.7000    102.5341      8.0812     11.4389     17.3031      2.4613      0.0823
  1747.8000    109.1303      8.0796     10.1236     18.3827      2.4830      0.0848
  1747.9000    116.4776      8.0796      8.2513     19.1593      2.5139      0.1425
  1748.0000    124.4820      8.0797      6.4173     19.7750      2.5441      0.1530
  1748.1000    132.9771      8.0797      5.2351     20.4060      2.5636      0.0986
  1748.2000    141.7225      8.0797      4.3110     21.4038      2.5789      0.0969
  1748.3000    150.4204      8.0801      3.2104     22.7315      2.5970      0.1307
  1748.4000    158.7368      8.0801      2.7591     23.7092      2.6045      0.1389
  1748.5000    166.3276      8.0794      3.2918     24.0728      2.5957      0.0840
  1748.6000    172.8701      8.0794      3.9234     24.4146      2.5853      0.0345
  1748.7000    178.0906      8.0794      4.5112     25.0438      2.5756      0.0836
  1748.8000    181.7865      8.0798      5.6194     25.4600      2.5573      0.0424
  1748.9000    183.8368      8.0798      6.9077     25.3871      2.5360      0.0096
  1749.0000    184.2059      8.0805      7.5556     24.8534      2.5253     -0.0180
  1749.1000    182.9356      8.0805      7.6696     23.9159      2.5235      0.0348
  1749.2000    180.1363      8.0805      8.0391     22.9687      2.5174      0.0028
  1749.3000    175.9682      8.0802      8.6476     22.2678      2.5073      0.0115
  1749.4000    170.6298      8.0802      8.8163     21.5434      2.5045      0.0124
  1749.5000    164.3406      8.0799      8.8077     20.7398      2.5047      0.0706
  1749.6000    157.3338      8.0799      9.8102     20.0362      2.4881      0.0413
  1749.7000    149.8460      8.0799     12.0365     19.1812      2.4514      0.0361
  1749.8000    142.1099      8.0808     14.3626     17.8571      2.4130      0.0022
  1749.9000    134.3511      8.0808     15.7533     16.5498      2.3901      0.0354
  1750.0000    126.7789      8.0825     16.2026     15.9053      2.3827      0.0199
  1750.1000    119.5819      8.0825     16.2369     15.5751      2.3821      0.0334
  1750.2000    112.9200      8.0825     16.2172     14.7794      2.3824      0.0470
  1750.3000    106.9189      8.0806     16.1478     13.7580      2.3836      0.0481
  1750.4000    101.6650      8.0806     15.8559     13.2050      2.3884      0.0335
  1750.5000     97.2025      8.0808     15.0234     12.9483      2.4021      0.0106
  1750.6000     93.5321      8.0808     13.6792     12.5298      2.4243      0.0764
  1750.7000     90.6172      8.0808     12.7378     12.1047      2.4398      0.0862
  1750.8000     88.3842      8.0819     12.8036     11.9360      2.4387      0.0445
  1750.9000     86.7371      8.0819     13.3575     11.8087      2.4296      0.0261
  1751.0000     85.5654      8.0786     13.6359     11.7508      2.4250      0.0294
  1751.1000     84.7500      8.0786     13.4569     11.9929      2.4280      0.0515
  1751.2000     84.1758      8.0786     13.1237     12.2455      2.4335      0.0264
  1751.3000     83.7363      8.0802     13.0433     12.1497      2.4348      0.0474
  1751.4000     83.3436      8.0802     13.3969     11.7775      2.4290      0.0317
  1751.5000     82.9286      8.0818     13.8800     11.5220      2.4210      0.0320
  1751.6000     82.4493      8.0818     14.0553     11.6467      2.4181      0.0218
  1751.7000     81.8919      8.0818     13.7883     11.8849      2.4225      0.0457
  1751.8000     81.2664      8.0814     13.4443     11.9192      2.4282      0.0577
  1751.9000     80.6121      8.0814     13.5654     11.9125      2.4262      0.0817
  1752.0000     79.9878      8.0820     14.1980     12.1117      2.4157      0.0435
  1752.1000     79.4672      8.0820     14.9689     12.4367      2.4030      0.0478
  1752.2000     79.1276      8.0820     15.5951     12.5408      2.3927      0.0278
  1752.3000     79.0437      8.0819     16.0802     12.3320      2.3847      0.0154
  1752.4000     79.2745      8.0819     16.4881     12.1243      2.3779      0.0268
  1752.5000     79.8569      8.0804     16.6980     12.0901      2.3745      0.0214
  1752.6000     80.8013      8.0804     16.6586     12.1098      2.3751      0.0183
  1752.7000     82.0856      8.0804     16.6706     12.3166      2.3749      0.0434
  1752.8000     83.6605      8.0801     16.8893     12.8178      2.3713      0.0222
  1752.9000     85.4462      8.0801     16.4639     13.4601      2.3783      0.0258
  1753.0000     87.3454      8.0794     14.8684     14.1570      2.4047      0.0853
  1753.1000     89.2469      8.0794     13.2448     14.5868      2.4315      0.1061
  1753.2000     91.0363      8.0794     12.5448     14.4970      2.4430      0.0562
  1753.3000     92.6056      8.0797     12.4431     14.3198      2.4447      0.0707
  1753.4000     93.8654      8.0797     12.4328     14.3351      2.4449      0.0588
  1753.5000     94.7520      8.0798     11.9620     14.2532      2.4526      0.0597
  1753.6000     95.2362      8.0798     10.8574     13.9841      2.4709      0.0360
  1753.7000     95.3253      8.0798     10.1438     13.7477      2.4826      0.0875
  1753.8000     95.0641      8.0805     10.9419     13.6582      2.4695      0.0488
  1753.9000     94.5271      8.0805     12.8853     13.7150      2.4374      0.0222
  1754.0000     93.8093      8.0814     14.8365     13.7624      2.4052      0.0135
  1754.1000     93.0126      8.0814     15.9130     13.6520      2.3874     -0.0019
  1754.2000     92.2302      8.0814     16.0469     13.5018      2.3852      0.0482
  1754.3000     91.5321      8.0895     15.8055     13.4277      2.3892      0.0457
