~Version Information
VERS.                      2.0: CWLS Log ASCII Standard - VERSION 2.0
WRAP.                       NO: One line per depth step
~Well Information Block
STRT.FT               260.0000: 
STOP.FT              2272.0000: 
STEP.FT                 0.2500: 
NULL.                -999.2500: 
COMP.          Pioneer Natural Resources: COMPANY
WELL.            Moo Moo 31-36: WELL
FLD.           Purgatoire River: FIELD
LOC.           612' FNL & 2326' FEL: LOCATION
PROV.                 Colorado: PROVINCE
CNTY.               Las Animas: COUNTRY
SRVC.                Patterson: SERVICE COMPANY
DATE.          Fri Jun 17 07:45:39 2005: LOG DATE
UWI.           05 071 08395 00: UNIQUE WELL ID
~Curve Information Block
DEPT.FT            0 000 00 00: Depth
DIR.Ohm-m                     : IEL Induction Resistivity
SN.Ohm-m                      : IEL Short Normal
SP.mV                         : IEL Spontaneous Potential
GR.GAPI                       : Gamma Ray
~Parameter Information Block
~A  Depth       DIR          SN          SP          GR     
# ...
  2102.5000     18.8614     22.3921    218.2682     78.9110
  2102.7500     18.6533     21.9398    219.2175     80.5789
  2103.0000     18.4672     21.0257    220.1512     84.0485
  2103.2500     18.3441     19.6702    220.7886     86.8045
  2103.5000     18.3129     18.1763    221.0029     91.0212
  2103.7500     18.3717     16.9758    220.8453     93.5032
  2104.0000     18.4871     16.3948    220.4554     96.0380
  2104.2500     18.6123     16.5454    219.9719     96.5806
  2104.5000     18.7114     17.3058    219.5082     95.3152
  2104.7500     18.7726     18.3798    219.1531     93.1044
  2105.0000     18.8046     19.4437    218.9450     88.2611
  2105.2500     18.8260     20.2998    218.8493     84.5487
  2105.5000     18.8598     20.9740    218.7962     79.2114
  2105.7500     18.9320     21.6379    218.7541     76.1610
  2106.0000     19.0698     22.3816    218.7556     72.4021
  2106.2500     19.2934     23.1461    218.8559     70.2383
  2106.5000     19.6055     23.8421    219.0797     67.1406
  2106.7500     19.9874     24.4123    219.4128     65.1236
  2107.0000     20.4076     24.8164    219.8335     62.4227
  2107.2500     20.8370     25.0423    220.3423     61.0901
  2107.5000     21.2566     25.1278    220.9646     60.1860
  2107.7500     21.6488     25.1432    221.7188     60.3761
  2108.0000     21.9851     25.1425    222.5709     61.4066
  2108.2500     22.2301     25.1152    223.4230     62.0692
  2108.5000     22.3659     25.0197    224.1646     62.3603
  2108.7500     22.4110     24.8633    224.7411     62.1156
  2109.0000     22.4107     24.6736    225.1743     61.6532
  2109.2500     22.4079     24.4223    225.5280     61.6409
  2109.5000     22.4238     24.0843    225.8620     62.3951
  2109.7500     22.4645     23.7529    226.2046     63.3087
  2110.0000     22.5369     23.5671    226.5473     64.6483
  2110.2500     22.6536     23.5720    226.8583     65.1582
  2110.5000     22.8177     23.7271    227.1049     65.2919
  2110.7500     23.0056     23.9504    227.2751     65.2313
  2111.0000     23.1690     24.1572    227.3907     65.4163
  2111.2500     23.2602     24.3141    227.5083     65.8153
  2111.5000     23.2596     24.4150    227.7029     66.5467
  2111.7500     23.1796     24.4373    228.0358     66.8540
  2112.0000     23.0439     24.3904    228.5159     66.7871
  2112.2500     22.8666     24.3139    229.0734     66.4288
  2112.5000     22.6505     24.1791    229.5800     65.6641
  2112.7500     22.4007     23.9233    229.9216     65.2304
  2113.0000     22.1359     23.5682    230.0717     65.2872
  2113.2500     21.8869     23.2032    230.0950     66.0847
  2113.5000     21.6816     22.8832    230.0833     68.2033
  2113.7500     21.5277     22.6019    230.0885     69.6397
  2114.0000     21.4068     22.3749    230.1022     70.7152
  2114.2500     21.2868     22.2650    230.0760     70.4255
  2114.5000     21.1457     22.2578    229.9518     68.7890
  2114.7500     20.9905     22.2336    229.6831     67.3665
  2115.0000     20.8575     22.1293    229.2496     65.5809
  2115.2500     20.7941     21.9969    228.6631     64.9005
  2115.5000     20.8342     21.9105    227.9577     64.4280
  2115.7500     20.9808     21.9209    227.1752     64.0268
  2116.0000     21.2034     22.0306    226.3620     62.7586
  2116.2500     21.4549     22.1757    225.5704     61.6716
  2116.5000     21.6989     22.3083    224.8368     60.5638
  2116.7500     21.9259     22.4594    224.1434     60.4087
  2117.0000     22.1471     22.6770    223.4002     60.5138
  2117.2500     22.3722     22.9762    222.4552     60.3559
  2117.5000     22.5976     23.3382    221.1280     59.6642
  2117.7500     22.8126     23.7045    219.2755     59.1938
  2118.0000     23.0169     24.0127    216.8674     58.8678
  2118.2500     23.2283     24.2477    214.0111     58.8381
  2118.5000     23.4739     24.4349    210.9082     58.7553
  2118.7500     23.7708     24.6070    207.7858     58.6818
  2119.0000     24.1113     24.7797    204.8479     58.9891
  2119.2500     24.4624     24.9416    202.2451     59.6569
  2119.5000     24.7818     25.0946    200.0535     60.9403
  2119.7500     25.0431     25.2766    198.2754     61.4388
  2120.0000     25.2507     25.4981    196.8711     61.0584
  2120.2500     25.4333     25.7336    195.8025     60.2623
  2120.5000     25.6207     25.9690    195.0500     59.3956
  2120.7500     25.8256     26.2113    194.5879     59.6759
  2121.0000     26.0428     26.4718    194.3564     61.5002
  2121.2500     26.2606     26.7500    194.2702     63.0615
  2121.5000     26.4706     27.0691    194.2620     64.5863
  2121.7500     26.6694     27.4933    194.3135     64.6631
  2122.0000     26.8590     28.0607    194.4397     63.6965
  2122.2500     27.0545     28.7488    194.6472     62.8179
  2122.5000     27.2893     29.5089    194.9197     61.6262
  2122.7500     27.6056     30.2961    195.2441     60.7829
  2123.0000     28.0320     31.0769    195.6263     59.0015
  2123.2500     28.5674     31.8339    196.0560     57.5043
  2123.5000     29.1855     32.5971    196.4613     55.3696
  2123.7500     29.8525     33.4356    196.7299     54.2329
  2124.0000     30.5387     34.3696    196.7906     52.6161
  2124.2500     31.2106     35.3385    196.6785     51.2085
  2124.5000     31.8242     36.2757    196.5249     48.4460
  2124.7500     32.3345     37.1436    196.4874     46.5860
  2125.0000     32.7234     37.8992    196.6596     44.9702
  2125.2500     33.0234     38.4885    197.0131     45.2603
  2125.5000     33.3133     38.8689    197.4320     48.1840
  2125.7500     33.6758     38.9868    197.8430     51.7972
  2126.0000     34.1376     38.7996    198.3284     59.2707
  2126.2500     34.6259     38.3987    199.0987     64.7998
  2126.5000     34.9797     37.9959    200.3474     71.4032
  2126.7500     35.0250     37.6994    202.1310     73.2477
  2127.0000     34.6624     37.4248    204.3491     71.6292
  2127.2500     33.8944     37.1011    206.7967     68.6705
  2127.5000     32.7828     36.8343    209.2489     64.0416
  2127.7500     31.4027     36.7616    211.5530     61.8433
  2128.0000     29.8399     36.8333    213.6710     60.3727
  2128.2500     28.2027     36.7927    215.6282     60.6698
  2128.5000     26.6042     36.3110    217.4281     63.2796
  2128.7500     25.1222     35.1419    219.0415     66.4661
  2129.0000     23.7768     33.2435    220.4600     72.7884
  2129.2500     22.5417     30.8349    221.7160     77.4791
  2129.5000     21.3768     28.2864    222.8383     84.5280
  2129.7500     20.2540     25.8898    223.8105     89.1005
  2130.0000     19.1663     23.7691    224.5854     95.9078
  2130.2500     18.1234     21.9688    225.1400    100.5211
  2130.5000     17.1426     20.4947    225.5255    107.3738
  2130.7500     16.2426     19.3131    225.8763    111.5480
  2131.0000     15.4378     18.3787    226.3598    116.4965
  2131.2500     14.7365     17.6052    227.0893    118.5650
  2131.5000     14.1397     16.8798    228.0525    119.4767
  2131.7500     13.6415     16.2088    229.1066    118.6966
  2132.0000     13.2302     15.7137    230.0547    116.1829
  2132.2500     12.8925     15.4434    230.7582    114.2437
  2132.5000     12.6191     15.3445    231.2021    111.7994
  2132.7500     12.4087     15.3522    231.4693    110.7065
  2133.0000     12.2645     15.4057    231.6621    110.1103
  2133.2500     12.1878     15.4373    231.8449    110.5470
  2133.5000     12.1722     15.4214    232.0348    112.2138
  2133.7500     12.2043     15.4160    232.2266    113.4671
  2134.0000     12.2674     15.4745    232.4159    114.7851
  2134.2500     12.3476     15.5712    232.6057    115.3247
  2134.5000     12.4370     15.6779    232.8017    116.0238
  2134.7500     12.5344     15.8141    232.9973    116.2991
  2135.0000     12.6436     15.9529    233.1566    115.6770
  2135.2500     12.7703     15.9865    233.2211    114.4199
  2135.5000     12.9193     15.8652    233.1480    112.1958
  2135.7500     13.0935     15.6903    232.9409    111.3826
