~Version Information
VERS.                      2.0: CWLS Log ASCII Standard - VERSION 2.0
WRAP.                       NO: One line per depth step
~Well Information Block
STRT.FT               472.0000: 
STOP.FT              2641.5000: 
STEP.FT                 0.1000: 
NULL.                -999.2500: 
COMP.          Pioneer Natural Resources: COMPANY
WELL.              Wagner 13-9: WELL
FLD.           Purgatoire River: FIELD
LOC.           1819' FSL & 1111' FWL: LOCATION
PROV.                 Colorado: PROVINCE
CNTY.               Las Animas: COUNTRY
SRVC.                Patterson: SERVICE COMPANY
DATE.          Tue Apr 19 08:56:38 2005: LOG DATE
UWI.           05 071 08302 00: UNIQUE WELL ID
~Curve Information Block
DEPT.FT            0 000 00 00: Depth
DCAL.in                       : CDL Caliper
RHOB.g/cc                     : CDL Bulk Density
RHOC.g/cc                     : CDL Density Correction
DPOR.pu                       : CDL Density Porosity
GR.GAPI                       : Gamma Ray
NPOR.pu                       : Neutron Porosity
~Parameter Information Block
~A  Depth       DCAL        RHOB        RHOC        DPOR         GR         NPOR    
# ...
  1192.0000      7.9238      2.4080      0.0429     14.6663    139.7556     23.6149
  1192.1000      7.9238      2.3661      0.0193     17.2069    132.2459     22.3068
  1192.2000      7.9238      2.3070      0.0498     20.7890    126.2161     21.6169
  1192.3000      7.9003      2.2161      0.0163     26.2990    126.7782     21.6924
  1192.4000      7.9003      2.1064     -0.0698     32.9449    130.4694     22.3990
  1192.5000      7.8994      2.0260     -0.0833     37.8152    134.7965     23.4762
  1192.6000      7.8994      2.0025     -0.0253     39.2442    136.8476     24.9725
  1192.7000      7.8994      2.0254     -0.0057     37.8553    132.8367     26.6405
  1192.8000      7.9002      2.0803      0.0412     34.5271    125.9753     27.9572
  1192.9000      7.9002      2.1588      0.1361     29.7693    121.9028     28.9411
  1193.0000      7.9007      2.2460      0.2799     24.4878    120.8040     29.8886
  1193.1000      7.9007      2.3255      0.2513     19.6639    119.0304     31.0626
  1193.2000      7.9007      2.3957      0.2317     15.4108    114.3949     32.2617
  1193.3000      7.9004      2.4639      0.2411     11.2787    107.7015     32.4587
  1193.4000      7.9004      2.5338      0.1644      7.0417    101.7104     31.6934
  1193.5000      7.8999      2.5951      0.1676      3.3293     98.8549     31.1257
  1193.6000      7.8999      2.6288      0.0968      1.2832     98.1104     30.5829
  1193.7000      7.8999      2.6332      0.1105      1.0192     95.1867     29.7474
  1193.8000      7.8991      2.6244      0.0439      1.5496     86.7308     29.0674
  1193.9000      7.8991      2.6172      0.0569      1.9881     76.1749     28.3363
  1194.0000      7.8979      2.6095      0.0567      2.4560     71.2359     27.2969
  1194.1000      7.8979      2.5914      0.0591      3.5524     74.0398     26.2612
  1194.2000      7.8979      2.5687      0.0444      4.9302     79.0200     25.4779
  1194.3000      7.8971      2.5670     -0.0062      5.0301     84.3808     24.9737
  1194.4000      7.8971      2.5880      0.1200      3.7569     91.8145     25.0041
  1194.5000      7.8971      2.5999      0.0951      3.0335     98.3191     25.6426
  1194.6000      7.8971      2.5961      0.0742      3.2657     99.8965     26.3454
  1194.7000      7.8971      2.5916      0.1075      3.5400     98.5022     26.7575
  1194.8000      7.8991      2.5827      0.1136      4.0806    102.0371     27.4031
  1194.9000      7.8991      2.5673      0.0751      5.0142    113.9447     28.4829
  1195.0000      7.9015      2.5739      0.0411      4.6093    128.4397     29.3769
  1195.1000      7.9015      2.6298      0.0607      1.2222    137.9990     29.9892
  1195.2000      7.9015      2.7128      0.1009     -3.8046    139.8069     30.5353
  1195.3000      7.8998      2.7741      0.1339     -7.5233    136.0942     30.8798
  1195.4000      7.8998      2.8009      0.1167     -9.1478    130.6364     31.1858
  1195.5000      7.8974      2.8167      0.1113    -10.1036    126.9834     31.4694
  1195.6000      7.8974      2.8258      0.1753    -10.6534    124.5191     31.3754
  1195.7000      7.8974      2.8148      0.1090     -9.9906    118.4869     31.3392
  1195.8000      7.8963      2.8011      0.0355     -9.1581    112.0832     31.7163
  1195.9000      7.8963      2.8019      0.0102     -9.2031    113.6145     31.7640
  1196.0000      7.8955      2.7853     -0.0205     -8.1982    119.3491     31.1843
  1196.1000      7.8955      2.7267     -0.1728     -4.6470    119.8657     30.8013
  1196.2000      7.8955      2.6549     -0.1362     -0.2998    116.7678     30.7934
  1196.3000      7.8950      2.5980     -0.1460      3.1529    116.8753     30.2099
  1196.4000      7.8950      2.5637     -0.1257      5.2328    118.6812     28.8780
  1196.5000      7.8942      2.5555     -0.0456      5.7272    119.0877     27.7795
  1196.6000      7.8942      2.5582      0.0079      5.5629    121.3328     27.0292
  1196.7000      7.8942      2.5461     -0.0132      6.2994    126.5309     25.6418
  1196.8000      7.8938      2.5183     -0.0562      7.9836    133.2794     23.4996
  1196.9000      7.8938      2.4922     -0.0326      9.5633    141.3744     21.5417
  1197.0000      7.8947      2.4706     -0.0249     10.8747    146.1471     20.1205
  1197.1000      7.8947      2.4466     -0.0284     12.3294    143.0889     19.0137
  1197.2000      7.8947      2.4084     -0.0096     14.6413    136.5520     18.6240
  1197.3000      7.8959      2.3363     -0.0356     19.0142    129.9719     19.3204
  1197.4000      7.8959      2.2356     -0.0813     25.1163    124.7077     20.2794
  1197.5000      7.8973      2.1416     -0.0856     30.8137    123.4588     20.6893
  1197.6000      7.8973      2.0647     -0.0494     35.4747    124.6073     20.8448
  1197.7000      7.8973      1.9832     -0.0635     40.4126    122.7298     21.1599
  1197.8000      7.8984      1.9010     -0.1067     45.3957    117.7611     21.7914
  1197.9000      7.8984      1.8613     -0.1207     47.8010    113.4966     23.0396
  1198.0000      7.8991      1.8971     -0.0185     45.6304    111.0041     24.8053
  1198.1000      7.8991      1.9947      0.1006     39.7169    110.2171     26.4322
  1198.2000      7.8991      2.1141      0.2028     32.4796    109.3001     27.5713
  1198.3000      7.9002      2.2139      0.2899     26.4293    108.6444     28.5692
  1198.4000      7.9002      2.2747      0.1964     22.7480    112.1822     29.7473
  1198.5000      7.9014      2.3247      0.1429     19.7144    118.0419     30.9239
  1198.6000      7.9014      2.3971      0.1890     15.3300    121.6399     31.6266
  1198.7000      7.9014      2.4778      0.1533     10.4364    122.3167     31.4292
  1198.8000      7.9008      2.5293      0.1532      7.3174    118.6966     30.7662
  1198.9000      7.9008      2.5354      0.0718      6.9480    115.8292     30.3110
  1199.0000      7.8998      2.5168      0.0286      8.0753    120.3134     29.9880
  1199.1000      7.8998      2.5064     -0.0018      8.7003    124.5531     29.4862
  1199.2000      7.8998      2.5153      0.0074      8.1628    120.3706     28.8570
  1199.3000      7.8993      2.5341      0.0178      7.0248    114.1023     28.1040
  1199.4000      7.8993      2.5609      0.0302      5.3976    116.2491     27.4741
  1199.5000      7.8983      2.5999      0.0503      3.0362    125.0298     27.4427
  1199.6000      7.8983      2.6340      0.1111      0.9713    129.0993     27.8230
  1199.7000      7.8983      2.6320      0.0799      1.0883    124.6843     27.8908
  1199.8000      7.8972      2.5892      0.0501      3.6829    118.5686     27.5306
  1199.9000      7.8972      2.5359      0.0225      6.9167    115.1406     27.4427
  1200.0000      7.8952      2.5096      0.0186      8.5115    114.1568     27.9756
  1200.1000      7.8952      2.5193      0.0713      7.9182    115.6405     28.7419
  1200.2000      7.8952      2.5564      0.0220      5.6737    116.0808     29.2920
  1200.3000      7.8925      2.6236      0.0442      1.5995    111.7318     29.6636
  1200.4000      7.8925      2.7097      0.0918     -3.6197    106.9343     30.1191
  1200.5000      7.8910      2.7777      0.1488     -7.7385    107.7362     30.3689
  1200.6000      7.8910      2.8096      0.1441     -9.6742    113.5446     30.1561
  1200.7000      7.8910      2.8247      0.1636    -10.5888    118.6172     29.6494
  1200.8000      7.8925      2.8314      0.2077    -10.9919    117.8187     28.9951
  1200.9000      7.8925      2.8114      0.1806     -9.7836    112.5675     28.4556
  1201.0000      7.8943      2.7686      0.0737     -7.1858    108.7586     27.9328
  1201.1000      7.8943      2.7361     -0.0084     -5.2196    109.8679     27.4091
  1201.2000      7.8943      2.7281     -0.0100     -4.7332    112.0967     27.6260
  1201.3000      7.8954      2.7212      0.0088     -4.3152    112.6596     28.7500
  1201.4000      7.8954      2.6858      0.0228     -2.1689    111.5123     29.6571
  1201.5000      7.8962      2.6239      0.0379      1.5821    107.9396     29.3784
