~Version Information
VERS.                      2.0: CWLS Log ASCII Standard - VERSION 2.0
WRAP.                       NO: One line per depth step
~Well Information Block
STRT.FT               650.0000: 
STOP.FT              2085.0000: 
STEP.FT                 0.1000: 
NULL.                -999.2500: 
COMP.          Pioneer Natural Resources: COMPANY
WELL.           Galloway 32-13: WELL
FLD.           Purgatoire River: FIELD
LOC.           1809' FNL & 2004' FEL: LOCATION
PROV.                 Colorado: PROVINCE
CNTY.               Las Animas: COUNTRY
SRVC.                Patterson: SERVICE COMPANY
DATE.          Sat Jul 09 02:17:51 2005: LOG DATE
UWI.           05 071 08423 00: UNIQUE WELL ID
~Curve Information Block
DEPT.FT            0 000 00 00: Depth
DCAL.in                       : CDL Caliper
RHOB.g/cc                     : CDL Bulk Density
RHOC.g/cc                     : CDL Density Correction
DPOR.pu                       : CDL Density Porosity
GR.GAPI                       : Gamma Ray
NPOR.pu                       : Neutron Porosity
~Parameter Information Block
~A  Depth       DCAL        RHOB        RHOC        DPOR         GR         NPOR    
# ...
  1600.4000      7.9360      2.5569      0.0493      5.6412    117.6860     24.2799
  1600.5000      7.9320      2.5783      0.0827      4.3478    107.9506     24.4179
  1600.6000      7.9320      2.6003      0.0744      3.0115    100.1720     24.8223
  1600.7000      7.9320      2.6143      0.0829      2.1649     97.6636     24.8537
  1600.8000      7.9236      2.6122      0.0787      2.2881    104.4759     24.5534
  1600.9000      7.9236      2.5971      0.1348      3.2042    117.5396     24.5602
  1601.0000      7.9209      2.5729      0.0778      4.6710    130.7589     25.0929
  1601.1000      7.9209      2.5435      0.0719      6.4521    139.8961     25.6036
  1601.2000      7.9209      2.5178     -0.0029      8.0128    139.8060     26.1877
  1601.3000      7.9242      2.5088      0.0275      8.5598    132.4181     27.0251
  1601.4000      7.9242      2.5191      0.0512      7.9348    127.3478     26.9168
  1601.5000      7.9285      2.5426     -0.0045      6.5091    126.3574     25.4594
  1601.6000      7.9285      2.5645      0.0888      5.1840    125.8939     23.8700
  1601.7000      7.9285      2.5592      0.0641      5.5011    127.8777     22.8879
  1601.8000      7.9347      2.5234      0.0415      7.6708    132.8445     22.9293
  1601.9000      7.9347      2.4857      0.0282      9.9583    137.5044     24.4563
  1602.0000      7.9428      2.4773     -0.0311     10.4690    140.2293     26.0814
  1602.1000      7.9428      2.4962      0.0653      9.3182    140.0444     26.1246
  1602.2000      7.9428      2.5119      0.0157      8.3693    137.9787     25.1063
  1602.3000      7.9495      2.5148      0.0267      8.1959    137.7036     23.9171
  1602.4000      7.9495      2.5227      0.0357      7.7147    139.6544     23.3047
  1602.5000      7.9525      2.5341      0.0438      7.0223    140.6180     23.8765
  1602.6000      7.9525      2.5221      0.0619      7.7492    136.6892     25.1553
  1602.7000      7.9525      2.4908     -0.0093      9.6499    130.5148     25.8751
  1602.8000      7.9531      2.4813     -0.0175     10.2232    128.3812     25.4465
  1602.9000      7.9531      2.5067      0.0292      8.6829    131.1668     24.8436
  1603.0000      7.9539      2.5439      0.0211      6.4322    137.2038     25.2136
  1603.1000      7.9539      2.5670      0.0955      5.0331    142.6376     26.1963
  1603.2000      7.9539      2.5626      0.0508      5.2972    143.3343     26.4984
  1603.3000      7.9541      2.5439      0.0404      6.4321    140.1275     26.0594
  1603.4000      7.9541      2.5295      0.0598      7.3055    135.1317     25.8400
  1603.5000      7.9551      2.5190      0.0150      7.9374    126.7664     26.2630
  1603.6000      7.9551      2.5126      0.0266      8.3283    116.8232     27.3155
  1603.7000      7.9551      2.5164      0.0353      8.0954    111.8439     27.8801
  1603.8000      7.9566      2.5290      0.0537      7.3307    113.4939     26.6615
  1603.9000      7.9566      2.5425      0.0347      6.5163    118.3933     24.7220
  1604.0000      7.9559      2.5480      0.0404      6.1829    123.0481     23.8907
  1604.1000      7.9559      2.5402      0.0305      6.6574    124.9221     23.9829
  1604.2000      7.9559      2.5218      0.0119      7.7717    126.1319     23.7011
  1604.3000      7.9557      2.4996      0.0264      9.1155    130.1317     23.2605
  1604.4000      7.9557      2.4857     -0.0371      9.9558    135.5119     23.6472
  1604.5000      7.9585      2.4884      0.0033      9.7945    141.8537     25.1389
  1604.6000      7.9585      2.4936      0.0434      9.4780    148.9602     26.6143
  1604.7000      7.9585      2.4917      0.0192      9.5958    149.6878     27.2049
  1604.8000      7.9615      2.4956     -0.0002      9.3598    142.2465     27.5356
  1604.9000      7.9615      2.5140      0.0205      8.2454    136.6201     27.3659
  1605.0000      7.9602      2.5448      0.0314      6.3784    134.7294     26.1159
  1605.1000      7.9602      2.5732      0.1201      4.6540    131.9558     24.7559
  1605.2000      7.9602      2.5732      0.0948      4.6556    129.1039     24.1814
  1605.3000      7.9545      2.5433      0.0612      6.4652    126.2692     24.4682
  1605.4000      7.9545      2.5077      0.0489      8.6224    125.0481     25.4496
  1605.5000      7.9493      2.4868      0.0288      9.8904    128.3529     26.4907
  1605.6000      7.9493      2.4837      0.0395     10.0803    130.6226     26.7223
  1605.7000      7.9493      2.4935      0.0149      9.4826    128.2858     25.9814
  1605.8000      7.9463      2.5147      0.0398      8.1994    126.4556     24.5210
  1605.9000      7.9463      2.5371      0.0860      6.8412    125.8809     23.3316
  1606.0000      7.9460      2.5399      0.0583      6.6706    124.6586     23.5175
  1606.1000      7.9460      2.5222      0.0292      7.7482    125.9318     24.7177
  1606.2000      7.9460      2.5088      0.0066      8.5586    129.3240     25.6156
  1606.3000      7.9466      2.5139     -0.0189      8.2515    128.9417     25.3178
  1606.4000      7.9466      2.5267     -0.0083      7.4716    122.8020     24.0675
  1606.5000      7.9457      2.5295      0.0525      7.3055    116.1607     22.8702
  1606.6000      7.9457      2.5177      0.0290      8.0184    114.3929     22.4387
  1606.7000      7.9457      2.5113     -0.0303      8.4084    113.2998     22.9181
  1606.8000      7.9435      2.5224      0.0235      7.7341    107.0932     23.5790
  1606.9000      7.9435      2.5350      0.0920      6.9673     99.0464     23.1522
  1607.0000      7.9404      2.5395      0.0045      6.6969     93.7524     21.5673
  1607.1000      7.9404      2.5365      0.0477      6.8776     90.3897     19.5609
  1607.2000      7.9404      2.5237     -0.0019      7.6565     88.2319     17.9694
  1607.3000      7.9372      2.5181     -0.0371      7.9964     86.5031     17.6026
  1607.4000      7.9372      2.5295      0.0828      7.3000     83.2919     18.3080
  1607.5000      7.9368      2.5342      0.0373      7.0177     83.8594     18.9897
  1607.6000      7.9368      2.5167      0.0582      8.0798     94.0243     19.0278
  1607.7000      7.9368      2.4875     -0.0055      9.8500    106.4949     19.5200
  1607.8000      7.9410      2.4684     -0.0212     11.0064    109.9481     21.2154
  1607.9000      7.9410      2.4745     -0.0203     10.6390    103.9827     22.3504
  1608.0000      7.9523      2.5036     -0.0041      8.8754     96.6405     21.3876
  1608.1000      7.9523      2.5394      0.0466      6.7023     92.4088     19.4970
  1608.2000      7.9523      2.5621      0.0755      5.3250     90.7506     17.9958
  1608.3000      7.9601      2.5652      0.0736      5.1382     91.3342     17.4556
  1608.4000      7.9601      2.5495      0.0491      6.0908     93.7505     18.1103
  1608.5000      7.9580      2.5191      0.0459      7.9313     96.0202     18.8888
  1608.6000      7.9580      2.4908      0.0209      9.6471     95.9300     18.7964
  1608.7000      7.9580      2.4878      0.0152      9.8329     94.4472     18.7877
  1608.8000      7.9620      2.5121      0.0314      8.3589     96.5348     19.8134
  1608.9000      7.9620      2.5371      0.0665      6.8417    101.6921     21.0676
  1609.0000      7.9710      2.5381      0.0681      6.7816    102.4789     21.1208
  1609.1000      7.9710      2.5224      0.0107      7.7307     94.5841     20.1710
  1609.2000      7.9710      2.5161      0.0124      8.1160     81.0596     19.2449
  1609.3000      7.9674      2.5208      0.0540      7.8302     69.8153     19.0301
  1609.4000      7.9674      2.5219      0.0646      7.7664     67.5387     19.3762
  1609.5000      7.9551      2.5229      0.0507      7.7032     70.3835     19.1822
  1609.6000      7.9551      2.5272      0.1051      7.4420     70.8660     18.0149
  1609.7000      7.9551      2.5206      0.0676      7.8405     69.4336     16.8680
  1609.8000      7.9520      2.5037      0.0226      8.8667     67.7193     16.6340
  1609.9000      7.9520      2.5016     -0.0001      8.9965     65.1973     17.0106
