~Version Information
 VERS.                                  2.0 : CWLS LAS VERSION
 WRAP.                                   NO : WRAPING MODE
 SWARE .                 MController 2.5.0I : SOFTWARE VERSION
~Well Information
 WELL.                        Montoya 6-14v : WELL
 COMP.                       Petrogulf Corp : COMPANY
 FLD.                      Purgatorie River : FIELD
 LOC.                 SW/SW Sec 6 T33S R67W : LOCATION
 DATE.                              8/12/04 : DATE(S) LOGGED
 SRVC.       Blanco Geological Services LLC : SERVICE COMPANY
 STAT.                                   CO : STATE
 CNTY.                           Las Animas : COUNTY
 CTRY.                                  USA : COUNTRY
 API.                       05-071-08070-00 : API NUMBER
 STRT.FT                             803.00 : START DEPTH
 STOP.FT                            2673.00 : STOP DEPTH
 STEP.FT                               1.00 : DEPTH INCREMENT
 NULL.                                -9999 : NULL VALUE
~Curve information
 DEPTH.FT                                   :
 ROP.MIN/FT                                 :
 GAS.UNITS                                  :
~ASCII Log data
# ...
      1603.0          0.4          4.4 
      1604.0          0.3          4.2 
      1605.0          0.4          4.4 
      1606.0          0.4          4.2 
      1607.0          0.4          4.1 
      1608.0          0.5          3.9 
      1609.0          0.3          3.8 
      1610.0          0.3          4.0 
      1611.0          0.4          3.9 
      1612.0          0.4          3.8 
      1613.0          0.4          4.0 
      1614.0          0.4          6.1 
      1615.0          0.3          9.0 
      1616.0          0.2          8.3 
      1617.0          0.2          4.8 
      1618.0          0.2          2.8 
      1619.0          0.3          1.9 
      1620.0          3.8         25.3 
      1621.0          0.4         15.0 
      1622.0          0.4         11.8 
      1623.0          0.4          9.4 
      1624.0          0.4          8.2 
      1625.0          0.3          5.8 
      1626.0          0.3          4.6 
      1627.0          0.3          4.2 
      1628.0          0.3          4.3 
      1629.0          0.3          4.4 
      1630.0          0.3          4.5 
      1631.0          0.2          4.7 
      1632.0          0.2          4.7 
      1633.0          0.3          4.5 
      1634.0          0.2          4.5 
      1635.0          0.3          4.8 
      1636.0          0.3          4.5 
      1637.0          0.3          4.8 
      1638.0          0.3          4.5 
      1639.0          0.3          4.2 
      1640.0          0.3          4.1 
      1641.0          0.3          4.0 
      1642.0          0.3          4.0 
      1643.0          0.4          4.0 
      1644.0          0.3          4.0 
      1645.0          0.2          4.1 
      1646.0          0.3          4.0 
      1647.0          0.4          4.5 
      1648.0          0.4          4.1 
      1649.0          0.4          2.7 
      1650.0          5.2          2.8 
      1651.0          0.3          2.1 
      1652.0          0.5          2.1 
      1653.0          0.3          2.1 
      1654.0          0.3          2.2 
      1655.0          0.4          2.0 
      1656.0          0.3          2.0 
      1657.0          0.3          2.1 
      1658.0          0.4          2.1 
      1659.0          0.3          2.2 
      1660.0          0.5          2.3 
      1661.0          0.5          2.1 
      1662.0          0.5          2.0 
      1663.0          0.5          2.0 
      1664.0          0.5          2.1 
      1665.0          0.6          2.1 
      1666.0          0.5          2.1 
      1667.0          0.2          2.1 
      1668.0          0.3          2.0 
      1669.0          0.2          2.1 
      1670.0          0.3          2.1 
      1671.0          0.3          2.0 
      1672.0          0.3          2.0 
      1673.0          0.4          2.3 
      1674.0          0.5          2.1 
      1675.0          0.4          2.2 
      1676.0          0.3          2.2 
      1677.0          0.3          2.1 
      1678.0          0.5          2.1 
      1679.0          0.5          2.1 
      1680.0          6.1          2.7 
      1681.0          0.4          2.5 
      1682.0          0.2          2.4 
      1683.0          0.4          2.7 
      1684.0          0.4          2.5 
      1685.0          0.4          2.5 
      1686.0          0.3          2.7 
      1687.0          0.3          2.4 
      1688.0          0.3          2.6 
      1689.0          0.4          2.6 
      1690.0          0.4          2.6 
      1691.0          0.4          2.5 
      1692.0          0.3          2.6 
      1693.0          0.2          2.7 
      1694.0          0.2          2.8 
      1695.0          0.2          3.3 
      1696.0          0.3          3.7 
      1697.0          0.3          4.3 
      1698.0          0.2          5.1 
      1699.0          0.3          5.5 
      1700.0          0.3          5.6 
      1701.0          0.3          5.5 
      1702.0          0.4          5.5 
      1703.0          0.3          5.6 
      1704.0          0.4          5.4 
      1705.0          0.4          5.5 
      1706.0          0.4          5.7 
      1707.0          0.5          5.7 
      1708.0          0.6         10.2 
      1709.0          0.5          9.7 
      1710.0          5.3         20.6 
      1711.0          0.7          9.8 
      1712.0          0.6          7.1 
      1713.0          0.5          5.5 
      1714.0          0.5          5.7 
      1715.0          0.4          5.3 
      1716.0          0.4          5.4 
      1717.0          0.4          5.3 
      1718.0          0.5          5.9 
      1719.0          0.4          6.0 
      1720.0          0.4          5.7 
      1721.0          0.3          6.1 
      1722.0          0.3          5.9 
      1723.0          0.3          5.8 
      1724.0          0.4          6.0 
      1725.0          0.4          6.0 
      1726.0          0.3          6.1 
      1727.0          0.3          6.4 
      1728.0          0.1          6.3 
      1729.0          0.4          6.6 
      1730.0          0.6          6.7 
      1731.0          0.4          6.9 
      1732.0          0.4          7.1 
      1733.0          0.4          6.6 
      1734.0          0.4          6.7 
      1735.0          0.4          6.8 
      1736.0          0.3          6.4 
      1737.0          0.5         11.2 
      1738.0          0.4         11.1 
      1739.0          0.3          6.4 
      1740.0          6.4         42.3 
      1741.0          0.5          6.4 
      1742.0          0.4          6.1 
      1743.0          0.5          6.2 
      1744.0          0.5          6.2 
      1745.0          0.4          6.5 
      1746.0          0.4          6.6 
      1747.0          0.4          6.6 
      1748.0          0.4          7.0 
      1749.0          0.4          6.9 
      1750.0          0.5          6.7 
      1751.0          0.6          6.9 
      1752.0          0.4          6.6 
      1753.0          0.4          6.3 
      1754.0          0.4          6.5 
      1755.0          0.4          6.6 
      1756.0          0.4          6.9 
      1757.0          0.4          7.0 
      1758.0          0.4          6.7 
      1759.0          0.3          6.7 
      1760.0          0.3          6.3 
      1761.0          0.2          5.9 
      1762.0          0.1          5.9 
      1763.0          0.2          8.1 
      1764.0          0.2         10.9 
      1765.0          0.3         11.7 
      1766.0          0.2          8.9 
      1767.0          0.1          6.6 
      1768.0          0.2          6.2 
      1769.0          0.2          5.7 
      1770.0          4.3         23.3 
      1771.0          0.1         13.9 
      1772.0          0.8         12.9 
      1773.0          0.5         10.9 
      1774.0          0.4          9.4 
      1775.0          0.4          6.6 
      1776.0          0.4          5.9 
      1777.0          0.5          6.3 
      1778.0          0.5          6.8 
      1779.0          0.5          6.6 
      1780.0          0.5          6.7 
      1781.0          0.4          6.7 
      1782.0          0.4          6.3 
      1783.0          0.4          6.0 
      1784.0          0.3          6.3 
      1785.0          0.4          6.4 
      1786.0          0.4          6.0 
      1787.0          0.4          6.0 
      1788.0          0.4          6.1 
      1789.0          0.3          6.0 
      1790.0          0.3          6.1 
      1791.0          0.3          6.1 
      1792.0          0.3          6.0 
      1793.0          0.3          5.8 
      1794.0          0.3          6.0 
      1795.0          0.3          6.3 
      1796.0          0.4          6.1 
      1797.0          0.4          6.5 
      1798.0          0.3         10.0 
      1799.0          0.4          9.3 
      1800.0          5.8         26.1 
      1801.0          0.5         12.2 
      1802.0          0.5          9.3 
