~Version Information
VERS.                      2.0: CWLS Log ASCII Standard - VERSION 2.0
WRAP.                       NO: One line per depth step
~Well Information Block
STRT.FT                10.0000: 
STOP.FT               859.0000: 
STEP.FT                 0.2500: 
NULL.                -999.2500: 
COMP.          Pioneer Natural Resources: COMPANY
WELL.          Prospector 12-19: WELL
FLD.           Purgatoire River: FIELD
LOC.           2262' FNL & 634' FWL: LOCATION
PROV.                 Colorado: PROVINCE
CNTY.               Las Animas: COUNTRY
SRVC.                Patterson: SERVICE COMPANY
DATE.          Tue May 10 11:52:48 2005: LOG DATE
UWI.           05 071 08191 00: UNIQUE WELL ID
~Curve Information Block
DEPT.FT            0 000 00 00: Depth
CCL.                          : Casing Collar Locator
TT3.usec                      : CBL 3' Travel Time
AMP3.mV                       : CBL 3' Amplitude
GR.GAPI                       : Gamma Ray
~Parameter Information Block
~A  Depth       CCL         TT3         AMP3         GR     
# ...
   613.0000      0.0000    864.4720      4.5447     94.4146
   613.2500      0.0000    864.4941      4.5126     97.8089
   613.5000      0.0000    864.4675      4.5045    100.3301
   613.7500      0.0000    864.5040      4.4851    102.6837
   614.0000      0.0000    864.6518      4.4469    105.0725
   614.2500      0.0000    864.8772      4.4106    106.9758
   614.5000      0.0000    865.1130      4.3964    107.7608
   614.7500      0.0000    865.3068      4.4085    107.0572
   615.0000      0.0000    865.4392      4.4424    104.7195
   615.2500      0.0000    865.5172      4.4871    101.1370
   615.5000      0.0000    865.5354      4.5194     97.5598
   615.7500      0.0000    865.4257      4.5139     95.2774
   616.0000      0.0000    865.0770      4.4697     94.2144
   616.2500      0.0000    864.4368      4.4185     93.0012
   616.5000      0.0000    863.5283      4.3981     90.7006
   616.7500      0.0000    862.1812      4.4168     87.8866
   617.0000      0.0000    859.6290      4.4506     85.7913
   617.2500      0.0000    854.5146      4.4689     85.0583
   617.5000      0.0000    846.1221      4.4536     85.7486
   617.7500      0.0000    836.5918      4.3930     87.9656
   618.0000      0.0000    831.4882      4.2735     91.7144
   618.2500      0.0000    835.9863      4.0939     96.1243
   618.5000      0.0000    849.3623      3.8897     99.3747
   618.7500      0.0000    864.6798      3.7226     99.8782
   619.0000      0.0000    875.4930      3.6343     97.6125
   619.2500      0.0000    882.4069      3.6183     94.1154
   619.5000      0.0000    893.0015      3.6379     91.2064
   619.7500     -2.0000    915.3880      3.6628     89.8206
   620.0000      0.0000    949.4998      3.6886     89.9058
   620.2500      0.0000    982.2529      3.7301     91.1569
   620.5000      0.0000    994.1799      3.7998     93.5741
   620.7500      0.0000    975.9470      3.8900     97.0882
   621.0000      0.0000    937.8448      3.9765    100.8120
   621.2500      0.0000    900.1443      4.0490    103.2515
   621.5000      0.0000    876.0789      4.1244    103.5551
   621.7500      0.0000    865.9825      4.2163    102.3784
   622.0000      0.0000    863.6724      4.3127    101.3194
   622.2500      0.0000    863.8271      4.3967    101.5428
   622.5000      0.0000    864.1645      4.4608    103.0046
   622.7500      0.0000    864.2559      4.4936    104.8992
   623.0000      0.0000    864.2155      4.4820    106.5670
   623.2500      0.0000    864.1304      4.4369    107.7729
   623.5000      0.0000    864.0385      4.3945    108.2758
   623.7500      0.0000    863.9470      4.3785    107.5877
   624.0000      0.0000    863.8754      4.3729    105.4924
   624.2500      0.0000    863.8694      4.3452    102.6771
   624.5000      0.0000    863.9805      4.2869    100.4376
   624.7500      0.0000    864.2266      4.2187     99.7749
   625.0000      0.0000    864.5729      4.1642    100.9270
   625.2500      0.0000    864.9494      4.1337    103.3743
   625.5000      0.0000    865.2789      4.1312    105.8784
   625.7500      0.0000    865.4956      4.1533    106.9845
   626.0000      0.0000    865.5470      4.1829    106.1345
   626.2500      0.0000    865.3993      4.2018    104.1982
   626.5000      0.0000    865.0563      4.2150    102.6205
   626.7500      0.0000    864.5822      4.2481    102.2148
   627.0000      0.0000    864.0948      4.3159    102.9402
   627.2500      0.0000    863.7216      4.4004    104.5724
   627.5000      0.0000    863.5417      4.4653    107.0194
   627.7500      0.0000    863.5489      4.4836    109.8231
   628.0000      0.0000    863.6519      4.4520    111.9053
   628.2500      0.0000    863.7178      4.3893    112.4073
   628.5000      0.0000    863.6450      4.3292    111.6848
   628.7500      0.0000    863.4199      4.3030    111.0111
   629.0000      0.0000    863.1088      4.3144    111.1996
   629.2500      0.0000    862.7968      4.3342    111.7210
   629.5000      0.0000    862.5364      4.3328    111.1870
   629.7500      0.0000    862.3490      4.3128    108.6633
   630.0000      0.0000    862.2490      4.3022    104.4849
   630.2500      0.0000    862.2532      4.3168     99.7422
   630.5000      0.0000    862.3748      4.3410     95.0994
   630.7500      0.0000    862.6207      4.3482     90.3500
   631.0000      0.0000    862.9800      4.3288     85.2726
   631.2500      0.0000    863.3938      4.2964     80.7636
   631.5000      0.0000    863.7338      4.2736     78.5207
   631.7500      0.0000    863.8496      4.2794     79.2897
   632.0000      0.0000    863.6815      4.3222     81.8079
   632.2500      0.0000    863.3345      4.3930     83.8216
   632.5000      0.0000    863.0170      4.4642     83.8056
   632.7500      0.0000    862.8973      4.5028     81.4631
   633.0000      0.0000    863.0173      4.4899     77.2632
   633.2500      0.0000    863.3082      4.4355     72.2005
   633.5000      0.0000    863.6485      4.3768     67.6704
   633.7500      0.0000    863.9131      4.3534     64.8623
   634.0000      0.0000    864.0151      4.3786     64.0065
   634.2500      0.0000    863.9377      4.4359     64.2503
   634.5000      0.0000    863.7383      4.5004     64.3868
   634.7500      0.0000    863.5181      4.5552     63.9160
   635.0000      0.0000    863.3679      4.5909     63.4744
   635.2500      0.0000    863.3210      4.5994     64.0593
   635.5000      0.0000    863.3502      4.5767     65.7280
   635.7500      0.0000    863.4164      4.5292     67.2647
   636.0000      0.0000    863.5129      4.4740     67.2787
   636.2500      0.0000    863.6508      4.4289     65.4671
   636.5000      0.0000    863.8104      4.3956     62.6437
   636.7500      0.0000    863.9363      4.3567     59.8019
   637.0000      0.0000    863.9832      4.2965     57.5390
   637.2500      0.0000    863.9525      4.2266     56.2474
   637.5000      0.0000    863.8798      4.1808     56.1805
   637.7500      0.0000    863.8035      4.1796     56.9512
   638.0000      0.0000    863.7510      4.2099     57.3682
   638.2500      0.0000    863.7401      4.2456     56.3201
   638.5000      0.0000    863.7845      4.2760     53.7719
   638.7500      0.0000    863.8910      4.3046     50.6171
   639.0000      0.0000    864.0482      4.3285     47.8250
   639.2500      0.0000    864.2192      4.3321     46.1786
   639.5000      0.0000    864.3488      4.3058     46.4783
   639.7500      0.0000    864.3845      4.2652     49.0984
   640.0000      0.0000    864.3054      4.2429     53.1568
   640.2500      0.0000    864.1436      4.2578     56.8049
   640.5000      0.0000    864.0141      4.2959     58.7331
   640.7500      0.0000    864.1441      4.3269     59.1466
   641.0000      0.0000    864.9160      4.3341     59.1815
   641.2500      0.0000    866.7914      4.3235     59.7820
   641.5000      0.0000    869.9641      4.3065     61.2896
   641.7500      0.0000    873.8777      4.2838     63.7634
   642.0000      0.0000    877.1742      4.2511     67.3146
   642.2500      0.0000    878.3979      4.2172     72.0175
   642.5000      0.0000    876.9459      4.2039     77.5629
   642.7500      0.0000    873.4741      4.2271     83.0355
   643.0000      0.0000    869.3455      4.2768     86.9835
   643.2500      0.0000    865.4174      4.3188     87.8874
   643.5000      0.0000    860.9219      4.3124     85.2202
   643.7500      0.0000    853.4534      4.2320     80.5801
   644.0000      0.0000    841.0554      4.0770     77.3305
   644.2500      0.0000    825.8335      3.8646     78.3495
   644.5000      0.0000    815.1364      3.6127     83.9332
   644.7500      0.0000    816.7185      3.3297     91.8819
   645.0000      0.0000    831.7726      3.0233     99.2143
   645.2500      0.0000    853.9907      2.7132    103.6436
   645.5000      0.0000    875.3365      2.4307    104.0435
   645.7500      0.0000    891.0675      2.2022    100.4480
   646.0000      0.0000    899.6559      2.0357     94.0462
   646.2500      0.0000    900.1236      1.9213     86.9022
