~Version Information
VERS.                      2.0: CWLS Log ASCII Standard - VERSION 2.0
WRAP.                       NO: One line per depth step
~Well Information Block
STRT.FT               -12.2500: 
STOP.FT              2183.0000: 
STEP.FT                 0.2500: 
NULL.                -999.2500: 
COMP.          Petrogulf Corporation: COMPANY
WELL.            Montoya 6-14R: WELL
FLD.           Purgatorie River: FIELD
LOC.           867' FSL & 751' FWL: LOCATION
CNTY.               Las Animas: COUNTY
SRVC.                         : SERVICE COMPANY
DATE.          Mon Nov 22 13:07:31 2004: LOG DATE
UWI.           05-071-08242-00: UNIQUE WELL ID
STAT.                 Colorado: STATE
~Curve Information Block
DEPT.FT            0 000 00 00: Depth
TT3.usec                      : CBL 3' Travel Time
AMP3.mV                       : CBL 3' Amplitude
GR.GAPI                       : Gamma Ray
CCL.                          : Casing Collar Locator
~Parameter Information Block
~A  Depth       TT3         AMP3         GR         CCL     
# ...
  1126.7500    294.7641     48.0835    129.5607      0.0000
  1127.0000    296.6086     47.0730    137.4192      0.0000
  1127.2500    299.1023     46.8457    145.4764      0.0000
  1127.5000    301.0966     48.3565    153.0470      0.0000
  1127.7500    301.0357     51.8903    159.4374      0.0000
  1128.0000    298.3195     56.6054    163.9516      0.0000
  1128.2500    294.0039     61.1466    166.3163      0.0000
  1128.5000    289.8842     64.7112    166.6164      0.0000
  1128.7500    287.0831     67.3268    164.9603      0.0000
  1129.0000    285.6396     69.2930    161.8117      0.0000
  1129.2500    285.0522     70.7285    158.5206      0.0000
  1129.5000    284.8542     71.6224    156.8444      0.0000
  1129.7500    284.7948     72.0278    157.6370      0.0000
  1130.0000    284.7783     72.0937    159.9197      0.0000
  1130.2500    284.7773     71.9835    161.1879      0.0000
  1130.5000    284.7802     71.8142    158.8483      0.0000
  1130.7500    284.7806     71.6434    151.7237      0.0000
  1131.0000    284.7744     71.4910    140.5762      0.0000
  1131.2500    284.7624     71.3638    127.7450      0.0000
  1131.5000    284.7481     71.2716    116.3178      0.0000
  1131.7500    284.7350     71.2286    108.6964      0.0000
  1132.0000    284.7247     71.2462    105.0969      0.0000
  1132.2500    284.7167     71.3264    103.5632      0.0000
  1132.5000    284.7097     71.4571    101.7657      0.0000
  1132.7500    284.7023     71.6166     98.6936      0.0000
  1133.0000    284.6956     71.7829     94.7384      0.0000
  1133.2500    284.6927     71.9440     90.6757      0.0000
  1133.5000    284.6960     72.0961     86.8640      0.0000
  1133.7500    284.7041     72.2351     83.2268      0.0000
  1134.0000    284.7128     72.3529     79.6020      0.0000
  1134.2500    284.7176     72.4471     75.9214      0.0000
  1134.5000    284.7167     72.5350     72.1942      0.0000
  1134.7500    284.7112     72.6492     68.5703      0.0000
  1135.0000    284.7037     72.8142     65.3593      0.0000
  1135.2500    284.6970     73.0225     62.8422      0.0000
  1135.5000    284.6925     73.2384     61.0916      0.0000
  1135.7500    284.6899     73.4242     59.9665      0.0000
  1136.0000    284.6880     73.5665     59.2050      0.0000
  1136.2500    284.6857     73.6812     58.5921      0.0000
  1136.5000    284.6837     73.7963     58.1120      0.0000
  1136.7500    284.6841     73.9294     57.7862      0.0000
  1137.0000    284.6896     74.0759     57.2820      0.0000
  1137.2500    284.7001     74.2186     56.0455      0.0000
  1137.5000    284.7119     74.3462     54.0819      0.0000
  1137.7500    284.7193     74.4660     52.3609      0.0000
  1138.0000    284.7189     74.6005     52.1432      0.0000
  1138.2500    284.7115     74.7707     53.8959      0.0000
  1138.5000    284.7012     74.9775     56.8702      0.0000
  1138.7500    284.6917     75.1968     59.6519      0.0000
  1139.0000    284.6836     75.3944     61.0929      0.0000
  1139.2500    284.6766     75.5473     60.8100      0.0000
  1139.5000    284.6703     75.6514     59.0948      0.0000
  1139.7500    284.6663     75.7138     56.8260      0.0000
  1140.0000    284.6674     75.7430     55.4825      0.0000
  1140.2500    284.6758     75.7473     56.6638      0.0000
  1140.5000    284.6904     75.7404     61.3163      0.0000
  1140.7500    284.7057     75.7413     69.6598      0.0000
  1141.0000    284.7151     75.7669     81.8282      0.0000
  1141.2500    284.7151     75.8198     97.9543      0.0000
  1141.5000    284.7071     75.8865    117.2246      0.0000
  1141.7500    284.6960     75.9507    137.1958      0.0000
  1142.0000    284.6862     76.0067    154.6078      0.0000
  1142.2500    284.6801     76.0588    167.1988      0.0000
  1142.5000    284.6780     76.1068    174.7754      0.0000
  1142.7500    284.6791     76.1387    178.4256      0.0000
  1143.0000    284.6818     76.1418    178.8622      0.0000
  1143.2500    284.6854     76.1182    175.8714      0.0000
  1143.5000    284.6904     76.0857    169.2709      0.0000
  1143.7500    284.6970     76.0636    159.9966      0.0000
  1144.0000    284.7045     76.0586    149.9541      0.0000
  1144.2500    284.7116     76.0650    140.6461      0.0000
  1144.5000    284.7169     76.0734    132.0756      0.0000
  1144.7500    284.7200     76.0788    123.3182      0.0000
  1145.0000    284.7207     76.0819    114.1523      0.0000
  1145.2500    284.7199     76.0866    105.7608      0.0000
  1145.5000    284.7195     76.0964     99.7082      0.0000
  1145.7500    284.7212     76.1124     96.4078      0.0000
  1146.0000    284.7252     76.1314     94.6797      0.0000
  1146.2500    284.7291     76.1459     92.7907      0.0000
  1146.5000    284.7307     76.1426     90.1020      0.0000
  1146.7500    284.7303     76.1054     87.8811      0.0000
  1147.0000    284.7303     76.0207     88.5517      0.0000
  1147.2500    284.7337     75.8845     94.1548      0.0000
  1147.5000    284.7412     75.7112    105.3313      0.0000
  1147.7500    284.7505     75.5421    121.1534      0.0000
  1148.0000    284.7566     75.4362    139.3131      0.0000
  1148.2500    284.7550     75.4332    156.5262      0.0000
  1148.5000    284.7458     75.5189    169.4452      0.0000
  1148.7500    284.7344     75.6344    175.8562      0.0000
  1149.0000    284.7281     75.7192    175.4783      0.0000
  1149.2500    284.7313     75.7427    170.0472      0.0000
  1149.5000    284.7425     75.7014    162.6914      0.0000
  1149.7500    284.7566     75.6041    156.5035      0.0000
  1150.0000    284.7695     75.4610    152.8444      0.0000
  1150.2500    284.7815     75.2813    150.7638      0.0000
  1150.5000    284.7947     75.0827    148.2331      0.0000
  1150.7500    284.8094     74.9074    144.1624      0.0000
  1151.0000    284.8218     74.8108    139.5106      0.0000
  1151.2500    284.8274     74.8177    136.7485      0.0000
  1151.5000    284.8247     74.8944    138.1169      0.0000
  1151.7500    284.8164     74.9752    143.9037      0.0000
  1152.0000    284.8072     75.0139    152.0867      0.0000
  1152.2500    284.8013     75.0030    159.6284      0.0000
  1152.5000    284.8014     74.9573    164.1608      0.0000
  1152.7500    284.8074     74.8876    164.7743      0.0000
  1153.0000    284.8171     74.7873    161.8598      0.0000
  1153.2500    284.8279     74.6362    156.5630      0.0000
  1153.5000    284.8382     74.4197    150.2708      0.0000
  1153.7500    284.8479     74.1466    144.2819      0.0000
  1154.0000    284.8579     73.8481    139.7827      0.0000
  1154.2500    284.8694     73.5668    137.9020      0.0000
  1154.5000    284.8832     73.3481    139.2908      0.0000
  1154.7500    284.8979     73.2261    143.3772      0.0000
  1155.0000    284.9110     73.2031    148.3361      0.0000
  1155.2500    284.9197     73.2425    152.1926      0.0000
  1155.5000    284.9232     73.2816    154.1029      0.0000
  1155.7500    284.9239     73.2514    154.7751      0.0000
  1156.0000    284.9279     73.1038    155.7467      0.0000
  1156.2500    284.9393     72.8517    157.9380      0.0000
  1156.5000    284.9531     72.5906    160.6284      0.0000
  1156.7500    284.9563     72.4455    162.0771      0.0000
  1157.0000    284.9400     72.4708    161.3026      0.0000
  1157.2500    284.9085     72.6184    159.0348      0.0000
  1157.5000    284.8763     72.8135    156.8451      0.0000
  1157.7500    284.8571     73.0324    155.4436      0.0000
  1158.0000    284.8540     73.2920    153.8379      0.0000
  1158.2500    284.8593     73.5883    150.4215      0.0000
  1158.5000    284.8619     73.8666    145.2425      0.0000
  1158.7500    284.8565     74.0508    140.7173      0.0000
  1159.0000    284.8466     74.1040    139.3500      0.0000
  1159.2500    284.8370     74.0807    141.1550      0.0000
  1159.5000    284.8276     74.1114    144.0093      0.0000
  1159.7500    284.8138     74.3105    146.0412      0.0000
  1160.0000    284.7947     74.6799    146.9648      0.0000
