~Version Information
VERS.                      2.0: CWLS Log ASCII Standard - VERSION 2.0
WRAP.                       NO: One line per depth step
~Well Information Block
STRT.FT               440.0000: 
STOP.FT              2735.2000: 
STEP.FT                 0.1000: 
NULL.                -999.2500: 
COMP.          Pioneer Natural Resources: COMPANY
WELL.              Cluck 21-25: WELL
FLD.           Purgatoire River: FIELD
LOC.           91' FNL & 1834' FWL--: LOCATION
PROV.                 Colorado: PROVINCE
CNTY.               Las Animas: COUNTRY
SRVC.                Patterson: SERVICE COMPANY
DATE.          Tue Jun 07 07:26:19 2005: LOG DATE
UWI.           05 071 08397 00: UNIQUE WELL ID
~Curve Information Block
DEPT.FT            0 000 00 00: Depth
DCAL.in                       : CDL Caliper
RHOB.g/cc                     : CDL Bulk Density
RHOC.g/cc                     : CDL Density Correction
DPOR.pu                       : CDL Density Porosity
NPOR.pu                       : Neutron Porosity
GR.GAPI                       : Gamma Ray
~Parameter Information Block
SNDERRM.mmho-m          0.0000: Medium Sonde Error Correction
~A  Depth       DCAL        RHOB        RHOC        DPOR        NPOR         GR     
# ...
  2100.8000      8.0000      2.6517      0.0359     -0.1028     25.6653     94.8931
  2100.9000      8.0000      2.6626      0.0531     -0.7636     24.6207     94.9190
  2101.0000      7.9984      2.6495      0.0744      0.0329     24.2735     94.7762
  2101.1000      7.9984      2.6115     -0.0063      2.3339     25.1122     96.1816
  2101.2000      7.9984      2.5820     -0.0006      4.1240     26.2643     96.0461
  2101.3000      7.9941      2.5860      0.0236      3.8772     26.2820     92.0180
  2101.4000      7.9941      2.6109      0.0552      2.3723     25.4765     88.8241
  2101.5000      7.9875      2.6315      0.0512      1.1184     25.1850     91.1659
  2101.6000      7.9875      2.6437      0.0692      0.3805     25.8266     95.8722
  2101.7000      7.9875      2.6534      0.0691     -0.2041     26.7074     97.7856
  2101.8000      7.9838      2.6585      0.0610     -0.5142     27.1160     96.0770
  2101.9000      7.9838      2.6542      0.0748     -0.2540     27.1785     93.7202
  2102.0000      7.9824      2.6455      0.0162      0.2747     26.8946     91.7120
  2102.1000      7.9824      2.6432      0.0153      0.4106     25.9889     90.1738
  2102.2000      7.9824      2.6452      0.0437      0.2898     24.8221     92.6962
  2102.3000      7.9824      2.6395      0.0457      0.6339     23.9572     99.8519
  2102.4000      7.9824      2.6222      0.0259      1.6832     23.6189    106.7792
  2102.5000      7.9900      2.6047     -0.0073      2.7478     23.7890    111.7589
  2102.6000      7.9900      2.6021     -0.0089      2.9018     24.5692    115.0818
  2102.7000      7.9900      2.6139      0.0334      2.1888     25.3867    113.5088
  2102.8000      8.0033      2.6222      0.0723      1.6865     25.4286    104.9207
  2102.9000      8.0033      2.6141      0.0209      2.1735     25.2113     92.3429
  2103.0000      8.0036      2.5975      0.0339      3.1807     25.3802     83.3455
  2103.1000      8.0036      2.5879      0.0424      3.7652     25.5909     81.8436
  2103.2000      8.0036      2.5927      0.0355      3.4718     25.6190     86.2975
  2103.3000      7.9881      2.6011      0.0678      2.9634     25.5460     94.4360
  2103.4000      7.9881      2.5976      0.0305      3.1776     25.1633    101.9845
  2103.5000      7.9776      2.5838      0.0509      4.0114     24.6807    107.2945
  2103.6000      7.9776      2.5717      0.0369      4.7425     24.8148    110.6614
  2103.7000      7.9776      2.5713      0.0384      4.7687     25.2674    107.7632
  2103.8000      7.9778      2.5798      0.0823      4.2560     25.2525     97.5965
  2103.9000      7.9778      2.5872      0.0566      3.8078     25.1917     87.8208
  2104.0000      7.9809      2.5935      0.0768      3.4215     25.6001     86.2454
  2104.1000      7.9809      2.5991      0.0659      3.0834     26.2647     93.4376
  2104.2000      7.9809      2.5994      0.0718      3.0680     26.8121    105.6160
  2104.3000      7.9819      2.5907      0.0405      3.5915     27.0946    117.8076
  2104.4000      7.9819      2.5692      0.0777      4.8993     27.4856    124.7459
  2104.5000      7.9837      2.5255      0.0361      7.5448     28.5426    122.5057
  2104.6000      7.9837      2.4553      0.0024     11.7996     30.0271    111.6155
  2104.7000      7.9837      2.3568     -0.0037     17.7725     30.8680    100.8010
  2104.8000      7.9918      2.2282     -0.0549     25.5627     30.9059     95.3834
  2104.9000      7.9918      2.0911     -0.1276     33.8756     31.1404     93.7245
  2105.0000      8.0009      1.9781     -0.1146     40.7194     31.9115     92.9739
  2105.1000      8.0009      1.8928     -0.1248     45.8887     32.9518     89.3187
  2105.2000      8.0009      1.8159     -0.1207     50.5503     34.2031     82.1627
  2105.3000      8.0080      1.7493     -0.1649     54.5898     35.2334     76.6171
  2105.4000      8.0080      1.7211     -0.0960     56.2958     35.3183     76.6062
  2105.5000      8.0302      1.7420     -0.0118     55.0330     34.5277     78.8167
  2105.6000      8.0302      1.7920      0.0879     51.9975     33.5604     79.8338
  2105.7000      8.0302      1.8500      0.1245     48.4865     32.8082     79.4963
  2105.8000      8.0692      1.9027      0.1930     45.2897     32.4308     79.6527
  2105.9000      8.0692      1.9332      0.1972     43.4432     32.2570     85.7204
  2106.0000      8.0748      1.9320      0.1062     43.5157     32.0433     99.8824
  2106.1000      8.0748      1.9123      0.0621     44.7069     32.0073    114.6381
  2106.2000      8.0748      1.8952      0.0395     45.7466     32.2295    119.8535
  2106.3000      8.0377      1.8926      0.0312     45.9038     32.7434    116.5239
  2106.4000      8.0377      1.9053      0.0036     45.1315     33.2658    112.0995
  2106.5000      8.0190      1.9262      0.0356     43.8661     33.0193    109.1265
  2106.6000      8.0190      1.9503      0.0635     42.4075     32.2108    110.3252
  2106.7000      8.0190      1.9873      0.0759     40.1646     31.5253    117.6597
  2106.8000      8.0230      2.0514      0.1341     36.2772     31.1210    126.8333
  2106.9000      8.0230      2.1414      0.1868     30.8227     31.0489    134.6610
  2107.0000      8.0291      2.2387      0.2596     24.9297     31.1963    138.5598
  2107.1000      8.0291      2.3199      0.2487     20.0057     31.1808    137.8092
  2107.2000      8.0291      2.3764      0.2137     16.5822     30.5433    137.7929
  2107.3000      8.0322      2.4147      0.1572     14.2629     29.3388    140.9376
  2107.4000      8.0322      2.4421      0.1328     12.5989     28.4808    141.1783
  2107.5000      8.0334      2.4640      0.0802     11.2749     28.3199    138.5462
  2107.6000      8.0334      2.4837      0.1092     10.0759     28.4872    141.5586
  2107.7000      8.0334      2.4989      0.0859      9.1579     28.9930    149.9155
  2107.8000      8.0366      2.5094      0.0857      8.5212     29.5304    154.2824
  2107.9000      8.0366      2.5194      0.1005      7.9162     29.4877    151.2396
  2108.0000      8.0449      2.5253      0.1051      7.5583     29.0262    144.1268
  2108.1000      8.0449      2.5262      0.0872      7.5057     28.5725    139.1478
  2108.2000      8.0449      2.5330      0.0907      7.0907     28.3687    139.5324
  2108.3000      8.0494      2.5510      0.1062      5.9973     28.4465    146.2297
  2108.4000      8.0494      2.5720      0.1177      4.7283     28.5191    157.3794
  2108.5000      8.0416      2.5840      0.1055      3.9976     28.3985    162.2684
  2108.6000      8.0416      2.5812      0.0936      4.1670     28.4039    156.7224
  2108.7000      8.0416      2.5686      0.0730      4.9311     28.6555    147.4799
  2108.8000      8.0324      2.5582      0.0625      5.5652     28.6701    139.1084
  2108.9000      8.0324      2.5510      0.0659      6.0009     28.2600    135.7346
  2109.0000      8.0267      2.5409      0.0199      6.6106     28.0780    142.1299
  2109.1000      8.0267      2.5349      0.0269      6.9751     28.6309    149.5330
  2109.2000      8.0267      2.5378      0.0682      6.7993     29.4331    144.6688
  2109.3000      8.0193      2.5380      0.0472      6.7854     29.7143    134.2507
  2109.4000      8.0193      2.5281      0.0560      7.3879     29.3056    131.7520
  2109.5000      8.0094      2.5175      0.0143      8.0312     28.6550    137.4637
  2109.6000      8.0094      2.5195      0.0303      7.9064     28.2879    142.8303
  2109.7000      8.0094      2.5322      0.0353      7.1402     28.2597    139.7157
  2109.8000      8.0015      2.5387      0.0771      6.7459     27.8848    129.3463
  2109.9000      8.0015      2.5340      0.0742      7.0321     27.0281    120.1179
  2110.0000      7.9932      2.5381      0.0295      6.7794     26.7552    118.5691
  2110.1000      7.9932      2.5629      0.0700      5.2811     27.3395    126.9639
  2110.2000      7.9932      2.5897      0.0966      3.6559     27.8534    142.0472
  2110.3000      7.9780      2.6037      0.0905      2.8069     27.8899    153.2352
