~Version Information
 VERS.                                  2.0 : CWLS LAS VERSION
 WRAP.                                   NO : WRAPING MODE
 SWARE .                 MController 2.5.0I : SOFTWARE VERSION
~Well Information
 WELL.                        Montoya 1-44v : WELL
 COMP.                       Petrogulf Corp : COMPANY
 FLD.                      Purgatorie River : FIELD
 LOC.                 SE/SE Sec 1 T33S R68W : LOCATION
 DATE.                           8/24-25/04 : DATE(S) LOGGED
 SRVC.       Blanco Geological services LLC : SERVICE COMPANY
 STAT.                                   CO : STATE
 CNTY.                           Las Animas : COUNTY
 CTRY.                                  USA : COUNTRY
 API.                       05-071-08142-00 : API NUMBER
 STRT.FT                             556.00 : START DEPTH
 STOP.FT                            2600.00 : STOP DEPTH
 STEP.FT                               1.00 : DEPTH INCREMENT
 NULL.                                -9999 : NULL VALUE
~Curve information
 DEPTH.FT                                   :
 ROP.MIN/FT                                 :
 GAS.UNITS                                  :
~ASCII Log data
       556.0      -9999.0          4.0 
       557.0          0.4          4.6 
       558.0          0.1          4.5 
       559.0          0.1          4.7 
       560.0          0.1          4.5 
       561.0          0.1          4.7 
       562.0          0.1          4.5 
       563.0          0.1          4.6 
       564.0          0.1          4.6 
       565.0          0.1          4.5 
       566.0          0.1          4.6 
       567.0          0.1          4.4 
       568.0          0.1          4.4 
       569.0          0.2          4.5 
       570.0          0.2          4.7 
       571.0          0.2          4.6 
       572.0          0.2          4.8 
       573.0          0.2          4.9 
       574.0          0.2          4.7 
       575.0          0.2          5.1 
       576.0          0.2          4.9 
       577.0          0.2          5.0 
       578.0          0.2          4.9 
       579.0          0.2          4.9 
       580.0          0.2          5.0 
       581.0          0.3          4.9 
       582.0          0.1          5.1 
       583.0          0.2          5.2 
       584.0          0.2          5.0 
       585.0          1.6          5.5 
       586.0          0.2          5.8 
       587.0          0.3          5.7 
       588.0          0.3          5.5 
       589.0          0.3          5.5 
       590.0          0.3          5.5 
       591.0          0.3          5.9 
       592.0          0.3          5.6 
       593.0          0.3          5.8 
       594.0          0.3          5.6 
       595.0          0.4          5.8 
       596.0          0.3          5.9 
       597.0          0.3          5.8 
       598.0          0.2          5.7 
       599.0          0.3          6.0 
       600.0          0.3          5.7 
       601.0          0.2          5.6 
       602.0          0.3          5.9 
       603.0          0.3          6.0 
       604.0          0.3          6.0 
       605.0          0.2          5.9 
       606.0          0.3          5.8 
       607.0          0.2          6.1 
       608.0          0.3          6.1 
       609.0          0.2          6.0 
       610.0          0.3          6.1 
       611.0          0.3          6.1 
       612.0          0.3          6.1 
       613.0          0.3          6.3 
       614.0          0.2          6.2 
       615.0          0.3          6.6 
       616.0          1.7          6.7 
       617.0          0.3          6.7 
       618.0          0.3          6.8 
       619.0          0.3          6.9 
       620.0          0.3          6.7 
       621.0          0.4          7.0 
       622.0          0.2          6.9 
       623.0          0.2          6.8 
       624.0          0.2          6.7 
       625.0          0.2          6.8 
       626.0          0.2          6.7 
       627.0          0.2          6.6 
       628.0          0.2          6.9 
       629.0          0.2          6.9 
       630.0          0.2          6.8 
       631.0          0.1          6.8 
       632.0          0.1          6.8 
       633.0          0.2          7.0 
       634.0          0.1          6.9 
       635.0          0.1          6.9 
       636.0          0.1          6.8 
       637.0          0.2          6.9 
       638.0          0.2          7.0 
       639.0          0.3          7.1 
       640.0          0.2          6.8 
       641.0          0.2          7.0 
       642.0          0.2          7.0 
       643.0          0.2          7.1 
       644.0          0.3          7.0 
       645.0          0.3          6.9 
       646.0          1.6          7.2 
       647.0          0.5          7.4 
       648.0          0.2          7.2 
       649.0          0.2          7.2 
       650.0          0.2          7.2 
       651.0          0.2          7.1 
       652.0          0.2          7.1 
       653.0          0.2          7.2 
       654.0          0.2          6.8 
       655.0          0.2          7.0 
       656.0          0.2          7.3 
       657.0          0.2          7.1 
       658.0          0.2          7.1 
       659.0          0.2          7.0 
       660.0          0.2          7.1 
       661.0          0.2          7.6 
       662.0          0.2          7.5 
       663.0          0.2          7.2 
       664.0          0.2          7.2 
       665.0          0.1          7.3 
       666.0          0.1          7.2 
       667.0          0.2          7.5 
       668.0          0.2          7.3 
       669.0          0.2          7.3 
       670.0          0.2          7.4 
       671.0          0.2          7.4 
       672.0          0.2          7.4 
       673.0          0.2          7.2 
       674.0          0.2          7.3 
       675.0          0.2          7.3 
       676.0          0.7          8.0 
       677.0          0.2          7.5 
       678.0          0.1          7.4 
       679.0          0.2          7.5 
       680.0          0.2          7.4 
       681.0          0.1          7.1 
       682.0          0.1          7.4 
       683.0          0.2          7.3 
       684.0          0.2          7.2 
       685.0          0.1          7.4 
       686.0          0.2          7.5 
       687.0          0.3          8.1 
       688.0          0.2          8.4 
       689.0          0.2          8.9 
       690.0          0.1          9.6 
       691.0          0.1         10.1 
       692.0          0.2         10.8 
       693.0          0.2         10.9 
       694.0          0.2         10.9 
       695.0          0.2         10.6 
       696.0          0.2          9.9 
       697.0          0.2          9.0 
       698.0          0.2          8.8 
       699.0          0.2          8.7 
       700.0          0.1          8.7 
       701.0          0.2          8.7 
       702.0          0.1          8.6 
       703.0          0.1          8.6 
       704.0          0.1          8.8 
       705.0          0.1          8.5 
       706.0          0.2          8.7 
       707.0          0.2          8.6 
       708.0          0.2          8.1 
       709.0          0.2          8.2 
       710.0          0.2          7.8 
       711.0          0.2          7.5 
       712.0          0.2          8.0 
       713.0          0.1          7.5 
       714.0          0.2          7.6 
       715.0          0.1          7.7 
       716.0          1.4          7.7 
       717.0          0.3          7.3 
       718.0          0.2          7.3 
       719.0          0.2          7.4 
       720.0          0.2          7.4 
       721.0          0.2          7.8 
       722.0          0.1          7.8 
       723.0          0.1          8.4 
       724.0          0.2          8.7 
       725.0          0.1          9.1 
       726.0          0.1          9.6 
       727.0          0.1          9.1 
       728.0          0.1          9.1 
       729.0          0.1          9.1 
       730.0          0.2          9.0 
       731.0          0.2          8.8 
       732.0          0.2          8.7 
       733.0          0.2          8.5 
       734.0          0.2          8.5 
       735.0          0.2          8.9 
       736.0          0.2          8.5 
       737.0          0.2          7.9 
       738.0          0.2          7.7 
       739.0          0.2          7.7 
       740.0          0.2          7.7 
       741.0          0.2          7.9 
       742.0          0.2          7.8 
       743.0          0.2          7.6 
       744.0          0.2          7.4 
       745.0          0.1          7.5 
       746.0          2.2          7.8 
       747.0          0.3          7.1 
       748.0          0.3          6.9 
       749.0          0.3          7.0 
       750.0          0.3          7.2 
       751.0          0.4          7.1 
       752.0          0.5          7.6 
       753.0          0.2          7.4 
       754.0          0.2          7.5 
       755.0          0.2          7.6 
