~Version Information
VERS.                      2.0: CWLS Log ASCII Standard - VERSION 2.0
WRAP.                       NO: One line per depth step
~Well Information Block
STRT.FT               845.0000: 
STOP.FT              2308.2500: 
STEP.FT                 0.2500: 
NULL.                -999.2500: 
COMP.          Pioneer Natural Resources: COMPANY
WELL.             Vector 33-23: WELL
FLD.           Purgatoire River: FIELD
LOC.           1560' FEL & 1988' FSL----: LOCATION
PROV.                 Colorado: PROVINCE
CNTY.               Las Animas: COUNTRY
SRVC.                Patterson: SERVICE COMPANY
DATE.          Sat Mar 26 12:39:07 2005: LOG DATE
UWI.           05 071 08336 00: UNIQUE WELL ID
~Curve Information Block
DEPT.FT            0 000 00 00: Depth
SN.Ohm-m                      : IEL Short Normal
SP.mV                         : IEL Spontaneous Potential
DIR.Ohm-m                     : IEL Induction Resistivity
GR.GAPI                       : Gamma Ray
~Parameter Information Block
~A  Depth        SN          SP         DIR          GR     
# ...
  2185.0000     24.0904     -7.7938     22.5996     99.2316
  2185.2500     24.1265     -8.9052     22.7872     98.6466
  2185.5000     24.0798     -9.8159     22.9181     96.9304
  2185.7500     23.9825    -10.5330     23.0029     95.5008
  2186.0000     23.8537    -11.0669     23.0456     93.5789
  2186.2500     23.6919    -11.4278     23.0435     92.5142
  2186.5000     23.4837    -11.6253     22.9915     90.9750
  2186.7500     23.2243    -11.6714     22.8870     89.9918
  2187.0000     22.9345    -11.5820     22.7372     89.0511
  2187.2500     22.6568    -11.3780     22.5633     88.9979
  2187.5000     22.4338    -11.0840     22.3967     89.6101
  2187.7500     22.2826    -10.7259     22.2640     90.2860
  2188.0000     22.1859    -10.3271     22.1727     91.7477
  2188.2500     22.1025     -9.9056     22.1065     93.0631
  2188.5000     21.9895     -9.4726     22.0325     94.8400
  2188.7500     21.8176     -9.0318     21.9163     95.1138
  2189.0000     21.5728     -8.5821     21.7375     93.4930
  2189.2500     21.2532     -8.1196     21.4962     91.5655
  2189.5000     20.8706     -7.6409     21.2111     89.1262
  2189.7500     20.4540     -7.1453     20.9118     88.5379
  2190.0000     20.0463     -6.6357     20.6291     89.4978
  2190.2500     19.6908     -6.1189     20.3852     91.1580
  2190.5000     19.4159     -5.6043     20.1851     94.3153
  2190.7500     19.2268     -5.1021     20.0136     96.0814
  2191.0000     19.1084     -4.6220     19.8448     97.0591
  2191.2500     19.0376     -4.1713     19.6575     96.4681
  2191.5000     18.9956     -3.7547     19.4485     94.4697
  2191.7500     18.9720     -3.3735     19.2337     92.9944
  2192.0000     18.9601     -3.0266     19.0375     91.1408
  2192.2500     18.9512     -2.7104     18.8805     90.1765
  2192.5000     18.9353     -2.4196     18.7727     89.2441
  2192.7500     18.9049     -2.1474     18.7176     89.2645
  2193.0000     18.8591     -1.8864     18.7188     90.5537
  2193.2500     18.8030     -1.6296     18.7800     91.8008
  2193.5000     18.7448     -1.3708     18.8962     92.8973
  2193.7500     18.6903     -1.1064     19.0443     92.8339
  2194.0000     18.6399     -0.8369     19.1842     92.4405
  2194.2500     18.5925     -0.5674     19.2721     92.6248
  2194.5000     18.5516     -0.3083     19.2795     93.7847
  2194.7500     18.5255     -0.0751     19.2031     94.8912
  2195.0000     18.5219      0.1129     19.0633     96.7367
  2195.2500     18.5410      0.2349     18.8932     98.0712
  2195.5000     18.5771      0.2713     18.7269    100.2012
  2195.7500     18.6238      0.2071     18.5919    101.6969
  2196.0000     18.6794      0.0342     18.5070    104.4595
  2196.2500     18.7479     -0.2464     18.4828    107.0822
  2196.5000     18.8307     -0.6237     18.5223    112.1960
  2196.7500     18.9163     -1.0773     18.6207    115.5153
  2197.0000     18.9814     -1.5795     18.7665    118.3414
  2197.2500     19.0048     -2.0972     18.9426    118.3753
  2197.5000     18.9817     -2.5957     19.1270    116.7793
  2197.7500     18.9266     -3.0422     19.2955    115.5946
  2198.0000     18.8661     -3.4090     19.4259    114.4756
  2198.2500     18.8269     -3.6767     19.5046    114.1745
  2198.5000     18.8212     -3.8356     19.5302    114.2566
  2198.7500     18.8379     -3.8870     19.5109    114.5929
  2199.0000     18.8457     -3.8415     19.4563    115.2776
  2199.2500     18.8112     -3.7173     19.3694    115.8361
  2199.5000     18.7173     -3.5379     19.2439    117.3306
  2199.7500     18.5695     -3.3287     19.0701    119.1235
  2200.0000     18.3893     -3.1158     18.8462    123.1119
  2200.2500     18.2038     -2.9232     18.5870    126.3959
  2200.5000     18.0363     -2.7732     18.3216    131.5364
  2200.7500     17.9022     -2.6854     18.0814    134.5280
  2201.0000     17.8061     -2.6770     17.8875    137.2815
  2201.2500     17.7431     -2.7638     17.7465    137.6028
  2201.5000     17.7043     -2.9596     17.6568    136.2145
  2201.7500     17.6839     -3.2762     17.6153    134.7186
  2202.0000     17.6849     -3.7214     17.6219    132.5137
  2202.2500     17.7187     -4.2954     17.6783    131.2285
  2202.5000     17.8010     -4.9874     17.7854    129.9751
  2202.7500     17.9440     -5.7717     17.9413    130.1583
  2203.0000     18.1518     -6.6073     18.1393    132.7084
  2203.2500     18.4174     -7.4415     18.3694    135.8805
  2203.5000     18.7242     -8.2177     18.6212    142.6938
  2203.7500     19.0497     -8.8854     18.8887    148.8376
  2204.0000     19.3741     -9.4100     19.1714    160.3431
  2204.2500     19.6887     -9.7782     19.4717    168.3349
  2204.5000     19.9981     -9.9969     19.7893    177.0609
  2204.7500     20.3121    -10.0870     20.1191    178.6960
  2205.0000     20.6333    -10.0727     20.4535    173.7703
  2205.2500     20.9487     -9.9728     20.7856    166.4046
  2205.5000     21.2309     -9.7955     21.1076    151.7772
  2205.7500     21.4499     -9.5394     21.4034    141.0280
  2206.0000     21.5876     -9.1995     21.6426    125.4143
  2206.2500     21.6438     -8.7753     21.7858    116.3896
  2206.5000     21.6315     -8.2772     21.8005    106.1728
  2206.7500     21.5668     -7.7291     21.6794    101.8039
  2207.0000     21.4619     -7.1669     21.4449     98.6951
  2207.2500     21.3221     -6.6323     21.1406     98.6572
  2207.5000     21.1484     -6.1667     20.8136    100.9243
  2207.7500     20.9445     -5.8045     20.4989    103.1370
  2208.0000     20.7247     -5.5706     20.2125    105.4718
  2208.2500     20.5152     -5.4790     19.9561    105.6222
  2208.5000     20.3470     -5.5353     19.7288    104.5972
  2208.7500     20.2480     -5.7393     19.5368    104.4737
  2209.0000     20.2373     -6.0875     19.3951    106.8267
  2209.2500     20.3256     -6.5757     19.3227    109.9741
  2209.5000     20.5211     -7.1999     19.3348    115.5628
  2209.7500     20.8328     -7.9562     19.4411    118.8377
  2210.0000     21.2696     -8.8396     19.6480    121.6539
  2210.2500     21.8329     -9.8419     19.9612    121.7189
  2210.5000     22.5124    -10.9491     20.3869    119.4241
  2210.7500     23.2862    -12.1383     20.9282    116.9670
  2211.0000     24.1270    -13.3754     21.5837    113.1261
  2211.2500     25.0094    -14.6140     22.3475    110.9748
  2211.5000     25.9179    -15.7961     23.2114    108.9366
  2211.7500     26.8536    -16.8552     24.1634    108.6885
  2212.0000     27.8328    -17.7212     25.1820    110.4372
  2212.2500     28.8715    -18.3270     26.2289    112.9044
  2212.5000     29.9573    -18.6158     27.2485    117.1228
  2212.7500     31.0279    -18.5466     28.1775    118.9612
  2213.0000     31.9772    -18.0990     28.9637    118.7532
  2213.2500     32.6922    -17.2749     29.5773    116.9883
  2213.5000     33.0940    -16.0975     30.0075    114.3874
  2213.7500     33.1540    -14.6080     30.2431    114.2027
  2214.0000     32.8845    -12.8616     30.2574    116.8905
  2214.2500     32.3235    -10.9222     30.0128    119.6226
  2214.5000     31.5283     -8.8581     29.4874    122.4592
  2214.7500     30.5699     -6.7369     28.7059    122.6285
  2215.0000     29.5226     -4.6219     27.7501    120.8572
  2215.2500     28.4546     -2.5685     26.7329    119.2718
  2215.5000     27.4226     -0.6210     25.7555    117.2998
  2215.7500     26.4662      1.1892     24.8763    116.2322
  2216.0000     25.6007      2.8440     24.1092    114.6780
  2216.2500     24.8153      4.3381     23.4393    113.6876
  2216.5000     24.0826      5.6771     22.8415    112.5513
  2216.7500     23.3787      6.8742     22.2912    112.1639
  2217.0000     22.7011      7.9474     21.7704    112.2848
  2217.2500     22.0693      8.9166     21.2727    112.8381
  2217.5000     21.5102      9.8017     20.8057    113.9767
  2217.7500     21.0396     10.6217     20.3846    114.4226
  2218.0000     20.6552     11.3935     20.0210    113.7455
  2218.2500     20.3410     12.1323     19.7143    112.3133
