~Version Information
 VERS.                      2.0: CWLS Log ASCII Standard - VERSION 2.0
 WRAP.                       NO: One line per depth step
 ~Well Information Block
 STRT.FT               886.1000: 
 STOP.FT              2599.0000: 
 STEP.FT                 0.1000: 
 NULL.                -999.2500: 
 COMP.          Petrogulf Corporation: COMPANY
 WELL.               YWAM 7-23V: WELL
 FLD.           Purgatorie River: FIELD
 LOC.           230' FSL & 225' FWL: LOCATION
 CNTY.               Las Animas: COUNTY
 SRVC.                         : SERVICE COMPANY
 DATE.          Sat Oct 30 10:42:52 2004: LOG DATE
 UWI.           05 071 08227 00: UNIQUE WELL ID
 STAT.                 Colorado: STATE
 PROV.                         :Province
 ~Curve Information Block
 DEPT.FT            0 000 00 00: Depth
 DCAL.in                       : CDL Caliper
 RHOB.g/cc                     : CDL Bulk Density
 RHOC.g/cc                     : CDL Density Correction
 DPOR.pu                       : CDL Density Porosity
 GR.GAPI                       : Gamma Ray
 NPOR.pu                       : Neutron Porosity
 ~Parameter Information Block
 ~A  Depth       DCAL        RHOB        RHOC        DPOR         GR         NPOR    
# ...
  1692.5000      8.0963      2.5487      0.0639      6.1375    164.2473     26.6813
  1692.6000      8.0963      2.5672      0.0876      5.0194    165.3336     26.9827
  1692.7000      8.0963      2.5938      0.1616      3.4056    168.5706     27.6389
  1692.8000      8.1027      2.6122      0.0490      2.2883    169.4043     27.7070
  1692.9000      8.1027      2.6211      0.1154      1.7534    167.2994     27.0897
  1693.0000      8.1008      2.6137      0.1418      2.1994    166.7239     26.8839
  1693.1000      8.1008      2.5926      0.0786      3.4810    165.5122     27.0604
  1693.2000      8.1008      2.5758      0.0375      4.4965    161.1761     26.8285
  1693.3000      8.0989      2.5623      0.0476      5.3141    155.7229     26.5262
  1693.4000      8.0989      2.5329      0.0564      7.0975    149.8819     26.3318
  1693.5000      8.1033      2.4870     -0.0037      9.8770    145.5059     25.9042
  1693.6000      8.1033      2.4415     -0.0279     12.6377    144.9037     25.4857
  1693.7000      8.1033      2.4004     -0.0026     15.1248    148.2937     25.8133
  1693.8000      8.1218      2.3662     -0.0589     17.1995    152.7708     26.9744
  1693.9000      8.1218      2.3568     -0.0283     17.7717    154.9983     27.8393
  1694.0000      8.1648      2.3726      0.0320     16.8117    157.3391     27.7670
  1694.1000      8.1648      2.3944      0.0256     15.4889    162.6198     27.5264
  1694.2000      8.1648      2.4232      0.0078     13.7465    166.9148     27.5612
  1694.3000      8.1654      2.4668      0.1250     11.1020    167.7546     27.5186
  1694.4000      8.1654      2.5067      0.2475      8.6826    168.5511     27.3883
  1694.5000      8.1958      2.5203      0.2539      7.8616    169.1443     27.2204
  1694.6000      8.1958      2.5142      0.2324      8.2325    166.8223     27.2003
  1694.7000      8.1958      2.5057      0.2016      8.7444    164.1600     27.3402
  1694.8000      8.3745      2.4923      0.2144      9.5605    164.5450     27.4280
  1694.9000      8.3745      2.4690      0.0990     10.9726    164.6315     27.5319
  1695.0000      8.5804      2.4535      0.1006     11.9120    159.7085     27.6251
  1695.1000      8.5804      2.4609      0.0740     11.4629    152.4417     27.6164
  1695.2000      8.5804      2.4921      0.1069      9.5702    150.9915     27.8162
  1695.3000      8.4464      2.5463      0.1278      6.2867    157.7329     28.6210
  1695.4000      8.4464      2.6094      0.2523      2.4602    163.7971     30.0565
  1695.5000      8.3833      2.6544      0.2321     -0.2661    163.3560     31.2079
  1695.6000      8.3833      2.6745      0.2788     -1.4866    159.2776     30.9900
  1695.7000      8.3833      2.6818      0.2270     -1.9251    155.4749     30.1406
  1695.8000      8.1966      2.6782      0.2427     -1.7083    153.1534     29.6303
  1695.9000      8.1966      2.6642      0.1324     -0.8593    151.6830     28.9763
  1696.0000      8.1614      2.6517      0.1342     -0.1047    152.4720     28.2260
  1696.1000      8.1614      2.6454      0.1144      0.2812    156.4552     28.0996
  1696.2000      8.1614      2.6431      0.0850      0.4207    159.9188     28.3368
  1696.3000      8.1658      2.6431      0.0788      0.4207    158.0592     28.3163
  1696.4000      8.1658      2.6352      0.0970      0.8940    153.2467     28.1636
  1696.5000      8.1777      2.6149      0.0483      2.1271    151.5095     28.3500
  1696.6000      8.1777      2.5973      0.0090      3.1956    153.5498     28.6167
  1696.7000      8.1777      2.5894      0.0629      3.6743    157.8897     28.3770
  1696.8000      8.1790      2.5765      0.0143      4.4572    162.4772     28.1061
  1696.9000      8.1790      2.5460      0.0453      6.3039    161.3848     28.7752
  1697.0000      8.1910      2.4945      0.0171      9.4249    153.0415     29.7410
  1697.1000      8.1910      2.4321     -0.0121     13.2049    148.5897     29.2943
  1697.2000      8.1910      2.3812     -0.0652     16.2890    152.4770     27.7271
  1697.3000      8.2156      2.3558     -0.0145     17.8295    155.1771     26.9517
  1697.4000      8.2156      2.3543     -0.0552     17.9209    154.3069     27.7752
  1697.5000      8.2477      2.3672      0.0344     17.1368    151.3236     29.0370
  1697.6000      8.2477      2.3847     -0.0346     16.0795    146.9912     29.2502
  1697.7000      8.2477      2.4155      0.0212     14.2148    149.1612     28.4875
  1697.8000      8.4285      2.4682      0.1647     11.0164    160.1576     27.9729
  1697.9000      8.4285      2.5167      0.3350      8.0771    171.3370     28.3691
  1698.0000      8.5004      2.5233      0.3366      7.6765    175.6167     28.9897
  1698.1000      8.5004      2.4760      0.3034     10.5470    173.0772     28.9616
  1698.2000      8.5004      2.3918      0.1375     15.6494    168.1520     28.4449
  1698.3000      8.6947      2.3029      0.1460     21.0344    161.9252     28.1022
  1698.4000      8.6947      2.2320      0.0851     25.3332    154.7797     28.2438
  1698.5000      9.0776      2.1912      0.1276     27.8078    154.1713     28.7350
  1698.6000      9.0776      2.1934      0.1250     27.6737    162.4815     28.7566
  1698.7000      9.0776      2.2372      0.3416     25.0202    169.4004     27.9212
  1698.8000      9.0659      2.2933      0.3972     21.6210    167.2040     27.7173
  1698.9000      9.0659      2.3409      0.4303     18.7329    159.8647     29.2022
  1699.0000      8.6553      2.3885      0.4054     15.8512    154.4197     30.7877
  1699.1000      8.6553      2.4438      0.4255     12.4946    151.8348     31.0208
  1699.2000      8.6553      2.4875      0.4558      9.8485    150.8901     30.5256
  1699.3000      8.6184      2.4978      0.4367      9.2248    150.2707     29.8530
  1699.4000      8.6184      2.4826      0.4293     10.1449    148.8371     29.0807
  1699.5000      8.7901      2.4617      0.3604     11.4146    149.6894     28.9147
  1699.6000      8.7901      2.4374      0.3546     12.8818    155.4707     29.6902
  1699.7000      8.7901      2.4064      0.2772     14.7634    162.5143     30.6901
  1699.8000      8.8474      2.3889      0.2171     15.8258    164.1906     31.3888
  1699.9000      8.8474      2.4090      0.2691     14.6090    158.2354     31.9396
  1700.0000      9.0868      2.4656      0.2632     11.1730    149.8763     31.9659
  1700.1000      9.0868      2.5386      0.3755      6.7541    144.1937     30.9129
  1700.2000      9.0868      2.6032      0.4056      2.8372    140.1068     29.5720
  1700.3000      9.0672      2.6412      0.4871      0.5317    139.3255     28.8856
  1700.4000      9.0672      2.6422      0.4611      0.4699    146.6151     29.0393
  1700.5000      8.9127      2.6193      0.4125      1.8636    156.9417     29.7128
  1700.6000      8.9127      2.5987      0.3206      3.1120    161.3580     30.2254
  1700.7000      8.9127      2.5862      0.3302      3.8641    159.5651     30.4812
  1700.8000      8.7834      2.5690      0.3208      4.9099    156.1290     30.6143
  1700.9000      8.7834      2.5481      0.2841      6.1736    155.9503     30.4610
  1701.0000      8.2931      2.5387      0.2731      6.7452    159.7526     29.7833
  1701.1000      8.2931      2.5400      0.3499      6.6693    163.4758     28.7493
  1701.2000      8.2931      2.5304      0.3688      7.2511    166.7987     28.1978
  1701.3000      8.2512      2.5049      0.2856      8.7933    168.9994     28.8577
  1701.4000      8.2512      2.4860      0.2600      9.9394    168.6436     30.2397
  1701.5000      8.3836      2.4751      0.3565     10.6018    169.6287     30.8736
  1701.6000      8.3836      2.4445      0.3323     12.4542    173.1988     30.1071
  1701.7000      8.3836      2.3785      0.3242     16.4573    172.8012     29.1963
  1701.8000      8.4394      2.2879      0.2624     21.9473    166.9523     29.0135
  1701.9000      8.4394      2.2146      0.2219     26.3863    161.9850     28.7657
  1702.0000      8.5872      2.2040      0.2348     27.0306    158.2630     28.0723
