~Version Information
VERS.                      2.0: CWLS Log ASCII Standard - VERSION 2.0
WRAP.                       NO: One line per depth step
~Well Information Block
STRT.FT                15.0000: 
STOP.FT              1891.7500: 
STEP.FT                 0.2500: 
NULL.                -999.2500: 
COMP.          Pioneer Natural Resources: COMPANY
WELL.          Oink Oink 14-36 Tr: WELL
FLD.           Purgatoire River: FIELD
LOC.           236' FSL & 164' FWL: LOCATION
PROV.                 Colorado: PROVINCE
CNTY.               Las Animas: COUNTRY
SRVC.                Patterson: SERVICE COMPANY
DATE.          Wed Jun 22 11:40:13 2005: LOG DATE
UWI.           05 071 08393 00: UNIQUE WELL ID
~Curve Information Block
DEPT.FT            0 000 00 00: Depth
GR.GAPI                       : Gamma Ray
CCL.                          : Casing Collar Locator
TT3.usec                      : CBL 3' Travel Time
AMP3.mV                       : CBL 3' Amplitude
~Parameter Information Block
~A  Depth        GR         CCL         TT3         AMP3    
# ...
  1623.0000    122.7180      0.0000    570.2708      7.2186
  1623.2500    125.1223      0.0000    609.7739      7.2175
  1623.5000    123.6009      0.0000    643.3195      7.2135
  1623.7500    117.7175      0.0000    664.4239      7.2132
  1624.0000    108.1020      0.0000    670.9912      7.2231
  1624.2500     96.9211      0.0000    667.2622      7.2440
  1624.5000     87.1342      0.0000    661.3777      7.2671
  1624.7500     80.8290      0.0000    660.0502      7.2785
  1625.0000     78.3095      0.0000    664.7486      7.2696
  1625.2500     78.6298      0.0000    672.5952      7.2433
  1625.5000     80.4869      0.0000    680.2763      7.2106
  1625.7500     82.5410      0.0000    686.2136      7.1881
  1626.0000     83.6069      0.0000    689.2195      7.1944
  1626.2500     83.2390      0.0000    686.2923      7.2380
  1626.5000     82.2148      0.0000    672.8344      7.3047
  1626.7500     82.1976      0.0000    646.5049      7.3635
  1627.0000     84.7533      0.0000    612.8127      7.3929
  1627.2500     90.5625      0.0000    586.1738      7.3967
  1627.5000     99.1902      0.0000    580.7106      7.3940
  1627.7500    109.2160      0.0000    597.1155      7.3955
  1628.0000    118.7896      0.0000    620.6325      7.3970
  1628.2500    126.5747      0.0000    633.3983      7.3914
  1628.5000    132.2755      0.0000    627.2076      7.3832
  1628.7500    136.2442      0.0000    605.3716      7.3867
  1629.0000    138.9514      0.0000    576.8158      7.4090
  1629.2500    140.9664      0.0000    550.2163      7.4394
  1629.5000    142.7661      0.0000    530.7568      7.4574
  1629.7500    143.9999      0.0000    519.1418      7.4484
  1630.0000    143.3813      0.0000    513.0103      7.4110
  1630.2500    139.9031      0.0000    509.6668      7.3542
  1630.5000    133.9953      0.0000    507.7097      7.2919
  1630.7500    127.2743      0.0000    506.7791      7.2383
  1631.0000    121.6812      0.0000    506.8168      7.2036
  1631.2500    119.0927      0.0000    507.8631      7.1926
  1631.5000    120.8684      0.0000    509.9941      7.2034
  1631.7500    127.0154      0.0000    512.8371      7.2270
  1632.0000    135.9229      0.0000    515.0200      7.2486
  1632.2500    144.9910      0.0000    514.6144      7.2547
  1632.5000    151.4367      0.0000    510.6792      7.2404
  1632.7500    153.2470      0.0000    504.6209      7.2111
  1633.0000    150.4565      0.0000    500.0394      7.1800
  1633.2500    145.4303      0.0000    500.9327      7.1624
  1633.5000    140.9123      0.0000    509.0242      7.1684
  1633.7500    137.6384      0.0000    522.0566      7.1965
  1634.0000    134.5403      0.0000    534.9896      7.2357
  1634.2500    131.2660      0.0000    543.1715      7.2778
  1634.5000    129.4854      0.0000    544.2521      7.3240
  1634.7500    131.1877      0.0000    537.8389      7.3752
  1635.0000    136.3651      0.0000    524.9290      7.4187
  1635.2500    142.9708      0.0000    508.1892      7.4330
  1635.5000    148.7643      0.0000    491.6258      7.4063
  1635.7500    152.7644      0.0000    478.7676      7.3494
  1636.0000    155.1688      0.0000    470.9295      7.2897
  1636.2500    156.3972      0.0000    467.2505      7.2524
  1636.5000    156.6603      0.0000    466.0433      7.2457
  1636.7500    156.3369      0.0000    465.9424      7.2627
  1637.0000    155.9725      0.0000    466.2060      7.2913
  1637.2500    155.4744      0.0000    466.5334      7.3188
  1637.5000    153.9360      0.0000    466.8373      7.3319
  1637.7500    150.8429      0.0000    467.1163      7.3204
  1638.0000    147.2552      0.0000    467.4035      7.2835
  1638.2500    145.4623      0.0000    467.7420      7.2267
  1638.5000    147.4070      0.0000    468.1739      7.1546
  1638.7500    153.3092      0.0000    468.7441      7.0701
  1639.0000    161.4534      0.0000    469.5991      6.9784
  1639.2500    169.1284      0.0000    471.2512      6.8869
  1639.5000    173.9869      0.0000    475.0041      6.8006
  1639.7500    174.9138      0.0000    483.1445      6.7222
  1640.0000    172.1495      0.0000    498.0760      6.6600
  1640.2500    167.0817      0.0000    520.1353      6.6332
  1640.5000    161.8872      0.0000    545.6033      6.6600
  1640.7500    158.5854      0.0000    567.5001      6.7362
  1641.0000    157.6655      0.0000    580.1177      6.8265
  1641.2500    157.8296      0.0000    584.5978      6.8837
  1641.5000    157.7253      0.0000    589.9543      6.8795
  1641.7500    157.5785      0.0000    606.3066      6.8170
  1642.0000    158.2646      0.0000    635.3818      6.7188
  1642.2500    159.2040      0.0000    668.2584      6.6071
  1642.5000    158.4073      0.0000    692.6902      6.4938
  1642.7500    154.6775      0.0000    701.6965      6.3824
  1643.0000    148.8612      0.0000    695.8326      6.2745
  1643.2500    142.8159      0.0000    680.5268      6.1723
  1643.5000    137.8300      0.0000    663.1901      6.0771
  1643.7500    134.1559      0.0000    650.3182      5.9916
  1644.0000    131.3974      0.0000    643.2842      5.9249
  1644.2500    128.9019      0.0000    636.3632      5.8886
  1644.5000    126.0742      0.0000    621.5891      5.8837
  1644.7500    122.9028      0.0000    596.5514      5.8955
  1645.0000    120.3793      0.0000    565.8519      5.9055
  1645.2500    120.0349      0.0000    535.4009      5.9063
  1645.5000    122.6064      0.0000    508.1024      5.9034
  1645.7500    127.0919      0.0000    485.0542      5.9045
  1646.0000    131.3677      0.0000    467.8040      5.9084
  1646.2500    133.8845      0.0000    458.2250      5.9044
  1646.5000    134.6144      0.0000    457.9646      5.8784
  1646.7500    134.2966      0.0000    468.8133      5.8197
  1647.0000    133.1750      0.0000    491.7081      5.7293
  1647.2500    131.0367      0.0000    523.8361      5.6231
  1647.5000    128.2910      0.0000    558.3434      5.5241
  1647.7500    126.1337      0.0000    589.4258      5.4476
  1648.0000    125.2390      0.0000    617.0714      5.3933
  1648.2500    124.7044      0.0000    644.5136      5.3526
  1648.5000    122.7461      0.0000    671.9159      5.3168
  1648.7500    118.4206      0.0000    695.1873      5.2776
  1649.0000    112.4633      0.0000    710.4255      5.2224
  1649.2500    106.5417      0.0000    717.0786      5.1351
  1649.5000    102.0324      0.0000    717.2436      5.0019
  1649.7500     99.4532      0.0000    714.3874      4.8189
  1650.0000     98.4681      0.0000    712.5284      4.5989
  1650.2500     98.0478      0.0000    714.0361      4.3751
  1650.5000     96.9452      0.0000    717.5934      4.1976
  1650.7500     94.5041      0.0000    719.3174      4.1121
  1651.0000     91.0664      0.0000    716.0970      4.1309
  1651.2500     87.4914      0.0000    707.9402      4.2241
  1651.5000     84.5102      0.0000    698.2032      4.3434
  1651.7500     82.7188      0.0000    691.7997      4.4511
  1652.0000     82.7924      0.0000    692.1480      4.5259
  1652.2500     85.2307      0.0000    698.9426      4.5574
  1652.5000     89.8450      0.0000    708.5029      4.5455
  1652.7500     95.5212      0.0000    715.6248      4.5049
  1653.0000    100.6554      0.0000    715.0016      4.4623
  1653.2500    104.2077      0.0000    702.2843      4.4463
  1653.5000    106.3937      0.0000    676.1385      4.4788
  1653.7500    108.2178      0.0000    640.7602      4.5677
  1654.0000    110.6537      0.0000    605.7676      4.7046
  1654.2500    114.4055      0.0000    581.5330      4.8689
  1654.5000    119.7890      0.0000    572.8374      5.0339
  1654.7500    126.2953      0.0000    576.6185      5.1671
  1655.0000    132.6566      0.0000    585.7249      5.2297
  1655.2500    137.8290      0.0000    594.2109      5.1965
  1655.5000    141.6833      0.0000    599.4643      5.0887
  1655.7500    144.4548      0.0000    601.5339      4.9767
  1656.0000    145.9902      0.0000    602.0144      4.9332
  1656.2500    146.0835      0.0000    602.9031      4.9886
